timer,lineLeft,lineCenter,lineRight,LeftFrontCurrent,LeftFrontVoltage,LeftFrontValue,LeftFrontPosition,LeftFrontVelocity,LeftFrontFaults,LeftRearCurrent,LeftRearVoltage,LeftRearValue,LeftRearPosition,LeftRearVelocity,LeftRearFaults,RightFrontCurrent,RightFrontVoltage,RightFrontValue,RightFrontPosition,RightFrontVelocity,RightFrontFaults,RightRearCurrent,RightRearVoltage,RightRearValue,RightRearPosition,RightRearVelocity,RightRearFaults,LiftCurrent,LiftVoltage,LiftValue,LiftPosition,LiftVelocity,LiftFaults,WristCurrent,WristVoltage,WristValue,WristPosition,WristVelocity,WristFaults,RollerCurrent,RollerVoltage,RollerValue,RollerPosition,RollerVelocity,RollerFaults,PushersState,PivotsState,navx_Pitch,navx_Roll,navx_Yaw,navx_XAcc,navx_YAcc,navx_ZAcc,navx_Temp,navx_Bar,navx_Alt,navx_XDis,navx_YDis,
662.495244,true,true,true,0.125,12.8,0.0,-4595,0,0,0.125,12.8,0.0,0,0,0,0.125,12.8,0.0,-74904,0,0,0.125,12.85,0.0,0,0,0,0.0,12.8,0.0,4,0,0,0.0,12.8,0.0,0,0,0,0.125,12.9,0.0,0,0,0,kReverse,kOff,-86.23,1.68,-177.79,0.029907227,-0.9824219,0.05645752,32.91,0.0,0.0,-0.34321594,3.7878113,
662.5129609999999,true,true,true,0.125,12.8,0.0,-4595,0,0,0.125,12.8,0.0,0,0,0,0.125,12.8,0.0,-74904,0,0,0.125,12.85,0.0,0,0,0,0.0,12.8,0.0,4,0,0,0.0,12.8,0.0,0,0,0,0.125,12.9,0.0,0,0,0,kReverse,kOff,-86.23,1.68,-177.79,0.02911377,-0.9841919,0.05822754,32.91,0.0,0.0,-0.34321594,3.7878113,
662.5358219999999,true,true,true,0.125,12.8,0.0,-4595,0,0,0.125,12.8,0.0,0,0,0,0.125,12.8,0.0,-74904,0,0,0.125,12.85,0.0,0,0,0,0.0,12.8,0.0,4,0,0,0.0,12.8,0.0,0,0,0,0.125,12.9,0.0,0,0,0,kReverse,kOff,-86.23,1.68,-177.79,0.030395508,-0.982605,0.057800293,32.91,0.0,-1.0,-0.34321594,3.7878113,
662.5675349999999,true,true,true,0.125,12.8,0.0,-4595,0,0,0.125,12.8,0.0,0,0,0,0.125,12.8,0.0,-74904,0,0,0.125,12.85,0.0,0,0,0,0.0,12.8,0.0,4,0,0,0.0,12.8,0.0,0,0,0,0.125,12.9,0.0,0,0,0,kReverse,kOff,-86.24,1.69,-177.79,0.030273438,-0.9854126,0.056030273,32.91,0.0,0.0,-0.34321594,3.7878113,
662.5942749999999,true,true,true,0.125,12.8,0.0,-4595,0,0,0.125,12.8,0.0,0,0,0,0.125,12.8,0.0,-74904,0,0,0.125,12.85,0.0,0,0,0,0.0,12.8,0.0,4,0,0,0.0,12.8,0.0,0,0,0,0.125,12.9,0.0,0,0,0,kReverse,kOff,-86.24,1.69,-177.79,0.028198242,-0.98413086,0.053527832,32.91,0.0,1.0,-0.34321594,3.7878113,
662.616222,true,true,true,0.125,12.8,0.0,-4595,0,0,0.125,12.8,0.0,0,0,0,0.125,12.8,0.0,-74904,0,0,0.125,12.85,0.0,0,0,0,0.0,12.8,0.0,4,0,0,0.0,12.8,0.0,0,0,0,0.125,12.9,0.0,0,0,0,kReverse,kOff,-86.23,1.68,-177.79,0.031188965,-0.98327637,0.060424805,32.91,0.0,-2.0,-0.34321594,3.7878113,
662.635669,true,true,true,0.125,12.8,0.0,-4595,0,0,0.125,12.8,0.0,0,0,0,0.125,12.8,0.0,-74904,0,0,0.125,12.85,0.0,0,0,0,0.0,12.8,0.0,4,0,0,0.0,12.8,0.0,0,0,0,0.125,12.9,0.0,0,0,0,kReverse,kOff,-86.23,1.68,-177.79,0.029296875,-0.98358154,0.05859375,32.91,0.0,0.0,-0.34321594,3.7878113,
662.6538439999999,true,true,true,0.125,12.8,0.0,-4595,0,0,0.125,12.8,0.0,0,0,0,0.125,12.8,0.0,-74904,0,0,0.125,12.85,0.0,0,0,0,0.0,12.8,0.0,4,0,0,0.0,12.8,0.0,0,0,0,0.125,12.9,0.0,0,0,0,kReverse,kOff,-86.23,1.68,-177.79,0.027770996,-0.9817505,0.060180664,32.91,0.0,0.0,-0.34321594,3.7878113,
662.672453,true,true,true,0.125,12.8,0.0,-4595,0,0,0.125,12.8,0.0,0,0,0,0.125,12.8,0.0,-74904,0,0,0.125,12.85,0.0,0,0,0,0.0,12.8,0.0,4,0,0,0.0,12.8,0.0,0,0,0,0.125,12.9,0.0,0,0,0,kReverse,kOff,-86.23,1.68,-177.79,0.026855469,-0.98443604,0.05505371,32.91,0.0,2.0,-0.34321594,3.7878113,
662.693148,true,true,true,0.125,12.8,0.0,-4595,0,0,0.125,12.8,0.0,0,0,0,0.125,12.8,0.0,-74904,0,0,0.125,12.85,0.0,0,0,0,0.0,12.8,0.0,4,0,0,0.0,12.8,0.0,0,0,0,0.125,12.9,0.0,0,0,0,kReverse,kOff,-86.23,1.68,-177.79,0.029724121,-0.9817505,0.058288574,32.91,0.0,0.0,-0.34321594,3.7878113,
662.71349,true,true,true,0.125,12.8,0.0,-4595,0,0,0.125,12.8,0.0,0,0,0,0.125,12.8,0.0,-74904,0,0,0.125,12.85,0.0,0,0,0,0.0,12.8,0.0,4,0,0,0.0,12.8,0.0,0,0,0,0.125,12.9,0.0,0,0,0,kReverse,kOff,-86.23,1.68,-177.79,0.030334473,-0.9841919,0.054382324,32.91,0.0,0.0,-0.34321594,3.7878113,
662.7334519999999,true,true,true,0.125,12.8,0.0,-4595,0,0,0.125,12.8,0.0,0,0,0,0.125,12.8,0.0,-74904,0,0,0.125,12.85,0.0,0,0,0,0.0,12.8,0.0,4,0,0,0.0,12.8,0.0,0,0,0,0.125,12.9,0.0,0,0,0,kReverse,kOff,-86.23,1.68,-177.79,0.027770996,-0.9831543,0.061950684,32.92,0.0,-1.0,-0.34321594,3.7878113,
662.753125,true,true,true,0.125,12.8,0.0,-4595,0,0,0.125,12.8,0.0,0,0,0,0.125,12.8,0.0,-74904,0,0,0.125,12.85,0.0,0,0,0,0.0,12.8,0.0,4,0,0,0.0,12.8,0.0,0,0,0,0.125,12.9,0.0,0,0,0,kReverse,kOff,-86.23,1.68,-177.79,0.030212402,-0.9850464,0.056396484,32.92,0.0,0.0,-0.34321594,3.7878113,
662.7743409999999,true,true,true,0.125,12.8,0.0,-4595,0,0,0.125,12.8,0.0,0,0,0,0.125,12.8,0.0,-74904,0,0,0.125,12.85,0.0,0,0,0,0.0,12.8,0.0,4,0,0,0.0,12.8,0.0,0,0,0,0.125,12.9,0.0,0,0,0,kReverse,kOff,-86.23,1.68,-177.79,0.027404785,-0.982605,0.06188965,32.92,0.0,0.0,-0.34321594,3.7878113,
662.7945279999999,true,true,true,0.125,12.8,0.0,-4595,0,0,0.125,12.8,0.0,0,0,0,0.125,12.8,0.0,-74904,0,0,0.125,12.85,0.0,0,0,0,0.0,12.8,0.0,4,0,0,0.0,12.8,0.0,0,0,0,0.125,12.9,0.0,0,0,0,kReverse,kOff,-86.23,1.68,-177.79,0.02960205,-0.98358154,0.056030273,32.92,0.0,0.0,-0.34321594,3.7878113,
662.8147369999999,true,true,true,0.125,12.8,0.0,-4595,0,0,0.125,12.8,0.0,0,0,0,0.125,12.8,0.0,-74904,0,0,0.125,12.85,0.0,0,0,0,0.0,12.8,0.0,4,0,0,0.0,12.8,0.0,0,0,0,0.125,12.9,0.0,0,0,0,kReverse,kOff,-86.23,1.68,-177.79,0.029296875,-0.9813843,0.057739258,32.92,0.0,0.0,-0.34321594,3.7878113,
662.83553,true,true,true,0.125,12.8,0.0,-4595,0,0,0.125,12.8,0.0,0,0,0,0.125,12.8,0.0,-74904,0,0,0.125,12.85,0.0,0,0,0,0.125,12.8,0.0,4,0,0,0.0,12.8,0.0,0,0,0,0.125,12.9,0.0,0,0,0,kReverse,kOff,-86.23,1.68,-177.79,0.02947998,-0.9830322,0.061401367,32.92,0.0,0.0,-0.34321594,3.7878113,
662.8563489999999,true,true,true,0.125,12.8,0.0,-4595,0,0,0.125,12.8,0.0,0,0,0,0.125,12.8,0.0,-74904,0,0,0.125,12.85,0.0,0,0,0,0.125,12.8,0.0,4,0,0,0.0,12.8,0.0,0,0,0,0.125,12.9,0.0,0,0,0,kReverse,kOff,-86.23,1.68,-177.79,0.030029297,-0.9840088,0.059387207,32.92,0.0,-1.0,-0.34321594,3.7878113,
662.876225,true,true,true,0.125,12.8,0.0,-4595,0,0,0.125,12.8,0.0,0,0,0,0.125,12.8,0.0,-74904,0,0,0.125,12.85,0.0,0,0,0,0.125,12.8,0.0,4,0,0,0.0,12.8,0.0,0,0,0,0.125,12.9,0.0,0,0,0,kReverse,kOff,-86.23,1.68,-177.79,0.028015137,-0.9834595,0.06097412,32.92,0.0,0.0,-0.34321594,3.7878113,
662.896977,true,true,true,0.125,12.8,0.0,-4595,0,0,0.125,12.8,0.0,0,0,0,0.125,12.8,0.0,-74904,0,0,0.125,12.85,0.0,0,0,0,0.125,12.8,0.0,4,0,0,0.0,12.8,0.0,0,0,0,0.125,12.9,0.0,0,0,0,kReverse,kOff,-86.23,1.68,-177.79,0.03277588,-0.98535156,0.055114746,32.92,0.0,-3.0,-0.34321594,3.7878113,
662.9221059999999,true,true,true,0.125,12.8,0.0,-4595,0,0,0.125,12.8,0.0,0,0,0,0.125,12.8,0.0,-74904,0,0,0.125,12.85,0.0,0,0,0,0.125,12.8,0.0,4,0,0,0.0,12.8,0.0,0,0,0,0.125,12.9,0.0,0,0,0,kReverse,kOff,-86.23,1.68,-177.79,0.027282715,-0.9831543,0.061584473,32.92,0.0,1.0,-0.34321594,3.7878113,
662.9456109999999,true,true,true,0.125,12.8,0.0,-4595,0,0,0.125,12.8,0.0,0,0,0,0.125,12.8,0.0,-74904,0,0,0.125,12.85,0.0,0,0,0,0.125,12.8,0.0,4,0,0,0.0,12.8,0.0,0,0,0,0.125,12.9,0.0,0,0,0,kReverse,kOff,-86.23,1.68,-177.79,0.028076172,-0.9846802,0.06530762,32.92,0.0,0.0,-0.34321594,3.7878113,
662.96679,true,true,true,0.125,12.8,0.0,-4595,0,0,0.125,12.8,0.0,0,0,0,0.125,12.8,0.0,-74904,0,0,0.125,12.85,0.0,0,0,0,0.0,12.8,0.0,4,0,0,0.0,12.8,0.0,0,0,0,0.125,12.9,0.0,0,0,0,kReverse,kOff,-86.24,1.68,-177.79,0.028259277,-0.98272705,0.059265137,32.92,0.0,0.0,-0.34321594,3.7878113,
662.9881599999999,true,true,true,0.125,12.8,0.0,-4595,0,0,0.125,12.8,0.0,0,0,0,0.125,12.8,0.0,-74904,0,0,0.125,12.85,0.0,0,0,0,0.0,12.8,0.0,4,0,0,0.0,12.8,0.0,0,0,0,0.125,12.9,0.0,0,0,0,kReverse,kOff,-86.24,1.68,-177.79,0.028015137,-0.9838867,0.05895996,32.92,0.0,0.0,-0.34321594,3.7878113,
663.00938,true,true,true,0.125,12.8,0.0,-4595,0,0,0.125,12.8,0.0,0,0,0,0.125,12.8,0.0,-74904,0,0,0.125,12.85,0.0,0,0,0,0.0,12.8,0.0,4,0,0,0.0,12.8,0.0,0,0,0,0.125,12.9,0.0,0,0,0,kReverse,kOff,-86.24,1.68,-177.79,0.029052734,-0.9849243,0.06188965,32.92,0.0,0.0,-0.34321594,3.7878113,
663.0275589999999,true,true,true,0.125,12.8,0.0,-4595,0,0,0.125,12.8,0.0,0,0,0,0.125,12.8,0.0,-74904,0,0,0.125,12.85,0.0,0,0,0,0.0,12.8,0.0,4,0,0,0.0,12.8,0.0,0,0,0,0.125,12.9,0.0,0,0,0,kReverse,kOff,-86.24,1.68,-177.79,0.028869629,-0.9840698,0.06060791,32.92,0.0,0.0,-0.34321594,3.7878113,
663.0490279999999,true,true,true,0.125,12.8,0.0,-4595,0,0,0.125,12.8,0.0,0,0,0,0.125,12.8,0.0,-74904,0,0,0.125,12.85,0.0,0,0,0,0.0,12.8,0.0,4,0,0,0.0,12.8,0.0,0,0,0,0.125,12.9,0.0,0,0,0,kReverse,kOff,-86.23,1.68,-177.79,0.030578613,-0.98132324,0.055786133,32.92,0.0,-1.0,-0.34321594,3.7878113,
663.0699709999999,true,true,true,0.125,12.8,0.0,-4595,0,0,0.125,12.8,0.0,0,0,0,0.125,12.8,0.0,-74904,0,0,0.125,12.85,0.0,0,0,0,0.0,12.8,0.0,4,0,0,0.0,12.8,0.0,0,0,0,0.125,12.9,0.0,0,0,0,kReverse,kOff,-86.23,1.68,-177.79,0.02557373,-0.9835205,0.057922363,32.92,0.0,3.0,-0.34321594,3.7878113,
663.091999,true,true,true,0.125,12.8,0.0,-4595,0,0,0.125,12.8,0.0,0,0,0,0.125,12.8,0.0,-74904,0,0,0.125,12.85,0.0,0,0,0,0.0,12.8,0.0,4,0,0,0.0,12.8,0.0,0,0,0,0.125,12.9,0.0,0,0,0,kReverse,kOff,-86.23,1.68,-177.79,0.028076172,-0.98480225,0.056274414,32.92,0.0,1.0,-0.34321594,3.7878113,
663.1120699999999,true,true,true,0.125,12.8,0.0,-4595,0,0,0.125,12.8,0.0,0,0,0,0.125,12.8,0.0,-74904,0,0,0.125,12.85,0.0,0,0,0,0.0,12.8,0.0,4,0,0,0.0,12.8,0.0,0,0,0,0.125,12.9,0.0,0,0,0,kReverse,kOff,-86.23,1.68,-177.79,0.030273438,-0.9804077,0.06500244,32.92,0.0,-2.0,-0.34321594,3.7878113,
663.1311129999999,true,true,true,0.125,12.8,0.0,-4595,0,0,0.125,12.8,0.0,0,0,0,0.125,12.8,0.0,-74904,0,0,0.125,12.85,0.0,0,0,0,0.0,12.8,0.0,4,0,0,0.0,12.8,0.0,0,0,0,0.125,12.9,0.0,0,0,0,kReverse,kOff,-86.23,1.68,-177.79,0.028808594,-0.9841919,0.062316895,32.92,0.0,0.0,-0.34321594,3.7878113,
663.146176,true,true,true,0.125,12.8,0.0,-4595,0,0,0.125,12.8,0.0,0,0,0,0.125,12.8,0.0,-74904,0,0,0.125,12.85,0.0,0,0,0,0.0,12.8,0.0,4,0,0,0.0,12.8,0.0,0,0,0,0.125,12.9,0.0,0,0,0,kReverse,kOff,-86.23,1.68,-177.79,0.030334473,-0.980896,0.05847168,32.92,0.0,-1.0,-0.34321594,3.7878113,
663.174276,true,true,true,0.125,12.8,0.0,-4595,0,0,0.125,12.8,0.0,0,0,0,0.125,12.8,0.0,-74904,0,0,0.125,12.85,0.0,0,0,0,0.0,12.8,0.0,4,0,0,0.0,12.8,0.0,0,0,0,0.125,12.9,0.0,0,0,0,kReverse,kOff,-86.23,1.68,-177.79,0.025634766,-0.9838257,0.055847168,32.92,0.0,3.0,-0.34321594,3.7878113,
663.19562,true,true,true,0.125,12.8,0.0,-4595,0,0,0.125,12.8,0.0,0,0,0,0.125,12.8,0.0,-74904,0,0,0.125,12.85,0.0,0,0,0,0.0,12.8,0.0,4,0,0,0.0,12.8,0.0,0,0,0,0.125,12.9,0.0,0,0,0,kReverse,kOff,-86.23,1.68,-177.79,0.029052734,-0.9834595,0.05847168,32.92,0.0,0.0,-0.34321594,3.7878113,
663.2144089999999,true,true,true,0.125,12.8,0.0,-4595,0,0,0.125,12.8,0.0,0,0,0,0.125,12.8,0.0,-74904,0,0,0.125,12.85,0.0,0,0,0,0.0,12.8,0.0,4,0,0,0.0,12.8,0.0,0,0,0,0.125,12.9,0.0,0,0,0,kReverse,kOff,-86.23,1.68,-177.79,0.031982422,-0.9813843,0.06036377,32.92,0.0,-3.0,-0.34321594,3.7878113,
663.2347639999999,true,true,true,0.125,12.8,0.0,-4595,0,0,0.125,12.8,0.0,0,0,0,0.125,12.8,0.0,-74904,0,0,0.125,12.85,0.0,0,0,0,0.0,12.8,0.0,4,0,0,0.0,12.8,0.0,0,0,0,0.125,12.9,0.0,0,0,0,kReverse,kOff,-86.23,1.68,-177.79,0.028625488,-0.9830322,0.05871582,32.92,0.0,0.0,-0.34321594,3.7878113,
663.256048,true,true,true,0.125,12.8,0.0,-4595,0,0,0.125,12.8,0.0,0,0,0,0.125,12.8,0.0,-74904,0,0,0.125,12.85,0.0,0,0,0,0.125,12.8,0.0,4,0,0,0.0,12.8,0.0,0,0,0,0.125,12.9,0.0,0,0,0,kReverse,kOff,-86.23,1.68,-177.79,0.030883789,-0.9840088,0.061828613,32.94,0.0,-2.0,-0.34321594,3.7878113,
663.276315,true,true,true,0.125,12.8,0.0,-4595,0,0,0.125,12.8,0.0,0,0,0,0.125,12.8,0.0,-74904,0,0,0.125,12.85,0.0,0,0,0,0.0,12.8,0.0,4,0,0,0.0,12.8,0.0,0,0,0,0.125,12.9,0.0,0,0,0,kReverse,kOff,-86.22,1.68,-177.79,0.028930664,-0.9842529,0.057434082,32.94,0.0,0.0,-0.34321594,3.7878113,
663.2953219999999,true,true,true,0.125,12.8,0.0,-4595,0,0,0.125,12.8,0.0,0,0,0,0.125,12.8,0.0,-74904,0,0,0.125,12.85,0.0,0,0,0,0.0,12.8,0.0,4,0,0,0.0,12.8,0.0,0,0,0,0.125,12.9,0.0,0,0,0,kReverse,kOff,-86.22,1.68,-177.79,0.030578613,-0.9840698,0.05444336,32.94,0.0,0.0,-0.34321594,3.7878113,
663.315686,true,true,true,0.125,12.8,0.0,-4595,0,0,0.125,12.8,0.0,0,0,0,0.125,12.8,0.0,-74904,0,0,0.125,12.85,0.0,0,0,0,0.0,12.8,0.0,4,0,0,0.0,12.8,0.0,0,0,0,0.125,12.9,0.0,0,0,0,kReverse,kOff,-86.22,1.68,-177.79,0.030212402,-0.9829712,0.057861328,32.94,0.0,-1.0,-0.34321594,3.7878113,
663.336162,true,true,true,0.125,12.8,0.0,-4595,0,0,0.125,12.8,0.0,0,0,0,0.125,12.8,0.0,-74904,0,0,0.125,12.85,0.0,0,0,0,0.0,12.8,0.0,4,0,0,0.0,12.8,0.0,0,0,0,0.125,12.9,0.0,0,0,0,kReverse,kOff,-86.22,1.68,-177.79,0.028869629,-0.9830322,0.061401367,32.94,0.0,0.0,-0.34321594,3.7878113,
663.357805,true,true,true,0.125,12.8,0.0,-4595,0,0,0.125,12.8,0.0,0,0,0,0.125,12.8,0.0,-74904,0,0,0.125,12.85,0.0,0,0,0,0.0,12.8,0.0,4,0,0,0.0,12.8,0.0,0,0,0,0.125,12.9,0.0,0,0,0,kReverse,kOff,-86.22,1.68,-177.79,0.030090332,-0.98535156,0.057617188,32.94,0.0,0.0,-0.34321594,3.7878113,
663.376237,true,true,true,0.125,12.8,0.0,-4595,0,0,0.125,12.8,0.0,0,0,0,0.125,12.8,0.0,-74904,0,0,0.125,12.85,0.0,0,0,0,0.0,12.8,0.0,4,0,0,0.0,12.8,0.0,0,0,0,0.125,12.9,0.0,0,0,0,kReverse,kOff,-86.23,1.68,-177.79,0.03100586,-0.986145,0.056518555,32.94,0.0,-1.0,-0.34321594,3.7878113,
663.3996239999999,true,true,true,0.125,12.8,0.0,-4595,0,0,0.125,12.8,0.0,0,0,0,0.125,12.8,0.0,-74904,0,0,0.125,12.85,0.0,0,0,0,0.0,12.8,0.0,4,0,0,0.0,12.8,0.0,0,0,0,0.125,12.9,0.0,0,0,0,kReverse,kOff,-86.23,1.68,-177.79,0.028808594,-0.9864502,0.05718994,32.94,0.0,0.0,-0.34321594,3.7878113,
663.419806,true,true,true,0.125,12.8,0.0,-4595,0,0,0.125,12.8,0.0,0,0,0,0.125,12.8,0.0,-74904,0,0,0.125,12.85,0.0,0,0,0,0.0,12.8,0.0,4,0,0,0.0,12.8,0.0,0,0,0,0.125,12.9,0.0,0,0,0,kReverse,kOff,-86.23,1.68,-177.79,0.026611328,-0.9815674,0.05847168,32.94,0.0,2.0,-0.34321594,3.7878113,
663.4422079999999,true,true,true,0.125,12.8,0.0,-4595,0,0,0.125,12.8,0.0,0,0,0,0.125,12.8,0.0,-74904,0,0,0.125,12.85,0.0,0,0,0,0.0,12.8,0.0,4,0,0,0.0,12.8,0.0,0,0,0,0.125,12.9,0.0,0,0,0,kReverse,kOff,-86.23,1.68,-177.79,0.027832031,-0.98547363,0.05895996,32.94,0.0,1.0,-0.34321594,3.7878113,
663.4622999999999,true,true,true,0.125,12.8,0.0,-4595,0,0,0.125,12.8,0.0,0,0,0,0.125,12.8,0.0,-74904,0,0,0.125,12.85,0.0,0,0,0,0.0,12.8,0.0,4,0,0,0.0,12.8,0.0,0,0,0,0.125,12.9,0.0,0,0,0,kReverse,kOff,-86.23,1.67,-177.8,0.030578613,-0.9815674,0.054260254,32.94,0.0,-1.0,-0.34321594,3.7878113,
663.482364,true,true,true,0.125,12.8,0.0,-4595,0,0,0.125,12.8,0.0,0,0,0,0.125,12.8,0.0,-74904,0,0,0.125,12.85,0.0,0,0,0,0.0,12.8,0.0,4,0,0,0.0,12.8,0.0,0,0,0,0.125,12.9,0.0,0,0,0,kReverse,kOff,-86.23,1.68,-177.79,0.029907227,-0.9807129,0.059509277,32.94,0.0,-1.0,-0.34321594,3.7878113,
663.502578,true,true,true,0.125,12.8,0.0,-4595,0,0,0.125,12.8,0.0,0,0,0,0.125,12.8,0.0,-74904,0,0,0.125,12.85,0.0,0,0,0,0.0,12.8,0.0,4,0,0,0.0,12.8,0.0,0,0,0,0.125,12.9,0.0,0,0,0,kReverse,kOff,-86.23,1.68,-177.79,0.03186035,-0.9851074,0.05444336,32.94,0.0,-2.0,-0.34321594,3.7878113,
663.524381,true,true,true,0.125,12.8,0.0,-4595,0,0,0.125,12.8,0.0,0,0,0,0.125,12.8,0.0,-74904,0,0,0.125,12.85,0.0,0,0,0,0.0,12.8,0.0,4,0,0,0.0,12.8,0.0,0,0,0,0.125,12.9,0.0,0,0,0,kReverse,kOff,-86.23,1.68,-177.79,0.027770996,-0.9836426,0.05633545,32.94,0.0,1.0,-0.34321594,3.7878113,
663.543554,true,true,true,0.125,12.8,0.0,-4595,0,0,0.125,12.8,0.0,0,0,0,0.125,12.8,0.0,-74904,0,0,0.125,12.85,0.0,0,0,0,0.0,12.8,0.0,4,0,0,0.0,12.8,0.0,0,0,0,0.125,12.9,0.0,0,0,0,kReverse,kOff,-86.23,1.67,-177.8,0.027709961,-0.98291016,0.057556152,32.94,0.0,1.0,-0.34321594,3.7878113,
663.5685,true,true,true,0.125,12.8,0.0,-4595,0,0,0.125,12.8,0.0,0,0,0,0.125,12.8,0.0,-74904,0,0,0.125,12.85,0.0,0,0,0,0.0,12.8,0.0,4,0,0,0.0,12.8,0.0,0,0,0,0.125,12.9,0.0,0,0,0,kReverse,kOff,-86.23,1.67,-177.8,0.030822754,-0.9838867,0.0546875,32.94,0.0,-1.0,-0.34321594,3.7878113,
663.591571,true,true,true,0.125,12.8,0.0,-4595,0,0,0.125,12.8,0.0,0,0,0,0.125,12.8,0.0,-74904,0,0,0.125,12.85,0.0,0,0,0,0.0,12.8,0.0,4,0,0,0.0,12.8,0.0,0,0,0,0.125,12.9,0.0,0,0,0,kReverse,kOff,-86.23,1.68,-177.79,0.030334473,-0.98553467,0.05987549,32.94,0.0,-1.0,-0.34321594,3.7878113,
663.610914,true,true,true,0.125,12.8,0.0,-4595,0,0,0.125,12.8,0.0,0,0,0,0.125,12.8,0.0,-74904,0,0,0.125,12.85,0.0,0,0,0,0.0,12.8,0.0,4,0,0,0.0,12.8,0.0,0,0,0,0.125,12.9,0.0,0,0,0,kReverse,kOff,-86.23,1.68,-177.79,0.026428223,-0.9824829,0.059570312,32.94,0.0,2.0,-0.34321594,3.7878113,
663.6295149999999,true,true,true,0.125,12.8,0.0,-4595,0,0,0.125,12.8,0.0,0,0,0,0.125,12.8,0.0,-74904,0,0,0.125,12.85,0.0,0,0,0,0.0,12.8,0.0,4,0,0,0.0,12.8,0.0,0,0,0,0.125,12.9,0.0,0,0,0,kReverse,kOff,-86.23,1.68,-177.79,0.028503418,-0.98339844,0.059020996,32.94,0.0,0.0,-0.34321594,3.7878113,
663.650585,true,true,true,0.125,12.8,0.0,-4595,0,0,0.125,12.8,0.0,0,0,0,0.125,12.8,0.0,-74904,0,0,0.125,12.85,0.0,0,0,0,0.0,12.8,0.0,4,0,0,0.0,12.8,0.0,0,0,0,0.125,12.9,0.0,0,0,0,kReverse,kOff,-86.23,1.68,-177.79,0.028625488,-0.9817505,0.056030273,32.94,0.0,0.0,-0.34321594,3.7878113,
663.67049,true,true,true,0.125,12.8,0.0,-4595,0,0,0.125,12.8,0.0,0,0,0,0.125,12.8,0.0,-74904,0,0,0.125,12.85,0.0,0,0,0,0.0,12.8,0.0,4,0,0,0.0,12.8,0.0,0,0,0,0.125,12.9,0.0,0,0,0,kReverse,kOff,-86.23,1.68,-177.79,0.028747559,-0.9840088,0.058654785,32.94,0.0,0.0,-0.34321594,3.7878113,
663.69044,true,true,true,0.125,12.8,0.0,-4595,0,0,0.125,12.8,0.0,0,0,0,0.125,12.8,0.0,-74904,0,0,0.125,12.85,0.0,0,0,0,0.0,12.8,0.0,4,0,0,0.0,12.8,0.0,0,0,0,0.125,12.9,0.0,0,0,0,kReverse,kOff,-86.23,1.68,-177.79,0.028015137,-0.9847412,0.057617188,32.94,0.0,1.0,-0.34321594,3.7878113,
663.7117529999999,true,true,true,0.125,12.8,0.0,-4595,0,0,0.125,12.8,0.0,0,0,0,0.125,12.8,0.0,-74904,0,0,0.125,12.85,0.0,0,0,0,0.0,12.8,0.0,4,0,0,0.0,12.8,0.0,0,0,0,0.125,12.9,0.0,0,0,0,kReverse,kOff,-86.23,1.67,-177.8,0.030090332,-0.98217773,0.059753418,32.94,0.0,-1.0,-0.34321594,3.7878113,
663.7303139999999,true,true,true,0.125,12.8,0.0,-4595,0,0,0.125,12.8,0.0,0,0,0,0.125,12.8,0.0,-74904,0,0,0.125,12.85,0.0,0,0,0,0.0,12.8,0.0,4,0,0,0.0,12.8,0.0,0,0,0,0.125,12.9,0.0,0,0,0,kReverse,kOff,-86.24,1.67,-177.8,0.03186035,-0.9835205,0.057373047,32.94,0.0,-2.0,-0.34321594,3.7878113,
663.7535689999999,true,true,true,0.125,12.8,0.0,-4595,0,0,0.125,12.8,0.0,0,0,0,0.125,12.8,0.0,-74904,0,0,0.125,12.85,0.0,0,0,0,0.0,12.8,0.0,4,0,0,0.0,12.8,0.0,0,0,0,0.125,12.9,0.0,0,0,0,kReverse,kOff,-86.24,1.67,-177.8,0.029052734,-0.9846802,0.05682373,32.94,0.0,0.0,-0.34321594,3.7878113,
663.7734539999999,true,true,true,0.125,12.8,0.0,-4595,0,0,0.125,12.8,0.0,0,0,0,0.125,12.8,0.0,-74904,0,0,0.125,12.85,0.0,0,0,0,0.0,12.8,0.0,4,0,0,0.0,12.8,0.0,0,0,0,0.125,12.9,0.0,0,0,0,kReverse,kOff,-86.24,1.67,-177.8,0.030090332,-0.98132324,0.057556152,32.96,0.0,-1.0,-0.34321594,3.7878113,
663.7880779999999,true,true,true,0.125,12.8,0.0,-4595,0,0,0.125,12.8,0.0,0,0,0,0.125,12.8,0.0,-74904,0,0,0.125,12.85,0.0,0,0,0,0.0,12.8,0.0,4,0,0,0.0,12.8,0.0,0,0,0,0.125,12.9,0.0,0,0,0,kReverse,kOff,-86.23,1.68,-177.79,0.02923584,-0.9829712,0.060058594,32.96,0.0,0.0,-0.34321594,3.7878113,
663.8236619999999,true,true,true,0.125,12.8,0.0,-4595,0,0,0.125,12.8,0.0,0,0,0,0.125,12.8,0.0,-74904,0,0,0.125,12.85,0.0,0,0,0,0.0,12.8,0.0,4,0,0,0.0,12.8,0.0,0,0,0,0.125,12.9,0.0,0,0,0,kReverse,kOff,-86.23,1.68,-177.79,0.029174805,-0.98480225,0.057006836,32.96,0.0,0.0,-0.34321594,3.7878113,
663.8460799999999,true,true,true,0.125,12.8,0.0,-4595,0,0,0.125,12.8,0.0,0,0,0,0.125,12.8,0.0,-74904,0,0,0.125,12.85,0.0,0,0,0,0.0,12.8,0.0,4,0,0,0.0,12.8,0.0,0,0,0,0.125,12.9,0.0,0,0,0,kReverse,kOff,-86.23,1.68,-177.79,0.029296875,-0.982605,0.060546875,32.96,0.0,0.0,-0.34321594,3.7878113,
663.866685,true,true,true,0.125,12.8,0.0,-4595,0,0,0.125,12.8,0.0,0,0,0,0.125,12.8,0.0,-74904,0,0,0.125,12.85,0.0,0,0,0,0.0,12.8,0.0,4,0,0,0.0,12.8,0.0,0,0,0,0.125,12.9,0.0,0,0,0,kReverse,kOff,-86.23,1.68,-177.79,0.030517578,-0.98535156,0.058776855,32.96,0.0,-1.0,-0.34321594,3.7878113,
663.888565,true,true,true,0.125,12.8,0.0,-4595,0,0,0.125,12.8,0.0,0,0,0,0.125,12.8,0.0,-74904,0,0,0.125,12.85,0.0,0,0,0,0.0,12.8,0.0,4,0,0,0.0,12.8,0.0,0,0,0,0.125,12.9,0.0,0,0,0,kReverse,kOff,-86.24,1.68,-177.79,0.02935791,-0.9833374,0.054870605,32.96,0.0,0.0,-0.34321594,3.7878113,
663.9107809999999,true,true,true,0.125,12.8,0.0,-4595,0,0,0.125,12.8,0.0,0,0,0,0.125,12.8,0.0,-74904,0,0,0.125,12.85,0.0,0,0,0,0.125,12.8,0.0,4,0,0,0.0,12.8,0.0,0,0,0,0.125,12.9,0.0,0,0,0,kReverse,kOff,-86.23,1.68,-177.79,0.02709961,-0.9824829,0.060302734,32.96,0.0,1.0,-0.34321594,3.7878113,
663.92911,true,true,true,0.125,12.8,0.0,-4595,0,0,0.125,12.8,0.0,0,0,0,0.125,12.8,0.0,-74904,0,0,0.125,12.85,0.0,0,0,0,0.125,12.8,0.0,4,0,0,0.0,12.8,0.0,0,0,0,0.125,12.9,0.0,0,0,0,kReverse,kOff,-86.23,1.68,-177.79,0.026672363,-0.98480225,0.060302734,32.96,0.0,1.0,-0.34321594,3.7878113,
663.948848,true,true,true,0.125,12.8,0.0,-4595,0,0,0.125,12.8,0.0,0,0,0,0.125,12.8,0.0,-74904,0,0,0.125,12.85,0.0,0,0,0,0.125,12.8,0.0,4,0,0,0.0,12.8,0.0,0,0,0,0.125,12.9,0.0,0,0,0,kReverse,kOff,-86.23,1.68,-177.79,0.029052734,-0.9840088,0.058776855,32.96,0.0,0.0,-0.34321594,3.7878113,
663.9708519999999,true,true,true,0.125,12.8,0.0,-4595,0,0,0.125,12.8,0.0,0,0,0,0.125,12.8,0.0,-74904,0,0,0.125,12.85,0.0,0,0,0,0.0,12.8,0.0,4,0,0,0.0,12.8,0.0,0,0,0,0.125,12.9,0.0,0,0,0,kReverse,kOff,-86.23,1.68,-177.79,0.030273438,-0.98150635,0.05859375,32.96,0.0,-1.0,-0.34321594,3.7878113,
663.992728,true,true,true,0.125,12.8,0.0,-4595,0,0,0.125,12.8,0.0,0,0,0,0.125,12.8,0.0,-74904,0,0,0.125,12.85,0.0,0,0,0,0.0,12.8,0.0,4,0,0,0.0,12.8,0.0,0,0,0,0.125,12.9,0.0,0,0,0,kReverse,kOff,-86.24,1.68,-177.79,0.028137207,-0.98547363,0.059753418,32.96,0.0,0.0,-0.34321594,3.7878113,
664.015418,true,true,true,0.125,12.8,0.0,-4595,0,0,0.125,12.8,0.0,0,0,0,0.125,12.8,0.0,-74904,0,0,0.125,12.85,0.0,0,0,0,0.0,12.8,0.0,4,0,0,0.0,12.8,0.0,0,0,0,0.125,12.9,0.0,0,0,0,kReverse,kOff,-86.24,1.67,-177.8,0.026000977,-0.98443604,0.061462402,32.96,0.0,2.0,-0.34321594,3.7878113,
664.034325,true,true,true,0.125,12.8,0.0,-4595,0,0,0.125,12.8,0.0,0,0,0,0.125,12.8,0.0,-74904,0,0,0.125,12.85,0.0,0,0,0,0.0,12.8,0.0,4,0,0,0.0,12.8,0.0,0,0,0,0.125,12.9,0.0,0,0,0,kReverse,kOff,-86.24,1.67,-177.8,0.027770996,-0.98205566,0.060180664,32.96,0.0,0.0,-0.34321594,3.7878113,
664.053911,true,true,true,0.125,12.8,0.0,-4595,0,0,0.125,12.8,0.0,0,0,0,0.125,12.8,0.0,-74904,0,0,0.125,12.85,0.0,0,0,0,0.0,12.8,0.0,4,0,0,0.0,12.8,0.0,0,0,0,0.125,12.9,0.0,0,0,0,kReverse,kOff,-86.24,1.67,-177.8,0.030700684,-0.9840088,0.05682373,32.96,0.0,-1.0,-0.34321594,3.7878113,
664.0735209999999,true,true,true,0.125,12.8,0.0,-4595,0,0,0.125,12.8,0.0,0,0,0,0.125,12.8,0.0,-74904,0,0,0.125,12.85,0.0,0,0,0,0.0,12.8,0.0,4,0,0,0.0,12.8,0.0,0,0,0,0.125,12.9,0.0,0,0,0,kReverse,kOff,-86.24,1.67,-177.8,0.026916504,-0.9852905,0.05706787,32.96,0.0,2.0,-0.34321594,3.7878113,
664.0917309999999,true,true,true,0.125,12.8,0.0,-4595,0,0,0.125,12.8,0.0,0,0,0,0.125,12.8,0.0,-74904,0,0,0.125,12.85,0.0,0,0,0,0.0,12.8,0.0,4,0,0,0.0,12.8,0.0,0,0,0,0.125,12.9,0.0,0,0,0,kReverse,kOff,-86.23,1.67,-177.8,0.030822754,-0.9842529,0.060180664,32.96,0.0,-2.0,-0.34321594,3.7878113,
664.111036,true,true,true,0.125,12.8,0.0,-4595,0,0,0.125,12.8,0.0,0,0,0,0.125,12.8,0.0,-74904,0,0,0.125,12.85,0.0,0,0,0,0.0,12.8,0.0,4,0,0,0.0,12.8,0.0,0,0,0,0.125,12.9,0.0,0,0,0,kReverse,kOff,-86.23,1.67,-177.8,0.025756836,-0.98114014,0.059631348,32.96,0.0,2.0,-0.34321594,3.7878113,
664.1314709999999,true,true,true,0.125,12.8,0.0,-4595,0,0,0.125,12.8,0.0,0,0,0,0.125,12.8,0.0,-74904,0,0,0.125,12.85,0.0,0,0,0,0.0,12.8,0.0,4,0,0,0.0,12.8,0.0,0,0,0,0.125,12.9,0.0,0,0,0,kReverse,kOff,-86.24,1.67,-177.8,0.028747559,-0.9840088,0.05822754,32.96,0.0,0.0,-0.34321594,3.7878113,
664.151361,true,true,true,0.125,12.8,0.0,-4595,0,0,0.125,12.8,0.0,0,0,0,0.125,12.8,0.0,-74904,0,0,0.125,12.85,0.0,0,0,0,0.0,12.8,0.0,4,0,0,0.0,12.8,0.0,0,0,0,0.125,12.9,0.0,0,0,0,kReverse,kOff,-86.24,1.67,-177.8,0.027770996,-0.98187256,0.059387207,32.96,0.0,0.0,-0.34321594,3.7878113,
664.1716669999998,true,true,true,0.125,12.8,0.0,-4595,0,0,0.125,12.8,0.0,0,0,0,0.125,12.8,0.0,-74904,0,0,0.125,12.85,0.0,0,0,0,0.0,12.8,0.0,4,0,0,0.0,12.8,0.0,0,0,0,0.125,12.9,0.0,0,0,0,kReverse,kOff,-86.24,1.68,-177.79,0.028747559,-0.9812622,0.059265137,32.96,0.0,0.0,-0.34321594,3.7878113,
664.1920379999999,true,true,true,0.125,12.8,0.0,-4595,0,0,0.125,12.8,0.0,0,0,0,0.125,12.8,0.0,-74904,0,0,0.125,12.85,0.0,0,0,0,0.0,12.8,0.0,4,0,0,0.0,12.8,0.0,0,0,0,0.125,12.9,0.0,0,0,0,kReverse,kOff,-86.23,1.68,-177.79,0.028625488,-0.9850464,0.054626465,32.96,0.0,0.0,-0.34321594,3.7878113,
664.2130369999999,true,true,true,0.125,12.8,0.0,-4595,0,0,0.125,12.8,0.0,0,0,0,0.125,12.8,0.0,-74904,0,0,0.125,12.85,0.0,0,0,0,0.125,12.8,0.0,4,0,0,0.0,12.8,0.0,0,0,0,0.125,12.9,0.0,0,0,0,kReverse,kOff,-86.23,1.68,-177.79,0.028015137,-0.98358154,0.06347656,32.96,0.0,0.0,-0.34321594,3.7878113,
664.2334809999999,true,true,true,0.125,12.8,0.0,-4595,0,0,0.125,12.8,0.0,0,0,0,0.125,12.8,0.0,-74904,0,0,0.125,12.85,0.0,0,0,0,0.125,12.8,0.0,4,0,0,0.0,12.8,0.0,0,0,0,0.125,12.9,0.0,0,0,0,kReverse,kOff,-86.23,1.68,-177.79,0.03173828,-0.9834595,0.05621338,32.96,0.0,-2.0,-0.34321594,3.7878113,
664.251777,true,true,true,0.125,12.8,0.0,-4595,0,0,0.125,12.8,0.0,0,0,0,0.125,12.8,0.0,-74904,0,0,0.125,12.85,0.0,0,0,0,0.125,12.8,0.0,4,0,0,0.0,12.8,0.0,0,0,0,0.125,12.9,0.0,0,0,0,kReverse,kOff,-86.23,1.68,-177.79,0.03173828,-0.9834595,0.05621338,32.96,0.0,-2.0,-0.34321594,3.7878113,
664.272289,true,true,true,0.125,12.8,0.0,-4595,0,0,0.125,12.8,0.0,0,0,0,0.125,12.8,0.0,-74904,0,0,0.125,12.85,0.0,0,0,0,0.125,12.8,0.0,4,0,0,0.0,12.8,0.0,0,0,0,0.125,12.9,0.0,0,0,0,kReverse,kOff,-86.23,1.68,-177.79,0.0289917,-0.98553467,0.05895996,32.96,0.0,0.0,-0.34321594,3.7878113,
664.292686,true,true,true,0.125,12.8,0.0,-4595,0,0,0.125,12.8,0.0,0,0,0,0.125,12.8,0.0,-74904,0,0,0.125,12.85,0.0,0,0,0,0.125,12.8,0.0,4,0,0,0.0,12.8,0.0,0,0,0,0.125,12.9,0.0,0,0,0,kReverse,kOff,-86.23,1.68,-177.79,0.028564453,-0.98498535,0.064697266,32.96,0.0,0.0,-0.34321594,3.7878113,
664.3114619999999,true,true,true,0.125,12.8,0.0,-4595,0,0,0.125,12.8,0.0,0,0,0,0.125,12.8,0.0,-74904,0,0,0.125,12.85,0.0,0,0,0,0.125,12.8,0.0,4,0,0,0.0,12.8,0.0,0,0,0,0.125,12.9,0.0,0,0,0,kReverse,kOff,-86.23,1.68,-177.79,0.026000977,-0.980896,0.057128906,32.96,0.0,2.0,-0.34321594,3.7878113,
664.331703,true,true,true,0.125,12.8,0.0,-4595,0,0,0.125,12.8,0.0,0,0,0,0.125,12.8,0.0,-74904,0,0,0.125,12.85,0.0,0,0,0,0.125,12.8,0.0,4,0,0,0.0,12.8,0.0,0,0,0,0.125,12.9,0.0,0,0,0,kReverse,kOff,-86.23,1.68,-177.79,0.030761719,-0.9841919,0.06274414,32.96,0.0,-2.0,-0.34321594,3.7878113,
664.3517969999999,true,true,true,0.125,12.8,0.0,-4595,0,0,0.125,12.8,0.0,0,0,0,0.125,12.8,0.0,-74904,0,0,0.125,12.85,0.0,0,0,0,0.0,12.8,0.0,4,0,0,0.0,12.8,0.0,0,0,0,0.125,12.9,0.0,0,0,0,kReverse,kOff,-86.23,1.68,-177.79,0.032226562,-0.9840698,0.062072754,32.96,0.0,-3.0,-0.34321594,3.7878113,
664.3714489999999,true,true,true,0.125,12.8,0.0,-4595,0,0,0.125,12.8,0.0,0,0,0,0.125,12.8,0.0,-74904,0,0,0.125,12.85,0.0,0,0,0,0.0,12.8,0.0,4,0,0,0.0,12.8,0.0,0,0,0,0.125,12.9,0.0,0,0,0,kReverse,kOff,-86.23,1.68,-177.79,0.028320312,-0.98205566,0.06359863,32.96,0.0,0.0,-0.34321594,3.7878113,
664.3917379999999,true,true,true,0.125,12.8,0.0,-4595,0,0,0.125,12.8,0.0,0,0,0,0.125,12.8,0.0,-74904,0,0,0.125,12.85,0.0,0,0,0,0.0,12.8,0.0,4,0,0,0.0,12.8,0.0,0,0,0,0.125,12.9,0.0,0,0,0,kReverse,kOff,-86.23,1.68,-177.79,0.02758789,-0.9810791,0.062927246,32.96,0.0,0.0,-0.34321594,3.7878113,
664.412209,true,true,true,0.125,12.8,0.0,-4595,0,0,0.125,12.8,0.0,0,0,0,0.125,12.8,0.0,-74904,0,0,0.125,12.85,0.0,0,0,0,0.0,12.8,0.0,4,0,0,0.0,12.8,0.0,0,0,0,0.125,12.9,0.0,0,0,0,kReverse,kOff,-86.23,1.68,-177.79,0.031921387,-0.98687744,0.06298828,32.96,0.0,-3.0,-0.34321594,3.7878113,
664.4251159999999,true,true,true,0.125,12.8,0.0,-4595,0,0,0.125,12.8,0.0,0,0,0,0.125,12.8,0.0,-74904,0,0,0.125,12.85,0.0,0,0,0,0.0,12.8,0.0,4,0,0,0.0,12.8,0.0,0,0,0,0.125,12.9,0.0,0,0,0,kReverse,kOff,-86.22,1.68,-177.79,0.028442383,-0.98150635,0.061157227,32.96,0.0,0.0,-0.34321594,3.7878113,
664.4552729999999,true,true,true,0.125,12.8,0.0,-4595,0,0,0.125,12.8,0.0,0,0,0,0.125,12.8,0.0,-74904,0,0,0.125,12.85,0.0,0,0,0,0.0,12.8,0.0,4,0,0,0.0,12.8,0.0,0,0,0,0.125,12.9,0.0,0,0,0,kReverse,kOff,-86.22,1.68,-177.79,0.029968262,-0.98291016,0.06097412,32.96,0.0,-1.0,-0.34321594,3.7878113,
664.474972,true,true,true,0.125,12.8,0.0,-4595,0,0,0.125,12.8,0.0,0,0,0,0.125,12.8,0.0,-74904,0,0,0.125,12.85,0.0,0,0,0,0.0,12.8,0.0,4,0,0,0.0,12.8,0.0,0,0,0,0.125,12.9,0.0,0,0,0,kReverse,kOff,-86.22,1.68,-177.79,0.027832031,-0.9845581,0.055725098,32.96,0.0,1.0,-0.34321594,3.7878113,
664.4958239999999,true,true,true,0.125,12.8,0.0,-4595,0,0,0.125,12.8,0.0,0,0,0,0.125,12.8,0.0,-74904,0,0,0.125,12.85,0.0,0,0,0,0.0,12.8,0.0,4,0,0,0.0,12.8,0.0,0,0,0,0.125,12.9,0.0,0,0,0,kReverse,kOff,-86.22,1.68,-177.79,0.029418945,-0.9815674,0.053833008,32.96,0.0,0.0,-0.34321594,3.7878113,
664.516811,true,true,true,0.125,12.8,0.0,-4595,0,0,0.125,12.8,0.0,0,0,0,0.125,12.8,0.0,-74904,0,0,0.125,12.85,0.0,0,0,0,0.0,12.8,0.0,4,0,0,0.0,12.8,0.0,0,0,0,0.125,12.9,0.0,0,0,0,kReverse,kOff,-86.22,1.68,-177.79,0.02722168,-0.9841919,0.061828613,32.96,0.0,1.0,-0.34321594,3.7878113,
664.541149,true,true,true,0.125,12.8,0.0,-4595,0,0,0.125,12.8,0.0,0,0,0,0.125,12.8,0.0,-74904,0,0,0.125,12.85,0.0,0,0,0,0.0,12.8,0.0,4,0,0,0.0,12.8,0.0,0,0,0,0.125,12.9,0.0,0,0,0,kReverse,kOff,-86.22,1.68,-177.79,0.02960205,-0.98223877,0.060546875,32.96,0.0,-1.0,-0.34321594,3.7878113,
664.5643689999999,true,true,true,0.125,12.8,0.0,-4595,0,0,0.125,12.8,0.0,0,0,0,0.125,12.8,0.0,-74904,0,0,0.125,12.85,0.0,0,0,0,0.0,12.8,0.0,4,0,0,0.0,12.8,0.0,0,0,0,0.125,12.9,0.0,0,0,0,kReverse,kOff,-86.22,1.68,-177.79,0.029724121,-0.9802246,0.063964844,32.96,0.0,-1.0,-0.34321594,3.7878113,
664.5845739999999,true,true,true,0.125,12.8,0.0,-4595,0,0,0.125,12.8,0.0,0,0,0,0.125,12.8,0.0,-74904,0,0,0.125,12.85,0.0,0,0,0,0.0,12.8,0.0,4,0,0,0.0,12.8,0.0,0,0,0,0.125,12.9,0.0,0,0,0,kReverse,kOff,-86.21,1.68,-177.79,0.030151367,-0.9827881,0.05810547,32.96,0.0,-1.0,-0.34321594,3.7878113,
664.607639,true,true,true,0.125,12.8,0.0,-4595,0,0,0.125,12.8,0.0,0,0,0,0.125,12.8,0.0,-74904,0,0,0.125,12.85,0.0,0,0,0,0.0,12.8,0.0,4,0,0,0.0,12.8,0.0,0,0,0,0.125,12.9,0.0,0,0,0,kReverse,kOff,-86.21,1.68,-177.79,0.02960205,-0.98187256,0.06341553,32.96,0.0,-1.0,-0.34321594,3.7878113,
664.6235919999999,true,true,true,0.125,12.8,0.0,-4595,0,0,0.125,12.8,0.0,0,0,0,0.125,12.8,0.0,-74904,0,0,0.125,12.85,0.0,0,0,0,0.0,12.8,0.0,4,0,0,0.0,12.8,0.0,0,0,0,0.125,12.9,0.0,0,0,0,kReverse,kOff,-86.21,1.68,-177.79,0.02758789,-0.98461914,0.05871582,32.96,0.0,1.0,-0.34321594,3.7878113,
664.6503419999999,true,true,true,0.125,12.8,0.0,-4595,0,0,0.125,12.8,0.0,0,0,0,0.125,12.8,0.0,-74904,0,0,0.125,12.85,0.0,0,0,0,0.0,12.8,0.0,4,0,0,0.0,12.8,0.0,0,0,0,0.125,12.9,0.0,0,0,0,kReverse,kOff,-86.21,1.68,-177.79,0.028869629,-0.98394775,0.060546875,32.96,0.0,0.0,-0.34321594,3.7878113,
664.6678019999999,true,true,true,0.125,12.8,0.0,-4595,0,0,0.125,12.8,0.0,0,0,0,0.125,12.8,0.0,-74904,0,0,0.125,12.85,0.0,0,0,0,0.0,12.8,0.0,4,0,0,0.0,12.8,0.0,0,0,0,0.125,12.9,0.0,0,0,0,kReverse,kOff,-86.21,1.68,-177.79,0.032165527,-0.98480225,0.05633545,32.96,0.0,-2.0,-0.34321594,3.7878113,
664.6882259999999,true,true,true,0.125,12.8,0.0,-4595,0,0,0.125,12.8,0.0,0,0,0,0.125,12.8,0.0,-74904,0,0,0.125,12.85,0.0,0,0,0,0.0,12.8,0.0,4,0,0,0.0,12.8,0.0,0,0,0,0.125,12.9,0.0,0,0,0,kReverse,kOff,-86.21,1.68,-177.79,0.028198242,-0.9852905,0.062805176,32.96,0.0,0.0,-0.34321594,3.7878113,
664.7063009999999,true,true,true,0.125,12.8,0.0,-4595,0,0,0.125,12.8,0.0,0,0,0,0.125,12.8,0.0,-74904,0,0,0.125,12.85,0.0,0,0,0,0.0,12.8,0.0,4,0,0,0.0,12.8,0.0,0,0,0,0.125,12.9,0.0,0,0,0,kReverse,kOff,-86.21,1.68,-177.79,0.028686523,-0.98217773,0.059753418,32.96,0.0,0.0,-0.34321594,3.7878113,
664.726697,true,true,true,0.125,12.8,0.0,-4595,0,0,0.125,12.8,0.0,0,0,0,0.125,12.8,0.0,-74904,0,0,0.125,12.85,0.0,0,0,0,0.125,12.8,0.0,4,0,0,0.0,12.8,0.0,0,0,0,0.125,12.9,0.0,0,0,0,kReverse,kOff,-86.21,1.68,-177.79,0.028320312,-0.98516846,0.053833008,32.96,0.0,1.0,-0.34321594,3.7878113,
664.750034,true,true,true,0.125,12.8,0.0,-4595,0,0,0.125,12.8,0.0,0,0,0,0.125,12.8,0.0,-74904,0,0,0.125,12.85,0.0,0,0,0,0.125,12.8,0.0,4,0,0,0.0,12.8,0.0,0,0,0,0.125,12.9,0.0,0,0,0,kReverse,kOff,-86.21,1.68,-177.79,0.029846191,-0.98413086,0.06085205,32.96,0.0,-1.0,-0.34321594,3.7878113,
664.769772,true,true,true,0.125,12.8,0.0,-4595,0,0,0.125,12.8,0.0,0,0,0,0.125,12.8,0.0,-74904,0,0,0.125,12.85,0.0,0,0,0,0.0,12.8,0.0,4,0,0,0.0,12.8,0.0,0,0,0,0.125,12.9,0.0,0,0,0,kReverse,kOff,-86.21,1.68,-177.79,0.030151367,-0.982666,0.054870605,32.96,0.0,0.0,-0.34321594,3.7878113,
664.787005,true,true,true,0.125,12.8,0.0,-4595,0,0,0.125,12.8,0.0,0,0,0,0.125,12.8,0.0,-74904,0,0,0.125,12.85,0.0,0,0,0,0.0,12.8,0.0,4,0,0,0.0,12.8,0.0,0,0,0,0.125,12.9,0.0,0,0,0,kReverse,kOff,-86.21,1.68,-177.79,0.028808594,-0.9850464,0.05859375,32.98,0.0,0.0,-0.34321594,3.7878113,
664.811112,true,true,true,0.125,12.8,0.0,-4595,0,0,0.125,12.8,0.0,0,0,0,0.125,12.8,0.0,-74904,0,0,0.125,12.85,0.0,0,0,0,0.0,12.8,0.0,4,0,0,0.0,12.8,0.0,0,0,0,0.125,12.9,0.0,0,0,0,kReverse,kOff,-86.21,1.68,-177.79,0.028320312,-0.98547363,0.054016113,32.98,0.0,1.0,-0.34321594,3.7878113,
664.8312169999999,true,true,true,0.125,12.8,0.0,-4595,0,0,0.125,12.8,0.0,0,0,0,0.125,12.8,0.0,-74904,0,0,0.125,12.85,0.0,0,0,0,0.0,12.8,0.0,4,0,0,0.0,12.8,0.0,0,0,0,0.125,12.9,0.0,0,0,0,kReverse,kOff,-86.21,1.68,-177.79,0.029418945,-0.9815674,0.060913086,32.98,0.0,0.0,-0.34321594,3.7878113,
664.8519679999999,true,true,true,0.125,12.8,0.0,-4595,0,0,0.125,12.8,0.0,0,0,0,0.125,12.8,0.0,-74904,0,0,0.125,12.85,0.0,0,0,0,0.0,12.8,0.0,4,0,0,0.0,12.8,0.0,0,0,0,0.125,12.9,0.0,0,0,0,kReverse,kOff,-86.21,1.68,-177.79,0.026062012,-0.9840698,0.058166504,32.98,0.0,2.0,-0.34321594,3.7878113,
664.872656,true,true,true,0.125,12.8,0.0,-4595,0,0,0.125,12.8,0.0,0,0,0,0.125,12.8,0.0,-74904,0,0,0.125,12.85,0.0,0,0,0,0.0,12.8,0.0,4,0,0,0.0,12.8,0.0,0,0,0,0.125,12.9,0.0,0,0,0,kReverse,kOff,-86.2,1.68,-177.79,0.03161621,-0.9817505,0.059631348,32.98,0.0,-2.0,-0.34321594,3.7878113,
664.8924809999999,true,true,true,0.125,12.8,0.0,-4595,0,0,0.125,12.8,0.0,0,0,0,0.125,12.8,0.0,-74904,0,0,0.125,12.85,0.0,0,0,0,0.0,12.8,0.0,4,0,0,0.0,12.8,0.0,0,0,0,0.125,12.9,0.0,0,0,0,kReverse,kOff,-86.2,1.68,-177.79,0.027709961,-0.9824219,0.059814453,32.98,0.0,1.0,-0.34321594,3.7878113,
664.9126749999999,true,true,true,0.125,12.8,0.0,-4595,0,0,0.125,12.8,0.0,0,0,0,0.125,12.8,0.0,-74904,0,0,0.125,12.85,0.0,0,0,0,0.0,12.8,0.0,4,0,0,0.0,12.8,0.0,0,0,0,0.125,12.9,0.0,0,0,0,kReverse,kOff,-86.2,1.69,-177.78,0.028198242,-0.9863281,0.057800293,32.98,0.0,1.0,-0.34321594,3.7878113,
664.9324429999999,true,true,true,0.125,12.8,0.0,-4595,0,0,0.125,12.8,0.0,0,0,0,0.125,12.8,0.0,-74904,0,0,0.125,12.85,0.0,0,0,0,0.0,12.8,0.0,4,0,0,0.0,12.8,0.0,0,0,0,0.125,12.9,0.0,0,0,0,kReverse,kOff,-86.2,1.68,-177.79,0.028930664,-0.98236084,0.059387207,32.98,0.0,0.0,-0.34321594,3.7878113,
664.9526520000001,true,true,true,0.125,12.8,0.0,-4595,0,0,0.125,12.8,0.0,0,0,0,0.125,12.8,0.0,-74904,0,0,0.125,12.85,0.0,0,0,0,0.0,12.8,0.0,4,0,0,0.0,12.8,0.0,0,0,0,0.125,12.9,0.0,0,0,0,kReverse,kOff,-86.2,1.68,-177.79,0.027954102,-0.9846802,0.056152344,32.98,0.0,1.0,-0.34321594,3.7878113,
664.971783,true,true,true,0.125,12.8,0.0,-4595,0,0,0.125,12.8,0.0,0,0,0,0.125,12.8,0.0,-74904,0,0,0.125,12.85,0.0,0,0,0,0.0,12.8,0.0,4,0,0,0.0,12.8,0.0,0,0,0,0.125,12.9,0.0,0,0,0,kReverse,kOff,-86.2,1.68,-177.79,0.0289917,-0.9855957,0.057495117,32.98,0.0,-2.0,-0.34321594,3.7878113,
664.993447,true,true,true,0.125,12.8,0.0,-4595,0,0,0.125,12.8,0.0,0,0,0,0.125,12.8,0.0,-74904,0,0,0.125,12.85,0.0,0,0,0,0.125,12.8,0.0,4,0,0,0.0,12.8,0.0,0,0,0,0.125,12.9,0.0,0,0,0,kReverse,kOff,-86.2,1.68,-177.79,0.02758789,-0.9819946,0.062438965,32.98,0.0,0.0,-0.34321594,3.7878113,
665.014,true,true,true,0.125,12.8,0.0,-4595,0,0,0.125,12.8,0.0,0,0,0,0.125,12.8,0.0,-74904,0,0,0.125,12.85,0.0,0,0,0,0.0,12.8,0.0,4,0,0,0.0,12.8,0.0,0,0,0,0.125,12.9,0.0,0,0,0,kReverse,kOff,-86.2,1.68,-177.79,0.0335083,-0.98168945,0.058410645,32.98,0.0,-4.0,-0.34321594,3.7878113,
665.034824,true,true,true,0.125,12.8,0.0,-4595,0,0,0.125,12.8,0.0,0,0,0,0.125,12.8,0.0,-74904,0,0,0.125,12.85,0.0,0,0,0,0.0,12.8,0.0,4,0,0,0.0,12.8,0.0,0,0,0,0.125,12.9,0.0,0,0,0,kReverse,kOff,-86.2,1.68,-177.79,0.029785156,-0.9817505,0.061584473,32.98,0.0,-1.0,-0.34321594,3.7878113,
665.0534889999999,true,true,true,0.125,12.8,0.0,-4595,0,0,0.125,12.8,0.0,0,0,0,0.125,12.8,0.0,-74904,0,0,0.125,12.85,0.0,0,0,0,0.0,12.8,0.0,4,0,0,0.0,12.8,0.0,0,0,0,0.125,12.9,0.0,0,0,0,kReverse,kOff,-86.2,1.68,-177.79,0.027038574,-0.9824219,0.05987549,32.98,0.0,1.0,-0.34321594,3.7878113,
665.065565,true,true,true,0.125,12.8,0.0,-4595,0,0,0.125,12.8,0.0,0,0,0,0.125,12.8,0.0,-74904,0,0,0.125,12.85,0.0,0,0,0,0.0,12.8,0.0,4,0,0,0.0,12.8,0.0,0,0,0,0.125,12.9,0.0,0,0,0,kReverse,kOff,-86.19,1.68,-177.79,0.027770996,-0.9817505,0.060546875,32.98,0.0,0.0,-0.34321594,3.7878113,
665.1042699999999,true,true,true,0.125,12.8,0.0,-4595,0,0,0.125,12.8,0.0,0,0,0,0.125,12.8,0.0,-74904,0,0,0.125,12.85,0.0,0,0,0,0.0,12.8,0.0,4,0,0,0.0,12.8,0.0,0,0,0,0.125,12.9,0.0,0,0,0,kReverse,kOff,-86.19,1.68,-177.79,0.028015137,-0.9827881,0.059631348,32.98,0.0,0.0,-0.34321594,3.7878113,
665.124872,true,true,true,0.125,12.8,0.0,-4595,0,0,0.125,12.8,0.0,0,0,0,0.125,12.8,0.0,-74904,0,0,0.125,12.85,0.0,0,0,0,0.0,12.8,0.0,4,0,0,0.0,12.8,0.0,0,0,0,0.125,12.9,0.0,0,0,0,kReverse,kOff,-86.19,1.68,-177.79,0.032165527,-0.98327637,0.0647583,32.98,0.0,-4.0,-0.34321594,3.7878113,
665.147305,true,true,true,0.125,12.8,0.0,-4595,0,0,0.125,12.8,0.0,0,0,0,0.125,12.8,0.0,-74904,0,0,0.125,12.85,0.0,0,0,0,0.0,12.8,0.0,4,0,0,0.0,12.8,0.0,0,0,0,0.125,12.9,0.0,0,0,0,kReverse,kOff,-86.19,1.68,-177.79,0.028442383,-0.9834595,0.057800293,32.98,0.0,0.0,-0.34321594,3.7878113,
665.1683519999999,true,true,true,0.125,12.8,0.0,-4595,0,0,0.125,12.8,0.0,0,0,0,0.125,12.8,0.0,-74904,0,0,0.125,12.85,0.0,0,0,0,0.0,12.8,0.0,4,0,0,0.0,12.8,0.0,0,0,0,0.125,12.9,0.0,0,0,0,kReverse,kOff,-86.19,1.68,-177.79,0.026672363,-0.98358154,0.055786133,32.98,0.0,2.0,-0.34321594,3.7878113,
665.1910799999999,true,true,true,0.125,12.8,0.0,-4595,0,0,0.125,12.8,0.0,0,0,0,0.125,12.8,0.0,-74904,0,0,0.125,12.85,0.0,0,0,0,0.0,12.8,0.0,4,0,0,0.0,12.8,0.0,0,0,0,0.125,12.9,0.0,0,0,0,kReverse,kOff,-86.19,1.68,-177.79,0.024414062,-0.98217773,0.059753418,32.98,0.0,4.0,-0.34321594,3.7878113,
665.212355,true,true,true,0.125,12.8,0.0,-4595,0,0,0.125,12.8,0.0,0,0,0,0.125,12.8,0.0,-74904,0,0,0.125,12.85,0.0,0,0,0,0.0,12.8,0.0,4,0,0,0.0,12.8,0.0,0,0,0,0.125,12.9,0.0,0,0,0,kReverse,kOff,-86.19,1.68,-177.79,0.029418945,-0.9841919,0.05657959,32.98,0.0,0.0,-0.34321594,3.7878113,
665.232375,true,true,true,0.125,12.8,0.0,-4595,0,0,0.125,12.8,0.0,0,0,0,0.125,12.8,0.0,-74904,0,0,0.125,12.85,0.0,0,0,0,0.125,12.8,0.0,4,0,0,0.0,12.8,0.0,0,0,0,0.125,12.9,0.0,0,0,0,kReverse,kOff,-86.2,1.68,-177.79,0.028137207,-0.982666,0.05596924,32.98,0.0,1.0,-0.34321594,3.7878113,
665.252357,true,true,true,0.125,12.8,0.0,-4595,0,0,0.125,12.8,0.0,0,0,0,0.125,12.8,0.0,-74904,0,0,0.125,12.85,0.0,0,0,0,0.0,12.8,0.0,4,0,0,0.0,12.8,0.0,0,0,0,0.125,12.9,0.0,0,0,0,kReverse,kOff,-86.2,1.68,-177.79,0.02923584,-0.98547363,0.06402588,32.98,0.0,-1.0,-0.34321594,3.7878113,
665.272343,true,true,true,0.125,12.8,0.0,-4595,0,0,0.125,12.8,0.0,0,0,0,0.125,12.8,0.0,-74904,0,0,0.125,12.85,0.0,0,0,0,0.0,12.8,0.0,4,0,0,0.0,12.8,0.0,0,0,0,0.125,12.9,0.0,0,0,0,kReverse,kOff,-86.19,1.68,-177.79,0.029418945,-0.97924805,0.05718994,32.98,0.0,0.0,-0.34321594,3.7878113,
665.295919,true,true,true,0.125,12.8,0.0,-4595,0,0,0.125,12.8,0.0,0,0,0,0.125,12.8,0.0,-74904,0,0,0.125,12.85,0.0,0,0,0,0.0,12.8,0.0,4,0,0,0.0,12.8,0.0,0,0,0,0.125,12.9,0.0,0,0,0,kReverse,kOff,-86.19,1.68,-177.79,0.028320312,-0.9849243,0.057617188,32.96,0.0,0.0,-0.34321594,3.7878113,
665.3147969999999,true,true,true,0.125,12.8,0.0,-4595,0,0,0.125,12.8,0.0,0,0,0,0.125,12.8,0.0,-74904,0,0,0.125,12.85,0.0,0,0,0,0.0,12.8,0.0,4,0,0,0.0,12.8,0.0,0,0,0,0.125,12.9,0.0,0,0,0,kReverse,kOff,-86.19,1.68,-177.79,0.03100586,-0.9851074,0.05871582,32.96,0.0,-1.0,-0.34321594,3.7878113,
665.335294,true,true,true,0.125,12.8,0.0,-4595,0,0,0.125,12.8,0.0,0,0,0,0.125,12.8,0.0,-74904,0,0,0.125,12.85,0.0,0,0,0,0.125,12.8,0.0,4,0,0,0.0,12.8,0.0,0,0,0,0.125,12.9,0.0,0,0,0,kReverse,kOff,-86.19,1.68,-177.79,0.027893066,-0.98114014,0.052001953,32.96,0.0,1.0,-0.34321594,3.7878113,
665.3561729999999,true,true,true,0.125,12.8,0.0,-4595,0,0,0.125,12.8,0.0,0,0,0,0.125,12.8,0.0,-74904,0,0,0.125,12.85,0.0,0,0,0,0.125,12.8,0.0,4,0,0,0.0,12.8,0.0,0,0,0,0.125,12.9,0.0,0,0,0,kReverse,kOff,-86.2,1.68,-177.79,0.029968262,-0.9838257,0.058776855,32.96,0.0,-1.0,-0.34321594,3.7878113,
665.377078,true,true,true,0.125,12.8,0.0,-4595,0,0,0.125,12.8,0.0,0,0,0,0.125,12.8,0.0,-74904,0,0,0.125,12.85,0.0,0,0,0,0.125,12.8,0.0,4,0,0,0.0,12.8,0.0,0,0,0,0.125,12.9,0.0,0,0,0,kReverse,kOff,-86.2,1.68,-177.79,0.028686523,-0.9819946,0.06341553,32.96,0.0,0.0,-0.34321594,3.7878113,
665.397926,true,true,true,0.125,12.8,0.0,-4595,0,0,0.125,12.8,0.0,0,0,0,0.125,12.8,0.0,-74904,0,0,0.125,12.85,0.0,0,0,0,0.0,12.8,0.0,4,0,0,0.0,12.8,0.0,0,0,0,0.125,12.9,0.0,0,0,0,kReverse,kOff,-86.2,1.68,-177.79,0.027282715,-0.98565674,0.054382324,32.96,0.0,2.0,-0.34321594,3.7878113,
