timer,lineLeft,lineCenter,lineRight,LeftFrontCurrent,LeftFrontVoltage,LeftFrontValue,LeftFrontPosition,LeftFrontVelocity,LeftFrontFaults,LeftRearCurrent,LeftRearVoltage,LeftRearValue,LeftRearPosition,LeftRearVelocity,LeftRearFaults,RightFrontCurrent,RightFrontVoltage,RightFrontValue,RightFrontPosition,RightFrontVelocity,RightFrontFaults,RightRearCurrent,RightRearVoltage,RightRearValue,RightRearPosition,RightRearVelocity,RightRearFaults,LiftCurrent,LiftVoltage,LiftValue,LiftPosition,LiftVelocity,LiftFaults,WristCurrent,WristVoltage,WristValue,WristPosition,WristVelocity,WristFaults,RollerCurrent,RollerVoltage,RollerValue,RollerPosition,RollerVelocity,RollerFaults,PushersState,PivotsState,navx_Pitch,navx_Roll,navx_Yaw,navx_XAcc,navx_YAcc,navx_ZAcc,navx_Temp,navx_Bar,navx_Alt,navx_XDis,navx_YDis,
316.966126,true,true,true,0.125,12.65,0.0,0,0,0,0.125,12.65,0.0,0,0,0,0.125,12.65,0.0,0,0,0,0.125,12.65,0.0,0,0,0,0.0,12.65,0.0,4,0,0,0.0,12.65,0.0,0,0,0,0.125,12.700000000000001,0.0,0,0,0,kOff,kOff,-87.13,2.13,2.64,0.034362793,-0.9819946,0.030090332,34.86,0.0,-2.0,-8.0898285,11.718933,
316.995371,true,true,true,0.125,12.65,0.0,0,0,0,0.125,12.65,0.0,0,0,0,0.125,12.65,0.0,0,0,0,0.125,12.65,0.0,0,0,0,0.0,12.65,0.0,4,0,0,0.0,12.65,0.0,0,0,0,0.125,12.700000000000001,0.0,0,0,0,kReverse,kOff,-87.13,2.13,2.64,0.036193848,-0.9828491,0.032409668,34.86,0.0,0.0,-8.0898285,11.718933,
317.02349,true,true,true,0.125,12.65,0.0,0,0,0,0.125,12.65,0.0,0,0,0,0.125,12.65,0.0,0,0,0,0.125,12.65,0.0,0,0,0,0.125,12.65,0.0,4,0,0,0.0,12.65,0.0,0,0,0,0.125,12.700000000000001,0.0,0,0,0,kReverse,kOff,-87.13,2.13,2.64,0.035583496,-0.98254395,0.035949707,34.86,0.0,0.0,-8.0898285,11.718933,
317.047684,true,true,true,0.125,12.65,0.0,0,0,0,0.125,12.65,0.0,0,0,0,0.125,12.65,0.0,0,0,0,0.125,12.65,0.0,0,0,0,0.125,12.65,0.0,4,0,0,0.0,12.65,0.0,0,0,0,0.125,12.700000000000001,0.0,0,0,0,kReverse,kOff,-87.13,2.13,2.64,0.039489746,-0.9819336,0.027282715,34.86,0.0,1.0,-8.0898285,11.718933,
317.07065600000004,true,true,true,0.125,12.65,0.0,0,0,0,0.125,12.65,0.0,0,0,0,0.125,12.65,0.0,0,0,0,0.125,12.65,0.0,0,0,0,0.0,12.65,0.0,4,0,0,0.0,12.65,0.0,0,0,0,0.125,12.700000000000001,0.0,0,0,0,kReverse,kOff,-87.13,2.13,2.64,0.038513184,-0.9833374,0.032226562,34.86,0.0,1.0,-8.0898285,11.718933,
317.090968,true,true,true,0.125,12.65,0.0,0,0,0,0.125,12.65,0.0,0,0,0,0.125,12.65,0.0,0,0,0,0.125,12.65,0.0,0,0,0,0.0,12.65,0.0,4,0,0,0.0,12.65,0.0,0,0,0,0.125,12.700000000000001,0.0,0,0,0,kReverse,kOff,-87.13,2.13,2.64,0.036254883,-0.98687744,0.03289795,34.86,0.0,0.0,-8.0898285,11.718933,
317.111053,true,true,true,0.125,12.65,0.0,0,0,0,0.125,12.65,0.0,0,0,0,0.125,12.65,0.0,0,0,0,0.125,12.65,0.0,0,0,0,0.0,12.65,0.0,4,0,0,0.0,12.65,0.0,0,0,0,0.125,12.700000000000001,0.0,0,0,0,kReverse,kOff,-87.13,2.13,2.64,0.039611816,-0.9849243,0.03387451,34.86,0.0,3.0,-8.0898285,11.718933,
317.133081,true,true,true,0.125,12.65,0.0,0,0,0,0.125,12.65,0.0,0,0,0,0.125,12.65,0.0,0,0,0,0.125,12.65,0.0,0,0,0,0.125,12.65,0.0,4,0,0,0.0,12.65,0.0,0,0,0,0.125,12.700000000000001,0.0,0,0,0,kReverse,kOff,-87.13,2.13,2.64,0.03845215,-0.98205566,0.033447266,34.86,0.0,1.0,-8.0898285,11.718933,
317.152391,true,true,true,0.125,12.65,0.0,0,0,0,0.125,12.65,0.0,0,0,0,0.125,12.65,0.0,0,0,0,0.125,12.65,0.0,0,0,0,0.125,12.65,0.0,4,0,0,0.0,12.65,0.0,0,0,0,0.125,12.75,0.0,0,0,0,kReverse,kOff,-87.13,2.13,2.64,0.03540039,-0.9813843,0.03125,34.86,0.0,-1.0,-8.0898285,11.718933,
317.174404,true,true,true,0.125,12.65,0.0,0,0,0,0.125,12.65,0.0,0,0,0,0.125,12.65,0.0,0,0,0,0.125,12.65,0.0,0,0,0,0.125,12.65,0.0,4,0,0,0.0,12.65,0.0,0,0,0,0.125,12.75,0.0,0,0,0,kReverse,kOff,-87.13,2.13,2.64,0.038635254,-0.98516846,0.033325195,34.86,0.0,1.0,-8.0898285,11.718933,
317.197588,true,true,true,0.125,12.65,0.0,0,0,0,0.125,12.65,0.0,0,0,0,0.125,12.65,0.0,0,0,0,0.125,12.65,0.0,0,0,0,0.125,12.65,0.0,4,0,0,0.0,12.65,0.0,0,0,0,0.125,12.75,0.0,0,0,0,kReverse,kOff,-87.13,2.13,2.64,0.036743164,-0.980896,0.031677246,34.86,0.0,0.0,-8.0898285,11.718933,
317.219527,true,true,true,0.125,12.65,0.0,0,0,0,0.125,12.65,0.0,0,0,0,0.125,12.65,0.0,0,0,0,0.125,12.65,0.0,0,0,0,0.125,12.65,0.0,4,0,0,0.0,12.65,0.0,0,0,0,0.125,12.75,0.0,0,0,0,kReverse,kOff,-87.13,2.13,2.64,0.04058838,-0.98254395,0.034118652,34.86,0.0,4.0,-8.0898285,11.718933,
317.24069099999997,true,true,true,0.125,12.65,0.0,0,0,0,0.125,12.65,0.0,0,0,0,0.125,12.65,0.0,0,0,0,0.125,12.65,0.0,0,0,0,0.125,12.65,0.0,4,0,0,0.0,12.65,0.0,0,0,0,0.125,12.75,0.0,0,0,0,kReverse,kOff,-87.13,2.13,2.64,0.03515625,-0.9840698,0.034057617,34.86,0.0,0.0,-8.0898285,11.718933,
317.263591,true,true,true,0.125,12.65,0.0,0,0,0,0.125,12.65,0.0,0,0,0,0.125,12.65,0.0,0,0,0,0.125,12.65,0.0,0,0,0,0.125,12.65,0.0,4,0,0,0.0,12.65,0.0,0,0,0,0.125,12.75,0.0,0,0,0,kReverse,kOff,-87.13,2.13,2.63,0.037902832,-0.9819336,0.0357666,34.86,0.0,2.0,-8.0898285,11.718933,
317.285292,true,true,true,0.125,12.65,0.0,0,0,0,0.125,12.65,0.0,0,0,0,0.125,12.65,0.0,0,0,0,0.125,12.65,0.0,0,0,0,0.125,12.65,0.0,4,0,0,0.0,12.65,0.0,0,0,0,0.125,12.75,0.0,0,0,0,kReverse,kOff,-87.13,2.14,2.64,0.038146973,-0.9849243,0.029724121,34.86,0.0,0.0,-8.0898285,11.718933,
317.306262,true,true,true,0.125,12.65,0.0,0,0,0,0.125,12.65,0.0,0,0,0,0.125,12.65,0.0,0,0,0,0.125,12.65,0.0,0,0,0,0.125,12.65,0.0,4,0,0,0.0,12.65,0.0,0,0,0,0.125,12.75,0.0,0,0,0,kReverse,kOff,-87.13,2.13,2.64,0.034118652,-0.9842529,0.03314209,34.86,0.0,-2.0,-8.0898285,11.718933,
317.32721000000004,true,true,true,0.125,12.65,0.0,0,0,0,0.125,12.65,0.0,0,0,0,0.125,12.65,0.0,0,0,0,0.125,12.65,0.0,0,0,0,0.125,12.65,0.0,4,0,0,0.0,12.65,0.0,0,0,0,0.125,12.75,0.0,0,0,0,kReverse,kOff,-87.13,2.13,2.64,0.038879395,-0.9833374,0.035217285,34.86,0.0,2.0,-8.0898285,11.718933,
317.346746,true,true,true,0.125,12.65,0.0,0,0,0,0.125,12.65,0.0,0,0,0,0.125,12.65,0.0,0,0,0,0.125,12.65,0.0,0,0,0,0.125,12.65,0.0,4,0,0,0.0,12.65,0.0,0,0,0,0.125,12.75,0.0,0,0,0,kReverse,kOff,-87.13,2.13,2.64,0.036865234,-0.9788208,0.031921387,34.86,0.0,0.0,-8.0898285,11.718933,
317.367494,true,true,true,0.125,12.65,0.0,0,0,0,0.125,12.65,0.0,0,0,0,0.125,12.65,0.0,0,0,0,0.125,12.65,0.0,0,0,0,0.125,12.65,0.0,4,0,0,0.0,12.65,0.0,0,0,0,0.125,12.75,0.0,0,0,0,kReverse,kOff,-87.13,2.13,2.64,0.038757324,-0.984375,0.03265381,34.86,0.0,1.0,-8.0898285,11.718933,
317.388992,true,true,true,0.125,12.65,0.0,0,0,0,0.125,12.65,0.0,0,0,0,0.125,12.65,0.0,0,0,0,0.125,12.65,0.0,0,0,0,0.125,12.65,0.0,4,0,0,0.0,12.65,0.0,0,0,0,0.125,12.75,0.0,0,0,0,kReverse,kOff,-87.13,2.13,2.64,0.036071777,-0.9857788,0.034240723,34.86,0.0,0.0,-8.0898285,11.718933,
317.412203,true,true,true,0.125,12.65,0.0,0,0,0,0.125,12.65,0.0,0,0,0,0.125,12.65,0.0,0,0,0,0.125,12.65,0.0,0,0,0,0.125,12.65,0.0,4,0,0,0.0,12.65,0.0,0,0,0,0.125,12.75,0.0,0,0,0,kReverse,kOff,-87.13,2.14,2.64,0.036621094,-0.98461914,0.03173828,34.86,0.0,0.0,-8.0898285,11.718933,
317.43244400000003,true,true,true,0.125,12.65,0.0,0,0,0,0.125,12.65,0.0,0,0,0,0.125,12.65,0.0,0,0,0,0.125,12.65,0.0,0,0,0,0.125,12.65,0.0,4,0,0,0.0,12.65,0.0,0,0,0,0.125,12.75,0.0,0,0,0,kReverse,kOff,-87.12,2.13,2.64,0.03717041,-0.9859619,0.030883789,34.9,0.0,0.0,-8.0898285,11.718933,
317.44901899999996,true,true,true,0.125,12.65,0.0,0,0,0,0.125,12.65,0.0,0,0,0,0.125,12.65,0.0,0,0,0,0.125,12.65,0.0,0,0,0,0.125,12.65,0.0,4,0,0,0.0,12.65,0.0,0,0,0,0.125,12.75,0.0,0,0,0,kReverse,kOff,-87.13,2.14,2.64,0.035095215,-0.98394775,0.03552246,34.9,0.0,0.0,-8.0898285,11.718933,
317.475523,true,true,true,0.125,12.65,0.0,0,0,0,0.125,12.65,0.0,0,0,0,0.125,12.65,0.0,0,0,0,0.125,12.65,0.0,0,0,0,0.125,12.65,0.0,4,0,0,0.0,12.65,0.0,0,0,0,0.125,12.75,0.0,0,0,0,kReverse,kOff,-87.12,2.13,2.64,0.03479004,-0.9847412,0.033447266,34.9,0.0,-1.0,-8.0898285,11.718933,
317.49668699999995,true,true,true,0.125,12.65,0.0,0,0,0,0.125,12.65,0.0,0,0,0,0.125,12.65,0.0,0,0,0,0.125,12.65,0.0,0,0,0,0.125,12.65,0.0,4,0,0,0.0,12.65,0.0,0,0,0,0.125,12.75,0.0,0,0,0,kReverse,kOff,-87.12,2.13,2.64,0.03692627,-0.9828491,0.03161621,34.9,0.0,0.0,-8.0898285,11.718933,
317.51564,true,true,true,0.125,12.65,0.0,0,0,0,0.125,12.65,0.0,0,0,0,0.125,12.65,0.0,0,0,0,0.125,12.65,0.0,0,0,0,0.125,12.65,0.0,4,0,0,0.0,12.65,0.0,0,0,0,0.125,12.75,0.0,0,0,0,kReverse,kOff,-87.13,2.13,2.64,0.040283203,-0.97766113,0.032348633,34.9,0.0,3.0,-8.0898285,11.718933,
317.540082,true,true,true,0.125,12.65,0.0,0,0,0,0.125,12.65,0.0,0,0,0,0.125,12.65,0.0,0,0,0,0.125,12.65,0.0,0,0,0,0.0,12.65,0.0,4,0,0,0.0,12.65,0.0,0,0,0,0.125,12.75,0.0,0,0,0,kReverse,kOff,-87.13,2.13,2.64,0.036315918,-0.98187256,0.03289795,34.9,0.0,0.0,-8.0898285,11.718933,
317.561977,true,true,true,0.125,12.65,0.0,0,0,0,0.125,12.65,0.0,0,0,0,0.125,12.65,0.0,0,0,0,0.125,12.65,0.0,0,0,0,0.0,12.65,0.0,4,0,0,0.0,12.65,0.0,0,0,0,0.125,12.75,0.0,0,0,0,kReverse,kOff,-87.12,2.13,2.64,0.037841797,-0.98358154,0.030639648,34.9,0.0,0.0,-8.0898285,11.718933,
317.58339,true,true,true,0.125,12.65,0.0,0,0,0,0.125,12.65,0.0,0,0,0,0.125,12.65,0.0,0,0,0,0.125,12.65,0.0,0,0,0,0.0,12.65,0.0,4,0,0,0.0,12.65,0.0,0,0,0,0.125,12.75,0.0,0,0,0,kReverse,kOff,-87.12,2.13,2.64,0.03466797,-0.98358154,0.0335083,34.9,0.0,-1.0,-8.0898285,11.718933,
317.603826,true,true,true,0.125,12.65,0.0,0,0,0,0.125,12.65,0.0,0,0,0,0.125,12.65,0.0,0,0,0,0.125,12.65,0.0,0,0,0,0.125,12.65,0.0,4,0,0,0.0,12.65,0.0,0,0,0,0.125,12.75,0.0,0,0,0,kReverse,kOff,-87.12,2.13,2.64,0.04083252,-0.98480225,0.032714844,34.9,0.0,3.0,-8.0898285,11.718933,
317.625931,true,true,true,0.125,12.65,0.0,0,0,0,0.125,12.65,0.0,0,0,0,0.125,12.65,0.0,0,0,0,0.125,12.65,0.0,0,0,0,0.125,12.65,0.0,4,0,0,0.0,12.65,0.0,0,0,0,0.125,12.75,0.0,0,0,0,kReverse,kOff,-87.13,2.14,2.64,0.037841797,-0.9836426,0.034362793,34.9,0.0,1.0,-8.0898285,11.718933,
317.64739399999996,true,true,true,0.125,12.65,0.0,0,0,0,0.125,12.65,0.0,0,0,0,0.125,12.65,0.0,0,0,0,0.125,12.65,0.0,0,0,0,0.125,12.65,0.0,4,0,0,0.0,12.65,0.0,0,0,0,0.125,12.75,0.0,0,0,0,kReverse,kOff,-87.13,2.14,2.64,0.037902832,-0.9840698,0.036071777,34.9,0.0,1.0,-8.0898285,11.718933,
317.66756699999996,true,true,true,0.125,12.65,0.0,0,0,0,0.125,12.65,0.0,0,0,0,0.125,12.65,0.0,0,0,0,0.125,12.65,0.0,0,0,0,0.125,12.65,0.0,4,0,0,0.0,12.65,0.0,0,0,0,0.125,12.75,0.0,0,0,0,kReverse,kOff,-87.12,2.13,2.64,0.038085938,-0.9851074,0.034301758,34.9,0.0,1.0,-8.0898285,11.718933,
317.688728,true,true,true,0.125,12.65,0.0,0,0,0,0.125,12.65,0.0,0,0,0,0.125,12.65,0.0,0,0,0,0.125,12.65,0.0,0,0,0,0.125,12.65,0.0,4,0,0,0.0,12.65,0.0,0,0,0,0.125,12.75,0.0,0,0,0,kReverse,kOff,-87.12,2.13,2.64,0.03643799,-0.98291016,0.034423828,34.9,0.0,0.0,-8.0898285,11.718933,
317.709975,true,true,true,0.125,12.65,0.0,0,0,0,0.125,12.65,0.0,0,0,0,0.125,12.65,0.0,0,0,0,0.125,12.65,0.0,0,0,0,0.125,12.65,0.0,4,0,0,0.0,12.65,0.0,0,0,0,0.125,12.75,0.0,0,0,0,kReverse,kOff,-87.12,2.13,2.64,0.037902832,-0.9835205,0.03302002,34.9,0.0,1.0,-8.0898285,11.718933,
317.731326,true,true,true,0.125,12.65,0.0,0,0,0,0.125,12.65,0.0,0,0,0,0.125,12.65,0.0,0,0,0,0.125,12.65,0.0,0,0,0,0.0,12.65,0.0,4,0,0,0.0,12.65,0.0,0,0,0,0.125,12.75,0.0,0,0,0,kReverse,kOff,-87.12,2.14,2.65,0.034057617,-0.9847412,0.03564453,34.9,0.0,-2.0,-8.0898285,11.718933,
317.755385,true,true,true,0.125,12.65,0.0,0,0,0,0.125,12.65,0.0,0,0,0,0.125,12.65,0.0,0,0,0,0.125,12.65,0.0,0,0,0,0.0,12.65,0.0,4,0,0,0.0,12.65,0.0,0,0,0,0.125,12.75,0.0,0,0,0,kReverse,kOff,-87.12,2.14,2.65,0.03515625,-0.98309326,0.032104492,34.9,0.0,-1.0,-8.0898285,11.718933,
317.781034,true,true,true,0.125,12.65,0.0,0,0,0,0.125,12.65,0.0,0,0,0,0.125,12.65,0.0,0,0,0,0.125,12.65,0.0,0,0,0,0.0,12.65,0.0,4,0,0,0.0,12.65,0.0,0,0,0,0.125,12.75,0.0,0,0,0,kReverse,kOff,-87.12,2.14,2.65,0.03869629,-0.9815674,0.031799316,34.9,0.0,1.0,-8.0898285,11.718933,
317.798573,true,true,true,0.125,12.65,0.0,0,0,0,0.125,12.65,0.0,0,0,0,0.125,12.65,0.0,0,0,0,0.125,12.65,0.0,0,0,0,0.125,12.65,0.0,4,0,0,0.0,12.65,0.0,0,0,0,0.125,12.75,0.0,0,0,0,kReverse,kOff,-87.12,2.14,2.65,0.03704834,-0.982666,0.03668213,34.9,0.0,1.0,-8.0898285,11.718933,
317.82318,true,true,true,0.125,12.65,0.0,0,0,0,0.125,12.65,0.0,0,0,0,0.125,12.65,0.0,0,0,0,0.125,12.65,0.0,0,0,0,0.125,12.65,0.0,4,0,0,0.0,12.65,0.0,0,0,0,0.125,12.75,0.0,0,0,0,kReverse,kOff,-87.12,2.14,2.65,0.038391113,-0.98413086,0.027709961,34.9,0.0,0.0,-8.0898285,11.718933,
317.84325900000005,true,true,true,0.125,12.65,0.0,0,0,0,0.125,12.65,0.0,0,0,0,0.125,12.65,0.0,0,0,0,0.125,12.65,0.0,0,0,0,0.0,12.65,0.0,4,0,0,0.0,12.65,0.0,0,0,0,0.125,12.75,0.0,0,0,0,kReverse,kOff,-87.12,2.14,2.65,0.038391113,-0.98413086,0.027709961,34.9,0.0,0.0,-8.0898285,11.718933,
317.865229,true,true,true,0.125,12.65,0.0,0,0,0,0.125,12.65,0.0,0,0,0,0.125,12.65,0.0,0,0,0,0.125,12.65,0.0,0,0,0,0.0,12.65,0.0,4,0,0,0.0,12.65,0.0,0,0,0,0.125,12.75,0.0,0,0,0,kReverse,kOff,-87.12,2.14,2.65,0.035949707,-0.98046875,0.032348633,34.9,0.0,0.0,-8.0898285,11.718933,
317.887165,true,true,true,0.125,12.65,0.0,0,0,0,0.125,12.65,0.0,0,0,0,0.125,12.65,0.0,0,0,0,0.125,12.65,0.0,0,0,0,0.0,12.65,0.0,4,0,0,0.0,12.65,0.0,0,0,0,0.125,12.75,0.0,0,0,0,kReverse,kOff,-87.12,2.14,2.65,0.035949707,-0.98046875,0.032348633,34.9,0.0,0.0,-8.0898285,11.718933,
317.909986,true,true,true,0.125,12.65,0.0,0,0,0,0.125,12.65,0.0,0,0,0,0.125,12.65,0.0,0,0,0,0.125,12.65,0.0,0,0,0,0.0,12.65,0.0,4,0,0,0.0,12.65,0.0,0,0,0,0.125,12.75,0.0,0,0,0,kReverse,kOff,-87.12,2.13,2.64,0.035949707,-0.9830322,0.03466797,34.9,0.0,0.0,-8.0898285,11.718933,
317.928676,true,true,true,0.125,12.65,0.0,0,0,0,0.125,12.65,0.0,0,0,0,0.125,12.65,0.0,0,0,0,0.125,12.65,0.0,0,0,0,0.0,12.65,0.0,4,0,0,0.0,12.65,0.0,0,0,0,0.125,12.75,0.0,0,0,0,kReverse,kOff,-87.12,2.13,2.64,0.039978027,-0.9845581,0.03387451,34.9,0.0,3.0,-8.0898285,11.718933,
317.950838,true,true,true,0.125,12.65,0.0,0,0,0,0.125,12.65,0.0,0,0,0,0.125,12.65,0.0,0,0,0,0.125,12.65,0.0,0,0,0,0.0,12.65,0.0,4,0,0,0.0,12.65,0.0,0,0,0,0.125,12.700000000000001,0.0,0,0,0,kReverse,kOff,-87.12,2.13,2.64,0.03643799,-0.98376465,0.03338623,34.86,0.0,1.0,-8.0898285,11.718933,
317.978925,true,true,true,0.125,12.65,0.0,0,0,0,0.125,12.65,0.0,0,0,0,0.125,12.65,0.0,0,0,0,0.125,12.65,0.0,0,0,0,0.125,12.65,0.0,4,0,0,0.0,12.65,0.0,0,0,0,0.125,12.700000000000001,0.0,0,0,0,kReverse,kOff,-87.12,2.13,2.64,0.038269043,-0.9818115,0.031799316,34.86,0.0,1.0,-8.0898285,11.718933,
317.99612099999996,true,true,true,0.125,12.65,0.0,0,0,0,0.125,12.65,0.0,0,0,0,0.125,12.65,0.0,0,0,0,0.125,12.65,0.0,0,0,0,0.125,12.65,0.0,4,0,0,0.0,12.65,0.0,0,0,0,0.125,12.700000000000001,0.0,0,0,0,kReverse,kOff,-87.12,2.13,2.64,0.038330078,-0.98291016,0.03137207,34.86,0.0,1.0,-8.0898285,11.718933,
318.020695,true,true,true,0.125,12.65,0.0,0,0,0,0.125,12.65,0.0,0,0,0,0.125,12.65,0.0,0,0,0,0.125,12.65,0.0,0,0,0,0.125,12.65,0.0,4,0,0,0.0,12.65,0.0,0,0,0,0.125,12.700000000000001,0.0,0,0,0,kReverse,kOff,-87.12,2.13,2.64,0.037109375,-0.9830322,0.034118652,34.86,0.0,0.0,-8.0898285,11.718933,
318.043114,true,true,true,0.125,12.65,0.0,0,0,0,0.125,12.65,0.0,0,0,0,0.125,12.65,0.0,0,0,0,0.125,12.65,0.0,0,0,0,0.125,12.65,0.0,4,0,0,0.0,12.65,0.0,0,0,0,0.125,12.700000000000001,0.0,0,0,0,kReverse,kOff,-87.12,2.13,2.64,0.038269043,-0.98309326,0.035095215,34.86,0.0,2.0,-8.0898285,11.718933,
318.064143,true,true,true,0.125,12.65,0.0,0,0,0,0.125,12.65,0.0,0,0,0,0.125,12.65,0.0,0,0,0,0.125,12.65,0.0,0,0,0,0.125,12.65,0.0,4,0,0,0.0,12.65,0.0,0,0,0,0.125,12.700000000000001,0.0,0,0,0,kReverse,kOff,-87.12,2.13,2.64,0.034118652,-0.9817505,0.03552246,34.86,0.0,-1.0,-8.0898285,11.718933,
318.084719,true,true,true,0.125,12.65,0.0,0,0,0,0.125,12.65,0.0,0,0,0,0.125,12.65,0.0,0,0,0,0.125,12.65,0.0,0,0,0,0.125,12.65,0.0,4,0,0,0.0,12.65,0.0,0,0,0,0.125,12.700000000000001,0.0,0,0,0,kReverse,kOff,-87.12,2.13,2.64,0.03515625,-0.98321533,0.032165527,34.86,0.0,-1.0,-8.0898285,11.718933,
318.105532,true,true,true,0.125,12.65,0.0,0,0,0,0.125,12.65,0.0,0,0,0,0.125,12.65,0.0,0,0,0,0.125,12.65,0.0,0,0,0,0.125,12.65,0.0,4,0,0,0.0,12.65,0.0,0,0,0,0.125,12.75,0.0,0,0,0,kReverse,kOff,-87.12,2.13,2.64,0.03668213,-0.98205566,0.039001465,34.86,0.0,1.0,-8.0898285,11.718933,
318.126645,true,true,true,0.125,12.65,0.0,0,0,0,0.125,12.65,0.0,0,0,0,0.125,12.65,0.0,0,0,0,0.125,12.65,0.0,0,0,0,0.125,12.65,0.0,4,0,0,0.0,12.65,0.0,0,0,0,0.125,12.75,0.0,0,0,0,kReverse,kOff,-87.12,2.13,2.64,0.038513184,-0.98205566,0.03375244,34.86,0.0,1.0,-8.0898285,11.718933,
318.146705,true,true,true,0.125,12.65,0.0,0,0,0,0.125,12.65,0.0,0,0,0,0.125,12.65,0.0,0,0,0,0.125,12.65,0.0,0,0,0,0.125,12.65,0.0,4,0,0,0.0,12.65,0.0,0,0,0,0.125,12.75,0.0,0,0,0,kReverse,kOff,-87.11,2.13,2.64,0.036376953,-0.9835205,0.031677246,34.86,0.0,0.0,-8.0898285,11.718933,
318.16838,true,true,true,0.125,12.65,0.0,0,0,0,0.125,12.65,0.0,0,0,0,0.125,12.65,0.0,0,0,0,0.125,12.65,0.0,0,0,0,0.125,12.65,0.0,4,0,0,0.0,12.65,0.0,0,0,0,0.125,12.75,0.0,0,0,0,kReverse,kOff,-87.11,2.13,2.64,0.036987305,-0.98168945,0.03387451,34.86,0.0,0.0,-8.0898285,11.718933,
318.20232799999997,true,true,true,0.125,12.65,0.0,0,0,0,0.125,12.65,0.0,0,0,0,0.125,12.65,0.0,0,0,0,0.125,12.65,0.0,0,0,0,0.125,12.65,0.0,4,0,0,0.0,12.65,0.0,0,0,0,0.125,12.75,0.0,0,0,0,kReverse,kOff,-87.11,2.13,2.64,0.035339355,-0.98309326,0.030761719,34.86,0.0,-1.0,-8.0898285,11.718933,
318.230839,true,true,true,0.125,12.65,0.0,0,0,0,0.125,12.65,0.0,0,0,0,0.125,12.65,0.0,0,0,0,0.125,12.65,0.0,0,0,0,0.125,12.65,0.0,4,0,0,0.0,12.65,0.0,0,0,0,0.125,12.75,0.0,0,0,0,kReverse,kOff,-87.12,2.13,2.64,0.03643799,-0.9816284,0.028259277,34.86,0.0,-1.0,-8.0898285,11.718933,
318.257054,true,true,true,0.125,12.65,0.0,0,0,0,0.125,12.65,0.0,0,0,0,0.125,12.65,0.0,0,0,0,0.125,12.65,0.0,0,0,0,0.0,12.65,0.0,4,0,0,0.0,12.65,0.0,0,0,0,0.125,12.75,0.0,0,0,0,kReverse,kOff,-87.11,2.14,2.65,0.036376953,-0.9846802,0.034729004,34.86,0.0,0.0,-8.0898285,11.718933,
318.284934,true,true,true,0.125,12.65,0.0,0,0,0,0.125,12.65,0.0,0,0,0,0.125,12.65,0.0,0,0,0,0.125,12.65,0.0,0,0,0,0.0,12.65,0.0,4,0,0,0.0,12.65,0.0,0,0,0,0.125,12.75,0.0,0,0,0,kReverse,kOff,-87.12,2.13,2.64,0.03656006,-0.98028564,0.038085938,34.86,0.0,1.0,-8.0898285,11.718933,
318.307087,true,true,true,0.125,12.65,0.0,0,0,0,0.125,12.65,0.0,0,0,0,0.125,12.65,0.0,0,0,0,0.125,12.65,0.0,0,0,0,0.0,12.65,0.0,4,0,0,0.0,12.65,0.0,0,0,0,0.125,12.75,0.0,0,0,0,kReverse,kOff,-87.12,2.13,2.64,0.036499023,-0.9838867,0.0289917,34.86,0.0,-1.0,-8.0898285,11.718933,
318.328654,true,true,true,0.125,12.65,0.0,0,0,0,0.125,12.65,0.0,0,0,0,0.125,12.65,0.0,0,0,0,0.125,12.65,0.0,0,0,0,0.125,12.65,0.0,4,0,0,0.0,12.65,0.0,0,0,0,0.125,12.75,0.0,0,0,0,kReverse,kOff,-87.11,2.14,2.65,0.036621094,-0.9841919,0.029418945,34.86,0.0,-1.0,-8.0898285,11.718933,
318.349244,true,true,true,0.125,12.65,0.0,0,0,0,0.125,12.65,0.0,0,0,0,0.125,12.65,0.0,0,0,0,0.125,12.65,0.0,0,0,0,0.125,12.65,0.0,4,0,0,0.25,12.65,0.0,0,0,0,0.125,12.75,0.0,0,0,0,kReverse,kOff,-87.11,2.14,2.65,0.03668213,-0.98046875,0.034179688,34.86,0.0,0.0,-8.0898285,11.718933,
318.37933999999996,true,true,true,0.125,12.65,0.0,0,0,0,0.125,12.65,0.0,0,0,0,0.125,12.65,0.0,0,0,0,0.125,12.65,0.0,0,0,0,0.125,12.65,0.0,4,0,0,0.375,12.65,0.0,0,0,0,0.125,12.75,0.0,0,0,0,kReverse,kOff,-87.11,2.14,2.65,0.036376953,-0.99627686,0.02935791,34.86,0.0,-1.0,-8.0898285,11.718933,
318.402897,true,true,true,0.125,12.65,0.0,0,0,0,0.125,12.65,0.0,0,0,0,0.125,12.65,0.0,0,0,0,0.125,12.65,0.0,0,0,0,0.125,12.65,0.0,4,0,0,0.375,12.65,0.0,0,0,0,0.125,12.75,0.0,0,0,0,kReverse,kOff,-87.11,2.14,2.65,0.047546387,-0.9892578,0.04510498,34.86,0.0,13.0,-8.0898285,11.718933,
318.426379,true,true,true,0.125,12.6,0.0,0,0,0,0.125,12.65,0.0,0,0,0,0.125,12.6,0.0,0,0,0,0.125,12.65,0.0,0,0,0,0.125,12.6,0.0,4,0,0,0.375,12.65,0.0,0,0,0,0.125,12.65,0.0,0,0,0,kReverse,kOff,-87.11,2.14,2.65,0.046813965,-1.003418,0.017456055,34.86,0.0,4.0,-8.0898285,11.718933,
318.44867999999997,true,true,true,0.125,12.6,0.0,0,0,0,0.125,12.65,0.0,0,0,0,0.125,12.6,0.0,0,0,0,0.125,12.65,0.0,0,0,0,0.125,12.6,0.0,4,0,0,0.375,12.6,0.0,0,0,0,0.125,12.65,0.0,0,0,0,kReverse,kOff,-87.12,2.13,2.64,0.043395996,-0.96832275,0.029663086,34.9,0.0,6.0,-8.0898285,11.718933,
318.470332,true,true,true,0.125,12.6,0.0,0,0,0,0.125,12.65,0.0,0,0,0,0.125,12.6,0.0,0,0,0,0.125,12.65,0.0,0,0,0,0.125,12.6,0.0,4,0,0,0.375,12.6,0.0,0,0,0,0.125,12.65,0.0,0,0,0,kReverse,kOff,-87.11,2.14,2.65,0.032836914,-0.9752197,0.044067383,34.9,0.0,0.0,-8.0898285,11.718933,
318.487615,true,true,true,0.125,12.6,0.0,0,0,0,0.125,12.65,0.0,0,0,0,0.125,12.6,0.0,0,0,0,0.125,12.65,0.0,0,0,0,0.125,12.6,0.0,4,0,0,0.375,12.6,0.0,0,0,0,0.125,12.65,0.0,0,0,0,kReverse,kOff,-87.12,2.13,2.64,0.022644043,-0.9785156,0.015136719,34.9,0.0,-17.0,-8.0898285,11.718933,
318.508182,true,true,true,0.125,12.6,0.0,0,0,0,0.125,12.65,0.0,0,0,0,0.125,12.6,0.0,0,0,0,0.125,12.65,0.0,0,0,0,0.125,12.6,0.0,4,0,0,0.375,12.6,0.0,0,0,0,0.125,12.65,0.0,0,0,0,kReverse,kOff,-87.12,2.13,2.64,0.053955078,-0.9993286,0.05078125,34.9,0.0,20.0,-8.0898285,11.718933,
318.528543,true,true,true,0.125,12.6,0.0,0,0,0,0.125,12.65,0.0,0,0,0,0.125,12.6,0.0,0,0,0,0.125,12.65,0.0,0,0,0,0.125,12.6,0.0,4,0,0,0.625,12.6,0.0,0,0,0,0.125,12.65,0.0,0,0,0,kReverse,kOff,-87.1,2.14,2.66,0.046203613,-0.9871826,0.030578613,34.9,0.0,8.0,-8.089813,11.718933,
318.547356,true,true,true,0.125,12.6,0.0,0,0,0,0.125,12.65,0.0,0,0,0,0.125,12.6,0.0,0,0,0,0.125,12.65,0.0,0,0,0,0.125,12.6,0.0,4,0,0,1.0,12.6,0.0,0,0,0,0.125,12.65,0.0,0,0,0,kReverse,kOff,-87.1,2.14,2.65,0.031982422,-0.9733887,0.036743164,34.9,0.0,-3.0,-8.089783,11.718933,
318.558367,true,true,true,0.125,12.6,0.0,0,0,0,0.125,12.6,0.0,0,0,0,0.125,12.6,0.0,0,0,0,0.125,12.65,0.0,0,0,0,0.125,12.6,0.0,4,0,0,1.5,12.6,0.0,0,0,0,0.125,12.65,0.0,0,0,0,kReverse,kOff,-87.11,2.14,2.65,0.039916992,-0.9654541,0.026367188,34.9,0.0,2.0,-8.089783,11.718933,
318.572687,true,true,true,0.125,12.6,0.0,0,0,0,0.125,12.6,0.0,0,0,0,0.125,12.55,0.0,0,0,0,0.125,12.6,0.0,0,0,0,0.0,12.6,0.0,4,0,0,1.5,12.6,0.0,0,0,0,0.125,12.65,0.0,0,0,0,kReverse,kOff,-87.12,2.13,2.64,0.021606445,-0.946167,0.045166016,34.9,0.0,-9.0,-8.089783,11.718933,
318.586714,true,true,true,0.125,12.6,0.0,0,0,0,0.125,12.6,0.0,0,0,0,0.125,12.55,0.0,0,0,0,0.125,12.6,0.0,0,0,0,0.0,12.6,0.0,4,0,0,2.375,12.6,0.0,0,0,0,0.125,12.65,0.0,0,0,0,kReverse,kOff,-87.12,2.13,2.64,0.042541504,-0.9954834,0.07885742,34.9,0.0,16.0,-8.089783,11.718979,
318.599252,true,true,true,0.125,12.6,0.0,0,0,0,0.125,12.6,0.0,0,0,0,0.125,12.55,0.0,0,0,0,0.125,12.6,0.0,0,0,0,0.0,12.6,0.0,4,0,0,2.625,12.55,0.0,0,0,0,0.125,12.65,0.0,0,0,0,kReverse,kOff,-87.1,2.14,2.66,0.03918457,-0.99749756,0.032043457,34.9,0.0,1.0,-8.089783,11.719055,
318.615479,true,true,true,0.125,12.6,0.0,0,0,0,0.125,12.6,0.0,0,0,0,0.125,12.55,0.0,0,0,0,0.125,12.6,0.0,0,0,0,0.125,12.6,0.0,4,0,0,2.875,12.55,0.0,0,0,0,0.125,12.65,0.0,0,0,0,kReverse,kOff,-87.12,2.13,2.64,0.05029297,-0.99017334,0.008056641,34.9,0.0,6.0,-8.089783,11.719101,
318.641714,true,true,true,0.125,12.6,0.0,0,0,0,0.125,12.6,0.0,0,0,0,0.125,12.55,0.0,0,0,0,0.125,12.6,0.0,0,0,0,0.125,12.6,0.0,4,0,0,3.0,12.55,0.0,0,0,0,0.125,12.65,0.0,0,0,0,kReverse,kOff,-87.12,2.14,2.65,0.01763916,-0.97662354,0.0,34.9,0.0,-26.0,-8.089798,11.719162,
318.65899,true,true,true,0.125,12.6,0.0,0,0,0,0.125,12.6,0.0,0,0,0,0.125,12.55,0.0,0,0,0,0.125,12.6,0.0,0,0,0,0.125,12.6,0.0,4,0,0,3.25,12.55,0.0,0,0,0,0.125,12.65,0.0,0,0,0,kReverse,kOff,-87.12,2.14,2.65,0.04547119,-0.9682617,0.040771484,34.9,0.0,11.0,-8.089813,11.7191925,
318.680317,true,true,true,0.125,12.6,0.0,0,0,0,0.125,12.6,0.0,0,0,0,0.125,12.55,0.0,0,0,0,0.125,12.6,0.0,0,0,0,0.125,12.6,0.0,4,0,0,3.375,12.55,0.0,0,0,0,0.125,12.65,0.0,0,0,0,kReverse,kOff,-87.11,2.14,2.65,0.030883789,-0.9967041,0.022460938,34.9,0.0,-9.0,-8.0898285,11.719208,
318.701664,true,true,true,0.125,12.6,0.0,0,0,0,0.125,12.6,0.0,0,0,0,0.125,12.55,0.0,0,0,0,0.125,12.6,0.0,0,0,0,0.125,12.6,0.0,4,0,0,3.375,12.55,0.0,0,0,0,0.125,12.65,0.0,0,0,0,kReverse,kOff,-87.13,2.13,2.64,0.035095215,-0.9697876,0.040771484,34.9,0.0,1.0,-8.0898285,11.719208,
318.720701,true,true,true,0.125,12.6,0.0,0,0,0,0.125,12.55,0.0,0,0,0,0.125,12.55,0.0,0,0,0,0.125,12.6,0.0,0,0,0,0.125,12.6,0.0,4,0,0,3.375,12.55,0.0,0,0,0,0.125,12.65,0.0,0,0,0,kReverse,kOff,-87.13,2.12,2.63,0.030395508,-0.98461914,0.03503418,34.9,0.0,-5.0,-8.0898285,11.719208,
318.74238299999996,true,true,true,0.125,12.55,0.0,0,0,0,0.125,12.55,0.0,0,0,0,0.125,12.5,0.0,0,0,0,0.125,12.55,0.0,0,0,0,0.0,12.55,0.0,4,0,0,3.5,12.55,0.0,0,0,0,0.125,12.6,0.0,0,0,0,kReverse,kOff,-87.13,2.12,2.63,0.032409668,-0.975647,0.025939941,34.9,0.0,-5.0,-8.0898285,11.719208,
318.761629,true,true,true,0.125,12.55,0.0,0,0,0,0.125,12.55,0.0,0,0,0,0.125,12.5,0.0,0,0,0,0.125,12.55,0.0,0,0,0,0.0,12.55,0.0,4,0,0,3.625,12.5,0.0,0,0,0,0.125,12.6,0.0,0,0,0,kReverse,kOff,-87.13,2.12,2.63,0.04534912,-0.9807739,0.029846191,34.9,0.0,7.0,-8.0898285,11.719208,
318.783266,true,true,true,0.125,12.55,0.0,0,0,0,0.125,12.55,0.0,0,0,0,0.125,12.5,0.0,0,0,0,0.125,12.55,0.0,0,0,0,0.0,12.55,0.0,4,0,0,3.625,12.5,0.0,0,0,0,0.125,12.6,0.0,0,0,0,kReverse,kOff,-87.13,2.12,2.63,0.03277588,-0.98327637,0.030822754,34.9,0.0,-4.0,-8.0898285,11.719208,
318.80208999999996,true,true,true,0.125,12.55,0.0,0,0,0,0.125,12.55,0.0,0,0,0,0.125,12.5,0.0,0,0,0,0.125,12.55,0.0,0,0,0,0.125,12.55,0.0,4,0,0,3.625,12.5,0.0,0,0,0,0.125,12.6,0.0,0,0,0,kReverse,kOff,-87.11,2.14,2.65,0.037231445,-0.9925537,0.03161621,34.9,0.0,0.0,-8.0898285,11.719208,
318.824458,true,true,true,0.125,12.55,0.0,0,0,0,0.125,12.55,0.0,0,0,0,0.125,12.5,0.0,0,0,0,0.125,12.55,0.0,0,0,0,0.125,12.55,0.0,4,0,0,3.75,12.5,0.0,0,0,0,0.125,12.6,0.0,0,0,0,kReverse,kOff,-87.12,2.13,2.64,0.030700684,-0.9744873,0.02520752,34.9,0.0,-7.0,-8.0898285,11.719208,
318.846664,true,true,true,0.125,12.55,0.0,0,0,0,0.125,12.55,0.0,0,0,0,0.125,12.5,0.0,0,0,0,0.125,12.55,0.0,0,0,0,0.125,12.55,0.0,4,0,0,3.75,12.5,0.0,0,0,0,0.125,12.6,0.0,0,0,0,kReverse,kOff,-87.14,2.12,2.63,0.03918457,-0.9767456,0.024353027,34.9,0.0,0.0,-8.0898285,11.719147,
318.86801199999996,true,true,true,0.125,12.55,0.0,0,0,0,0.125,12.55,0.0,0,0,0,0.125,12.5,0.0,0,0,0,0.125,12.55,0.0,0,0,0,0.125,12.55,0.0,4,0,0,3.875,12.5,0.0,0,0,0,0.125,12.6,0.0,0,0,0,kReverse,kOff,-87.13,2.12,2.63,0.044128418,-0.9906006,0.0848999,34.9,0.0,20.0,-8.089813,11.719147,
318.887895,true,true,true,0.125,12.55,0.0,0,0,0,0.125,12.5,0.0,0,0,0,0.125,12.450000000000001,0.0,0,0,0,0.125,12.55,0.0,0,0,0,0.125,12.5,0.0,4,0,0,3.875,12.5,0.0,0,0,0,0.125,12.6,0.0,0,0,0,kReverse,kOff,-87.13,2.11,2.62,0.051574707,-0.9793701,0.05871582,34.9,0.0,21.0,-8.089783,11.719162,
318.906474,true,true,true,0.125,12.5,0.0,0,0,0,0.125,12.5,0.0,0,0,0,0.125,12.450000000000001,0.0,0,0,0,0.125,12.55,0.0,0,0,0,0.125,12.5,0.0,4,0,0,4.0,12.5,0.0,0,0,0,0.125,12.55,0.0,0,0,0,kReverse,kOff,-87.12,2.12,2.63,0.030212402,-0.9918823,0.017456055,34.9,0.0,-10.0,-8.089767,11.719177,
318.92679499999997,true,true,true,0.125,12.5,0.0,0,0,0,0.125,12.5,0.0,0,0,0,0.125,12.450000000000001,0.0,0,0,0,0.125,12.55,0.0,0,0,0,0.125,12.5,0.0,4,0,0,4.125,12.450000000000001,0.0,0,0,0,0.125,12.55,0.0,0,0,0,kReverse,kOff,-87.13,2.11,2.62,0.03326416,-0.98339844,0.020751953,34.9,0.0,-6.0,-8.089752,11.719177,
318.948141,true,true,true,0.125,12.5,0.0,0,0,0,0.125,12.5,0.0,0,0,0,0.125,12.450000000000001,0.0,0,0,0,0.125,12.55,0.0,0,0,0,0.125,12.5,0.0,4,0,0,4.25,12.450000000000001,0.0,0,0,0,0.125,12.55,0.0,0,0,0,kReverse,kOff,-87.13,2.12,2.63,0.04284668,-0.99017334,0.03552246,34.9,0.0,6.0,-8.089752,11.719177,
318.971113,true,true,true,0.125,12.5,0.0,0,0,0,0.125,12.5,0.0,0,0,0,0.125,12.450000000000001,0.0,0,0,0,0.125,12.55,0.0,0,0,0,0.125,12.5,0.0,4,0,0,3.625,12.450000000000001,0.0,0,0,0,0.125,12.55,0.0,0,0,0,kReverse,kOff,-87.11,2.13,2.64,0.03338623,-0.98217773,0.019226074,34.88,0.0,-6.0,-8.089752,11.719177,
318.996619,true,true,true,0.125,12.5,0.0,0,0,0,0.125,12.5,0.0,0,0,0,0.125,12.450000000000001,0.0,0,0,0,0.125,12.55,0.0,0,0,0,0.125,12.5,0.0,4,0,0,2.875,12.450000000000001,0.0,0,0,0,0.125,12.55,0.0,0,0,0,kReverse,kOff,-87.12,2.13,2.64,0.047729492,-0.9882202,0.039733887,34.88,0.0,12.0,-8.089752,11.719177,
319.02087,true,true,true,0.125,12.5,0.0,0,0,0,0.125,12.5,0.0,0,0,0,0.125,12.450000000000001,0.0,0,0,0,0.125,12.55,0.0,0,0,0,0.125,12.5,0.0,4,0,0,2.0,12.450000000000001,0.0,0,0,0,0.125,12.55,0.0,0,0,0,kReverse,kOff,-87.13,2.12,2.63,0.03289795,-0.98553467,0.019897461,34.88,0.0,-6.0,-8.089752,11.719177,
319.04414,true,true,true,0.125,12.5,0.0,0,0,0,0.125,12.6,0.0,0,0,0,0.125,12.450000000000001,0.0,0,0,0,0.125,12.55,0.0,0,0,0,0.125,12.5,0.0,4,0,0,1.375,12.450000000000001,0.0,0,0,0,0.125,12.55,0.0,0,0,0,kReverse,kOff,-87.12,2.13,2.64,0.041625977,-0.9794922,0.049072266,34.88,0.0,9.0,-8.089752,11.719177,
319.066049,true,true,true,0.125,12.6,0.0,0,0,0,0.125,12.6,0.0,0,0,0,0.125,12.55,0.0,0,0,0,0.125,12.6,0.0,0,0,0,0.125,12.6,0.0,4,0,0,1.0,12.450000000000001,0.0,0,0,0,0.125,12.65,0.0,0,0,0,kReverse,kOff,-87.12,2.12,2.63,0.034179688,-0.994751,0.036315918,34.88,0.0,-1.0,-8.089752,11.719177,
319.088762,true,true,true,0.125,12.6,0.0,0,0,0,0.125,12.6,0.0,0,0,0,0.125,12.55,0.0,0,0,0,0.125,12.6,0.0,0,0,0,0.125,12.6,0.0,4,0,0,0.625,12.55,0.0,0,0,0,0.125,12.65,0.0,0,0,0,kReverse,kOff,-87.12,2.12,2.63,0.03479004,-0.9725342,0.041381836,34.88,0.0,0.0,-8.089752,11.719177,
319.112278,true,true,true,0.125,12.6,0.0,0,0,0,0.125,12.6,0.0,0,0,0,0.125,12.55,0.0,0,0,0,0.125,12.6,0.0,0,0,0,0.125,12.6,0.0,4,0,0,0.625,12.55,0.0,0,0,0,0.125,12.65,0.0,0,0,0,kReverse,kOff,-87.13,2.12,2.63,0.037902832,-0.9897461,0.035461426,34.88,0.0,1.0,-8.089752,11.719177,
319.136573,true,true,true,0.125,12.6,0.0,0,0,0,0.125,12.6,0.0,0,0,0,0.125,12.55,0.0,0,0,0,0.125,12.6,0.0,0,0,0,0.125,12.6,0.0,4,0,0,1.0,12.55,0.0,0,0,0,0.125,12.65,0.0,0,0,0,kReverse,kOff,-87.12,2.12,2.63,0.033569336,-0.9837036,0.02508545,34.88,0.0,-4.0,-8.089752,11.719177,
319.162885,true,true,true,0.125,12.6,0.0,0,0,0,0.125,12.6,0.0,0,0,0,0.125,12.55,0.0,0,0,0,0.125,12.6,0.0,0,0,0,0.125,12.6,0.0,4,0,0,2.875,12.55,0.0,0,0,0,0.125,12.65,0.0,0,0,0,kReverse,kOff,-87.12,2.12,2.63,0.039794922,-0.9827881,0.023742676,34.88,0.0,0.0,-8.089752,11.719177,
319.185308,true,true,true,0.125,12.6,0.0,0,0,0,0.125,12.6,0.0,0,0,0,0.125,12.55,0.0,0,0,0,0.125,12.6,0.0,0,0,0,0.125,12.6,0.0,4,0,0,4.375,12.55,0.0,0,0,0,0.125,12.65,0.0,0,0,0,kReverse,kOff,-87.12,2.13,2.64,0.03289795,-0.98883057,0.03289795,34.88,0.0,-3.0,-8.089752,11.719177,
319.206779,true,true,true,0.125,12.6,0.0,0,0,0,0.125,12.4,0.0,0,0,0,0.125,12.55,0.0,0,0,0,0.125,12.4,0.0,0,0,0,0.125,12.6,0.0,4,0,0,6.25,12.55,0.0,0,0,0,0.125,12.65,0.0,0,0,0,kReverse,kOff,-87.12,2.12,2.63,0.037353516,-0.9810791,0.03845215,34.88,0.0,2.0,-8.089752,11.719177,
319.230412,true,true,true,0.125,12.4,0.0,0,0,0,0.125,12.4,0.0,0,0,0,0.125,12.4,0.0,0,0,0,0.125,12.4,0.0,0,0,0,0.125,12.4,0.0,4,0,0,8.625,12.3,0.0,0,0,0,0.125,12.450000000000001,0.0,0,0,0,kReverse,kOff,-87.12,2.12,2.63,0.02746582,-0.9920044,0.020629883,34.88,0.0,-12.0,-8.089752,11.719177,
319.256778,true,true,true,0.125,12.4,0.0,0,0,0,0.125,12.4,0.0,0,0,0,0.125,12.4,0.0,0,0,0,0.125,12.4,0.0,0,0,0,0.125,12.4,0.0,4,0,0,9.25,12.3,0.0,0,0,0,0.125,12.450000000000001,0.0,0,0,0,kReverse,kOff,-87.13,2.12,2.63,0.047790527,-0.9674072,0.04498291,34.88,0.0,14.0,-8.089752,11.719177,
319.279299,true,true,true,0.125,12.4,0.0,0,0,0,0.125,12.4,0.0,0,0,0,0.125,12.4,0.0,0,0,0,0.125,12.4,0.0,0,0,0,0.125,12.4,0.0,4,0,0,9.75,12.3,0.0,0,0,0,0.125,12.450000000000001,0.0,0,0,0,kReverse,kOff,-87.14,2.12,2.63,0.035583496,-1.0134277,0.025756836,34.88,0.0,-4.0,-8.089752,11.719101,
319.31568300000004,true,true,true,0.125,12.4,0.0,0,0,0,0.125,12.4,0.0,0,0,0,0.125,12.4,0.0,0,0,0,0.125,12.4,0.0,0,0,0,0.125,12.4,0.0,4,0,0,9.625,12.3,0.0,0,0,0,0.125,12.450000000000001,0.0,0,0,0,kReverse,kOff,-87.13,2.12,2.63,0.037353516,-0.9970703,0.03161621,34.88,0.0,0.0,-8.089752,11.71904,
319.33916899999997,true,true,true,0.125,12.4,0.0,0,0,0,0.125,12.4,0.0,0,0,0,0.125,12.4,0.0,0,0,0,0.125,12.4,0.0,0,0,0,0.125,12.4,0.0,4,0,0,8.375,12.3,0.0,0,0,0,0.125,12.450000000000001,0.0,0,0,0,kReverse,kOff,-87.12,2.15,2.65,-0.041625977,-0.77612305,-0.12902832,34.88,0.0,-107.0,-8.089661,11.718948,
319.365749,true,true,true,0.125,12.4,0.0,0,0,0,0.125,12.4,0.0,0,0,0,0.125,12.4,0.0,0,0,0,0.125,12.4,0.0,0,0,0,0.125,12.4,0.0,4,0,0,7.125,12.3,0.0,0,0,0,0.125,12.450000000000001,0.0,0,0,0,kReverse,kOff,-87.11,2.08,2.61,0.14575195,-0.96173096,0.31848145,34.88,0.0,179.0,-8.08989,11.719223,
319.38764299999997,true,true,true,0.125,12.4,0.0,0,0,0,0.125,12.4,0.0,0,0,0,0.125,12.4,0.0,0,0,0,0.125,12.4,0.0,0,0,0,0.125,12.4,0.0,4,0,0,5.25,12.3,0.0,0,0,0,0.125,12.450000000000001,0.0,0,0,0,kReverse,kOff,-87.14,2.11,2.62,-0.023010254,-0.9140625,-0.24798584,34.88,0.0,-126.0,-8.089951,11.719528,
319.410395,true,true,true,0.125,12.4,0.0,0,0,0,0.125,12.4,0.0,0,0,0,0.125,12.4,0.0,0,0,0,0.125,12.4,0.0,0,0,0,0.125,12.4,0.0,4,0,0,3.75,12.450000000000001,0.0,0,0,0,0.125,12.450000000000001,0.0,0,0,0,kReverse,kOff,-87.01,2.18,2.72,0.040527344,-0.9904785,-0.111816406,34.88,0.0,-34.0,-8.090378,11.719788,
319.42996999999997,true,true,true,0.125,12.4,0.0,0,0,0,0.125,12.4,0.0,0,0,0,0.125,12.4,0.0,0,0,0,0.125,12.4,0.0,0,0,0,0.125,12.4,0.0,4,0,0,0.75,12.450000000000001,0.0,0,0,0,0.125,12.450000000000001,0.0,0,0,0,kReverse,kOff,-87.17,2.15,2.63,-0.17401123,-0.9744873,-0.184021,34.88,0.0,-258.0,-8.09082,11.719681,
319.456262,true,true,true,0.125,12.4,0.0,0,0,0,0.125,12.4,0.0,0,0,0,0.125,12.4,0.0,0,0,0,0.125,12.4,0.0,0,0,0,0.125,12.4,0.0,4,0,0,0.25,12.450000000000001,0.0,0,0,0,0.125,12.450000000000001,0.0,0,0,0,kReverse,kOff,-87.04,2.14,2.68,0.05871582,-0.95526123,-0.094055176,34.88,0.0,-10.0,-8.091583,11.7200165,
319.481073,true,true,true,0.125,12.4,0.0,0,0,0,0.125,12.4,0.0,0,0,0,0.125,12.4,0.0,0,0,0,0.125,12.4,0.0,0,0,0,0.125,12.4,0.0,4,0,0,0.125,12.450000000000001,0.0,0,0,0,0.125,12.450000000000001,0.0,0,0,0,kReverse,kOff,-87.13,2.13,2.63,0.107055664,-1.0270386,0.16363525,34.87,0.0,99.0,-8.092255,11.720276,
319.50412,true,true,true,0.125,12.4,0.0,0,0,0,0.125,12.4,0.0,0,0,0,0.125,12.4,0.0,0,0,0,0.125,12.4,0.0,0,0,0,0.125,12.4,0.0,4,0,0,0.0,12.450000000000001,0.0,0,0,0,0.125,12.450000000000001,0.0,0,0,0,kReverse,kOff,-87.05,2.16,2.69,-0.043823242,-0.96466064,-0.13568115,34.87,0.0,-120.0,-8.092575,11.720398,
319.527163,true,true,true,0.125,12.4,0.0,0,0,0,0.125,12.6,0.0,0,0,0,0.125,12.6,0.0,0,0,0,0.125,12.65,0.0,0,0,0,0.125,12.4,0.0,4,0,0,0.0,12.450000000000001,0.0,0,0,0,0.125,12.450000000000001,0.0,0,0,0,kReverse,kOff,-87.13,2.12,2.63,0.03375244,-1.0109253,0.018493652,34.87,0.0,-7.0,-8.093475,11.720398,
319.550206,true,true,true,0.125,12.6,0.0,0,0,0,0.125,12.6,0.0,0,0,0,0.125,12.6,0.0,0,0,0,0.125,12.65,0.0,0,0,0,0.125,12.6,0.0,4,0,0,0.0,12.6,0.0,0,0,0,0.125,12.65,0.0,0,0,0,kReverse,kOff,-87.15,2.12,2.62,0.04333496,-1.0023804,0.05230713,34.87,0.0,10.0,-8.093475,11.720398,
319.572135,true,true,true,0.125,12.6,0.0,0,0,0,0.125,12.6,0.0,0,0,0,0.125,12.6,0.0,0,0,0,0.125,12.65,0.0,0,0,0,0.125,12.6,0.0,4,0,0,0.0,12.6,0.0,0,0,0,0.125,12.65,0.0,0,0,0,kReverse,kOff,-87.09,2.14,2.66,0.059631348,-1.0316162,-0.017211914,34.87,0.0,6.0,-8.093353,11.720657,
319.595649,true,true,true,0.125,12.6,0.0,0,0,0,0.125,12.6,0.0,0,0,0,0.125,12.6,0.0,0,0,0,0.125,12.65,0.0,0,0,0,0.125,12.6,0.0,4,0,0,0.0,12.6,0.0,0,0,0,0.125,12.65,0.0,0,0,0,kReverse,kOff,-87.11,2.14,2.65,0.050048828,-1.0039062,0.016967773,34.87,0.0,7.0,-8.093246,11.720779,
319.61299099999997,true,true,true,0.125,12.6,0.0,0,0,0,0.125,12.6,0.0,0,0,0,0.125,12.6,0.0,0,0,0,0.125,12.65,0.0,0,0,0,0.125,12.6,0.0,4,0,0,0.0,12.6,0.0,0,0,0,0.125,12.65,0.0,0,0,0,kReverse,kOff,-87.11,2.14,2.65,0.037231445,-0.99420166,0.034973145,34.87,0.0,0.0,-8.093246,11.721085,
319.64030199999996,true,true,true,0.125,12.6,0.0,0,0,0,0.125,12.6,0.0,0,0,0,0.125,12.6,0.0,0,0,0,0.125,12.65,0.0,0,0,0,0.125,12.6,0.0,4,0,0,0.0,12.6,0.0,0,0,0,0.125,12.65,0.0,0,0,0,kReverse,kOff,-87.13,2.11,2.62,0.008483887,-0.9844971,0.011657715,34.87,0.0,-32.0,-8.093277,11.721252,
319.6635,true,true,true,0.125,12.6,0.0,0,0,0,0.125,12.6,0.0,0,0,0,0.125,12.6,0.0,0,0,0,0.125,12.65,0.0,0,0,0,0.125,12.6,0.0,4,0,0,0.0,12.6,0.0,0,0,0,0.125,12.65,0.0,0,0,0,kReverse,kOff,-87.12,2.11,2.62,0.049987793,-0.9786377,0.055847168,34.87,0.0,19.0,-8.0933075,11.721252,
319.684192,true,true,true,0.125,12.6,0.0,0,0,0,0.125,12.6,0.0,0,0,0,0.125,12.6,0.0,0,0,0,0.125,12.65,0.0,0,0,0,0.125,12.6,0.0,4,0,0,0.0,12.6,0.0,0,0,0,0.125,12.65,0.0,0,0,0,kReverse,kOff,-87.12,2.11,2.63,0.016967773,-0.9891968,0.04095459,34.87,0.0,-17.0,-8.093338,11.721252,
319.699193,true,true,true,0.125,12.6,0.0,0,0,0,0.125,12.6,0.0,0,0,0,0.125,12.6,0.0,0,0,0,0.125,12.65,0.0,0,0,0,0.125,12.6,0.0,4,0,0,0.0,12.6,0.0,0,0,0,0.125,12.65,0.0,0,0,0,kReverse,kOff,-87.12,2.11,2.62,0.044006348,-0.97302246,0.049560547,34.87,0.0,11.0,-8.093338,11.721252,
319.71201399999995,true,true,true,0.125,12.6,0.0,0,0,0,0.125,12.6,0.0,0,0,0,0.125,12.6,0.0,0,0,0,0.125,12.65,0.0,0,0,0,0.0,12.6,0.0,4,0,0,0.0,12.6,0.0,0,0,0,0.125,12.65,0.0,0,0,0,kReverse,kOff,-87.11,2.12,2.64,0.044128418,-0.9713745,0.024169922,34.87,0.0,5.0,-8.093338,11.721252,
319.726137,true,true,true,0.125,12.6,0.0,0,0,0,0.125,12.6,0.0,0,0,0,0.125,12.6,0.0,0,0,0,0.125,12.65,0.0,0,0,0,0.0,12.6,0.0,4,0,0,0.0,12.6,0.0,0,0,0,0.125,12.65,0.0,0,0,0,kReverse,kOff,-87.12,2.11,2.63,0.026184082,-0.9842529,0.019042969,34.87,0.0,-13.0,-8.093338,11.721252,
319.739531,true,true,true,0.125,12.6,0.0,0,0,0,0.125,12.6,0.0,0,0,0,0.125,12.6,0.0,0,0,0,0.125,12.65,0.0,0,0,0,0.0,12.6,0.0,4,0,0,0.0,12.6,0.0,0,0,0,0.125,12.65,0.0,0,0,0,kReverse,kOff,-87.12,2.12,2.63,0.05218506,-0.9772949,0.045776367,34.87,0.0,18.0,-8.093338,11.721252,
319.752494,true,true,true,0.125,12.6,0.0,0,0,0,0.125,12.6,0.0,0,0,0,0.125,12.6,0.0,0,0,0,0.125,12.65,0.0,0,0,0,0.0,12.6,0.0,4,0,0,0.0,12.6,0.0,0,0,0,0.125,12.65,0.0,0,0,0,kReverse,kOff,-87.11,2.12,2.64,0.036315918,-0.97979736,0.03845215,34.87,0.0,1.0,-8.093338,11.721252,
319.76559100000003,true,true,true,0.125,12.6,0.0,0,0,0,0.125,12.6,0.0,0,0,0,0.125,12.6,0.0,0,0,0,0.125,12.65,0.0,0,0,0,0.0,12.6,0.0,4,0,0,0.0,12.6,0.0,0,0,0,0.125,12.65,0.0,0,0,0,kReverse,kOff,-87.1,2.13,2.65,0.04937744,-0.9901123,0.01184082,34.87,0.0,6.0,-8.093338,11.721237,
319.78779099999997,true,true,true,0.125,12.6,0.0,0,0,0,0.125,12.6,0.0,0,0,0,0.125,12.6,0.0,0,0,0,0.125,12.65,0.0,0,0,0,0.125,12.6,0.0,4,0,0,0.0,12.6,0.0,0,0,0,0.125,12.65,0.0,0,0,0,kReverse,kOff,-87.1,2.13,2.65,0.033203125,-0.9719238,0.037353516,34.87,0.0,-3.0,-8.093338,11.721191,
319.809398,true,true,true,0.125,12.6,0.0,0,0,0,0.125,12.6,0.0,0,0,0,0.125,12.6,0.0,0,0,0,0.125,12.65,0.0,0,0,0,0.125,12.6,0.0,4,0,0,0.0,12.6,0.0,0,0,0,0.125,12.65,0.0,0,0,0,kReverse,kOff,-87.11,2.13,2.64,0.031311035,-0.99072266,0.042236328,34.87,0.0,-3.0,-8.093338,11.721191,
319.830359,true,true,true,0.125,12.6,0.0,0,0,0,0.125,12.6,0.0,0,0,0,0.125,12.6,0.0,0,0,0,0.125,12.65,0.0,0,0,0,0.125,12.6,0.0,4,0,0,0.0,12.6,0.0,0,0,0,0.125,12.65,0.0,0,0,0,kReverse,kOff,-87.11,2.11,2.63,0.040771484,-0.98046875,0.03881836,34.87,0.0,5.0,-8.093338,11.721191,
319.853294,true,true,true,0.125,12.65,0.0,0,0,0,0.125,12.6,0.0,0,0,0,0.125,12.6,0.0,0,0,0,0.125,12.65,0.0,0,0,0,0.125,12.65,0.0,4,0,0,0.0,12.6,0.0,0,0,0,0.125,12.65,0.0,0,0,0,kReverse,kOff,-87.12,2.11,2.63,0.03540039,-0.98883057,0.015197754,34.87,0.0,-5.0,-8.093338,11.721191,
319.881941,true,true,true,0.125,12.65,0.0,0,0,0,0.125,12.6,0.0,0,0,0,0.125,12.6,0.0,0,0,0,0.125,12.65,0.0,0,0,0,0.125,12.65,0.0,4,0,0,0.0,12.6,0.0,0,0,0,0.125,12.700000000000001,0.0,0,0,0,kReverse,kOff,-87.12,2.11,2.62,0.03149414,-0.9790039,0.032226562,34.87,0.0,-4.0,-8.093338,11.721191,
319.899521,true,true,true,0.125,12.65,0.0,0,0,0,0.125,12.6,0.0,0,0,0,0.125,12.6,0.0,0,0,0,0.125,12.65,0.0,0,0,0,0.125,12.65,0.0,4,0,0,0.0,12.6,0.0,0,0,0,0.125,12.700000000000001,0.0,0,0,0,kReverse,kOff,-87.11,2.11,2.63,0.044189453,-0.9848633,0.03277588,34.87,0.0,7.0,-8.093338,11.721191,
319.919555,true,true,true,0.125,12.65,0.0,0,0,0,0.125,12.6,0.0,0,0,0,0.125,12.6,0.0,0,0,0,0.125,12.65,0.0,0,0,0,0.125,12.65,0.0,4,0,0,0.0,12.6,0.0,0,0,0,0.125,12.700000000000001,0.0,0,0,0,kReverse,kOff,-87.11,2.12,2.64,0.034423828,-0.9818115,0.03643799,34.87,0.0,-1.0,-8.093338,11.721191,
319.935495,true,true,true,0.125,12.65,0.0,0,0,0,0.125,12.6,0.0,0,0,0,0.125,12.6,0.0,0,0,0,0.125,12.65,0.0,0,0,0,0.125,12.65,0.0,4,0,0,0.0,12.6,0.0,0,0,0,0.125,12.700000000000001,0.0,0,0,0,kReverse,kOff,-87.11,2.12,2.64,0.047973633,-0.9814453,0.034851074,34.87,0.0,11.0,-8.093338,11.721191,
319.955096,true,true,true,0.125,12.65,0.0,0,0,0,0.125,12.6,0.0,0,0,0,0.125,12.6,0.0,0,0,0,0.125,12.65,0.0,0,0,0,0.125,12.65,0.0,4,0,0,0.0,12.6,0.0,0,0,0,0.125,12.700000000000001,0.0,0,0,0,kReverse,kOff,-87.11,2.12,2.64,0.036132812,-0.9848633,0.019348145,34.87,0.0,-4.0,-8.093338,11.721191,
319.981907,true,true,true,0.125,12.65,0.0,0,0,0,0.125,12.6,0.0,0,0,0,0.125,12.6,0.0,0,0,0,0.125,12.65,0.0,0,0,0,0.125,12.65,0.0,4,0,0,0.0,12.6,0.0,0,0,0,0.125,12.700000000000001,0.0,0,0,0,kReverse,kOff,-87.11,2.12,2.64,0.03741455,-0.9788208,0.029663086,34.92,0.0,0.0,-8.093338,11.721191,
320.002617,true,true,true,0.125,12.65,0.0,0,0,0,0.125,12.65,0.0,0,0,0,0.125,12.6,0.0,0,0,0,0.125,12.65,0.0,0,0,0,0.125,12.65,0.0,4,0,0,0.0,12.6,0.0,0,0,0,0.125,12.700000000000001,0.0,0,0,0,kReverse,kOff,-87.11,2.11,2.63,0.03503418,-0.9838867,0.03527832,34.92,0.0,0.0,-8.093338,11.721191,
320.02651299999997,true,true,true,0.125,12.65,0.0,0,0,0,0.125,12.65,0.0,0,0,0,0.125,12.6,0.0,0,0,0,0.125,12.65,0.0,0,0,0,0.125,12.65,0.0,4,0,0,0.0,12.6,0.0,0,0,0,0.125,12.700000000000001,0.0,0,0,0,kReverse,kOff,-87.12,2.11,2.63,0.029968262,-0.9863281,0.032409668,34.92,0.0,-6.0,-8.093338,11.721191,
320.05382299999997,true,true,true,0.125,12.65,0.0,0,0,0,0.125,12.65,0.0,0,0,0,0.125,12.6,0.0,0,0,0,0.125,12.65,0.0,0,0,0,0.125,12.65,0.0,4,0,0,0.0,12.65,0.0,0,0,0,0.125,12.700000000000001,0.0,0,0,0,kReverse,kOff,-87.12,2.11,2.62,0.031921387,-0.98413086,0.03186035,34.92,0.0,-4.0,-8.093338,11.721191,
320.077994,true,true,true,0.125,12.65,0.0,0,0,0,0.125,12.65,0.0,0,0,0,0.125,12.6,0.0,0,0,0,0.125,12.65,0.0,0,0,0,0.125,12.65,0.0,4,0,0,0.0,12.65,0.0,0,0,0,0.125,12.700000000000001,0.0,0,0,0,kReverse,kOff,-87.11,2.12,2.64,0.03149414,-0.98461914,0.0357666,34.92,0.0,-4.0,-8.093338,11.721191,
320.101989,true,true,true,0.125,12.65,0.0,0,0,0,0.125,12.65,0.0,0,0,0,0.125,12.6,0.0,0,0,0,0.125,12.65,0.0,0,0,0,0.125,12.65,0.0,4,0,0,0.0,12.65,0.0,0,0,0,0.125,12.700000000000001,0.0,0,0,0,kReverse,kOff,-87.11,2.12,2.64,0.044067383,-0.9838257,0.038635254,34.92,0.0,8.0,-8.093338,11.721191,
320.12388799999997,true,true,true,0.125,12.65,0.0,0,0,0,0.125,12.65,0.0,0,0,0,0.125,12.6,0.0,0,0,0,0.125,12.65,0.0,0,0,0,0.125,12.65,0.0,4,0,0,0.0,12.65,0.0,0,0,0,0.125,12.700000000000001,0.0,0,0,0,kReverse,kOff,-87.1,2.12,2.64,0.039001465,-0.982605,0.027954102,34.92,0.0,0.0,-8.093338,11.721191,
320.146186,true,true,true,0.125,12.65,0.0,0,0,0,0.125,12.65,0.0,0,0,0,0.125,12.6,0.0,0,0,0,0.125,12.65,0.0,0,0,0,0.125,12.65,0.0,4,0,0,0.0,12.65,0.0,0,0,0,0.125,12.700000000000001,0.0,0,0,0,kReverse,kOff,-87.1,2.13,2.65,0.038757324,-0.982666,0.024230957,34.92,0.0,0.0,-8.093338,11.721191,
320.16760700000003,true,true,true,0.125,12.65,0.0,0,0,0,0.125,12.65,0.0,0,0,0,0.125,12.6,0.0,0,0,0,0.125,12.65,0.0,0,0,0,0.125,12.65,0.0,4,0,0,0.0,12.65,0.0,0,0,0,0.125,12.700000000000001,0.0,0,0,0,kReverse,kOff,-87.11,2.12,2.64,0.040039062,-0.98205566,0.03363037,34.92,0.0,3.0,-8.093338,11.721191,
320.19168199999996,true,true,true,0.125,12.65,0.0,0,0,0,0.125,12.65,0.0,0,0,0,0.125,12.6,0.0,0,0,0,0.125,12.65,0.0,0,0,0,0.125,12.65,0.0,4,0,0,0.0,12.6,0.0,0,0,0,0.125,12.700000000000001,0.0,0,0,0,kReverse,kOff,-87.11,2.12,2.64,0.035339355,-0.9833374,0.034179688,34.92,0.0,0.0,-8.093338,11.721191,
320.21468400000003,true,true,true,0.125,12.65,0.0,0,0,0,0.125,12.65,0.0,0,0,0,0.125,12.6,0.0,0,0,0,0.125,12.65,0.0,0,0,0,0.125,12.65,0.0,4,0,0,0.0,12.6,0.0,0,0,0,0.125,12.700000000000001,0.0,0,0,0,kReverse,kOff,-87.11,2.12,2.64,0.032958984,-0.9834595,0.034362793,34.92,0.0,-3.0,-8.093338,11.721191,
320.23605,true,true,true,0.125,12.65,0.0,0,0,0,0.125,12.65,0.0,0,0,0,0.125,12.6,0.0,0,0,0,0.125,12.65,0.0,0,0,0,0.125,12.65,0.0,4,0,0,0.0,12.6,0.0,0,0,0,0.125,12.700000000000001,0.0,0,0,0,kReverse,kOff,-87.12,2.11,2.63,0.03491211,-0.984375,0.032592773,34.92,0.0,-1.0,-8.093338,11.721191,
320.261536,true,true,true,0.125,12.65,0.0,0,0,0,0.125,12.65,0.0,0,0,0,0.125,12.6,0.0,0,0,0,0.125,12.65,0.0,0,0,0,0.125,12.65,0.0,4,0,0,0.0,12.6,0.0,0,0,0,0.125,12.700000000000001,0.0,0,0,0,kReverse,kOff,-87.11,2.12,2.64,0.034729004,-0.9850464,0.03778076,34.92,0.0,0.0,-8.093338,11.721191,
320.285148,true,true,true,0.125,12.65,0.0,0,0,0,0.125,12.65,0.0,0,0,0,0.125,12.6,0.0,0,0,0,0.125,12.65,0.0,0,0,0,0.125,12.65,0.0,4,0,0,0.25,12.6,0.0,0,0,0,0.125,12.700000000000001,0.0,0,0,0,kReverse,kOff,-87.11,2.12,2.64,0.040527344,-0.98309326,0.0335083,34.92,0.0,3.0,-8.093338,11.721191,
320.307554,true,true,true,0.125,12.65,0.0,0,0,0,0.125,12.65,0.0,0,0,0,0.125,12.6,0.0,0,0,0,0.125,12.65,0.0,0,0,0,0.125,12.65,0.0,4,0,0,3.25,12.6,0.0,0,0,0,0.125,12.700000000000001,0.0,0,0,0,kReverse,kOff,-87.11,2.12,2.64,0.04058838,-0.9741211,0.031311035,34.92,0.0,3.0,-8.093338,11.721191,
320.341278,true,true,true,0.125,12.450000000000001,0.0,0,0,0,0.125,12.450000000000001,0.0,0,0,0,0.125,12.4,0.0,0,0,0,0.125,12.450000000000001,0.0,0,0,0,0.125,12.450000000000001,0.0,4,0,0,5.875,12.6,0.0,0,0,0,0.125,12.55,0.0,0,0,0,kReverse,kOff,-87.11,2.12,2.64,0.02911377,-0.9749756,0.045776367,34.92,0.0,-3.0,-8.093338,11.721191,
320.36696,true,true,true,0.125,12.450000000000001,0.0,0,0,0,0.125,12.450000000000001,0.0,0,0,0,0.125,12.4,0.0,0,0,0,0.125,12.450000000000001,0.0,0,0,0,0.125,12.450000000000001,0.0,4,0,0,5.375,12.4,0.0,0,0,0,0.125,12.55,0.0,0,0,0,kReverse,kOff,-87.12,2.12,2.63,0.030212402,-0.94903564,-0.03137207,34.92,0.0,-21.0,-8.093353,11.7211,
320.394011,true,true,true,0.125,12.450000000000001,0.0,0,0,0,0.125,12.450000000000001,0.0,0,0,0,0.125,12.4,0.0,0,0,0,0.125,12.450000000000001,0.0,0,0,0,0.125,12.450000000000001,0.0,4,0,0,5.75,12.4,0.0,0,0,0,0.125,12.55,0.0,0,0,0,kReverse,kOff,-87.12,2.12,2.63,0.05621338,-1.0600586,0.11315918,34.92,0.0,35.0,-8.093353,11.721039,
320.41674800000004,true,true,true,0.125,12.450000000000001,0.0,0,0,0,0.125,12.450000000000001,0.0,0,0,0,0.125,12.4,0.0,0,0,0,0.125,12.450000000000001,0.0,0,0,0,0.125,12.450000000000001,0.0,4,0,0,5.375,12.4,0.0,0,0,0,0.125,12.55,0.0,0,0,0,kReverse,kOff,-87.11,2.11,2.63,-0.019470215,-0.9725952,0.14056396,34.92,0.0,-26.0,-8.093262,11.721085,
320.44308,true,true,true,0.125,12.450000000000001,0.0,0,0,0,0.125,12.450000000000001,0.0,0,0,0,0.125,12.4,0.0,0,0,0,0.125,12.450000000000001,0.0,0,0,0,0.125,12.450000000000001,0.0,4,0,0,4.875,12.4,0.0,0,0,0,0.125,12.55,0.0,0,0,0,kReverse,kOff,-87.04,2.1,2.65,0.14672852,-1.0159302,0.27624512,34.92,0.0,166.0,-8.093124,11.7213745,
320.463504,true,true,true,0.125,12.450000000000001,0.0,0,0,0,0.125,12.450000000000001,0.0,0,0,0,0.125,12.4,0.0,0,0,0,0.125,12.450000000000001,0.0,0,0,0,0.125,12.450000000000001,0.0,4,0,0,3.375,12.4,0.0,0,0,0,0.125,12.55,0.0,0,0,0,kReverse,kOff,-87.17,2.14,2.63,-0.09753418,-0.9227295,-0.18347168,34.92,0.0,-182.0,-8.092636,11.721985,
320.483403,true,true,true,0.125,12.450000000000001,0.0,0,0,0,0.125,12.55,0.0,0,0,0,0.125,12.4,0.0,0,0,0,0.125,12.450000000000001,0.0,0,0,0,0.125,12.450000000000001,0.0,4,0,0,1.875,12.4,0.0,0,0,0,0.125,12.55,0.0,0,0,0,kReverse,kOff,-87.05,2.12,2.66,0.03692627,-0.89019775,0.12359619,34.92,0.0,27.0,-8.09227,11.72261,
320.508015,true,true,true,0.125,12.6,0.0,0,0,0,0.125,12.55,0.0,0,0,0,0.125,12.55,0.0,0,0,0,0.125,12.6,0.0,0,0,0,0.125,12.6,0.0,4,0,0,1.125,12.4,0.0,0,0,0,0.125,12.65,0.0,0,0,0,kReverse,kOff,-87.14,2.09,2.6,-0.05065918,-1.0494995,-0.07128906,34.92,0.0,-113.0,-8.092102,11.723022,
320.527533,true,true,true,0.125,12.6,0.0,0,0,0,0.125,12.55,0.0,0,0,0,0.125,12.55,0.0,0,0,0,0.125,12.6,0.0,0,0,0,0.125,12.6,0.0,4,0,0,0.25,12.6,0.0,0,0,0,0.125,12.65,0.0,0,0,0,kReverse,kOff,-87.2,2.09,2.57,0.05505371,-1.1766968,-0.041931152,34.92,0.0,-8.0,-8.0920105,11.723312,
320.54717999999997,true,true,true,0.125,12.6,0.0,0,0,0,0.125,12.55,0.0,0,0,0,0.125,12.55,0.0,0,0,0,0.125,12.6,0.0,0,0,0,0.125,12.6,0.0,4,0,0,0.0,12.6,0.0,0,0,0,0.125,12.65,0.0,0,0,0,kReverse,kOff,-87.14,2.07,2.59,0.05456543,-1.0187988,0.18640137,34.92,0.0,55.0,-8.091995,11.723877,
320.567682,true,true,true,0.125,12.6,0.0,0,0,0,0.125,12.55,0.0,0,0,0,0.125,12.55,0.0,0,0,0,0.125,12.6,0.0,0,0,0,0.125,12.6,0.0,4,0,0,0.0,12.6,0.0,0,0,0,0.125,12.65,0.0,0,0,0,kReverse,kOff,-87.09,2.08,2.61,-0.0053710938,-1.0106201,-0.060791016,34.92,0.0,-65.0,-8.0920105,11.724228,
320.587085,true,true,true,0.125,12.6,0.0,0,0,0,0.125,12.55,0.0,0,0,0,0.125,12.55,0.0,0,0,0,0.125,12.6,0.0,0,0,0,0.125,12.6,0.0,4,0,0,0.0,12.6,0.0,0,0,0,0.125,12.65,0.0,0,0,0,kReverse,kOff,-87.12,2.09,2.61,0.034729004,-0.9727783,-0.003540039,34.92,0.0,-10.0,-8.092133,11.724808,
320.611793,true,true,true,0.125,12.6,0.0,0,0,0,0.125,12.55,0.0,0,0,0,0.125,12.55,0.0,0,0,0,0.125,12.6,0.0,0,0,0,0.125,12.6,0.0,4,0,0,0.0,12.6,0.0,0,0,0,0.125,12.65,0.0,0,0,0,kReverse,kOff,-87.15,2.09,2.6,-0.012145996,-1.0078735,-0.019165039,34.92,0.0,-60.0,-8.092255,11.725037,
320.631729,true,true,true,0.125,12.6,0.0,0,0,0,0.125,12.55,0.0,0,0,0,0.125,12.55,0.0,0,0,0,0.125,12.6,0.0,0,0,0,0.125,12.6,0.0,4,0,0,0.0,12.6,0.0,0,0,0,0.125,12.65,0.0,0,0,0,kReverse,kOff,-87.15,2.08,2.59,0.056274414,-0.9690552,0.025817871,34.92,0.0,18.0,-8.092407,11.72522,
320.653809,true,true,true,0.125,12.6,0.0,0,0,0,0.125,12.6,0.0,0,0,0,0.125,12.6,0.0,0,0,0,0.125,12.65,0.0,0,0,0,0.125,12.6,0.0,4,0,0,0.0,12.6,0.0,0,0,0,0.125,12.65,0.0,0,0,0,kReverse,kOff,-87.04,2.16,2.69,0.07244873,-0.94366455,-0.09588623,34.92,0.0,2.0,-8.092529,11.725708,
320.674012,true,true,true,0.125,12.6,0.0,0,0,0,0.125,12.6,0.0,0,0,0,0.125,12.6,0.0,0,0,0,0.125,12.65,0.0,0,0,0,0.125,12.6,0.0,4,0,0,0.0,12.6,0.0,0,0,0,0.125,12.65,0.0,0,0,0,kReverse,kOff,-87.11,2.17,2.67,0.036621094,-0.9994507,-0.028381348,34.92,0.0,-16.0,-8.092575,11.725815,
320.694837,true,true,true,0.125,12.6,0.0,0,0,0,0.125,12.6,0.0,0,0,0,0.125,12.6,0.0,0,0,0,0.125,12.65,0.0,0,0,0,0.125,12.6,0.0,4,0,0,0.0,12.6,0.0,0,0,0,0.125,12.65,0.0,0,0,0,kReverse,kOff,-87.07,2.17,2.69,0.08630371,-0.9711304,0.14404297,34.92,0.0,-73.0,-8.092575,11.726028,
320.715028,true,true,true,0.125,12.6,0.0,0,0,0,0.125,12.6,0.0,0,0,0,0.125,12.6,0.0,0,0,0,0.125,12.65,0.0,0,0,0,0.125,12.6,0.0,4,0,0,0.0,12.6,0.0,0,0,0,0.125,12.65,0.0,0,0,0,kReverse,kOff,-87.12,2.15,2.65,0.06384277,-0.9753418,0.14672852,34.92,0.0,55.0,-8.092575,11.726105,
320.738304,true,true,true,0.125,12.6,0.0,0,0,0,0.125,12.6,0.0,0,0,0,0.125,12.6,0.0,0,0,0,0.125,12.65,0.0,0,0,0,0.125,12.6,0.0,4,0,0,0.0,12.6,0.0,0,0,0,0.125,12.65,0.0,0,0,0,kReverse,kOff,-87.08,2.14,2.66,0.009277344,-0.9981079,0.020690918,34.92,0.0,-30.0,-8.092575,11.726242,
320.75965499999995,true,true,true,0.125,12.6,0.0,0,0,0,0.125,12.6,0.0,0,0,0,0.125,12.6,0.0,0,0,0,0.125,12.65,0.0,0,0,0,0.125,12.6,0.0,4,0,0,0.0,12.6,0.0,0,0,0,0.125,12.65,0.0,0,0,0,kReverse,kOff,-87.12,2.11,2.63,0.023254395,-1.0097046,0.08483887,34.92,0.0,0.0,-8.092606,11.726273,
320.782625,true,true,true,0.125,12.6,0.0,0,0,0,0.125,12.6,0.0,0,0,0,0.125,12.6,0.0,0,0,0,0.125,12.65,0.0,0,0,0,0.125,12.6,0.0,4,0,0,0.0,12.6,0.0,0,0,0,0.125,12.65,0.0,0,0,0,kReverse,kOff,-87.11,2.1,2.62,0.023742676,-0.97491455,-9.765625E-4,34.92,0.0,-20.0,-8.092621,11.726318,
320.802631,true,true,true,0.125,12.6,0.0,0,0,0,0.125,12.65,0.0,0,0,0,0.125,12.6,0.0,0,0,0,0.125,12.65,0.0,0,0,0,0.125,12.6,0.0,4,0,0,0.0,12.6,0.0,0,0,0,0.125,12.65,0.0,0,0,0,kReverse,kOff,-87.13,2.09,2.61,-0.015319824,-0.9937744,0.034301758,34.92,0.0,-49.0,-8.092743,11.726364,
320.82315600000004,true,true,true,0.125,12.65,0.0,0,0,0,0.125,12.65,0.0,0,0,0,0.125,12.6,0.0,0,0,0,0.125,12.65,0.0,0,0,0,0.125,12.65,0.0,4,0,0,0.0,12.6,0.0,0,0,0,0.125,12.700000000000001,0.0,0,0,0,kReverse,kOff,-87.13,2.09,2.61,0.07305908,-0.98742676,0.066711426,34.92,0.0,44.0,-8.092819,11.726379,
320.84514399999995,true,true,true,0.125,12.65,0.0,0,0,0,0.125,12.65,0.0,0,0,0,0.125,12.6,0.0,0,0,0,0.125,12.65,0.0,0,0,0,0.125,12.65,0.0,4,0,0,0.0,12.6,0.0,0,0,0,0.125,12.700000000000001,0.0,0,0,0,kReverse,kOff,-87.1,2.12,2.64,0.057922363,-0.98657227,0.01159668,34.92,0.0,14.0,-8.0928955,11.726456,
320.864133,true,true,true,0.125,12.65,0.0,0,0,0,0.125,12.65,0.0,0,0,0,0.125,12.6,0.0,0,0,0,0.125,12.65,0.0,0,0,0,0.125,12.65,0.0,4,0,0,0.0,12.6,0.0,0,0,0,0.125,12.700000000000001,0.0,0,0,0,kReverse,kOff,-87.09,2.16,2.67,0.08166504,-0.9711914,0.010925293,34.92,0.0,37.0,-8.09285,11.72644,
320.885439,true,true,true,0.125,12.65,0.0,0,0,0,0.125,12.65,0.0,0,0,0,0.125,12.6,0.0,0,0,0,0.125,12.65,0.0,0,0,0,0.125,12.65,0.0,4,0,0,0.0,12.6,0.0,0,0,0,0.125,12.700000000000001,0.0,0,0,0,kReverse,kOff,-87.08,2.17,2.68,0.018676758,-0.9768677,0.020080566,34.92,0.0,-21.0,-8.092804,11.726395,
320.906381,true,true,true,0.125,12.65,0.0,0,0,0,0.125,12.65,0.0,0,0,0,0.125,12.6,0.0,0,0,0,0.125,12.65,0.0,0,0,0,0.125,12.65,0.0,4,0,0,0.0,12.6,0.0,0,0,0,0.125,12.700000000000001,0.0,0,0,0,kReverse,kOff,-87.09,2.15,2.66,0.05230713,-0.98046875,0.08282471,34.92,0.0,27.0,-8.092712,11.72641,
320.927674,true,true,true,0.125,12.65,0.0,0,0,0,0.125,12.65,0.0,0,0,0,0.125,12.6,0.0,0,0,0,0.125,12.65,0.0,0,0,0,0.125,12.65,0.0,4,0,0,0.0,12.6,0.0,0,0,0,0.125,12.700000000000001,0.0,0,0,0,kReverse,kOff,-87.09,2.14,2.66,0.034118652,-0.9871216,0.036071777,34.92,0.0,-2.0,-8.092621,11.726456,
320.950895,true,true,true,0.125,12.65,0.0,0,0,0,0.125,12.65,0.0,0,0,0,0.125,12.6,0.0,0,0,0,0.125,12.65,0.0,0,0,0,0.125,12.65,0.0,4,0,0,0.0,12.6,0.0,0,0,0,0.125,12.700000000000001,0.0,0,0,0,kReverse,kOff,-87.11,2.12,2.64,0.012756348,-0.98791504,0.019042969,34.92,0.0,-26.0,-8.092514,11.726501,
320.970822,true,true,true,0.125,12.65,0.0,0,0,0,0.125,12.65,0.0,0,0,0,0.125,12.6,0.0,0,0,0,0.125,12.65,0.0,0,0,0,0.125,12.65,0.0,4,0,0,0.0,12.6,0.0,0,0,0,0.125,12.700000000000001,0.0,0,0,0,kReverse,kOff,-87.12,2.1,2.62,0.01739502,-0.9831543,0.04144287,34.92,0.0,-16.0,-8.092499,11.726501,
320.995631,true,true,true,0.125,12.65,0.0,0,0,0,0.125,12.65,0.0,0,0,0,0.125,12.6,0.0,0,0,0,0.125,12.65,0.0,0,0,0,0.125,12.65,0.0,4,0,0,0.0,12.6,0.0,0,0,0,0.125,12.700000000000001,0.0,0,0,0,kReverse,kOff,-87.12,2.1,2.62,0.033325195,-0.9803467,0.07495117,34.92,0.0,7.0,-8.092499,11.726532,
321.018994,true,true,true,0.125,12.65,0.0,0,0,0,0.125,12.65,0.0,0,0,0,0.125,12.6,0.0,0,0,0,0.125,12.65,0.0,0,0,0,0.125,12.65,0.0,4,0,0,0.0,12.6,0.0,0,0,0,0.125,12.700000000000001,0.0,0,0,0,kReverse,kOff,-87.1,2.12,2.64,0.04522705,-0.9844971,0.032104492,34.92,0.0,7.0,-8.092499,11.726578,
321.041395,true,true,true,0.125,12.65,0.0,0,0,0,0.125,12.65,0.0,0,0,0,0.125,12.6,0.0,0,0,0,0.125,12.65,0.0,0,0,0,0.125,12.65,0.0,4,0,0,0.0,12.6,0.0,0,0,0,0.125,12.700000000000001,0.0,0,0,0,kReverse,kOff,-87.1,2.14,2.66,0.042053223,-0.97979736,0.01940918,34.92,0.0,1.0,-8.092499,11.726608,
321.066191,true,true,true,0.125,12.65,0.0,0,0,0,0.125,12.65,0.0,0,0,0,0.125,12.6,0.0,0,0,0,0.125,12.65,0.0,0,0,0,0.125,12.65,0.0,4,0,0,0.0,12.6,0.0,0,0,0,0.125,12.700000000000001,0.0,0,0,0,kReverse,kOff,-87.09,2.16,2.67,0.046569824,-0.9784546,0.034973145,34.92,0.0,9.0,-8.092499,11.726608,
321.08781,true,true,true,0.125,12.65,0.0,0,0,0,0.125,12.65,0.0,0,0,0,0.125,12.6,0.0,0,0,0,0.125,12.65,0.0,0,0,0,0.125,12.65,0.0,4,0,0,0.0,12.6,0.0,0,0,0,0.125,12.700000000000001,0.0,0,0,0,kReverse,kOff,-87.08,2.15,2.67,0.044067383,-0.9857178,0.048950195,34.92,0.0,10.0,-8.092499,11.726608,
321.110458,true,true,true,0.125,12.65,0.0,0,0,0,0.125,12.65,0.0,0,0,0,0.125,12.6,0.0,0,0,0,0.125,12.65,0.0,0,0,0,0.125,12.65,0.0,4,0,0,0.0,12.6,0.0,0,0,0,0.125,12.700000000000001,0.0,0,0,0,kReverse,kOff,-87.1,2.14,2.66,0.03375244,-0.9923096,0.029724121,34.92,0.0,-4.0,-8.092499,11.726608,
321.139152,true,true,true,0.125,12.65,0.0,0,0,0,0.125,12.65,0.0,0,0,0,0.125,12.6,0.0,0,0,0,0.125,12.65,0.0,0,0,0,0.125,12.6,0.0,4,0,0,0.0,12.6,0.0,0,0,0,0.125,12.700000000000001,0.0,0,0,0,kReverse,kOff,-87.1,2.13,2.65,0.017456055,-0.9902954,0.021118164,34.92,0.0,-22.0,-8.092514,11.726608,
321.16182799999996,true,true,true,0.125,12.65,0.0,0,0,0,0.125,12.65,0.0,0,0,0,0.125,12.6,0.0,0,0,0,0.125,12.65,0.0,0,0,0,0.125,12.6,0.0,4,0,0,0.25,12.6,0.0,0,0,0,0.125,12.700000000000001,0.0,0,0,0,kReverse,kOff,-87.12,2.11,2.63,0.027893066,-0.9838257,0.05505371,34.92,0.0,-2.0,-8.092606,11.726624,
321.185165,true,true,true,0.125,12.65,0.0,0,0,0,0.125,12.65,0.0,0,0,0,0.125,12.6,0.0,0,0,0,0.125,12.65,0.0,0,0,0,0.125,12.6,0.0,4,0,0,0.25,12.6,0.0,0,0,0,0.125,12.700000000000001,0.0,0,0,0,kReverse,kOff,-87.11,2.12,2.64,0.040527344,-0.9857178,0.03338623,34.92,0.0,3.0,-8.092606,11.7267,
321.20523499999996,true,true,true,0.125,12.65,0.0,0,0,0,0.125,12.65,0.0,0,0,0,0.125,12.6,0.0,0,0,0,0.125,12.65,0.0,0,0,0,0.125,12.6,0.0,4,0,0,0.25,12.6,0.0,0,0,0,0.125,12.700000000000001,0.0,0,0,0,kReverse,kOff,-87.1,2.13,2.65,0.038879395,-0.984375,0.02331543,34.92,0.0,0.0,-8.092606,11.7267,
321.228349,true,true,true,0.125,12.65,0.0,0,0,0,0.125,12.65,0.0,0,0,0,0.125,12.6,0.0,0,0,0,0.125,12.65,0.0,0,0,0,0.125,12.6,0.0,4,0,0,0.375,12.6,0.0,0,0,0,0.125,12.700000000000001,0.0,0,0,0,kReverse,kOff,-87.1,2.15,2.66,0.059020996,-0.9824829,0.025268555,34.92,0.0,19.0,-8.092606,11.7267,
321.250594,true,true,true,0.125,12.65,0.0,0,0,0,0.125,12.65,0.0,0,0,0,0.125,12.6,0.0,0,0,0,0.125,12.65,0.0,0,0,0,0.125,12.6,0.0,4,0,0,1.0,12.6,0.0,0,0,0,0.125,12.700000000000001,0.0,0,0,0,kReverse,kOff,-87.1,2.15,2.66,0.037109375,-0.9714966,0.04876709,34.92,0.0,4.0,-8.092606,11.7267,
321.27287,true,true,true,0.125,12.65,0.0,0,0,0,0.125,12.65,0.0,0,0,0,0.125,12.6,0.0,0,0,0,0.125,12.65,0.0,0,0,0,0.125,12.6,0.0,4,0,0,1.125,12.6,0.0,0,0,0,0.125,12.700000000000001,0.0,0,0,0,kReverse,kOff,-87.09,2.15,2.67,0.034118652,-0.9753418,0.035949707,34.92,0.0,-1.0,-8.092606,11.7267,
321.29783999999995,true,true,true,0.125,12.6,0.0,0,0,0,0.125,12.6,0.0,0,0,0,0.125,12.55,0.0,0,0,0,0.125,12.6,0.0,0,0,0,0.125,12.6,0.0,4,0,0,1.75,12.6,0.0,0,0,0,0.125,12.6,0.0,0,0,0,kReverse,kOff,-87.09,2.14,2.66,0.016418457,-0.9848633,-0.007080078,34.92,0.0,-30.0,-8.092636,11.726685,
321.324736,true,true,true,0.125,12.6,0.0,0,0,0,0.125,12.6,0.0,0,0,0,0.125,12.55,0.0,0,0,0,0.125,12.6,0.0,0,0,0,0.125,12.6,0.0,4,0,0,2.875,12.450000000000001,0.0,0,0,0,0.125,12.6,0.0,0,0,0,kReverse,kOff,-87.1,2.12,2.64,0.038146973,-0.97558594,0.06500244,34.92,0.0,9.0,-8.092697,11.726593,
321.342619,true,true,true,0.125,12.6,0.0,0,0,0,0.125,12.6,0.0,0,0,0,0.125,12.55,0.0,0,0,0,0.125,12.6,0.0,0,0,0,0.125,12.6,0.0,4,0,0,4.25,12.450000000000001,0.0,0,0,0,0.125,12.6,0.0,0,0,0,kReverse,kOff,-87.1,2.12,2.64,0.015136719,-0.9788208,0.023986816,34.92,0.0,-22.0,-8.092743,11.726578,
321.364935,true,true,true,0.125,12.6,0.0,0,0,0,0.125,12.6,0.0,0,0,0,0.125,12.55,0.0,0,0,0,0.125,12.6,0.0,0,0,0,0.125,12.6,0.0,4,0,0,5.375,12.450000000000001,0.0,0,0,0,0.125,12.6,0.0,0,0,0,kReverse,kOff,-87.1,2.12,2.64,0.04284668,-0.98114014,0.011169434,34.92,0.0,0.0,-8.09285,11.726501,
321.38764199999997,true,true,true,0.125,12.6,0.0,0,0,0,0.125,12.6,0.0,0,0,0,0.125,12.55,0.0,0,0,0,0.125,12.6,0.0,0,0,0,0.125,12.6,0.0,4,0,0,6.5,12.450000000000001,0.0,0,0,0,0.125,12.6,0.0,0,0,0,kReverse,kOff,-87.11,2.12,2.64,0.03765869,-0.97680664,0.034179688,34.92,0.0,1.0,-8.09285,11.726425,
321.417939,true,true,true,0.125,12.6,0.0,0,0,0,0.125,12.6,0.0,0,0,0,0.125,12.55,0.0,0,0,0,0.125,12.6,0.0,0,0,0,0.125,12.6,0.0,4,0,0,7.875,12.450000000000001,0.0,0,0,0,0.125,12.6,0.0,0,0,0,kReverse,kOff,-87.1,2.12,2.64,0.041381836,-0.9902344,0.032836914,34.92,0.0,4.0,-8.09285,11.726364,
321.441821,true,true,true,0.125,12.6,0.0,0,0,0,0.125,12.35,0.0,0,0,0,0.125,12.55,0.0,0,0,0,0.125,12.6,0.0,0,0,0,0.125,12.6,0.0,4,0,0,8.5,12.450000000000001,0.0,0,0,0,0.125,12.6,0.0,0,0,0,kReverse,kOff,-87.11,2.11,2.63,0.034240723,-0.9813843,0.03845215,34.92,0.0,0.0,-8.09285,11.726364,
321.46227700000003,true,true,true,0.125,12.35,0.0,0,0,0,0.125,12.35,0.0,0,0,0,0.125,12.35,0.0,0,0,0,0.125,12.35,0.0,0,0,0,0.125,12.35,0.0,4,0,0,9.125,12.450000000000001,0.0,0,0,0,0.125,12.4,0.0,0,0,0,kReverse,kOff,-87.11,2.11,2.63,0.034118652,-0.97509766,0.050842285,34.92,0.0,2.0,-8.09285,11.726364,
321.48375500000003,true,true,true,0.125,12.35,0.0,0,0,0,0.125,12.35,0.0,0,0,0,0.125,12.35,0.0,0,0,0,0.125,12.35,0.0,0,0,0,0.125,12.35,0.0,4,0,0,9.375,12.15,0.0,0,0,0,0.125,12.4,0.0,0,0,0,kReverse,kOff,-87.12,2.09,2.61,0.033935547,-1.0023804,0.034973145,34.92,0.0,-2.0,-8.09285,11.726364,
