timer,lineLeft,lineCenter,lineRight,LeftFrontCurrent,LeftFrontVoltage,LeftFrontValue,LeftFrontPosition,LeftFrontVelocity,LeftFrontFaults,LeftRearCurrent,LeftRearVoltage,LeftRearValue,LeftRearPosition,LeftRearVelocity,LeftRearFaults,RightFrontCurrent,RightFrontVoltage,RightFrontValue,RightFrontPosition,RightFrontVelocity,RightFrontFaults,RightRearCurrent,RightRearVoltage,RightRearValue,RightRearPosition,RightRearVelocity,RightRearFaults,LiftCurrent,LiftVoltage,LiftValue,LiftPosition,LiftVelocity,LiftFaults,WristCurrent,WristVoltage,WristValue,WristPosition,WristVelocity,WristFaults,RollerCurrent,RollerVoltage,RollerValue,RollerPosition,RollerVelocity,RollerFaults,PushersState,PivotsState,navx_Pitch,navx_Roll,navx_Yaw,navx_XAcc,navx_YAcc,navx_ZAcc,navx_Temp,navx_Bar,navx_Alt,navx_XDis,navx_YDis,
134.09018600000002,true,true,true,0.125,12.8,0.0,-12,0,0,0.125,12.8,0.0,0,0,0,0.125,12.8,0.0,-23,0,0,0.125,12.85,0.0,0,0,0,0.0,12.8,0.0,0,0,0,0.0,12.8,0.0,0,0,0,0.125,12.9,0.0,0,0,0,kReverse,kOff,-86.22,1.7,1.62,0.030151367,-0.9834595,0.06365967,32.91,0.0,0.0,-0.0025939941,0.0038604736,
134.106906,true,true,true,0.125,12.8,0.0,-12,0,0,0.125,12.8,0.0,0,0,0,0.125,12.8,0.0,-23,0,0,0.125,12.85,0.0,0,0,0,0.0,12.8,0.0,0,0,0,0.0,12.8,0.0,0,0,0,0.125,12.9,0.0,0,0,0,kReverse,kOff,-86.22,1.7,1.62,0.026428223,-0.9840698,0.060302734,32.91,0.0,-2.0,-0.0025939941,0.0038604736,
134.12677100000002,true,true,true,0.125,12.8,0.0,-12,0,0,0.125,12.8,0.0,0,0,0,0.125,12.8,0.0,-23,0,0,0.125,12.85,0.0,0,0,0,0.0,12.8,0.0,0,0,0,0.0,12.8,0.0,0,0,0,0.125,12.9,0.0,0,0,0,kReverse,kOff,-86.21,1.7,1.62,0.026428223,-0.9829712,0.057556152,32.91,0.0,-2.0,-0.0025939941,0.0038604736,
134.149164,true,true,true,0.125,12.8,0.0,-12,0,0,0.125,12.8,0.0,0,0,0,0.125,12.8,0.0,-23,0,0,0.125,12.85,0.0,0,0,0,0.0,12.8,0.0,0,0,0,0.0,12.8,0.0,0,0,0,0.125,12.9,0.0,0,0,0,kReverse,kOff,-86.21,1.69,1.62,0.028320312,-0.9836426,0.062194824,32.91,0.0,0.0,-0.0025939941,0.0038604736,
134.16683600000002,true,true,true,0.125,12.8,0.0,-12,0,0,0.125,12.8,0.0,0,0,0,0.125,12.8,0.0,-23,0,0,0.125,12.85,0.0,0,0,0,0.125,12.8,0.0,0,0,0,0.0,12.8,0.0,0,0,0,0.125,12.9,0.0,0,0,0,kReverse,kOff,-86.21,1.69,1.62,0.027832031,-0.9849243,0.060791016,32.91,0.0,-1.0,-0.0025939941,0.0038604736,
134.189592,true,true,true,0.125,12.8,0.0,-12,0,0,0.125,12.8,0.0,0,0,0,0.125,12.8,0.0,-23,0,0,0.125,12.8,0.0,0,0,0,0.125,12.8,0.0,0,0,0,0.0,12.8,0.0,0,0,0,0.125,12.9,0.0,0,0,0,kReverse,kOff,-86.21,1.69,1.62,0.02746582,-0.9873047,0.057128906,32.91,0.0,-1.0,-0.0025939941,0.0038604736,
134.20989,true,true,true,0.125,12.8,0.0,-12,0,0,0.125,12.8,0.0,0,0,0,0.125,12.8,0.0,-23,0,0,0.125,12.8,0.0,0,0,0,0.0,12.8,0.0,0,0,0,0.0,12.8,0.0,0,0,0,0.125,12.9,0.0,0,0,0,kReverse,kOff,-86.21,1.7,1.62,0.031311035,-0.9813843,0.058410645,32.91,0.0,2.0,-0.0025939941,0.0038604736,
134.228016,true,true,true,0.125,12.8,0.0,-12,0,0,0.125,12.8,0.0,0,0,0,0.125,12.8,0.0,-23,0,0,0.125,12.8,0.0,0,0,0,0.0,12.8,0.0,0,0,0,0.0,12.8,0.0,0,0,0,0.125,12.9,0.0,0,0,0,kReverse,kOff,-86.21,1.7,1.62,0.03186035,-0.98339844,0.05609131,32.91,0.0,2.0,-0.0025939941,0.0038604736,
134.247779,true,true,true,0.125,12.8,0.0,-12,0,0,0.125,12.8,0.0,0,0,0,0.125,12.8,0.0,-23,0,0,0.125,12.8,0.0,0,0,0,0.0,12.8,0.0,0,0,0,0.0,12.8,0.0,0,0,0,0.125,12.9,0.0,0,0,0,kReverse,kOff,-86.21,1.69,1.62,0.02911377,-0.98150635,0.05419922,32.91,0.0,0.0,-0.0025939941,0.0038604736,
134.269753,true,true,true,0.125,12.8,0.0,-12,0,0,0.125,12.8,0.0,0,0,0,0.125,12.8,0.0,-23,0,0,0.125,12.8,0.0,0,0,0,0.0,12.8,0.0,0,0,0,0.0,12.8,0.0,0,0,0,0.125,12.9,0.0,0,0,0,kReverse,kOff,-86.21,1.69,1.62,0.03100586,-0.98358154,0.05834961,32.91,0.0,1.0,-0.0025939941,0.0038604736,
134.292973,true,true,true,0.125,12.8,0.0,-12,0,0,0.125,12.8,0.0,0,0,0,0.125,12.8,0.0,-23,0,0,0.125,12.8,0.0,0,0,0,0.0,12.8,0.0,0,0,0,0.0,12.8,0.0,0,0,0,0.125,12.9,0.0,0,0,0,kReverse,kOff,-86.21,1.7,1.62,0.02947998,-0.97979736,0.05657959,32.91,0.0,0.0,-0.0025939941,0.0038604736,
134.314241,true,true,true,0.125,12.8,0.0,-12,0,0,0.125,12.8,0.0,0,0,0,0.125,12.8,0.0,-23,0,0,0.125,12.8,0.0,0,0,0,0.0,12.8,0.0,0,0,0,0.0,12.8,0.0,0,0,0,0.125,12.9,0.0,0,0,0,kReverse,kOff,-86.21,1.7,1.62,0.032165527,-0.98498535,0.06262207,32.91,0.0,2.0,-0.0025939941,0.0038604736,
134.33560500000002,true,true,true,0.125,12.8,0.0,-12,0,0,0.125,12.8,0.0,0,0,0,0.125,12.8,0.0,-23,0,0,0.125,12.8,0.0,0,0,0,0.0,12.8,0.0,0,0,0,0.0,12.8,0.0,0,0,0,0.125,12.9,0.0,0,0,0,kReverse,kOff,-86.21,1.7,1.63,0.028442383,-0.9816284,0.05682373,32.91,0.0,0.0,-0.0025939941,0.0038604736,
134.357221,true,true,true,0.125,12.8,0.0,-12,0,0,0.125,12.8,0.0,0,0,0,0.125,12.8,0.0,-23,0,0,0.125,12.85,0.0,0,0,0,0.0,12.8,0.0,0,0,0,0.0,12.8,0.0,0,0,0,0.125,12.9,0.0,0,0,0,kReverse,kOff,-86.21,1.7,1.63,0.029968262,-0.9838867,0.0602417,32.91,0.0,0.0,-0.0025939941,0.0038604736,
134.37728600000003,true,true,true,0.125,12.8,0.0,-12,0,0,0.125,12.8,0.0,0,0,0,0.125,12.8,0.0,-23,0,0,0.125,12.85,0.0,0,0,0,0.125,12.8,0.0,0,0,0,0.0,12.8,0.0,0,0,0,0.125,12.9,0.0,0,0,0,kReverse,kOff,-86.21,1.7,1.63,0.027526855,-0.9819946,0.06085205,32.91,0.0,-1.0,-0.0025939941,0.0038604736,
134.398487,true,true,true,0.125,12.8,0.0,-12,0,0,0.125,12.8,0.0,0,0,0,0.125,12.8,0.0,-23,0,0,0.125,12.85,0.0,0,0,0,0.125,12.8,0.0,0,0,0,0.0,12.8,0.0,0,0,0,0.125,12.9,0.0,0,0,0,kReverse,kOff,-86.21,1.7,1.63,0.03112793,-0.9845581,0.057128906,32.91,0.0,1.0,-0.0025939941,0.0038604736,
134.42228100000003,true,true,true,0.125,12.8,0.0,-12,0,0,0.125,12.8,0.0,0,0,0,0.125,12.8,0.0,-23,0,0,0.125,12.85,0.0,0,0,0,0.125,12.8,0.0,0,0,0,0.0,12.8,0.0,0,0,0,0.125,12.9,0.0,0,0,0,kReverse,kOff,-86.21,1.7,1.63,0.028686523,-0.98327637,0.054504395,32.91,0.0,0.0,-0.0025939941,0.0038604736,
134.44824300000002,true,true,true,0.125,12.8,0.0,-12,0,0,0.125,12.8,0.0,0,0,0,0.125,12.8,0.0,-23,0,0,0.125,12.85,0.0,0,0,0,0.125,12.8,0.0,0,0,0,0.0,12.8,0.0,0,0,0,0.125,12.9,0.0,0,0,0,kReverse,kOff,-86.21,1.7,1.63,0.028930664,-0.98394775,0.060791016,32.91,0.0,0.0,-0.0025939941,0.0038604736,
134.468446,true,true,true,0.125,12.8,0.0,-12,0,0,0.125,12.8,0.0,0,0,0,0.125,12.8,0.0,-23,0,0,0.125,12.85,0.0,0,0,0,0.0,12.8,0.0,0,0,0,0.0,12.8,0.0,0,0,0,0.125,12.9,0.0,0,0,0,kReverse,kOff,-86.21,1.7,1.63,0.030700684,-0.9816284,0.058776855,32.91,0.0,1.0,-0.0025939941,0.0038604736,
134.490552,true,true,true,0.125,12.8,0.0,-12,0,0,0.125,12.8,0.0,0,0,0,0.125,12.8,0.0,-23,0,0,0.125,12.85,0.0,0,0,0,0.0,12.8,0.0,0,0,0,0.0,12.8,0.0,0,0,0,0.125,12.9,0.0,0,0,0,kReverse,kOff,-86.21,1.7,1.63,0.030334473,-0.9822998,0.059265137,32.91,0.0,0.0,-0.0025939941,0.0038604736,
134.51245,true,true,true,0.125,12.8,0.0,-12,0,0,0.125,12.8,0.0,0,0,0,0.125,12.8,0.0,-23,0,0,0.125,12.85,0.0,0,0,0,0.0,12.8,0.0,0,0,0,0.0,12.8,0.0,0,0,0,0.125,12.9,0.0,0,0,0,kReverse,kOff,-86.21,1.71,1.63,0.030029297,-0.9804077,0.06097412,32.91,0.0,0.0,-0.0025939941,0.0038604736,
134.525489,true,true,true,0.125,12.8,0.0,-12,0,0,0.125,12.8,0.0,0,0,0,0.125,12.8,0.0,-23,0,0,0.125,12.85,0.0,0,0,0,0.0,12.8,0.0,0,0,0,0.0,12.8,0.0,0,0,0,0.125,12.9,0.0,0,0,0,kReverse,kOff,-86.21,1.71,1.63,0.026306152,-0.9801636,0.058654785,32.91,0.0,-3.0,-0.0025939941,0.0038604736,
134.55056900000002,true,true,true,0.125,12.8,0.0,-12,0,0,0.125,12.8,0.0,0,0,0,0.125,12.8,0.0,-23,0,0,0.125,12.85,0.0,0,0,0,0.0,12.8,0.0,0,0,0,0.0,12.8,0.0,0,0,0,0.125,12.9,0.0,0,0,0,kReverse,kOff,-86.2,1.71,1.63,0.029785156,-0.9840698,0.05999756,32.91,0.0,0.0,-0.0025939941,0.0038604736,
134.573921,true,true,true,0.125,12.8,0.0,-12,0,0,0.125,12.8,0.0,0,0,0,0.125,12.8,0.0,-23,0,0,0.125,12.85,0.0,0,0,0,0.0,12.8,0.0,0,0,0,0.0,12.8,0.0,0,0,0,0.125,12.9,0.0,0,0,0,kReverse,kOff,-86.2,1.71,1.63,0.030639648,-0.9838867,0.057128906,32.91,0.0,1.0,-0.0025939941,0.0038604736,
134.594696,true,true,true,0.125,12.8,0.0,-12,0,0,0.125,12.8,0.0,0,0,0,0.125,12.8,0.0,-23,0,0,0.125,12.85,0.0,0,0,0,0.0,12.8,0.0,0,0,0,0.0,12.8,0.0,0,0,0,0.125,12.9,0.0,0,0,0,kReverse,kOff,-86.2,1.71,1.63,0.030090332,-0.98114014,0.05517578,32.91,0.0,0.0,-0.0025939941,0.0038604736,
134.61658500000001,true,true,true,0.125,12.8,0.0,-12,0,0,0.125,12.8,0.0,0,0,0,0.125,12.8,0.0,-23,0,0,0.125,12.85,0.0,0,0,0,0.125,12.8,0.0,0,0,0,0.0,12.8,0.0,0,0,0,0.125,12.9,0.0,0,0,0,kReverse,kOff,-86.2,1.71,1.63,0.026245117,-0.98187256,0.056762695,32.92,0.0,-3.0,-0.0025939941,0.0038604736,
134.64735000000002,true,true,true,0.125,12.8,0.0,-12,0,0,0.125,12.8,0.0,0,0,0,0.125,12.8,0.0,-23,0,0,0.125,12.85,0.0,0,0,0,0.125,12.8,0.0,0,0,0,0.0,12.8,0.0,0,0,0,0.125,12.9,0.0,0,0,0,kReverse,kOff,-86.2,1.71,1.63,0.028686523,-0.98413086,0.057128906,32.92,0.0,0.0,-0.0025939941,0.0038604736,
134.66768100000002,true,true,true,0.125,12.8,0.0,-12,0,0,0.125,12.8,0.0,0,0,0,0.125,12.8,0.0,-23,0,0,0.125,12.8,0.0,0,0,0,0.125,12.8,0.0,0,0,0,0.0,12.8,0.0,0,0,0,0.125,12.9,0.0,0,0,0,kReverse,kOff,-86.21,1.7,1.63,0.030456543,-0.9840088,0.053344727,32.92,0.0,1.0,-0.0025939941,0.0038604736,
134.690948,true,true,true,0.125,12.8,0.0,-12,0,0,0.125,12.8,0.0,0,0,0,0.125,12.8,0.0,-23,0,0,0.125,12.8,0.0,0,0,0,0.125,12.8,0.0,0,0,0,0.0,12.8,0.0,0,0,0,0.125,12.9,0.0,0,0,0,kReverse,kOff,-86.21,1.7,1.63,0.027709961,-0.9880371,0.05041504,32.92,0.0,-1.0,-0.0025939941,0.0038604736,
134.710342,true,true,true,0.125,12.8,0.0,-12,0,0,0.125,12.8,0.0,0,0,0,0.125,12.8,0.0,-23,0,0,0.125,12.8,0.0,0,0,0,0.125,12.8,0.0,0,0,0,0.0,12.8,0.0,0,0,0,0.125,12.9,0.0,0,0,0,kReverse,kOff,-86.21,1.7,1.63,0.03161621,-0.9824219,0.05731201,32.92,0.0,2.0,-0.0025939941,0.0038604736,
134.731114,true,true,true,0.125,12.8,0.0,-12,0,0,0.125,12.8,0.0,0,0,0,0.125,12.8,0.0,-23,0,0,0.125,12.8,0.0,0,0,0,0.0,12.8,0.0,0,0,0,0.0,12.8,0.0,0,0,0,0.125,12.9,0.0,0,0,0,kReverse,kOff,-86.2,1.71,1.63,0.027526855,-0.98339844,0.053894043,32.92,0.0,-1.0,-0.0025939941,0.0038604736,
134.754784,true,true,true,0.125,12.8,0.0,-12,0,0,0.125,12.8,0.0,0,0,0,0.125,12.8,0.0,-23,0,0,0.125,12.8,0.0,0,0,0,0.0,12.8,0.0,0,0,0,0.0,12.8,0.0,0,0,0,0.125,12.9,0.0,0,0,0,kReverse,kOff,-86.21,1.7,1.63,0.03112793,-0.98327637,0.06085205,32.92,0.0,1.0,-0.0025939941,0.0038604736,
134.776147,true,true,true,0.125,12.8,0.0,-12,0,0,0.125,12.8,0.0,0,0,0,0.125,12.8,0.0,-23,0,0,0.125,12.8,0.0,0,0,0,0.0,12.8,0.0,0,0,0,0.0,12.8,0.0,0,0,0,0.125,12.9,0.0,0,0,0,kReverse,kOff,-86.21,1.7,1.63,0.028259277,-0.9841919,0.058166504,32.92,0.0,-1.0,-0.0025939941,0.0038604736,
134.799346,true,true,true,0.125,12.8,0.0,-12,0,0,0.125,12.8,0.0,0,0,0,0.125,12.8,0.0,-23,0,0,0.125,12.8,0.0,0,0,0,0.0,12.8,0.0,0,0,0,0.0,12.8,0.0,0,0,0,0.125,12.9,0.0,0,0,0,kReverse,kOff,-86.21,1.7,1.63,0.02960205,-0.9819946,0.06359863,32.92,0.0,0.0,-0.0025939941,0.0038604736,
134.821329,true,true,true,0.125,12.8,0.0,-12,0,0,0.125,12.8,0.0,0,0,0,0.125,12.8,0.0,-23,0,0,0.125,12.8,0.0,0,0,0,0.125,12.8,0.0,0,0,0,0.0,12.8,0.0,0,0,0,0.125,12.9,0.0,0,0,0,kReverse,kOff,-86.21,1.7,1.63,0.029846191,-0.9852905,0.059448242,32.92,0.0,0.0,-0.0025939941,0.0038604736,
134.84874000000002,true,true,true,0.125,12.8,0.0,-12,0,0,0.125,12.8,0.0,0,0,0,0.125,12.8,0.0,-23,0,0,0.125,12.8,0.0,0,0,0,0.0,12.8,0.0,0,0,0,0.0,12.8,0.0,0,0,0,0.125,12.9,0.0,0,0,0,kReverse,kOff,-86.21,1.7,1.63,0.03161621,-0.9836426,0.062805176,32.92,0.0,2.0,-0.0025939941,0.0038604736,
134.871025,true,true,true,0.125,12.8,0.0,-12,0,0,0.125,12.8,0.0,0,0,0,0.125,12.8,0.0,-23,0,0,0.125,12.8,0.0,0,0,0,0.0,12.8,0.0,0,0,0,0.0,12.8,0.0,0,0,0,0.125,12.9,0.0,0,0,0,kReverse,kOff,-86.2,1.7,1.63,0.02758789,-0.98321533,0.0637207,32.92,0.0,-1.0,-0.0025939941,0.0038604736,
134.891266,true,true,true,0.125,12.8,0.0,-12,0,0,0.125,12.8,0.0,0,0,0,0.125,12.8,0.0,-23,0,0,0.125,12.8,0.0,0,0,0,0.0,12.8,0.0,0,0,0,0.0,12.8,0.0,0,0,0,0.125,12.9,0.0,0,0,0,kReverse,kOff,-86.2,1.7,1.63,0.03173828,-0.9814453,0.06097412,32.92,0.0,2.0,-0.0025939941,0.0038604736,
134.91464200000001,true,true,true,0.125,12.8,0.0,-12,0,0,0.125,12.8,0.0,0,0,0,0.125,12.8,0.0,-23,0,0,0.125,12.8,0.0,0,0,0,0.0,12.8,0.0,0,0,0,0.0,12.8,0.0,0,0,0,0.125,12.9,0.0,0,0,0,kReverse,kOff,-86.2,1.7,1.63,0.026550293,-0.9837036,0.06561279,32.92,0.0,-2.0,-0.0025939941,0.0038604736,
134.936281,true,true,true,0.125,12.8,0.0,-12,0,0,0.125,12.8,0.0,0,0,0,0.125,12.8,0.0,-23,0,0,0.125,12.8,0.0,0,0,0,0.0,12.8,0.0,0,0,0,0.0,12.8,0.0,0,0,0,0.125,12.9,0.0,0,0,0,kReverse,kOff,-86.2,1.7,1.62,0.02947998,-0.98272705,0.059448242,32.92,0.0,0.0,-0.0025939941,0.0038604736,
134.957818,true,true,true,0.125,12.8,0.0,-12,0,0,0.125,12.8,0.0,0,0,0,0.125,12.8,0.0,-23,0,0,0.125,12.8,0.0,0,0,0,0.0,12.8,0.0,0,0,0,0.0,12.8,0.0,0,0,0,0.125,12.9,0.0,0,0,0,kReverse,kOff,-86.2,1.7,1.62,0.028259277,-0.9814453,0.061035156,32.92,0.0,-1.0,-0.0025939941,0.0038604736,
134.978653,true,true,true,0.125,12.8,0.0,-12,0,0,0.125,12.8,0.0,0,0,0,0.125,12.8,0.0,-23,0,0,0.125,12.8,0.0,0,0,0,0.0,12.8,0.0,0,0,0,0.0,12.8,0.0,0,0,0,0.125,12.9,0.0,0,0,0,kReverse,kOff,-86.2,1.7,1.62,0.027709961,-0.9857788,0.064086914,32.92,0.0,-1.0,-0.0025939941,0.0038604736,
135.005084,true,true,true,0.125,12.8,0.0,-12,0,0,0.125,12.8,0.0,0,0,0,0.125,12.8,0.0,-23,0,0,0.125,12.8,0.0,0,0,0,0.125,12.8,0.0,0,0,0,0.0,12.8,0.0,0,0,0,0.125,12.9,0.0,0,0,0,kReverse,kOff,-86.2,1.7,1.62,0.029296875,-0.98114014,0.062438965,32.92,0.0,-1.0,-0.0025939941,0.0038604736,
135.028448,true,true,true,0.125,12.8,0.0,-12,0,0,0.125,12.8,0.0,0,0,0,0.125,12.8,0.0,-23,0,0,0.125,12.8,0.0,0,0,0,0.0,12.8,0.0,0,0,0,0.0,12.8,0.0,0,0,0,0.125,12.9,0.0,0,0,0,kReverse,kOff,-86.2,1.7,1.62,0.026672363,-0.9830322,0.057128906,32.92,0.0,-2.0,-0.0025939941,0.0038604736,
135.053776,true,true,true,0.125,12.8,0.0,-12,0,0,0.125,12.8,0.0,0,0,0,0.125,12.8,0.0,-23,0,0,0.125,12.8,0.0,0,0,0,0.0,12.8,0.0,0,0,0,0.0,12.8,0.0,0,0,0,0.125,12.9,0.0,0,0,0,kReverse,kOff,-86.21,1.7,1.62,0.028442383,-0.9857178,0.059265137,32.92,0.0,0.0,-0.0025939941,0.0038604736,
135.07606700000002,true,true,true,0.125,12.8,0.0,-12,0,0,0.125,12.8,0.0,0,0,0,0.125,12.8,0.0,-23,0,0,0.125,12.8,0.0,0,0,0,0.0,12.8,0.0,0,0,0,0.0,12.8,0.0,0,0,0,0.125,12.9,0.0,0,0,0,kReverse,kOff,-86.21,1.69,1.62,0.031677246,-0.9822998,0.05633545,32.92,0.0,2.0,-0.0025939941,0.0038604736,
135.100199,true,true,true,0.125,12.8,0.0,-12,0,0,0.125,12.8,0.0,0,0,0,0.125,12.8,0.0,-23,0,0,0.125,12.8,0.0,0,0,0,0.0,12.8,0.0,0,0,0,0.0,12.8,0.0,0,0,0,0.125,12.9,0.0,0,0,0,kReverse,kOff,-86.21,1.7,1.63,0.028808594,-0.9827881,0.055664062,32.92,0.0,0.0,-0.0025939941,0.0038604736,
135.12341400000003,true,true,true,0.125,12.8,0.0,-12,0,0,0.125,12.8,0.0,0,0,0,0.125,12.8,0.0,-23,0,0,0.125,12.8,0.0,0,0,0,0.0,12.8,0.0,0,0,0,0.0,12.8,0.0,0,0,0,0.125,12.9,0.0,0,0,0,kReverse,kOff,-86.21,1.7,1.62,0.028259277,-0.9822998,0.058776855,32.92,0.0,0.0,-0.0025939941,0.0038604736,
135.14584900000003,true,true,true,0.125,12.8,0.0,-12,0,0,0.125,12.8,0.0,0,0,0,0.125,12.8,0.0,-23,0,0,0.125,12.8,0.0,0,0,0,0.0,12.8,0.0,0,0,0,0.0,12.8,0.0,0,0,0,0.125,12.9,0.0,0,0,0,kReverse,kOff,-86.21,1.7,1.62,0.03112793,-0.98065186,0.051757812,32.92,0.0,2.0,-0.0025939941,0.0038604736,
135.163432,true,true,true,0.125,12.8,0.0,-12,0,0,0.125,12.8,0.0,0,0,0,0.125,12.8,0.0,-23,0,0,0.125,12.8,0.0,0,0,0,0.0,12.8,0.0,0,0,0,0.0,12.8,0.0,0,0,0,0.125,12.9,0.0,0,0,0,kReverse,kOff,-86.21,1.7,1.62,0.03125,-0.98431396,0.05895996,32.92,0.0,1.0,-0.0025939941,0.0038604736,
135.188027,true,true,true,0.125,12.8,0.0,-12,0,0,0.125,12.8,0.0,0,0,0,0.125,12.8,0.0,-23,0,0,0.125,12.8,0.0,0,0,0,0.0,12.8,0.0,0,0,0,0.0,12.8,0.0,0,0,0,0.125,12.9,0.0,0,0,0,kReverse,kOff,-86.21,1.69,1.62,0.029724121,-0.98480225,0.050231934,32.92,0.0,0.0,-0.0025939941,0.0038604736,
135.215889,true,true,true,0.125,12.8,0.0,-12,0,0,0.125,12.8,0.0,0,0,0,0.125,12.8,0.0,-23,0,0,0.125,12.8,0.0,0,0,0,0.0,12.8,0.0,0,0,0,0.0,12.8,0.0,0,0,0,0.125,12.9,0.0,0,0,0,kReverse,kOff,-86.21,1.69,1.62,0.030517578,-0.9836426,0.060668945,32.92,0.0,1.0,-0.0025939941,0.0038604736,
135.236021,true,true,true,0.125,12.8,0.0,-12,0,0,0.125,12.8,0.0,0,0,0,0.125,12.8,0.0,-23,0,0,0.125,12.8,0.0,0,0,0,0.0,12.8,0.0,0,0,0,0.0,12.8,0.0,0,0,0,0.125,12.9,0.0,0,0,0,kReverse,kOff,-86.21,1.69,1.62,0.030822754,-0.9833374,0.061950684,32.92,0.0,1.0,-0.0025939941,0.0038604736,
135.25804700000003,true,true,true,0.125,12.8,0.0,-12,0,0,0.125,12.8,0.0,0,0,0,0.125,12.8,0.0,-23,0,0,0.125,12.8,0.0,0,0,0,0.0,12.8,0.0,0,0,0,0.0,12.8,0.0,0,0,0,0.125,12.9,0.0,0,0,0,kReverse,kOff,-86.21,1.7,1.62,0.03277588,-0.98553467,0.0602417,32.92,0.0,3.0,-0.0025939941,0.0038604736,
135.283715,true,true,true,0.125,12.8,0.0,-12,0,0,0.125,12.8,0.0,0,0,0,0.125,12.8,0.0,-23,0,0,0.125,12.8,0.0,0,0,0,0.0,12.8,0.0,0,0,0,0.0,12.8,0.0,0,0,0,0.125,12.9,0.0,0,0,0,kReverse,kOff,-86.21,1.7,1.63,0.026184082,-0.98443604,0.05718994,32.92,0.0,-3.0,-0.0025939941,0.0038604736,
135.30982200000003,true,true,true,0.125,12.8,0.0,-12,0,0,0.125,12.8,0.0,0,0,0,0.125,12.8,0.0,-23,0,0,0.125,12.85,0.0,0,0,0,0.0,12.8,0.0,0,0,0,0.0,12.8,0.0,0,0,0,0.125,12.9,0.0,0,0,0,kReverse,kOff,-86.21,1.7,1.62,0.028137207,-0.98706055,0.05883789,32.92,0.0,-1.0,-0.0025939941,0.0038604736,
135.33212300000002,true,true,true,0.125,12.8,0.0,-12,0,0,0.125,12.8,0.0,0,0,0,0.125,12.8,0.0,-23,0,0,0.125,12.85,0.0,0,0,0,0.0,12.8,0.0,0,0,0,0.0,12.8,0.0,0,0,0,0.125,12.9,0.0,0,0,0,kReverse,kOff,-86.21,1.7,1.63,0.031188965,-0.98321533,0.055236816,32.92,0.0,1.0,-0.0025939941,0.0038604736,
135.352033,true,true,true,0.125,12.8,0.0,-12,0,0,0.125,12.8,0.0,0,0,0,0.125,12.8,0.0,-23,0,0,0.125,12.85,0.0,0,0,0,0.0,12.8,0.0,0,0,0,0.0,12.8,0.0,0,0,0,0.125,12.9,0.0,0,0,0,kReverse,kOff,-86.21,1.7,1.63,0.029663086,-0.9835205,0.05633545,32.92,0.0,0.0,-0.0025939941,0.0038604736,
135.37281,true,true,true,0.125,12.8,0.0,-12,0,0,0.125,12.8,0.0,0,0,0,0.125,12.8,0.0,-23,0,0,0.125,12.85,0.0,0,0,0,0.0,12.8,0.0,0,0,0,0.0,12.8,0.0,0,0,0,0.125,12.9,0.0,0,0,0,kReverse,kOff,-86.21,1.7,1.63,0.027709961,-0.98431396,0.06304932,32.92,0.0,-1.0,-0.0025939941,0.0038604736,
135.393524,true,true,true,0.125,12.8,0.0,-12,0,0,0.125,12.8,0.0,0,0,0,0.125,12.8,0.0,-23,0,0,0.125,12.85,0.0,0,0,0,0.0,12.8,0.0,0,0,0,0.0,12.8,0.0,0,0,0,0.125,12.9,0.0,0,0,0,kReverse,kOff,-86.21,1.7,1.63,0.027770996,-0.98376465,0.06298828,32.92,0.0,-1.0,-0.0025939941,0.0038604736,
135.415007,true,true,true,0.125,12.8,0.0,-12,0,0,0.125,12.8,0.0,0,0,0,0.125,12.8,0.0,-23,0,0,0.125,12.85,0.0,0,0,0,0.0,12.8,0.0,0,0,0,0.0,12.8,0.0,0,0,0,0.125,12.9,0.0,0,0,0,kReverse,kOff,-86.21,1.7,1.63,0.028015137,-0.9813843,0.0637207,32.92,0.0,-1.0,-0.0025939941,0.0038604736,
135.435969,true,true,true,0.125,12.8,0.0,-12,0,0,0.125,12.8,0.0,0,0,0,0.125,12.8,0.0,-23,0,0,0.125,12.85,0.0,0,0,0,0.0,12.8,0.0,0,0,0,0.0,12.8,0.0,0,0,0,0.125,12.9,0.0,0,0,0,kReverse,kOff,-86.21,1.7,1.62,0.03100586,-0.98223877,0.0546875,32.92,0.0,1.0,-0.0025939941,0.0038604736,
135.456928,true,true,true,0.125,12.8,0.0,-12,0,0,0.125,12.8,0.0,0,0,0,0.125,12.8,0.0,-23,0,0,0.125,12.8,0.0,0,0,0,0.0,12.8,0.0,0,0,0,0.0,12.8,0.0,0,0,0,0.125,12.9,0.0,0,0,0,kReverse,kOff,-86.21,1.7,1.62,0.025756836,-0.9819946,0.054016113,32.92,0.0,-3.0,-0.0025939941,0.0038604736,
135.48090100000002,true,true,true,0.125,12.8,0.0,-12,0,0,0.125,12.8,0.0,0,0,0,0.125,12.8,0.0,-23,0,0,0.125,12.8,0.0,0,0,0,0.0,12.8,0.0,0,0,0,0.0,12.8,0.0,0,0,0,0.125,12.9,0.0,0,0,0,kReverse,kOff,-86.21,1.7,1.63,0.028503418,-0.98272705,0.0657959,32.92,0.0,-1.0,-0.0025939941,0.0038604736,
135.503986,true,true,true,0.125,12.8,0.0,-12,0,0,0.125,12.8,0.0,0,0,0,0.125,12.8,0.0,-23,0,0,0.125,12.8,0.0,0,0,0,0.0,12.8,0.0,0,0,0,0.0,12.8,0.0,0,0,0,0.125,12.9,0.0,0,0,0,kReverse,kOff,-86.21,1.7,1.63,0.028747559,-0.9875488,0.05621338,32.92,0.0,0.0,-0.0025939941,0.0038604736,
135.52470200000002,true,true,true,0.125,12.8,0.0,-12,0,0,0.125,12.8,0.0,0,0,0,0.125,12.8,0.0,-23,0,0,0.125,12.8,0.0,0,0,0,0.0,12.8,0.0,0,0,0,0.0,12.8,0.0,0,0,0,0.125,12.9,0.0,0,0,0,kReverse,kOff,-86.21,1.7,1.63,0.028259277,-0.9851074,0.054626465,32.92,0.0,-1.0,-0.0025939941,0.0038604736,
135.54944500000002,true,true,true,0.125,12.8,0.0,-12,0,0,0.125,12.8,0.0,0,0,0,0.125,12.8,0.0,-23,0,0,0.125,12.8,0.0,0,0,0,0.125,12.8,0.0,0,0,0,0.0,12.8,0.0,0,0,0,0.125,12.9,0.0,0,0,0,kReverse,kOff,-86.21,1.7,1.63,0.032714844,-0.9864502,0.051513672,32.92,0.0,3.0,-0.0025939941,0.0038604736,
135.571895,true,true,true,0.125,12.8,0.0,-12,0,0,0.125,12.8,0.0,0,0,0,0.125,12.8,0.0,-23,0,0,0.125,12.8,0.0,0,0,0,0.0,12.8,0.0,0,0,0,0.0,12.8,0.0,0,0,0,0.125,12.9,0.0,0,0,0,kReverse,kOff,-86.21,1.7,1.63,0.030395508,-0.98168945,0.05822754,32.92,0.0,1.0,-0.0025939941,0.0038604736,
135.595425,true,true,true,0.125,12.8,0.0,-12,0,0,0.125,12.8,0.0,0,0,0,0.125,12.8,0.0,-23,0,0,0.125,12.8,0.0,0,0,0,0.0,12.8,0.0,0,0,0,0.0,12.8,0.0,0,0,0,0.0,12.9,0.0,0,0,0,kReverse,kOff,-86.21,1.7,1.63,0.030761719,-0.9852905,0.062194824,32.92,0.0,1.0,-0.0025939941,0.0038604736,
135.616238,true,true,true,0.125,12.8,0.0,-12,0,0,0.125,12.8,0.0,0,0,0,0.125,12.8,0.0,-23,0,0,0.125,12.8,0.0,0,0,0,0.0,12.8,0.0,0,0,0,0.0,12.8,0.0,0,0,0,0.0,12.9,0.0,0,0,0,kReverse,kOff,-86.21,1.71,1.63,0.030700684,-0.9840088,0.052734375,32.92,0.0,1.0,-0.0025939941,0.0038604736,
135.637002,true,true,true,0.125,12.8,0.0,-12,0,0,0.125,12.8,0.0,0,0,0,0.125,12.8,0.0,-23,0,0,0.125,12.8,0.0,0,0,0,0.0,12.8,0.0,0,0,0,0.0,12.8,0.0,0,0,0,0.125,12.9,0.0,0,0,0,kReverse,kOff,-86.2,1.71,1.63,0.029174805,-0.98431396,0.05731201,32.93,0.0,0.0,-0.0025939941,0.0038604736,
135.655813,true,true,true,0.125,12.8,0.0,-12,0,0,0.125,12.8,0.0,0,0,0,0.125,12.8,0.0,-23,0,0,0.125,12.8,0.0,0,0,0,0.0,12.8,0.0,0,0,0,0.0,12.8,0.0,0,0,0,0.125,12.9,0.0,0,0,0,kReverse,kOff,-86.21,1.71,1.63,0.03125,-0.98272705,0.059326172,32.93,0.0,1.0,-0.0025939941,0.0038604736,
135.67518600000002,true,true,true,0.125,12.8,0.0,-12,0,0,0.125,12.8,0.0,0,0,0,0.125,12.8,0.0,-23,0,0,0.125,12.8,0.0,0,0,0,0.0,12.8,0.0,0,0,0,0.0,12.8,0.0,0,0,0,0.125,12.9,0.0,0,0,0,kReverse,kOff,-86.21,1.71,1.63,0.025817871,-0.9854126,0.057556152,32.93,0.0,-3.0,-0.0025939941,0.0038604736,
135.69665300000003,true,true,true,0.125,12.8,0.0,-12,0,0,0.125,12.8,0.0,0,0,0,0.125,12.8,0.0,-23,0,0,0.125,12.8,0.0,0,0,0,0.0,12.8,0.0,0,0,0,0.0,12.8,0.0,0,0,0,0.125,12.9,0.0,0,0,0,kReverse,kOff,-86.21,1.71,1.63,0.029724121,-0.9813843,0.060791016,32.93,0.0,0.0,-0.0025939941,0.0038604736,
135.721719,true,true,true,0.125,12.8,0.0,-12,0,0,0.125,12.8,0.0,0,0,0,0.125,12.8,0.0,-23,0,0,0.125,12.8,0.0,0,0,0,0.0,12.8,0.0,0,0,0,0.0,12.8,0.0,0,0,0,0.125,12.9,0.0,0,0,0,kReverse,kOff,-86.21,1.71,1.63,0.027770996,-0.9831543,0.05419922,32.93,0.0,-1.0,-0.0025939941,0.0038604736,
135.744954,true,true,true,0.125,12.8,0.0,-12,0,0,0.125,12.8,0.0,0,0,0,0.125,12.8,0.0,-23,0,0,0.125,12.8,0.0,0,0,0,0.125,12.8,0.0,0,0,0,0.0,12.8,0.0,0,0,0,0.125,12.9,0.0,0,0,0,kReverse,kOff,-86.21,1.71,1.63,0.027648926,-0.9847412,0.054138184,32.93,0.0,-1.0,-0.0025939941,0.0038604736,
135.765711,true,true,true,0.125,12.8,0.0,-12,0,0,0.125,12.8,0.0,0,0,0,0.125,12.8,0.0,-23,0,0,0.125,12.8,0.0,0,0,0,0.125,12.8,0.0,0,0,0,0.0,12.8,0.0,0,0,0,0.125,12.9,0.0,0,0,0,kReverse,kOff,-86.21,1.71,1.63,0.028381348,-0.9835205,0.057556152,32.93,0.0,-1.0,-0.0025939941,0.0038604736,
135.785727,true,true,true,0.125,12.8,0.0,-12,0,0,0.125,12.8,0.0,0,0,0,0.125,12.8,0.0,-23,0,0,0.125,12.8,0.0,0,0,0,0.125,12.8,0.0,0,0,0,0.0,12.8,0.0,0,0,0,0.125,12.9,0.0,0,0,0,kReverse,kOff,-86.21,1.7,1.63,0.027954102,-0.9836426,0.05670166,32.93,0.0,-1.0,-0.0025939941,0.0038604736,
135.80133600000002,true,true,true,0.125,12.8,0.0,-12,0,0,0.125,12.8,0.0,0,0,0,0.125,12.8,0.0,-23,0,0,0.125,12.8,0.0,0,0,0,0.0,12.8,0.0,0,0,0,0.0,12.8,0.0,0,0,0,0.125,12.9,0.0,0,0,0,kReverse,kOff,-86.21,1.7,1.63,0.030944824,-0.9835205,0.056396484,32.93,0.0,1.0,-0.0025939941,0.0038604736,
135.826175,true,true,true,0.125,12.8,0.0,-12,0,0,0.125,12.8,0.0,0,0,0,0.125,12.8,0.0,-23,0,0,0.125,12.8,0.0,0,0,0,0.0,12.8,0.0,0,0,0,0.0,12.8,0.0,0,0,0,0.125,12.9,0.0,0,0,0,kReverse,kOff,-86.21,1.7,1.63,0.030517578,-0.9838867,0.058166504,32.93,0.0,1.0,-0.0025939941,0.0038604736,
135.860093,true,true,true,0.125,12.8,0.0,-12,0,0,0.125,12.8,0.0,0,0,0,0.125,12.8,0.0,-23,0,0,0.125,12.8,0.0,0,0,0,0.0,12.8,0.0,0,0,0,0.0,12.8,0.0,0,0,0,0.125,12.9,0.0,0,0,0,kReverse,kOff,-86.2,1.7,1.63,0.029174805,-0.9828491,0.055358887,32.93,0.0,0.0,-0.0025939941,0.0038604736,
135.886018,true,true,true,0.125,12.8,0.0,-12,0,0,0.125,12.8,0.0,0,0,0,0.125,12.8,0.0,-23,0,0,0.125,12.8,0.0,0,0,0,0.0,12.8,0.0,0,0,0,0.0,12.8,0.0,0,0,0,0.125,12.9,0.0,0,0,0,kReverse,kOff,-86.2,1.7,1.63,0.03173828,-0.98150635,0.057434082,32.93,0.0,2.0,-0.0025939941,0.0038604736,
135.906551,true,true,true,0.125,12.8,0.0,-12,0,0,0.125,12.8,0.0,0,0,0,0.125,12.8,0.0,-23,0,0,0.125,12.8,0.0,0,0,0,0.0,12.8,0.0,0,0,0,0.0,12.8,0.0,0,0,0,0.125,12.9,0.0,0,0,0,kReverse,kOff,-86.2,1.7,1.63,0.027709961,-0.98272705,0.057556152,32.93,0.0,-1.0,-0.0025939941,0.0038604736,
135.933988,true,true,true,0.125,12.8,0.0,-12,0,0,0.125,12.8,0.0,0,0,0,0.125,12.8,0.0,-23,0,0,0.125,12.8,0.0,0,0,0,0.0,12.8,0.0,0,0,0,0.0,12.8,0.0,0,0,0,0.125,12.9,0.0,0,0,0,kReverse,kOff,-86.2,1.71,1.63,0.025939941,-0.9838867,0.057678223,32.93,0.0,-3.0,-0.0025939941,0.0038604736,
135.955733,true,true,true,0.125,12.8,0.0,-12,0,0,0.125,12.8,0.0,0,0,0,0.125,12.8,0.0,-23,0,0,0.125,12.8,0.0,0,0,0,0.125,12.8,0.0,0,0,0,0.0,12.8,0.0,0,0,0,0.125,12.9,0.0,0,0,0,kReverse,kOff,-86.2,1.71,1.63,0.029907227,-0.9830322,0.053588867,32.93,0.0,0.0,-0.0025939941,0.0038604736,
135.978215,true,true,true,0.125,12.8,0.0,-12,0,0,0.125,12.8,0.0,0,0,0,0.125,12.8,0.0,-23,0,0,0.125,12.8,0.0,0,0,0,0.125,12.8,0.0,0,0,0,0.0,12.8,0.0,0,0,0,0.125,12.9,0.0,0,0,0,kReverse,kOff,-86.2,1.7,1.63,0.030578613,-0.98394775,0.05822754,32.93,0.0,1.0,-0.0025939941,0.0038604736,
135.996796,true,true,true,0.125,12.8,0.0,-12,0,0,0.125,12.8,0.0,0,0,0,0.125,12.8,0.0,-23,0,0,0.125,12.8,0.0,0,0,0,0.125,12.8,0.0,0,0,0,0.0,12.8,0.0,0,0,0,0.125,12.9,0.0,0,0,0,kReverse,kOff,-86.2,1.71,1.63,0.0289917,-0.9845581,0.064697266,32.93,0.0,0.0,-0.0025939941,0.0038604736,
136.01924400000001,true,true,true,0.125,12.8,0.0,-12,0,0,0.125,12.8,0.0,0,0,0,0.125,12.8,0.0,-23,0,0,0.125,12.8,0.0,0,0,0,0.125,12.8,0.0,0,0,0,0.0,12.8,0.0,0,0,0,0.125,12.9,0.0,0,0,0,kReverse,kOff,-86.2,1.7,1.63,0.028198242,-0.9831543,0.05859375,32.93,0.0,-1.0,-0.0025939941,0.0038604736,
136.043191,true,true,true,0.125,12.8,0.0,-12,0,0,0.125,12.8,0.0,0,0,0,0.125,12.8,0.0,-23,0,0,0.125,12.8,0.0,0,0,0,0.125,12.8,0.0,0,0,0,0.0,12.8,0.0,0,0,0,0.125,12.9,0.0,0,0,0,kReverse,kOff,-86.2,1.7,1.63,0.027893066,-0.98321533,0.055236816,32.93,0.0,-1.0,-0.0025939941,0.0038604736,
136.06824000000003,true,true,true,0.125,12.8,0.0,-12,0,0,0.125,12.8,0.0,0,0,0,0.125,12.8,0.0,-23,0,0,0.125,12.8,0.0,0,0,0,0.125,12.8,0.0,0,0,0,0.0,12.8,0.0,0,0,0,0.125,12.9,0.0,0,0,0,kReverse,kOff,-86.19,1.71,1.63,0.028320312,-0.9831543,0.05908203,32.93,0.0,-1.0,-0.0025939941,0.0038604736,
136.08968600000003,true,true,true,0.125,12.8,0.0,-12,0,0,0.125,12.8,0.0,0,0,0,0.125,12.8,0.0,-23,0,0,0.125,12.8,0.0,0,0,0,0.0,12.8,0.0,0,0,0,0.0,12.8,0.0,0,0,0,0.125,12.9,0.0,0,0,0,kReverse,kOff,-86.2,1.7,1.62,0.03100586,-0.9846802,0.05706787,32.93,0.0,1.0,-0.0025939941,0.0038604736,
136.112379,true,true,true,0.125,12.8,0.0,-12,0,0,0.125,12.8,0.0,0,0,0,0.125,12.8,0.0,-23,0,0,0.125,12.85,0.0,0,0,0,0.0,12.8,0.0,0,0,0,0.0,12.8,0.0,0,0,0,0.125,12.9,0.0,0,0,0,kReverse,kOff,-86.2,1.7,1.63,0.028747559,-0.9838867,0.0569458,32.93,0.0,0.0,-0.0025939941,0.0038604736,
136.13640300000003,true,true,true,0.125,12.8,0.0,-12,0,0,0.125,12.8,0.0,0,0,0,0.125,12.8,0.0,-23,0,0,0.125,12.85,0.0,0,0,0,0.0,12.8,0.0,0,0,0,0.0,12.8,0.0,0,0,0,0.125,12.9,0.0,0,0,0,kReverse,kOff,-86.2,1.7,1.62,0.03137207,-0.9812012,0.05859375,32.92,0.0,2.0,-0.0025939941,0.0038604736,
136.15763099999998,true,true,true,0.125,12.8,0.0,-12,0,0,0.125,12.8,0.0,0,0,0,0.125,12.8,0.0,-23,0,0,0.125,12.85,0.0,0,0,0,0.0,12.8,0.0,0,0,0,0.0,12.8,0.0,0,0,0,0.125,12.9,0.0,0,0,0,kReverse,kOff,-86.19,1.71,1.63,0.029785156,-0.982605,0.06011963,32.92,0.0,0.0,-0.0025939941,0.0038604736,
136.180451,true,true,true,0.125,12.8,0.0,-12,0,0,0.125,12.8,0.0,0,0,0,0.125,12.8,0.0,-23,0,0,0.125,12.85,0.0,0,0,0,0.0,12.8,0.0,0,0,0,0.0,12.8,0.0,0,0,0,0.125,12.9,0.0,0,0,0,kReverse,kOff,-86.19,1.7,1.63,0.03314209,-0.9879761,0.060180664,32.92,0.0,3.0,-0.0025939941,0.0038604736,
136.20537,true,true,true,0.125,12.8,0.0,-12,0,0,0.125,12.8,0.0,0,0,0,0.125,12.8,0.0,-23,0,0,0.125,12.85,0.0,0,0,0,0.125,12.8,0.0,0,0,0,0.0,12.8,0.0,0,0,0,0.125,12.9,0.0,0,0,0,kReverse,kOff,-86.19,1.7,1.63,0.031066895,-0.9840698,0.056640625,32.92,0.0,1.0,-0.0025939941,0.0038604736,
136.23168900000002,true,true,true,0.125,12.8,0.0,-12,0,0,0.125,12.8,0.0,0,0,0,0.125,12.8,0.0,-23,0,0,0.125,12.85,0.0,0,0,0,0.125,12.8,0.0,0,0,0,0.0,12.8,0.0,0,0,0,0.125,12.9,0.0,0,0,0,kReverse,kOff,-86.19,1.71,1.63,0.030639648,-0.9849243,0.058044434,32.92,0.0,1.0,-0.0025939941,0.0038604736,
136.252432,true,true,true,0.125,12.8,0.0,-12,0,0,0.125,12.8,0.0,0,0,0,0.125,12.8,0.0,-23,0,0,0.125,12.85,0.0,0,0,0,0.125,12.8,0.0,0,0,0,0.0,12.8,0.0,0,0,0,0.125,12.9,0.0,0,0,0,kReverse,kOff,-86.19,1.71,1.63,0.029541016,-0.98358154,0.057556152,32.92,0.0,0.0,-0.0025939941,0.0038604736,
136.272072,true,true,true,0.125,12.8,0.0,-12,0,0,0.125,12.8,0.0,0,0,0,0.125,12.8,0.0,-23,0,0,0.125,12.85,0.0,0,0,0,0.125,12.8,0.0,0,0,0,0.0,12.8,0.0,0,0,0,0.125,12.9,0.0,0,0,0,kReverse,kOff,-86.19,1.71,1.63,0.030456543,-0.98547363,0.057434082,32.92,0.0,0.0,-0.0025939941,0.0038604736,
136.293679,true,true,true,0.125,12.8,0.0,-12,0,0,0.125,12.8,0.0,0,0,0,0.125,12.8,0.0,-23,0,0,0.125,12.85,0.0,0,0,0,0.125,12.8,0.0,0,0,0,0.0,12.8,0.0,0,0,0,0.125,12.9,0.0,0,0,0,kReverse,kOff,-86.19,1.7,1.62,0.02746582,-0.9830322,0.057250977,32.92,0.0,-1.0,-0.0025939941,0.0038604736,
136.314381,true,true,true,0.125,12.8,0.0,-12,0,0,0.125,12.8,0.0,0,0,0,0.125,12.8,0.0,-23,0,0,0.125,12.85,0.0,0,0,0,0.125,12.8,0.0,0,0,0,0.0,12.8,0.0,0,0,0,0.125,12.9,0.0,0,0,0,kReverse,kOff,-86.19,1.7,1.62,0.028930664,-0.98376465,0.056640625,32.92,0.0,-1.0,-0.0025939941,0.0038604736,
136.33656299999998,true,true,true,0.125,12.8,0.0,-12,0,0,0.125,12.8,0.0,0,0,0,0.125,12.8,0.0,-23,0,0,0.125,12.85,0.0,0,0,0,0.125,12.8,0.0,0,0,0,0.0,12.8,0.0,0,0,0,0.125,12.9,0.0,0,0,0,kReverse,kOff,-86.19,1.7,1.62,0.030456543,-0.97998047,0.06262207,32.92,0.0,1.0,-0.0025939941,0.0038604736,
136.357895,true,true,true,0.125,12.8,0.0,-12,0,0,0.125,12.8,0.0,0,0,0,0.125,12.8,0.0,-23,0,0,0.125,12.85,0.0,0,0,0,0.125,12.8,0.0,0,0,0,0.0,12.8,0.0,0,0,0,0.125,12.9,0.0,0,0,0,kReverse,kOff,-86.19,1.7,1.63,0.030334473,-0.9831543,0.060302734,32.92,0.0,0.0,-0.0025939941,0.0038604736,
136.37797,true,true,true,0.125,12.8,0.0,-12,0,0,0.125,12.8,0.0,0,0,0,0.125,12.8,0.0,-23,0,0,0.125,12.85,0.0,0,0,0,0.125,12.8,0.0,0,0,0,0.0,12.8,0.0,0,0,0,0.125,12.9,0.0,0,0,0,kReverse,kOff,-86.18,1.7,1.63,0.030578613,-0.9828491,0.060791016,32.92,0.0,1.0,-0.0025939941,0.0038604736,
136.406246,true,true,true,0.125,12.8,0.0,-12,0,0,0.125,12.8,0.0,0,0,0,0.125,12.8,0.0,-23,0,0,0.125,12.85,0.0,0,0,0,0.125,12.8,0.0,0,0,0,0.0,12.8,0.0,0,0,0,0.125,12.9,0.0,0,0,0,kReverse,kOff,-86.19,1.71,1.63,0.02911377,-0.98413086,0.06323242,32.92,0.0,0.0,-0.0025939941,0.0038604736,
136.43240300000002,true,true,true,0.125,12.8,0.0,-12,0,0,0.125,12.8,0.0,0,0,0,0.125,12.8,0.0,-23,0,0,0.125,12.8,0.0,0,0,0,0.125,12.8,0.0,0,0,0,0.0,12.8,0.0,0,0,0,0.125,12.9,0.0,0,0,0,kReverse,kOff,-86.19,1.71,1.63,0.028076172,-0.9827881,0.058654785,32.92,0.0,-1.0,-0.0025939941,0.0038604736,
136.445247,true,true,true,0.125,12.8,0.0,-12,0,0,0.125,12.8,0.0,0,0,0,0.125,12.8,0.0,-23,0,0,0.125,12.8,0.0,0,0,0,0.125,12.8,0.0,0,0,0,0.0,12.8,0.0,0,0,0,0.125,12.9,0.0,0,0,0,kReverse,kOff,-86.19,1.71,1.63,0.02520752,-0.98254395,0.056396484,32.92,0.0,-4.0,-0.0025939941,0.0038604736,
136.469731,true,true,true,0.125,12.8,0.0,-12,0,0,0.125,12.8,0.0,0,0,0,0.125,12.8,0.0,-23,0,0,0.125,12.8,0.0,0,0,0,0.125,12.8,0.0,0,0,0,0.0,12.8,0.0,0,0,0,0.125,12.9,0.0,0,0,0,kReverse,kOff,-86.19,1.71,1.63,0.027038574,-0.9844971,0.05731201,32.92,0.0,-2.0,-0.0025939941,0.0038604736,
136.49527300000003,true,true,true,0.125,12.8,0.0,-12,0,0,0.125,12.8,0.0,0,0,0,0.125,12.8,0.0,-23,0,0,0.125,12.8,0.0,0,0,0,0.125,12.8,0.0,0,0,0,0.0,12.8,0.0,0,0,0,0.125,12.9,0.0,0,0,0,kReverse,kOff,-86.19,1.71,1.63,0.02923584,-0.9831543,0.05895996,32.92,0.0,0.0,-0.0025939941,0.0038604736,
136.518503,true,true,true,0.125,12.8,0.0,-12,0,0,0.125,12.8,0.0,0,0,0,0.125,12.8,0.0,-23,0,0,0.125,12.8,0.0,0,0,0,0.0,12.8,0.0,0,0,0,0.0,12.8,0.0,0,0,0,0.125,12.9,0.0,0,0,0,kReverse,kOff,-86.19,1.71,1.63,0.027648926,-0.98150635,0.057556152,32.92,0.0,-1.0,-0.0025939941,0.0038604736,
136.54038500000001,true,true,true,0.125,12.8,0.0,-12,0,0,0.125,12.8,0.0,0,0,0,0.125,12.8,0.0,-23,0,0,0.125,12.8,0.0,0,0,0,0.0,12.8,0.0,0,0,0,0.0,12.8,0.0,0,0,0,0.125,12.9,0.0,0,0,0,kReverse,kOff,-86.19,1.71,1.63,0.030212402,-0.98498535,0.061828613,32.92,0.0,0.0,-0.0025939941,0.0038604736,
136.56413400000002,true,true,true,0.125,12.8,0.0,-12,0,0,0.125,12.8,0.0,0,0,0,0.125,12.8,0.0,-23,0,0,0.125,12.8,0.0,0,0,0,0.0,12.8,0.0,0,0,0,0.0,12.8,0.0,0,0,0,0.125,12.9,0.0,0,0,0,kReverse,kOff,-86.19,1.71,1.63,0.029907227,-0.9836426,0.056152344,32.92,0.0,0.0,-0.0025939941,0.0038604736,
136.58872,true,true,true,0.125,12.8,0.0,-12,0,0,0.125,12.8,0.0,0,0,0,0.125,12.8,0.0,-23,0,0,0.125,12.8,0.0,0,0,0,0.0,12.8,0.0,0,0,0,0.0,12.8,0.0,0,0,0,0.125,12.9,0.0,0,0,0,kReverse,kOff,-86.19,1.71,1.63,0.028259277,-0.98205566,0.05847168,32.92,0.0,-1.0,-0.0025939941,0.0038604736,
136.610003,true,true,true,0.125,12.8,0.0,-12,0,0,0.125,12.8,0.0,0,0,0,0.125,12.8,0.0,-23,0,0,0.125,12.8,0.0,0,0,0,0.0,12.8,0.0,0,0,0,0.0,12.8,0.0,0,0,0,0.125,12.9,0.0,0,0,0,kReverse,kOff,-86.19,1.71,1.63,0.030029297,-0.98498535,0.058044434,32.92,0.0,0.0,-0.0025939941,0.0038604736,
136.63162300000002,true,true,true,0.125,12.8,0.0,-12,0,0,0.125,12.8,0.0,0,0,0,0.125,12.8,0.0,-23,0,0,0.125,12.8,0.0,0,0,0,0.0,12.8,0.0,0,0,0,0.0,12.8,0.0,0,0,0,0.125,12.9,0.0,0,0,0,kReverse,kOff,-86.19,1.71,1.64,0.030029297,-0.982666,0.06072998,32.92,0.0,0.0,-0.0025939941,0.0038604736,
136.65241500000002,true,true,true,0.125,12.8,0.0,-12,0,0,0.125,12.8,0.0,0,0,0,0.125,12.8,0.0,-23,0,0,0.125,12.8,0.0,0,0,0,0.0,12.8,0.0,0,0,0,0.0,12.8,0.0,0,0,0,0.125,12.9,0.0,0,0,0,kReverse,kOff,-86.19,1.71,1.64,0.028503418,-0.9844971,0.060180664,32.96,0.0,-1.0,-0.0025939941,0.0038604736,
136.67422900000003,true,true,true,0.125,12.8,0.0,-12,0,0,0.125,12.8,0.0,0,0,0,0.125,12.8,0.0,-23,0,0,0.125,12.8,0.0,0,0,0,0.0,12.8,0.0,0,0,0,0.0,12.8,0.0,0,0,0,0.125,12.9,0.0,0,0,0,kReverse,kOff,-86.19,1.71,1.64,0.032287598,-0.98498535,0.05895996,32.96,0.0,2.0,-0.0025939941,0.0038604736,
136.69838099999998,true,true,true,0.125,12.8,0.0,-12,0,0,0.125,12.8,0.0,0,0,0,0.125,12.8,0.0,-23,0,0,0.125,12.8,0.0,0,0,0,0.0,12.8,0.0,0,0,0,0.0,12.8,0.0,0,0,0,0.125,12.9,0.0,0,0,0,kReverse,kOff,-86.19,1.71,1.64,0.032714844,-0.9842529,0.05847168,32.96,0.0,3.0,-0.0025939941,0.0038604736,
136.718331,true,true,true,0.125,12.8,0.0,-12,0,0,0.125,12.8,0.0,0,0,0,0.125,12.8,0.0,-23,0,0,0.125,12.8,0.0,0,0,0,0.0,12.8,0.0,0,0,0,0.0,12.8,0.0,0,0,0,0.125,12.9,0.0,0,0,0,kReverse,kOff,-86.19,1.71,1.64,0.026672363,-0.9834595,0.059753418,32.96,0.0,-2.0,-0.0025939941,0.0038604736,
136.73922100000001,true,true,true,0.125,12.8,0.0,-12,0,0,0.125,12.8,0.0,0,0,0,0.125,12.8,0.0,-23,0,0,0.125,12.8,0.0,0,0,0,0.0,12.8,0.0,0,0,0,0.0,12.8,0.0,0,0,0,0.125,12.9,0.0,0,0,0,kReverse,kOff,-86.19,1.71,1.64,0.030090332,-0.98254395,0.058898926,32.96,0.0,0.0,-0.0025939941,0.0038604736,
136.753095,true,true,true,0.125,12.8,0.0,-12,0,0,0.125,12.8,0.0,0,0,0,0.125,12.8,0.0,-23,0,0,0.125,12.8,0.0,0,0,0,0.0,12.8,0.0,0,0,0,0.0,12.8,0.0,0,0,0,0.125,12.9,0.0,0,0,0,kReverse,kOff,-86.19,1.71,1.64,0.030090332,-0.98254395,0.058898926,32.96,0.0,0.0,-0.0025939941,0.0038604736,
136.76599800000002,true,true,true,0.125,12.8,0.0,-12,0,0,0.125,12.8,0.0,0,0,0,0.125,12.8,0.0,-23,0,0,0.125,12.8,0.0,0,0,0,0.125,12.8,0.0,0,0,0,0.0,12.8,0.0,0,0,0,0.125,12.9,0.0,0,0,0,kReverse,kOff,-86.19,1.71,1.64,0.030090332,-0.98254395,0.058898926,32.96,0.0,0.0,-0.0025939941,0.0038604736,
136.77765100000002,true,true,true,0.125,12.8,0.0,-12,0,0,0.125,12.8,0.0,0,0,0,0.125,12.8,0.0,-23,0,0,0.125,12.8,0.0,0,0,0,0.125,12.8,0.0,0,0,0,0.0,12.8,0.0,0,0,0,0.125,12.9,0.0,0,0,0,kReverse,kOff,-86.19,1.71,1.63,0.03289795,-0.9824829,0.05432129,32.96,0.0,3.0,-0.0025939941,0.0038604736,
136.790255,true,true,true,0.125,12.8,0.0,-12,0,0,0.125,12.8,0.0,0,0,0,0.125,12.8,0.0,-23,0,0,0.125,12.8,0.0,0,0,0,0.0,12.8,0.0,0,0,0,0.0,12.8,0.0,0,0,0,0.125,12.9,0.0,0,0,0,kReverse,kOff,-86.19,1.71,1.63,0.029907227,-0.9834595,0.057006836,32.96,0.0,0.0,-0.0025939941,0.0038604736,
136.802201,true,true,true,0.125,12.8,0.0,-12,0,0,0.125,12.8,0.0,0,0,0,0.125,12.8,0.0,-23,0,0,0.125,12.8,0.0,0,0,0,0.0,12.8,0.0,0,0,0,0.0,12.8,0.0,0,0,0,0.125,12.9,0.0,0,0,0,kReverse,kOff,-86.19,1.71,1.63,0.031555176,-0.9859009,0.059020996,32.96,0.0,2.0,-0.0025939941,0.0038604736,
136.814323,true,true,true,0.125,12.8,0.0,-12,0,0,0.125,12.8,0.0,0,0,0,0.125,12.8,0.0,-23,0,0,0.125,12.8,0.0,0,0,0,0.0,12.8,0.0,0,0,0,0.0,12.8,0.0,0,0,0,0.125,12.9,0.0,0,0,0,kReverse,kOff,-86.19,1.71,1.63,0.030212402,-0.98535156,0.05267334,32.96,0.0,0.0,-0.0025939941,0.0038604736,
136.833359,true,true,true,0.125,12.8,0.0,-12,0,0,0.125,12.8,0.0,0,0,0,0.125,12.8,0.0,-23,0,0,0.125,12.8,0.0,0,0,0,0.0,12.8,0.0,0,0,0,0.0,12.8,0.0,0,0,0,0.125,12.9,0.0,0,0,0,kReverse,kOff,-86.19,1.71,1.63,0.030822754,-0.98223877,0.059570312,32.96,0.0,1.0,-0.0025939941,0.0038604736,
136.870131,true,true,true,0.125,12.8,0.0,-12,0,0,0.125,12.8,0.0,0,0,0,0.125,12.8,0.0,-23,0,0,0.125,12.8,0.0,0,0,0,0.0,12.8,0.0,0,0,0,0.0,12.8,0.0,0,0,0,0.125,12.9,0.0,0,0,0,kReverse,kOff,-86.19,1.71,1.63,0.031433105,-0.9812012,0.053894043,32.96,0.0,2.0,-0.0025939941,0.0038604736,
136.897032,true,true,true,0.125,12.8,0.0,-12,0,0,0.125,12.8,0.0,0,0,0,0.125,12.8,0.0,-23,0,0,0.125,12.8,0.0,0,0,0,0.125,12.8,0.0,0,0,0,0.0,12.8,0.0,0,0,0,0.125,12.9,0.0,0,0,0,kReverse,kOff,-86.19,1.71,1.64,0.026977539,-0.9831543,0.05505371,32.96,0.0,-2.0,-0.0025939941,0.0038604736,
136.919435,true,true,true,0.125,12.8,0.0,-12,0,0,0.125,12.8,0.0,0,0,0,0.125,12.8,0.0,-23,0,0,0.125,12.85,0.0,0,0,0,0.125,12.8,0.0,0,0,0,0.0,12.8,0.0,0,0,0,0.125,12.9,0.0,0,0,0,kReverse,kOff,-86.19,1.71,1.63,0.02758789,-0.98394775,0.0625,32.96,0.0,-1.0,-0.0025939941,0.0038604736,
136.94210400000003,true,true,true,0.125,12.8,0.0,-12,0,0,0.125,12.8,0.0,0,0,0,0.125,12.8,0.0,-23,0,0,0.125,12.85,0.0,0,0,0,0.0,12.8,0.0,0,0,0,0.0,12.8,0.0,0,0,0,0.125,12.9,0.0,0,0,0,kReverse,kOff,-86.19,1.71,1.64,0.030456543,-0.9831543,0.055664062,32.96,0.0,1.0,-0.0025939941,0.0038604736,
136.96680300000003,true,true,true,0.125,12.8,0.0,-12,0,0,0.125,12.8,0.0,0,0,0,0.125,12.8,0.0,-23,0,0,0.125,12.85,0.0,0,0,0,0.0,12.8,0.0,0,0,0,0.0,12.8,0.0,0,0,0,0.125,12.9,0.0,0,0,0,kReverse,kOff,-86.19,1.71,1.64,0.028198242,-0.9812012,0.0569458,32.96,0.0,-1.0,-0.0025939941,0.0038604736,
136.988285,true,true,true,0.125,12.8,0.0,-12,0,0,0.125,12.8,0.0,0,0,0,0.125,12.8,0.0,-23,0,0,0.125,12.85,0.0,0,0,0,0.0,12.8,0.0,0,0,0,0.0,12.8,0.0,0,0,0,0.125,12.9,0.0,0,0,0,kReverse,kOff,-86.19,1.71,1.64,0.029296875,-0.9841919,0.05731201,32.96,0.0,0.0,-0.0025939941,0.0038604736,
137.010907,true,true,true,0.125,12.8,0.0,-12,0,0,0.125,12.8,0.0,0,0,0,0.125,12.8,0.0,-23,0,0,0.125,12.85,0.0,0,0,0,0.0,12.8,0.0,0,0,0,0.0,12.8,0.0,0,0,0,0.125,12.9,0.0,0,0,0,kReverse,kOff,-86.19,1.71,1.64,0.029663086,-0.9795532,0.0569458,32.96,0.0,0.0,-0.0025939941,0.0038604736,
137.03158800000003,true,true,true,0.125,12.8,0.0,-12,0,0,0.125,12.8,0.0,0,0,0,0.125,12.8,0.0,-23,0,0,0.125,12.85,0.0,0,0,0,0.0,12.8,0.0,0,0,0,0.0,12.8,0.0,0,0,0,0.125,12.9,0.0,0,0,0,kReverse,kOff,-86.19,1.71,1.63,0.028198242,-0.98095703,0.061523438,32.96,0.0,-1.0,-0.0025939941,0.0038604736,
137.052799,true,true,true,0.125,12.8,0.0,-12,0,0,0.125,12.8,0.0,0,0,0,0.125,12.8,0.0,-23,0,0,0.125,12.85,0.0,0,0,0,0.0,12.8,0.0,0,0,0,0.0,12.8,0.0,0,0,0,0.125,12.9,0.0,0,0,0,kReverse,kOff,-86.19,1.71,1.63,0.030578613,-0.98065186,0.055908203,32.96,0.0,1.0,-0.0025939941,0.0038604736,
137.07553900000002,true,true,true,0.125,12.8,0.0,-12,0,0,0.125,12.8,0.0,0,0,0,0.125,12.8,0.0,-23,0,0,0.125,12.8,0.0,0,0,0,0.125,12.8,0.0,0,0,0,0.0,12.8,0.0,0,0,0,0.125,12.9,0.0,0,0,0,kReverse,kOff,-86.19,1.71,1.63,0.030029297,-0.98321533,0.059020996,32.96,0.0,0.0,-0.0025939941,0.0038604736,
137.08924199999998,true,true,true,0.125,12.8,0.0,-12,0,0,0.125,12.8,0.0,0,0,0,0.125,12.8,0.0,-23,0,0,0.125,12.8,0.0,0,0,0,0.125,12.8,0.0,0,0,0,0.0,12.8,0.0,0,0,0,0.125,12.9,0.0,0,0,0,kReverse,kOff,-86.19,1.71,1.63,0.02734375,-0.98547363,0.058898926,32.96,0.0,-2.0,-0.0025939941,0.0038604736,
137.114178,true,true,true,0.125,12.8,0.0,-12,0,0,0.125,12.8,0.0,0,0,0,0.125,12.8,0.0,-23,0,0,0.125,12.8,0.0,0,0,0,0.0,12.8,0.0,0,0,0,0.0,12.8,0.0,0,0,0,0.125,12.9,0.0,0,0,0,kReverse,kOff,-86.2,1.71,1.63,0.028686523,-0.9841919,0.05895996,32.96,0.0,0.0,-0.0025939941,0.0038604736,
137.147247,true,true,true,0.125,12.8,0.0,-12,0,0,0.125,12.8,0.0,0,0,0,0.125,12.8,0.0,-23,0,0,0.125,12.8,0.0,0,0,0,0.0,12.8,0.0,0,0,0,0.0,12.8,0.0,0,0,0,0.125,12.9,0.0,0,0,0,kReverse,kOff,-86.2,1.71,1.63,0.030151367,-0.9828491,0.058532715,32.96,0.0,0.0,-0.0025939941,0.0038604736,
137.168149,true,true,true,0.125,12.8,0.0,-12,0,0,0.125,12.8,0.0,0,0,0,0.125,12.8,0.0,-23,0,0,0.125,12.8,0.0,0,0,0,0.0,12.8,0.0,0,0,0,0.0,12.8,0.0,0,0,0,0.125,12.9,0.0,0,0,0,kReverse,kOff,-86.19,1.71,1.63,0.027954102,-0.9772339,0.057861328,32.95,0.0,-1.0,-0.0025939941,0.0038604736,
137.19007000000002,true,true,true,0.125,12.8,0.0,-12,0,0,0.125,12.8,0.0,0,0,0,0.125,12.8,0.0,-23,0,0,0.125,12.8,0.0,0,0,0,0.0,12.8,0.0,0,0,0,0.0,12.8,0.0,0,0,0,0.125,12.9,0.0,0,0,0,kReverse,kOff,-86.19,1.71,1.63,0.030944824,-0.9827881,0.055480957,32.95,0.0,1.0,-0.0025939941,0.0038604736,
137.21056900000002,true,true,true,0.125,12.8,0.0,-12,0,0,0.125,12.8,0.0,0,0,0,0.125,12.8,0.0,-23,0,0,0.125,12.8,0.0,0,0,0,0.0,12.8,0.0,0,0,0,0.0,12.8,0.0,0,0,0,0.125,12.9,0.0,0,0,0,kReverse,kOff,-86.19,1.71,1.63,0.029174805,-0.9815674,0.062072754,32.95,0.0,0.0,-0.0025939941,0.0038604736,
137.23091100000002,true,true,true,0.125,12.8,0.0,-12,0,0,0.125,12.8,0.0,0,0,0,0.125,12.8,0.0,-23,0,0,0.125,12.85,0.0,0,0,0,0.125,12.8,0.0,0,0,0,0.0,12.8,0.0,0,0,0,0.125,12.9,0.0,0,0,0,kReverse,kOff,-86.19,1.71,1.63,0.026916504,-0.9807129,0.061340332,32.95,0.0,-2.0,-0.0025939941,0.0038604736,
137.25361500000002,true,true,true,0.125,12.8,0.0,-12,0,0,0.125,12.8,0.0,0,0,0,0.125,12.8,0.0,-23,0,0,0.125,12.85,0.0,0,0,0,0.0,12.8,0.0,0,0,0,0.0,12.8,0.0,0,0,0,0.125,12.9,0.0,0,0,0,kReverse,kOff,-86.19,1.71,1.63,0.030395508,-0.9845581,0.06036377,32.95,0.0,0.0,-0.0025939941,0.0038604736,
137.27416200000002,true,true,true,0.125,12.8,0.0,-12,0,0,0.125,12.8,0.0,0,0,0,0.125,12.8,0.0,-23,0,0,0.125,12.85,0.0,0,0,0,0.0,12.8,0.0,0,0,0,0.0,12.8,0.0,0,0,0,0.125,12.9,0.0,0,0,0,kReverse,kOff,-86.19,1.71,1.63,0.03173828,-0.98132324,0.05987549,32.95,0.0,2.0,-0.0025939941,0.0038604736,
137.29605600000002,true,true,true,0.125,12.8,0.0,-12,0,0,0.125,12.8,0.0,0,0,0,0.125,12.8,0.0,-23,0,0,0.125,12.85,0.0,0,0,0,0.0,12.8,0.0,0,0,0,0.0,12.8,0.0,0,0,0,0.125,12.9,0.0,0,0,0,kReverse,kOff,-86.19,1.71,1.63,0.028381348,-0.98046875,0.060302734,32.95,0.0,-1.0,-0.0025939941,0.0038604736,
137.31782700000002,true,true,true,0.125,12.8,0.0,-12,0,0,0.125,12.8,0.0,0,0,0,0.125,12.8,0.0,-23,0,0,0.125,12.85,0.0,0,0,0,0.125,12.8,0.0,0,0,0,0.0,12.8,0.0,0,0,0,0.125,12.9,0.0,0,0,0,kReverse,kOff,-86.2,1.7,1.63,0.030029297,-0.98583984,0.056640625,32.95,0.0,0.0,-0.0025939941,0.0038604736,
137.33701700000003,true,true,true,0.125,12.8,0.0,-12,0,0,0.125,12.8,0.0,0,0,0,0.125,12.8,0.0,-23,0,0,0.125,12.85,0.0,0,0,0,0.125,12.8,0.0,0,0,0,0.0,12.8,0.0,0,0,0,0.125,12.9,0.0,0,0,0,kReverse,kOff,-86.2,1.7,1.63,0.029785156,-0.9822998,0.05682373,32.95,0.0,0.0,-0.0025939941,0.0038604736,
137.35808600000001,true,true,true,0.125,12.8,0.0,-12,0,0,0.125,12.8,0.0,0,0,0,0.125,12.8,0.0,-23,0,0,0.125,12.85,0.0,0,0,0,0.125,12.8,0.0,0,0,0,0.0,12.8,0.0,0,0,0,0.125,12.9,0.0,0,0,0,kReverse,kOff,-86.19,1.71,1.63,0.025939941,-0.9838867,0.05822754,32.95,0.0,-3.0,-0.0025939941,0.0038604736,
137.381189,true,true,true,0.125,12.8,0.0,-12,0,0,0.125,12.8,0.0,0,0,0,0.125,12.8,0.0,-23,0,0,0.125,12.8,0.0,0,0,0,0.125,12.8,0.0,0,0,0,0.0,12.8,0.0,0,0,0,0.125,12.9,0.0,0,0,0,kReverse,kOff,-86.19,1.71,1.63,0.029846191,-0.98083496,0.05706787,32.95,0.0,0.0,-0.0025939941,0.0038604736,
137.40179200000003,true,true,true,0.125,12.8,0.0,-12,0,0,0.125,12.8,0.0,0,0,0,0.125,12.8,0.0,-23,0,0,0.125,12.8,0.0,0,0,0,0.125,12.8,0.0,0,0,0,0.0,12.8,0.0,0,0,0,0.125,12.9,0.0,0,0,0,kReverse,kOff,-86.2,1.71,1.63,0.028930664,-0.98101807,0.05834961,32.95,0.0,0.0,-0.0025939941,0.0038604736,
137.42484900000002,true,true,true,0.125,12.8,0.0,-12,0,0,0.125,12.8,0.0,0,0,0,0.125,12.8,0.0,-23,0,0,0.125,12.8,0.0,0,0,0,0.125,12.8,0.0,0,0,0,0.0,12.8,0.0,0,0,0,0.125,12.9,0.0,0,0,0,kReverse,kOff,-86.2,1.7,1.62,0.029174805,-0.98339844,0.060546875,32.95,0.0,0.0,-0.0025939941,0.0038604736,
137.447283,true,true,true,0.125,12.8,0.0,-12,0,0,0.125,12.8,0.0,0,0,0,0.125,12.8,0.0,-23,0,0,0.125,12.8,0.0,0,0,0,0.125,12.8,0.0,0,0,0,0.0,12.8,0.0,0,0,0,0.125,12.9,0.0,0,0,0,kReverse,kOff,-86.2,1.7,1.63,0.030029297,-0.9818115,0.06072998,32.95,0.0,0.0,-0.0025939941,0.0038604736,
137.467397,true,true,true,0.125,12.8,0.0,-12,0,0,0.125,12.8,0.0,0,0,0,0.125,12.8,0.0,-23,0,0,0.125,12.8,0.0,0,0,0,0.0,12.8,0.0,0,0,0,0.0,12.8,0.0,0,0,0,0.125,12.9,0.0,0,0,0,kReverse,kOff,-86.2,1.7,1.63,0.026489258,-0.9844971,0.05596924,32.95,0.0,-2.0,-0.0025939941,0.0038604736,
137.488247,true,true,true,0.125,12.8,0.0,-12,0,0,0.125,12.8,0.0,0,0,0,0.125,12.8,0.0,-23,0,0,0.125,12.8,0.0,0,0,0,0.0,12.8,0.0,0,0,0,0.0,12.8,0.0,0,0,0,0.125,12.9,0.0,0,0,0,kReverse,kOff,-86.2,1.7,1.63,0.028747559,-0.9875488,0.058654785,32.95,0.0,0.0,-0.0025939941,0.0038604736,
137.509868,true,true,true,0.125,12.8,0.0,-12,0,0,0.125,12.8,0.0,0,0,0,0.125,12.8,0.0,-23,0,0,0.125,12.8,0.0,0,0,0,0.0,12.8,0.0,0,0,0,0.0,12.8,0.0,0,0,0,0.125,12.9,0.0,0,0,0,kReverse,kOff,-86.2,1.7,1.63,0.02947998,-0.9851074,0.053955078,32.95,0.0,0.0,-0.0025939941,0.0038604736,
137.53146900000002,true,true,true,0.125,12.8,0.0,-12,0,0,0.125,12.8,0.0,0,0,0,0.125,12.8,0.0,-23,0,0,0.125,12.8,0.0,0,0,0,0.0,12.8,0.0,0,0,0,0.0,12.8,0.0,0,0,0,0.125,12.9,0.0,0,0,0,kReverse,kOff,-86.2,1.7,1.63,0.032104492,-0.9824829,0.053771973,32.95,0.0,2.0,-0.0025939941,0.0038604736,
137.55294400000002,true,true,true,0.125,12.8,0.0,-12,0,0,0.125,12.8,0.0,0,0,0,0.125,12.8,0.0,-23,0,0,0.125,12.8,0.0,0,0,0,0.0,12.8,0.0,0,0,0,0.0,12.8,0.0,0,0,0,0.125,12.9,0.0,0,0,0,kReverse,kOff,-86.2,1.7,1.63,0.029174805,-0.98272705,0.06262207,32.95,0.0,0.0,-0.0025939941,0.0038604736,
137.57481900000002,true,true,true,0.125,12.8,0.0,-12,0,0,0.125,12.8,0.0,0,0,0,0.125,12.8,0.0,-23,0,0,0.125,12.8,0.0,0,0,0,0.0,12.8,0.0,0,0,0,0.0,12.8,0.0,0,0,0,0.125,12.9,0.0,0,0,0,kReverse,kOff,-86.2,1.7,1.63,0.026855469,-0.98431396,0.055480957,32.95,0.0,-2.0,-0.0025939941,0.0038604736,
137.595068,true,true,true,0.125,12.8,0.0,-12,0,0,0.125,12.8,0.0,0,0,0,0.125,12.8,0.0,-23,0,0,0.125,12.8,0.0,0,0,0,0.0,12.8,0.0,0,0,0,0.0,12.8,0.0,0,0,0,0.125,12.9,0.0,0,0,0,kReverse,kOff,-86.2,1.7,1.63,0.03149414,-0.9848633,0.057800293,32.95,0.0,2.0,-0.0025939941,0.0038604736,
137.625027,true,true,true,0.125,12.8,0.0,-12,0,0,0.125,12.8,0.0,0,0,0,0.125,12.8,0.0,-23,0,0,0.125,12.8,0.0,0,0,0,0.0,12.8,0.0,0,0,0,0.0,12.8,0.0,0,0,0,0.125,12.9,0.0,0,0,0,kReverse,kOff,-86.2,1.7,1.63,0.030639648,-0.9818115,0.057495117,32.95,0.0,1.0,-0.0025939941,0.0038604736,
137.65044400000002,true,true,true,0.125,12.8,0.0,-12,0,0,0.125,12.8,0.0,0,0,0,0.125,12.8,0.0,-23,0,0,0.125,12.8,0.0,0,0,0,0.0,12.8,0.0,0,0,0,0.0,12.8,0.0,0,0,0,0.125,12.9,0.0,0,0,0,kReverse,kOff,-86.2,1.7,1.63,0.027038574,-0.9803467,0.05645752,32.95,0.0,-2.0,-0.0025939941,0.0038604736,
137.670384,true,true,true,0.125,12.8,0.0,-12,0,0,0.125,12.8,0.0,0,0,0,0.125,12.8,0.0,-23,0,0,0.125,12.8,0.0,0,0,0,0.0,12.8,0.0,0,0,0,0.0,12.8,0.0,0,0,0,0.125,12.9,0.0,0,0,0,kReverse,kOff,-86.2,1.7,1.63,0.024597168,-0.9821167,0.05621338,32.95,0.0,-4.0,-0.0025939941,0.0038604736,
137.69087100000002,true,true,true,0.125,12.8,0.0,-12,0,0,0.125,12.8,0.0,0,0,0,0.125,12.8,0.0,-23,0,0,0.125,12.8,0.0,0,0,0,0.0,12.8,0.0,0,0,0,0.0,12.8,0.0,0,0,0,0.125,12.9,0.0,0,0,0,kReverse,kOff,-86.2,1.7,1.63,0.029785156,-0.9827881,0.059509277,32.94,0.0,0.0,-0.0025939941,0.0038604736,
137.710872,true,true,true,0.125,12.8,0.0,-12,0,0,0.125,12.8,0.0,0,0,0,0.125,12.8,0.0,-23,0,0,0.125,12.8,0.0,0,0,0,0.0,12.8,0.0,0,0,0,0.0,12.8,0.0,0,0,0,0.125,12.9,0.0,0,0,0,kReverse,kOff,-86.2,1.7,1.63,0.0256958,-0.98339844,0.059143066,32.94,0.0,-3.0,-0.0025939941,0.0038604736,
137.722329,true,true,true,0.125,12.8,0.0,-12,0,0,0.125,12.8,0.0,0,0,0,0.125,12.8,0.0,-23,0,0,0.125,12.8,0.0,0,0,0,0.0,12.8,0.0,0,0,0,0.0,12.8,0.0,0,0,0,0.125,12.9,0.0,0,0,0,kReverse,kOff,-86.2,1.7,1.63,0.028198242,-0.98358154,0.06048584,32.94,0.0,-1.0,-0.0025939941,0.0038604736,
137.743614,true,true,true,0.125,12.8,0.0,-12,0,0,0.125,12.8,0.0,0,0,0,0.125,12.8,0.0,-23,0,0,0.125,12.8,0.0,0,0,0,0.0,12.8,0.0,0,0,0,0.0,12.8,0.0,0,0,0,0.125,12.9,0.0,0,0,0,kReverse,kOff,-86.2,1.7,1.63,0.029296875,-0.9827881,0.05670166,32.94,0.0,0.0,-0.0025939941,0.0038604736,
137.77210300000002,true,true,true,0.125,12.8,0.0,-12,0,0,0.125,12.8,0.0,0,0,0,0.125,12.8,0.0,-23,0,0,0.125,12.8,0.0,0,0,0,0.0,12.8,0.0,0,0,0,0.0,12.8,0.0,0,0,0,0.125,12.9,0.0,0,0,0,kReverse,kOff,-86.2,1.7,1.63,0.027954102,-0.98254395,0.05444336,32.94,0.0,-1.0,-0.0025939941,0.0038604736,
137.794725,true,true,true,0.125,12.8,0.0,-12,0,0,0.125,12.8,0.0,0,0,0,0.125,12.8,0.0,-23,0,0,0.125,12.8,0.0,0,0,0,0.0,12.8,0.0,0,0,0,0.0,12.8,0.0,0,0,0,0.125,12.9,0.0,0,0,0,kReverse,kOff,-86.2,1.7,1.63,0.030151367,-0.9822998,0.057678223,32.94,0.0,0.0,-0.0025939941,0.0038604736,
137.816314,true,true,true,0.125,12.8,0.0,-12,0,0,0.125,12.8,0.0,0,0,0,0.125,12.8,0.0,-23,0,0,0.125,12.8,0.0,0,0,0,0.0,12.8,0.0,0,0,0,0.0,12.8,0.0,0,0,0,0.125,12.9,0.0,0,0,0,kReverse,kOff,-86.2,1.7,1.63,0.028259277,-0.98291016,0.06085205,32.94,0.0,0.0,-0.0025939941,0.0038604736,
137.836395,true,true,true,0.125,12.8,0.0,-12,0,0,0.125,12.8,0.0,0,0,0,0.125,12.8,0.0,-23,0,0,0.125,12.8,0.0,0,0,0,0.0,12.8,0.0,0,0,0,0.0,12.8,0.0,0,0,0,0.125,12.9,0.0,0,0,0,kReverse,kOff,-86.2,1.7,1.63,0.026489258,-0.9845581,0.059143066,32.94,0.0,-2.0,-0.0025939941,0.0038604736,
137.85804700000003,true,true,true,0.125,12.8,0.0,-12,0,0,0.125,12.8,0.0,0,0,0,0.125,12.8,0.0,-23,0,0,0.125,12.8,0.0,0,0,0,0.0,12.8,0.0,0,0,0,0.0,12.8,0.0,0,0,0,0.125,12.9,0.0,0,0,0,kReverse,kOff,-86.2,1.7,1.63,0.026672363,-0.9840698,0.05883789,32.94,0.0,-2.0,-0.0025939941,0.0038604736,
137.893136,true,true,true,0.125,12.8,0.0,-12,0,0,0.125,12.8,0.0,0,0,0,0.125,12.8,0.0,-23,0,0,0.125,12.8,0.0,0,0,0,0.125,12.8,0.0,0,0,0,0.0,12.8,0.0,0,0,0,0.125,12.9,0.0,0,0,0,kReverse,kOff,-86.2,1.7,1.63,0.026489258,-0.9812012,0.05657959,32.94,0.0,-2.0,-0.0025939941,0.0038604736,
137.918549,true,true,true,0.125,12.8,0.0,-12,0,0,0.125,12.8,0.0,0,0,0,0.125,12.8,0.0,-23,0,0,0.125,12.8,0.0,0,0,0,0.125,12.8,0.0,0,0,0,0.0,12.8,0.0,0,0,0,0.125,12.9,0.0,0,0,0,kReverse,kOff,-86.2,1.7,1.63,0.027709961,-0.9834595,0.064453125,32.94,0.0,-1.0,-0.0025939941,0.0038604736,
137.94429700000003,true,true,true,0.125,12.8,0.0,-12,0,0,0.125,12.8,0.0,0,0,0,0.125,12.8,0.0,-23,0,0,0.125,12.8,0.0,0,0,0,0.125,12.8,0.0,0,0,0,0.0,12.8,0.0,0,0,0,0.125,12.9,0.0,0,0,0,kReverse,kOff,-86.2,1.7,1.63,0.02960205,-0.98187256,0.05456543,32.94,0.0,0.0,-0.0025939941,0.0038604736,
137.96770800000002,true,true,true,0.125,12.8,0.0,-12,0,0,0.125,12.8,0.0,0,0,0,0.125,12.8,0.0,-23,0,0,0.125,12.8,0.0,0,0,0,0.125,12.8,0.0,0,0,0,0.0,12.8,0.0,0,0,0,0.125,12.9,0.0,0,0,0,kReverse,kOff,-86.2,1.7,1.63,0.030395508,-0.9862671,0.05633545,32.94,0.0,1.0,-0.0025939941,0.0038604736,
137.988698,true,true,true,0.125,12.8,0.0,-12,0,0,0.125,12.8,0.0,0,0,0,0.125,12.8,0.0,-23,0,0,0.125,12.8,0.0,0,0,0,0.125,12.8,0.0,0,0,0,0.0,12.8,0.0,0,0,0,0.125,12.9,0.0,0,0,0,kReverse,kOff,-86.2,1.7,1.63,0.029968262,-0.98547363,0.05706787,32.94,0.0,0.0,-0.0025939941,0.0038604736,
138.010296,true,true,true,0.125,12.8,0.0,-12,0,0,0.125,12.8,0.0,0,0,0,0.125,12.8,0.0,-23,0,0,0.125,12.8,0.0,0,0,0,0.125,12.8,0.0,0,0,0,0.0,12.8,0.0,0,0,0,0.125,12.9,0.0,0,0,0,kReverse,kOff,-86.2,1.7,1.63,0.026428223,-0.9829712,0.06011963,32.94,0.0,-2.0,-0.0025939941,0.0038604736,
138.032777,true,true,true,0.125,12.8,0.0,-12,0,0,0.125,12.8,0.0,0,0,0,0.125,12.8,0.0,-23,0,0,0.125,12.8,0.0,0,0,0,0.125,12.8,0.0,0,0,0,0.0,12.8,0.0,0,0,0,0.125,12.9,0.0,0,0,0,kReverse,kOff,-86.2,1.7,1.63,0.02911377,-0.9846802,0.057922363,32.94,0.0,0.0,-0.0025939941,0.0038604736,
138.05299499999998,true,true,true,0.125,12.8,0.0,-12,0,0,0.125,12.8,0.0,0,0,0,0.125,12.8,0.0,-23,0,0,0.125,12.8,0.0,0,0,0,0.0,12.8,0.0,0,0,0,0.0,12.8,0.0,0,0,0,0.125,12.9,0.0,0,0,0,kReverse,kOff,-86.2,1.7,1.63,0.030090332,-0.9857178,0.05670166,32.94,0.0,0.0,-0.0025939941,0.0038604736,
138.072281,true,true,true,0.125,12.8,0.0,-12,0,0,0.125,12.8,0.0,0,0,0,0.125,12.8,0.0,-23,0,0,0.125,12.8,0.0,0,0,0,0.0,12.8,0.0,0,0,0,0.0,12.8,0.0,0,0,0,0.125,12.9,0.0,0,0,0,kReverse,kOff,-86.2,1.7,1.63,0.030029297,-0.97991943,0.058898926,32.94,0.0,0.0,-0.0025939941,0.0038604736,
138.092468,true,true,true,0.125,12.8,0.0,-12,0,0,0.125,12.8,0.0,0,0,0,0.125,12.8,0.0,-23,0,0,0.125,12.8,0.0,0,0,0,0.0,12.8,0.0,0,0,0,0.0,12.8,0.0,0,0,0,0.125,12.9,0.0,0,0,0,kReverse,kOff,-86.2,1.7,1.63,0.029541016,-0.9850464,0.061584473,32.94,0.0,0.0,-0.0025939941,0.0038604736,
138.11439000000001,true,true,true,0.125,12.8,0.0,-12,0,0,0.125,12.8,0.0,0,0,0,0.125,12.8,0.0,-23,0,0,0.125,12.8,0.0,0,0,0,0.0,12.8,0.0,0,0,0,0.0,12.8,0.0,0,0,0,0.125,12.9,0.0,0,0,0,kReverse,kOff,-86.2,1.7,1.63,0.030578613,-0.98150635,0.05456543,32.94,0.0,1.0,-0.0025939941,0.0038604736,
138.136018,true,true,true,0.125,12.8,0.0,-12,0,0,0.125,12.8,0.0,0,0,0,0.125,12.8,0.0,-23,0,0,0.125,12.8,0.0,0,0,0,0.0,12.8,0.0,0,0,0,0.0,12.8,0.0,0,0,0,0.125,12.9,0.0,0,0,0,kReverse,kOff,-86.2,1.7,1.63,0.02923584,-0.9819336,0.05621338,32.94,0.0,0.0,-0.0025939941,0.0038604736,
138.157593,true,true,true,0.125,12.8,0.0,-12,0,0,0.125,12.8,0.0,0,0,0,0.125,12.8,0.0,-23,0,0,0.125,12.8,0.0,0,0,0,0.0,12.8,0.0,0,0,0,0.0,12.8,0.0,0,0,0,0.125,12.9,0.0,0,0,0,kReverse,kOff,-86.2,1.7,1.62,0.027954102,-0.98291016,0.061035156,32.94,0.0,-1.0,-0.0025939941,0.0038604736,
138.17872599999998,true,true,true,0.125,12.8,0.0,-12,0,0,0.125,12.8,0.0,0,0,0,0.125,12.8,0.0,-23,0,0,0.125,12.8,0.0,0,0,0,0.0,12.8,0.0,0,0,0,0.0,12.8,0.0,0,0,0,0.125,12.9,0.0,0,0,0,kReverse,kOff,-86.2,1.7,1.63,0.030456543,-0.9834595,0.058410645,32.92,0.0,1.0,-0.0025939941,0.0038604736,
138.201558,true,true,true,0.125,12.8,0.0,-12,0,0,0.125,12.8,0.0,0,0,0,0.125,12.8,0.0,-23,0,0,0.125,12.8,0.0,0,0,0,0.0,12.8,0.0,0,0,0,0.0,12.8,0.0,0,0,0,0.125,12.9,0.0,0,0,0,kReverse,kOff,-86.2,1.7,1.62,0.026550293,-0.9848633,0.05633545,32.92,0.0,-2.0,-0.0025939941,0.0038604736,
138.223747,true,true,true,0.125,12.8,0.0,-12,0,0,0.125,12.8,0.0,0,0,0,0.125,12.8,0.0,-23,0,0,0.125,12.8,0.0,0,0,0,0.0,12.8,0.0,0,0,0,0.0,12.8,0.0,0,0,0,0.125,12.9,0.0,0,0,0,kReverse,kOff,-86.2,1.7,1.62,0.028137207,-0.98394775,0.05596924,32.92,0.0,-1.0,-0.0025939941,0.0038604736,
138.24474800000002,true,true,true,0.125,12.8,0.0,-12,0,0,0.125,12.8,0.0,0,0,0,0.125,12.8,0.0,-23,0,0,0.125,12.8,0.0,0,0,0,0.0,12.8,0.0,0,0,0,0.0,12.8,0.0,0,0,0,0.125,12.9,0.0,0,0,0,kReverse,kOff,-86.2,1.7,1.62,0.028747559,-0.982605,0.05596924,32.92,0.0,0.0,-0.0025939941,0.0038604736,
138.267898,true,true,true,0.125,12.8,0.0,-12,0,0,0.125,12.8,0.0,0,0,0,0.125,12.8,0.0,-23,0,0,0.125,12.8,0.0,0,0,0,0.125,12.8,0.0,0,0,0,0.0,12.8,0.0,0,0,0,0.125,12.9,0.0,0,0,0,kReverse,kOff,-86.2,1.7,1.62,0.026428223,-0.98376465,0.05847168,32.92,0.0,-2.0,-0.0025939941,0.0038604736,
138.28883500000003,true,true,true,0.125,12.8,0.0,-12,0,0,0.125,12.8,0.0,0,0,0,0.125,12.8,0.0,-23,0,0,0.125,12.8,0.0,0,0,0,0.0,12.8,0.0,0,0,0,0.0,12.8,0.0,0,0,0,0.125,12.9,0.0,0,0,0,kReverse,kOff,-86.2,1.7,1.62,0.029541016,-0.98742676,0.05493164,32.92,0.0,0.0,-0.0025939941,0.0038604736,
138.31096100000002,true,true,true,0.125,12.8,0.0,-12,0,0,0.125,12.8,0.0,0,0,0,0.125,12.8,0.0,-23,0,0,0.125,12.8,0.0,0,0,0,0.0,12.8,0.0,0,0,0,0.0,12.8,0.0,0,0,0,0.125,12.9,0.0,0,0,0,kReverse,kOff,-86.2,1.7,1.62,0.029968262,-0.9837036,0.05670166,32.92,0.0,0.0,-0.0025939941,0.0038604736,
138.32984100000002,true,true,true,0.125,12.8,0.0,-12,0,0,0.125,12.8,0.0,0,0,0,0.125,12.8,0.0,-23,0,0,0.125,12.8,0.0,0,0,0,0.0,12.8,0.0,0,0,0,0.0,12.8,0.0,0,0,0,0.125,12.9,0.0,0,0,0,kReverse,kOff,-86.21,1.69,1.62,0.030822754,-0.9837036,0.061706543,32.92,0.0,1.0,-0.0025939941,0.0038604736,
138.353921,true,true,true,0.125,12.8,0.0,-12,0,0,0.125,12.8,0.0,0,0,0,0.125,12.8,0.0,-23,0,0,0.125,12.8,0.0,0,0,0,0.0,12.8,0.0,0,0,0,0.0,12.8,0.0,0,0,0,0.125,12.9,0.0,0,0,0,kReverse,kOff,-86.2,1.7,1.62,0.02947998,-0.9816284,0.057617188,32.92,0.0,0.0,-0.0025939941,0.0038604736,
138.369962,true,true,true,0.125,12.8,0.0,-12,0,0,0.125,12.8,0.0,0,0,0,0.125,12.8,0.0,-23,0,0,0.125,12.8,0.0,0,0,0,0.0,12.8,0.0,0,0,0,0.0,12.8,0.0,0,0,0,0.125,12.9,0.0,0,0,0,kReverse,kOff,-86.2,1.7,1.62,0.029663086,-0.9815674,0.055114746,32.92,0.0,0.0,-0.0025939941,0.0038604736,
138.39525700000002,true,true,true,0.125,12.8,0.0,-12,0,0,0.125,12.8,0.0,0,0,0,0.125,12.8,0.0,-23,0,0,0.125,12.8,0.0,0,0,0,0.0,12.8,0.0,0,0,0,0.0,12.8,0.0,0,0,0,0.125,12.9,0.0,0,0,0,kReverse,kOff,-86.2,1.7,1.62,0.029785156,-0.9801636,0.056274414,32.92,0.0,0.0,-0.0025939941,0.0038604736,
138.416924,true,true,true,0.125,12.8,0.0,-12,0,0,0.125,12.8,0.0,0,0,0,0.125,12.8,0.0,-23,0,0,0.125,12.8,0.0,0,0,0,0.0,12.8,0.0,0,0,0,0.0,12.8,0.0,0,0,0,0.125,12.9,0.0,0,0,0,kReverse,kOff,-86.2,1.7,1.62,0.030273438,-0.98291016,0.061645508,32.92,0.0,0.0,-0.0025939941,0.0038604736,
138.43843600000002,true,true,true,0.125,12.8,0.0,-12,0,0,0.125,12.8,0.0,0,0,0,0.125,12.8,0.0,-23,0,0,0.125,12.8,0.0,0,0,0,0.0,12.8,0.0,0,0,0,0.0,12.8,0.0,0,0,0,0.125,12.9,0.0,0,0,0,kReverse,kOff,-86.2,1.7,1.63,0.030029297,-0.9813843,0.057861328,32.92,0.0,0.0,-0.0025939941,0.0038604736,
138.46162900000002,true,true,true,0.125,12.8,0.0,-12,0,0,0.125,12.8,0.0,0,0,0,0.125,12.8,0.0,-23,0,0,0.125,12.8,0.0,0,0,0,0.0,12.8,0.0,0,0,0,0.0,12.8,0.0,0,0,0,0.125,12.9,0.0,0,0,0,kReverse,kOff,-86.2,1.7,1.62,0.026733398,-0.98272705,0.05596924,32.92,0.0,-2.0,-0.0025939941,0.0038604736,
138.485109,true,true,true,0.125,12.8,0.0,-12,0,0,0.125,12.8,0.0,0,0,0,0.125,12.8,0.0,-23,0,0,0.125,12.8,0.0,0,0,0,0.0,12.8,0.0,0,0,0,0.0,12.8,0.0,0,0,0,0.125,12.9,0.0,0,0,0,kReverse,kOff,-86.21,1.69,1.62,0.027770996,-0.9846802,0.059936523,32.92,0.0,-1.0,-0.0025939941,0.0038604736,
138.50983300000001,true,true,true,0.125,12.8,0.0,-12,0,0,0.125,12.8,0.0,0,0,0,0.125,12.8,0.0,-23,0,0,0.125,12.8,0.0,0,0,0,0.125,12.8,0.0,0,0,0,0.0,12.8,0.0,0,0,0,0.125,12.9,0.0,0,0,0,kReverse,kOff,-86.21,1.69,1.62,0.031982422,-0.9837036,0.055847168,32.92,0.0,2.0,-0.0025939941,0.0038604736,
138.53291700000003,true,true,true,0.125,12.8,0.0,-12,0,0,0.125,12.8,0.0,0,0,0,0.125,12.8,0.0,-23,0,0,0.125,12.8,0.0,0,0,0,0.125,12.8,0.0,0,0,0,0.0,12.8,0.0,0,0,0,0.125,12.9,0.0,0,0,0,kReverse,kOff,-86.21,1.69,1.62,0.026550293,-0.98065186,0.061523438,32.92,0.0,-2.0,-0.0025939941,0.0038604736,
138.552431,true,true,true,0.125,12.8,0.0,-12,0,0,0.125,12.8,0.0,0,0,0,0.125,12.8,0.0,-23,0,0,0.125,12.8,0.0,0,0,0,0.125,12.8,0.0,0,0,0,0.0,12.8,0.0,0,0,0,0.125,12.9,0.0,0,0,0,kReverse,kOff,-86.21,1.69,1.62,0.030517578,-0.9822998,0.060424805,32.92,0.0,1.0,-0.0025939941,0.0038604736,
138.57218799999998,true,true,true,0.125,12.8,0.0,-12,0,0,0.125,12.8,0.0,0,0,0,0.125,12.8,0.0,-23,0,0,0.125,12.8,0.0,0,0,0,0.0,12.8,0.0,0,0,0,0.0,12.8,0.0,0,0,0,0.125,12.9,0.0,0,0,0,kReverse,kOff,-86.21,1.69,1.62,0.028869629,-0.98132324,0.061157227,32.92,0.0,0.0,-0.0025939941,0.0038604736,
