timer,lineLeft,lineCenter,lineRight,LeftFrontCurrent,LeftFrontVoltage,LeftFrontValue,LeftFrontPosition,LeftFrontVelocity,LeftFrontFaults,LeftRearCurrent,LeftRearVoltage,LeftRearValue,LeftRearPosition,LeftRearVelocity,LeftRearFaults,RightFrontCurrent,RightFrontVoltage,RightFrontValue,RightFrontPosition,RightFrontVelocity,RightFrontFaults,RightRearCurrent,RightRearVoltage,RightRearValue,RightRearPosition,RightRearVelocity,RightRearFaults,LiftCurrent,LiftVoltage,LiftValue,LiftPosition,LiftVelocity,LiftFaults,WristCurrent,WristVoltage,WristValue,WristPosition,WristVelocity,WristFaults,RollerCurrent,RollerVoltage,RollerValue,RollerPosition,RollerVelocity,RollerFaults,PushersState,PivotsState,navx_Pitch,navx_Roll,navx_Yaw,navx_XAcc,navx_YAcc,navx_ZAcc,navx_Temp,navx_Bar,navx_Alt,navx_XDis,navx_YDis,
53.151727,true,true,true,0.125,12.75,0.0,0,0,0,0.125,12.75,0.0,0,0,0,0.125,12.700000000000001,0.0,0,0,0,0.125,12.75,0.0,0,0,0,0.0,12.75,0.0,0,0,0,0.0,12.75,0.0,0,0,0,0.125,12.8,0.0,0,0,0,kReverse,kOff,-86.91,2.24,2.25,0.034729004,-0.98339844,0.03314209,32.29,0.0,-3.0,-7.861801,11.626907,
53.24271400000001,true,true,true,0.125,12.75,0.0,0,0,0,0.125,12.75,0.0,0,0,0,0.125,12.700000000000001,0.0,0,0,0,0.125,12.75,0.0,0,0,0,0.0,12.75,0.0,0,0,0,0.0,12.75,0.0,0,0,0,0.125,12.8,0.0,0,0,0,kReverse,kOff,-86.91,2.24,2.25,0.039123535,-0.9803467,0.0368042,32.29,0.0,0.0,-7.861801,11.626907,
53.27982300000001,true,true,true,0.125,12.75,0.0,0,0,0,0.125,12.75,0.0,0,0,0,0.125,12.700000000000001,0.0,0,0,0,0.125,12.75,0.0,0,0,0,0.0,12.75,0.0,0,0,0,0.0,12.75,0.0,0,0,0,0.125,12.8,0.0,0,0,0,kReverse,kOff,-86.91,2.24,2.25,0.04144287,-0.9816284,0.03717041,32.29,0.0,2.0,-7.861801,11.626907,
53.318515,true,true,true,0.125,12.75,0.0,0,0,0,0.125,12.75,0.0,0,0,0,0.125,12.700000000000001,0.0,0,0,0,0.125,12.75,0.0,0,0,0,0.0,12.75,0.0,0,0,0,0.0,12.75,0.0,0,0,0,0.125,12.8,0.0,0,0,0,kReverse,kOff,-86.91,2.24,2.25,0.041259766,-0.9842529,0.0335083,32.29,0.0,2.0,-7.861801,11.626907,
53.357546,true,true,true,0.125,12.75,0.0,0,0,0,0.125,12.75,0.0,0,0,0,0.125,12.700000000000001,0.0,0,0,0,0.125,12.75,0.0,0,0,0,0.0,12.75,0.0,0,0,0,0.0,12.75,0.0,0,0,0,0.125,12.8,0.0,0,0,0,kReverse,kOff,-86.91,2.23,2.25,0.036315918,-0.9819336,0.033447266,32.29,0.0,-2.0,-7.861801,11.626907,
53.39631,true,true,true,0.125,12.75,0.0,0,0,0,0.125,12.75,0.0,0,0,0,0.125,12.700000000000001,0.0,0,0,0,0.125,12.75,0.0,0,0,0,0.0,12.75,0.0,0,0,0,0.0,12.75,0.0,0,0,0,0.125,12.8,0.0,0,0,0,kReverse,kOff,-86.91,2.23,2.25,0.0357666,-0.9829712,0.03161621,32.29,0.0,-2.0,-7.861801,11.626907,
53.4535,true,true,true,0.125,12.75,0.0,0,0,0,0.125,12.75,0.0,0,0,0,0.125,12.700000000000001,0.0,0,0,0,0.125,12.75,0.0,0,0,0,0.0,12.75,0.0,0,0,0,0.0,12.75,0.0,0,0,0,0.125,12.8,0.0,0,0,0,kReverse,kOff,-86.91,2.24,2.25,0.03881836,-0.9852905,0.038208008,32.29,0.0,0.0,-7.861801,11.626907,
53.49352499999999,true,true,true,0.125,12.75,0.0,0,0,0,0.125,12.75,0.0,0,0,0,0.125,12.75,0.0,0,0,0,0.125,12.75,0.0,0,0,0,0.0,12.75,0.0,0,0,0,0.0,12.75,0.0,0,0,0,0.125,12.8,0.0,0,0,0,kReverse,kOff,-86.91,2.24,2.25,0.037963867,-0.9813843,0.04144287,32.29,0.0,0.0,-7.861801,11.626907,
53.536502999999996,true,true,true,0.125,12.75,0.0,0,0,0,0.125,12.75,0.0,0,0,0,0.125,12.75,0.0,0,0,0,0.125,12.75,0.0,0,0,0,0.0,12.75,0.0,0,0,0,0.0,12.75,0.0,0,0,0,0.125,12.8,0.0,0,0,0,kReverse,kOff,-86.91,2.24,2.25,0.0368042,-0.98620605,0.034851074,32.29,0.0,-1.0,-7.861801,11.626907,
53.576539999999994,true,true,true,0.125,12.75,0.0,0,0,0,0.125,12.75,0.0,0,0,0,0.125,12.75,0.0,0,0,0,0.125,12.75,0.0,0,0,0,0.0,12.75,0.0,0,0,0,0.0,12.75,0.0,0,0,0,0.125,12.8,0.0,0,0,0,kReverse,kOff,-86.91,2.24,2.25,0.03778076,-0.9829712,0.04119873,32.29,0.0,0.0,-7.861801,11.626907,
53.616526,true,true,true,0.125,12.75,0.0,0,0,0,0.125,12.75,0.0,0,0,0,0.125,12.75,0.0,0,0,0,0.125,12.75,0.0,0,0,0,0.0,12.75,0.0,0,0,0,0.0,12.75,0.0,0,0,0,0.125,12.8,0.0,0,0,0,kReverse,kOff,-86.91,2.23,2.25,0.037353516,-0.9824219,0.04058838,32.29,0.0,2.0,-7.861801,11.626907,
53.653926999999996,true,true,true,0.125,12.75,0.0,0,0,0,0.125,12.75,0.0,0,0,0,0.125,12.700000000000001,0.0,0,0,0,0.125,12.75,0.0,0,0,0,0.0,12.75,0.0,0,0,0,0.0,12.75,0.0,0,0,0,0.125,12.8,0.0,0,0,0,kReverse,kOff,-86.91,2.23,2.25,0.036071777,-0.9873657,0.02960205,32.27,0.0,-2.0,-7.861801,11.626907,
53.693259999999995,true,true,true,0.125,12.75,0.0,0,0,0,0.125,12.75,0.0,0,0,0,0.125,12.700000000000001,0.0,0,0,0,0.125,12.75,0.0,0,0,0,0.125,12.75,0.0,0,0,0,0.0,12.75,0.0,0,0,0,0.0,12.8,0.0,0,0,0,kReverse,kOff,-86.91,2.24,2.25,0.036254883,-0.9814453,0.0357666,32.27,0.0,-2.0,-7.861801,11.626907,
53.750721000000006,true,true,true,0.125,12.75,0.0,0,0,0,0.125,12.75,0.0,0,0,0,0.125,12.700000000000001,0.0,0,0,0,0.125,12.75,0.0,0,0,0,0.0,12.75,0.0,0,0,0,0.0,12.75,0.0,0,0,0,0.125,12.8,0.0,0,0,0,kReverse,kOff,-86.91,2.24,2.26,0.04034424,-0.98480225,0.03149414,32.27,0.0,1.0,-7.861801,11.626907,
53.830831999999994,true,true,true,0.125,12.75,0.0,0,0,0,0.125,12.75,0.0,0,0,0,0.125,12.75,0.0,0,0,0,0.125,12.75,0.0,0,0,0,0.0,12.75,0.0,0,0,0,0.0,12.75,0.0,0,0,0,0.125,12.8,0.0,0,0,0,kReverse,kOff,-86.91,2.24,2.25,0.038513184,-0.9834595,0.035705566,32.27,0.0,0.0,-7.861801,11.626907,
53.864509999999996,true,true,true,0.125,12.75,0.0,0,0,0,0.125,12.75,0.0,0,0,0,0.125,12.75,0.0,0,0,0,0.125,12.75,0.0,0,0,0,0.0,12.75,0.0,0,0,0,0.0,12.75,0.0,0,0,0,0.125,12.8,0.0,0,0,0,kReverse,kOff,-86.91,2.24,2.25,0.039611816,-0.9831543,0.037902832,32.27,0.0,0.0,-7.861801,11.626907,
53.899702999999995,true,true,true,0.125,12.75,0.0,0,0,0,0.125,12.75,0.0,0,0,0,0.125,12.75,0.0,0,0,0,0.125,12.75,0.0,0,0,0,0.0,12.75,0.0,0,0,0,0.0,12.75,0.0,0,0,0,0.125,12.8,0.0,0,0,0,kReverse,kOff,-86.92,2.24,2.25,0.04144287,-0.98223877,0.03717041,32.27,0.0,2.0,-7.861801,11.626907,
53.93628999999999,true,true,true,0.125,12.75,0.0,0,0,0,0.125,12.75,0.0,0,0,0,0.125,12.75,0.0,0,0,0,0.125,12.75,0.0,0,0,0,0.0,12.75,0.0,0,0,0,0.0,12.75,0.0,0,0,0,0.0,12.8,0.0,0,0,0,kReverse,kOff,-86.91,2.24,2.26,0.037475586,-0.98358154,0.039978027,32.27,0.0,-1.0,-7.861801,11.626907,
53.974551999999996,true,true,true,0.125,12.75,0.0,0,0,0,0.125,12.75,0.0,0,0,0,0.125,12.700000000000001,0.0,0,0,0,0.125,12.75,0.0,0,0,0,0.0,12.75,0.0,0,0,0,0.0,12.75,0.0,0,0,0,0.125,12.8,0.0,0,0,0,kReverse,kOff,-86.91,2.24,2.26,0.038330078,-0.98327637,0.038513184,32.27,0.0,0.0,-7.861801,11.626907,
54.008160999999994,true,true,true,0.125,12.75,0.0,0,0,0,0.125,12.75,0.0,0,0,0,0.125,12.700000000000001,0.0,0,0,0,0.125,12.75,0.0,0,0,0,0.0,12.75,0.0,0,0,0,0.0,12.75,0.0,0,0,0,0.125,12.8,0.0,0,0,0,kReverse,kOff,-86.91,2.24,2.26,0.037231445,-0.9813843,0.037841797,32.27,0.0,-1.0,-7.861801,11.626907,
54.04167600000001,true,true,true,0.125,12.75,0.0,0,0,0,0.125,12.75,0.0,0,0,0,0.125,12.700000000000001,0.0,0,0,0,0.125,12.75,0.0,0,0,0,0.0,12.75,0.0,0,0,0,0.0,12.75,0.0,0,0,0,0.125,12.8,0.0,0,0,0,kReverse,kOff,-86.91,2.24,2.26,0.035949707,-0.98327637,0.04534912,32.27,0.0,-2.0,-7.861801,11.626907,
54.079823000000005,true,true,true,0.125,12.75,0.0,0,0,0,0.125,12.75,0.0,0,0,0,0.125,12.700000000000001,0.0,0,0,0,0.125,12.75,0.0,0,0,0,0.0,12.75,0.0,0,0,0,0.0,12.75,0.0,0,0,0,0.125,12.8,0.0,0,0,0,kReverse,kOff,-86.91,2.24,2.26,0.03741455,-0.98547363,0.034729004,32.27,0.0,-1.0,-7.861801,11.626907,
54.119578999999995,true,true,true,0.125,12.75,0.0,0,0,0,0.125,12.75,0.0,0,0,0,0.125,12.700000000000001,0.0,0,0,0,0.125,12.75,0.0,0,0,0,0.0,12.75,0.0,0,0,0,0.0,12.75,0.0,0,0,0,0.125,12.8,0.0,0,0,0,kReverse,kOff,-86.91,2.24,2.26,0.040283203,-0.98321533,0.03149414,32.27,0.0,1.0,-7.861801,11.626907,
54.162293000000005,true,true,true,0.125,12.75,0.0,0,0,0,0.125,12.75,0.0,0,0,0,0.125,12.700000000000001,0.0,0,0,0,0.125,12.75,0.0,0,0,0,0.0,12.75,0.0,0,0,0,0.0,12.75,0.0,0,0,0,0.125,12.8,0.0,0,0,0,kReverse,kOff,-86.91,2.24,2.26,0.035949707,-0.98236084,0.04437256,32.3,0.0,-2.0,-7.861801,11.626907,
54.221849,true,true,true,0.125,12.75,0.0,0,0,0,0.125,12.75,0.0,0,0,0,0.125,12.700000000000001,0.0,0,0,0,0.125,12.75,0.0,0,0,0,0.0,12.75,0.0,0,0,0,0.0,12.75,0.0,0,0,0,0.125,12.8,0.0,0,0,0,kReverse,kOff,-86.91,2.24,2.26,0.040039062,-0.9805298,0.030151367,32.3,0.0,1.0,-7.861801,11.626907,
54.274205,true,true,true,0.125,12.75,0.0,0,0,0,0.125,12.75,0.0,0,0,0,0.125,12.700000000000001,0.0,0,0,0,0.125,12.75,0.0,0,0,0,0.0,12.75,0.0,0,0,0,0.0,12.75,0.0,0,0,0,0.125,12.8,0.0,0,0,0,kReverse,kOff,-86.91,2.24,2.26,0.039611816,-0.9830322,0.037719727,32.3,0.0,1.0,-7.861801,11.626907,
54.314516000000005,true,true,true,0.125,12.75,0.0,0,0,0,0.125,12.75,0.0,0,0,0,0.125,12.700000000000001,0.0,0,0,0,0.125,12.75,0.0,0,0,0,0.0,12.75,0.0,0,0,0,0.0,12.75,0.0,0,0,0,0.125,12.8,0.0,0,0,0,kReverse,kOff,-86.92,2.24,2.25,0.038513184,-0.9828491,0.033996582,32.3,0.0,0.0,-7.861801,11.626907,
54.34595600000001,true,true,true,0.125,12.75,0.0,0,0,0,0.125,12.75,0.0,0,0,0,0.125,12.700000000000001,0.0,0,0,0,0.125,12.75,0.0,0,0,0,0.0,12.75,0.0,0,0,0,0.0,12.75,0.0,0,0,0,0.125,12.8,0.0,0,0,0,kReverse,kOff,-86.92,2.24,2.25,0.038208008,-0.98413086,0.0335083,32.3,0.0,0.0,-7.861801,11.626907,
54.37803999999999,true,true,true,0.125,12.75,0.0,0,0,0,0.125,12.75,0.0,0,0,0,0.125,12.700000000000001,0.0,0,0,0,0.125,12.75,0.0,0,0,0,0.0,12.75,0.0,0,0,0,0.0,12.75,0.0,0,0,0,0.125,12.8,0.0,0,0,0,kReverse,kOff,-86.91,2.24,2.26,0.03955078,-0.9830322,0.034179688,32.3,0.0,0.0,-7.861801,11.626907,
54.409181,true,true,true,0.125,12.75,0.0,0,0,0,0.125,12.75,0.0,0,0,0,0.125,12.700000000000001,0.0,0,0,0,0.125,12.75,0.0,0,0,0,0.0,12.75,0.0,0,0,0,0.0,12.75,0.0,0,0,0,0.125,12.8,0.0,0,0,0,kReverse,kOff,-86.91,2.24,2.26,0.038024902,-0.98168945,0.03778076,32.3,0.0,0.0,-7.861801,11.626907,
54.436071,true,true,true,0.125,12.75,0.0,0,0,0,0.125,12.75,0.0,0,0,0,0.125,12.700000000000001,0.0,0,0,0,0.125,12.75,0.0,0,0,0,0.0,12.75,0.0,0,0,0,0.0,12.75,0.0,0,0,0,0.125,12.8,0.0,0,0,0,kReverse,kOff,-86.91,2.24,2.26,0.04107666,-0.98205566,0.03540039,32.3,0.0,2.0,-7.861801,11.626907,
54.452398,true,true,true,0.125,12.75,0.0,0,0,0,0.125,12.75,0.0,0,0,0,0.125,12.700000000000001,0.0,0,0,0,0.125,12.75,0.0,0,0,0,0.0,12.75,0.0,0,0,0,0.0,12.75,0.0,0,0,0,0.125,12.8,0.0,0,0,0,kReverse,kOff,-86.91,2.24,2.26,0.03765869,-0.9830322,0.038757324,32.3,0.0,0.0,-7.861801,11.626907,
54.468413,true,true,true,0.125,12.75,0.0,0,0,0,0.125,12.75,0.0,0,0,0,0.125,12.700000000000001,0.0,0,0,0,0.125,12.75,0.0,0,0,0,0.0,12.75,0.0,0,0,0,0.0,12.75,0.0,0,0,0,0.0,12.8,0.0,0,0,0,kReverse,kOff,-86.91,2.24,2.26,0.039001465,-0.98760986,0.03729248,32.3,0.0,0.0,-7.861801,11.626907,
54.48497900000001,true,true,true,0.125,12.75,0.0,0,0,0,0.125,12.75,0.0,0,0,0,0.125,12.700000000000001,0.0,0,0,0,0.125,12.75,0.0,0,0,0,0.0,12.75,0.0,0,0,0,0.0,12.75,0.0,0,0,0,0.0,12.8,0.0,0,0,0,kReverse,kOff,-86.91,2.24,2.26,0.038635254,-0.98327637,0.038085938,32.3,0.0,0.0,-7.861801,11.626907,
54.505456,true,true,true,0.125,12.75,0.0,0,0,0,0.125,12.75,0.0,0,0,0,0.125,12.700000000000001,0.0,0,0,0,0.125,12.75,0.0,0,0,0,0.0,12.75,0.0,0,0,0,0.0,12.75,0.0,0,0,0,0.0,12.8,0.0,0,0,0,kReverse,kOff,-86.91,2.24,2.26,0.03955078,-0.9836426,0.034057617,32.3,0.0,0.0,-7.861801,11.626907,
54.539992,true,true,true,0.125,12.75,0.0,0,0,0,0.125,12.75,0.0,0,0,0,0.125,12.700000000000001,0.0,0,0,0,0.125,12.75,0.0,0,0,0,0.0,12.75,0.0,0,0,0,0.0,12.75,0.0,0,0,0,0.125,12.8,0.0,0,0,0,kReverse,kOff,-86.91,2.24,2.26,0.035461426,-0.9838867,0.03540039,32.3,0.0,-3.0,-7.861801,11.626907,
54.566428,true,true,true,0.125,12.75,0.0,0,0,0,0.125,12.75,0.0,0,0,0,0.125,12.700000000000001,0.0,0,0,0,0.125,12.75,0.0,0,0,0,0.0,12.75,0.0,0,0,0,0.0,12.75,0.0,0,0,0,0.125,12.8,0.0,0,0,0,kReverse,kOff,-86.92,2.24,2.25,0.037963867,-0.98565674,0.03363037,32.3,0.0,0.0,-7.861801,11.626907,
54.598673,true,true,true,0.125,12.75,0.0,0,0,0,0.125,12.75,0.0,0,0,0,0.125,12.75,0.0,0,0,0,0.125,12.75,0.0,0,0,0,0.0,12.75,0.0,0,0,0,0.0,12.75,0.0,0,0,0,0.0,12.8,0.0,0,0,0,kReverse,kOff,-86.92,2.24,2.25,0.040527344,-0.98565674,0.039367676,32.3,0.0,1.0,-7.861801,11.626907,
54.62880800000001,true,true,true,0.125,12.75,0.0,0,0,0,0.125,12.75,0.0,0,0,0,0.125,12.75,0.0,0,0,0,0.125,12.75,0.0,0,0,0,0.0,12.75,0.0,0,0,0,0.0,12.75,0.0,0,0,0,0.125,12.8,0.0,0,0,0,kReverse,kOff,-86.92,2.24,2.25,0.040100098,-0.980896,0.032470703,32.3,0.0,1.0,-7.861801,11.626907,
54.66098699999999,true,true,true,0.125,12.75,0.0,0,0,0,0.125,12.75,0.0,0,0,0,0.125,12.75,0.0,0,0,0,0.125,12.75,0.0,0,0,0,0.0,12.75,0.0,0,0,0,0.0,12.75,0.0,0,0,0,0.125,12.8,0.0,0,0,0,kReverse,kOff,-86.92,2.24,2.26,0.03717041,-0.9841919,0.037719727,32.3,0.0,-1.0,-7.861801,11.626907,
54.692721000000006,true,true,true,0.125,12.75,0.0,0,0,0,0.125,12.75,0.0,0,0,0,0.125,12.75,0.0,0,0,0,0.125,12.75,0.0,0,0,0,0.0,12.75,0.0,0,0,0,0.0,12.75,0.0,0,0,0,0.125,12.8,0.0,0,0,0,kReverse,kOff,-86.92,2.24,2.26,0.03778076,-0.98394775,0.033691406,32.26,0.0,0.0,-7.861801,11.626907,
54.720852,true,true,true,0.125,12.75,0.0,0,0,0,0.125,12.75,0.0,0,0,0,0.125,12.75,0.0,0,0,0,0.125,12.75,0.0,0,0,0,0.0,12.75,0.0,0,0,0,0.0,12.75,0.0,0,0,0,0.125,12.8,0.0,0,0,0,kReverse,kOff,-86.92,2.24,2.26,0.037353516,-0.9875488,0.033203125,32.26,0.0,-1.0,-7.861801,11.626907,
54.751531,true,true,true,0.125,12.75,0.0,0,0,0,0.125,12.75,0.0,0,0,0,0.125,12.75,0.0,0,0,0,0.125,12.75,0.0,0,0,0,0.0,12.75,0.0,0,0,0,0.0,12.75,0.0,0,0,0,0.125,12.8,0.0,0,0,0,kReverse,kOff,-86.92,2.24,2.25,0.036010742,-0.9827881,0.035827637,32.26,0.0,-2.0,-7.861801,11.626907,
54.781151,true,true,true,0.125,12.75,0.0,0,0,0,0.125,12.75,0.0,0,0,0,0.125,12.75,0.0,0,0,0,0.125,12.75,0.0,0,0,0,0.0,12.75,0.0,0,0,0,0.0,12.75,0.0,0,0,0,0.125,12.8,0.0,0,0,0,kReverse,kOff,-86.92,2.24,2.25,0.03704834,-0.98272705,0.03552246,32.26,0.0,-1.0,-7.861801,11.626907,
54.818075,true,true,true,0.125,12.75,0.0,0,0,0,0.125,12.75,0.0,0,0,0,0.125,12.75,0.0,0,0,0,0.125,12.75,0.0,0,0,0,0.0,12.75,0.0,0,0,0,0.0,12.75,0.0,0,0,0,0.125,12.8,0.0,0,0,0,kReverse,kOff,-86.92,2.24,2.25,0.041870117,-0.9866333,0.033569336,32.26,0.0,3.0,-7.861801,11.626907,
54.855301000000004,true,true,true,0.125,12.75,0.0,0,0,0,0.125,12.75,0.0,0,0,0,0.125,12.75,0.0,0,0,0,0.125,12.75,0.0,0,0,0,0.0,12.75,0.0,0,0,0,0.0,12.75,0.0,0,0,0,0.125,12.8,0.0,0,0,0,kReverse,kOff,-86.92,2.24,2.26,0.038208008,-0.98217773,0.031982422,32.26,0.0,0.0,-7.861801,11.626907,
54.881656,true,true,true,0.125,12.75,0.0,0,0,0,0.125,12.75,0.0,0,0,0,0.125,12.75,0.0,0,0,0,0.125,12.75,0.0,0,0,0,0.0,12.75,0.0,0,0,0,0.0,12.75,0.0,0,0,0,0.125,12.8,0.0,0,0,0,kReverse,kOff,-86.92,2.24,2.26,0.039916992,-0.98223877,0.03100586,32.26,0.0,1.0,-7.861801,11.626907,
54.906113,true,true,true,0.125,12.75,0.0,0,0,0,0.125,12.75,0.0,0,0,0,0.125,12.700000000000001,0.0,0,0,0,0.125,12.75,0.0,0,0,0,0.0,12.75,0.0,0,0,0,0.0,12.75,0.0,0,0,0,0.125,12.8,0.0,0,0,0,kReverse,kOff,-86.92,2.24,2.25,0.03692627,-0.98272705,0.035461426,32.26,0.0,-1.0,-7.861801,11.626907,
54.95075,true,true,true,0.125,12.75,0.0,0,0,0,0.125,12.75,0.0,0,0,0,0.125,12.700000000000001,0.0,0,0,0,0.125,12.75,0.0,0,0,0,0.0,12.75,0.0,0,0,0,0.0,12.75,0.0,0,0,0,0.125,12.8,0.0,0,0,0,kReverse,kOff,-86.92,2.24,2.25,0.036743164,-0.98168945,0.03765869,32.26,0.0,-1.0,-7.861801,11.626907,
54.982248999999996,true,true,true,0.125,12.75,0.0,0,0,0,0.125,12.75,0.0,0,0,0,0.125,12.700000000000001,0.0,0,0,0,0.125,12.75,0.0,0,0,0,0.0,12.75,0.0,0,0,0,0.0,12.75,0.0,0,0,0,0.125,12.8,0.0,0,0,0,kReverse,kOff,-86.93,2.23,2.25,0.036010742,-0.9855957,0.034606934,32.26,0.0,-2.0,-7.861801,11.626907,
55.012995,true,true,true,0.125,12.75,0.0,0,0,0,0.125,12.75,0.0,0,0,0,0.125,12.700000000000001,0.0,0,0,0,0.125,12.75,0.0,0,0,0,0.0,12.75,0.0,0,0,0,0.0,12.75,0.0,0,0,0,0.125,12.8,0.0,0,0,0,kReverse,kOff,-86.93,2.23,2.25,0.03753662,-0.984375,0.041015625,32.26,0.0,0.0,-7.861801,11.626907,
55.04092299999999,true,true,true,0.125,12.75,0.0,0,0,0,0.125,12.75,0.0,0,0,0,0.125,12.700000000000001,0.0,0,0,0,0.125,12.75,0.0,0,0,0,0.0,12.75,0.0,0,0,0,0.0,12.75,0.0,0,0,0,0.125,12.8,0.0,0,0,0,kReverse,kOff,-86.93,2.23,2.25,0.037475586,-0.98254395,0.031433105,32.26,0.0,0.0,-7.861801,11.626907,
55.073042,true,true,true,0.125,12.75,0.0,0,0,0,0.125,12.75,0.0,0,0,0,0.125,12.700000000000001,0.0,0,0,0,0.125,12.75,0.0,0,0,0,0.0,12.75,0.0,0,0,0,0.0,12.75,0.0,0,0,0,0.125,12.8,0.0,0,0,0,kReverse,kOff,-86.93,2.23,2.25,0.03717041,-0.98272705,0.040283203,32.26,0.0,-1.0,-7.861801,11.626907,
55.100319000000006,true,true,true,0.125,12.75,0.0,0,0,0,0.125,12.75,0.0,0,0,0,0.125,12.700000000000001,0.0,0,0,0,0.125,12.75,0.0,0,0,0,0.0,12.75,0.0,0,0,0,0.0,12.75,0.0,0,0,0,0.125,12.8,0.0,0,0,0,kReverse,kOff,-86.93,2.23,2.25,0.03753662,-0.98065186,0.03552246,32.26,0.0,0.0,-7.861801,11.626907,
55.137533,true,true,true,0.125,12.75,0.0,0,0,0,0.125,12.75,0.0,0,0,0,0.125,12.700000000000001,0.0,0,0,0,0.125,12.75,0.0,0,0,0,0.0,12.75,0.0,0,0,0,0.0,12.75,0.0,0,0,0,0.125,12.8,0.0,0,0,0,kReverse,kOff,-86.93,2.23,2.25,0.036499023,-0.9859619,0.032104492,32.26,0.0,-2.0,-7.861801,11.626907,
55.16155199999999,true,true,true,0.125,12.75,0.0,0,0,0,0.125,12.75,0.0,0,0,0,0.125,12.700000000000001,0.0,0,0,0,0.125,12.75,0.0,0,0,0,0.0,12.75,0.0,0,0,0,0.0,12.75,0.0,0,0,0,0.125,12.8,0.0,0,0,0,kReverse,kOff,-86.93,2.23,2.25,0.03479004,-0.9841919,0.039978027,32.26,0.0,-3.0,-7.861801,11.626907,
55.191528999999996,true,true,true,0.125,12.75,0.0,0,0,0,0.125,12.75,0.0,0,0,0,0.125,12.700000000000001,0.0,0,0,0,0.125,12.75,0.0,0,0,0,0.0,12.75,0.0,0,0,0,0.0,12.75,0.0,0,0,0,0.125,12.8,0.0,0,0,0,kReverse,kOff,-86.93,2.23,2.24,0.036193848,-0.9838257,0.037719727,32.28,0.0,-2.0,-7.861801,11.626907,
55.220477,true,true,true,0.125,12.75,0.0,0,0,0,0.125,12.75,0.0,0,0,0,0.125,12.700000000000001,0.0,0,0,0,0.125,12.75,0.0,0,0,0,0.0,12.75,0.0,0,0,0,0.0,12.75,0.0,0,0,0,0.125,12.8,0.0,0,0,0,kReverse,kOff,-86.93,2.23,2.24,0.04083252,-0.9836426,0.03656006,32.28,0.0,2.0,-7.861801,11.626907,
55.246767999999996,true,true,true,0.125,12.75,0.0,0,0,0,0.125,12.75,0.0,0,0,0,0.125,12.700000000000001,0.0,0,0,0,0.125,12.75,0.0,0,0,0,0.0,12.75,0.0,0,0,0,0.0,12.75,0.0,0,0,0,0.125,12.8,0.0,0,0,0,kReverse,kOff,-86.93,2.23,2.24,0.03765869,-0.9835205,0.041809082,32.28,0.0,0.0,-7.861801,11.626907,
55.273641000000005,true,true,true,0.125,12.75,0.0,0,0,0,0.125,12.75,0.0,0,0,0,0.125,12.700000000000001,0.0,0,0,0,0.125,12.75,0.0,0,0,0,0.0,12.75,0.0,0,0,0,0.0,12.75,0.0,0,0,0,0.125,12.8,0.0,0,0,0,kReverse,kOff,-86.93,2.23,2.24,0.037231445,-0.98321533,0.039367676,32.28,0.0,-1.0,-7.861801,11.626907,
55.297982999999995,true,true,true,0.125,12.75,0.0,0,0,0,0.125,12.75,0.0,0,0,0,0.125,12.700000000000001,0.0,0,0,0,0.125,12.75,0.0,0,0,0,0.0,12.75,0.0,0,0,0,0.0,12.75,0.0,0,0,0,0.125,12.8,0.0,0,0,0,kReverse,kOff,-86.93,2.23,2.24,0.03881836,-0.9838867,0.03753662,32.28,0.0,0.0,-7.861801,11.626907,
55.329710999999996,true,true,true,0.125,12.75,0.0,0,0,0,0.125,12.75,0.0,0,0,0,0.125,12.700000000000001,0.0,0,0,0,0.125,12.75,0.0,0,0,0,0.0,12.75,0.0,0,0,0,0.0,12.75,0.0,0,0,0,0.125,12.8,0.0,0,0,0,kReverse,kOff,-86.92,2.23,2.25,0.03753662,-0.9822998,0.038757324,32.28,0.0,0.0,-7.861801,11.626907,
55.360566000000006,true,true,true,0.125,12.75,0.0,0,0,0,0.125,12.75,0.0,0,0,0,0.125,12.700000000000001,0.0,0,0,0,0.125,12.75,0.0,0,0,0,0.0,12.75,0.0,0,0,0,0.0,12.75,0.0,0,0,0,0.125,12.8,0.0,0,0,0,kReverse,kOff,-86.92,2.23,2.24,0.039733887,-0.9802246,0.039978027,32.28,0.0,1.0,-7.861801,11.626907,
55.388439,true,true,true,0.125,12.75,0.0,0,0,0,0.125,12.75,0.0,0,0,0,0.125,12.75,0.0,0,0,0,0.125,12.75,0.0,0,0,0,0.0,12.75,0.0,0,0,0,0.0,12.75,0.0,0,0,0,0.125,12.8,0.0,0,0,0,kReverse,kOff,-86.92,2.23,2.24,0.038879395,-0.9805908,0.03564453,32.28,0.0,0.0,-7.861801,11.626907,
55.420162,true,true,true,0.125,12.75,0.0,0,0,0,0.125,12.75,0.0,0,0,0,0.125,12.75,0.0,0,0,0,0.125,12.75,0.0,0,0,0,0.0,12.75,0.0,0,0,0,0.0,12.75,0.0,0,0,0,0.125,12.8,0.0,0,0,0,kReverse,kOff,-86.93,2.23,2.24,0.03967285,-0.98376465,0.037231445,32.28,0.0,1.0,-7.861801,11.626907,
55.456795,true,true,true,0.125,12.75,0.0,0,0,0,0.125,12.75,0.0,0,0,0,0.125,12.75,0.0,0,0,0,0.125,12.75,0.0,0,0,0,0.0,12.75,0.0,0,0,0,0.0,12.75,0.0,0,0,0,0.125,12.8,0.0,0,0,0,kReverse,kOff,-86.93,2.23,2.24,0.04107666,-0.9840698,0.033203125,32.28,0.0,2.0,-7.861801,11.626907,
55.496708,true,true,true,0.125,12.75,0.0,0,0,0,0.125,12.75,0.0,0,0,0,0.125,12.75,0.0,0,0,0,0.125,12.75,0.0,0,0,0,0.0,12.75,0.0,0,0,0,0.0,12.75,0.0,0,0,0,0.125,12.8,0.0,0,0,0,kReverse,kOff,-86.93,2.23,2.24,0.03753662,-0.98358154,0.035827637,32.28,0.0,0.0,-7.861801,11.626907,
55.521803,true,true,true,0.125,12.75,0.0,0,0,0,0.125,12.75,0.0,0,0,0,0.125,12.75,0.0,0,0,0,0.125,12.75,0.0,0,0,0,0.0,12.75,0.0,0,0,0,0.0,12.75,0.0,0,0,0,0.125,12.8,0.0,0,0,0,kReverse,kOff,-86.93,2.23,2.24,0.037597656,-0.9851074,0.03753662,32.28,0.0,0.0,-7.861801,11.626907,
55.554083,true,true,true,0.125,12.75,0.0,0,0,0,0.125,12.75,0.0,0,0,0,0.125,12.700000000000001,0.0,0,0,0,0.125,12.75,0.0,0,0,0,0.0,12.75,0.0,0,0,0,0.0,12.75,0.0,0,0,0,0.125,12.8,0.0,0,0,0,kReverse,kOff,-86.92,2.23,2.25,0.03955078,-0.98687744,0.038879395,32.28,0.0,0.0,-7.861801,11.626907,
55.587143,true,true,true,0.125,12.75,0.0,0,0,0,0.125,12.75,0.0,0,0,0,0.125,12.700000000000001,0.0,0,0,0,0.125,12.75,0.0,0,0,0,0.0,12.75,0.0,0,0,0,0.0,12.75,0.0,0,0,0,0.125,12.8,0.0,0,0,0,kReverse,kOff,-86.93,2.23,2.24,0.039367676,-0.9803467,0.03564453,32.28,0.0,1.0,-7.861801,11.626907,
55.616691,true,true,true,0.125,12.75,0.0,0,0,0,0.125,12.75,0.0,0,0,0,0.125,12.700000000000001,0.0,0,0,0,0.125,12.75,0.0,0,0,0,0.0,12.75,0.0,0,0,0,0.0,12.75,0.0,0,0,0,0.125,12.8,0.0,0,0,0,kReverse,kOff,-86.92,2.23,2.25,0.037475586,-0.9837036,0.041259766,32.28,0.0,0.0,-7.861801,11.626907,
55.636966,true,true,true,0.125,12.75,0.0,0,0,0,0.125,12.75,0.0,0,0,0,0.125,12.700000000000001,0.0,0,0,0,0.125,12.75,0.0,0,0,0,0.0,12.75,0.0,0,0,0,0.0,12.75,0.0,0,0,0,0.125,12.8,0.0,0,0,0,kReverse,kOff,-86.92,2.23,2.25,0.037475586,-0.9837036,0.041259766,32.28,0.0,0.0,-7.861801,11.626907,
55.662822,true,true,true,0.125,12.75,0.0,0,0,0,0.125,12.75,0.0,0,0,0,0.125,12.700000000000001,0.0,0,0,0,0.125,12.75,0.0,0,0,0,0.0,12.75,0.0,0,0,0,0.0,12.75,0.0,0,0,0,0.125,12.8,0.0,0,0,0,kReverse,kOff,-86.93,2.22,2.24,0.039978027,-0.9804077,0.035339355,32.28,0.0,1.0,-7.861801,11.626907,
55.687553,true,true,true,0.125,12.75,0.0,0,0,0,0.125,12.75,0.0,0,0,0,0.125,12.700000000000001,0.0,0,0,0,0.125,12.75,0.0,0,0,0,0.0,12.75,0.0,0,0,0,0.0,12.75,0.0,0,0,0,0.125,12.8,0.0,0,0,0,kReverse,kOff,-86.92,2.23,2.24,0.038208008,-0.982666,0.037597656,32.28,0.0,0.0,-7.861801,11.626907,
55.714311,true,true,true,0.125,12.75,0.0,0,0,0,0.125,12.75,0.0,0,0,0,0.125,12.75,0.0,0,0,0,0.125,12.75,0.0,0,0,0,0.0,12.75,0.0,0,0,0,0.0,12.75,0.0,0,0,0,0.125,12.8,0.0,0,0,0,kReverse,kOff,-86.93,2.23,2.24,0.03942871,-0.9838257,0.03479004,32.28,0.0,1.0,-7.861801,11.626907,
55.737854000000006,true,true,true,0.125,12.75,0.0,0,0,0,0.125,12.75,0.0,0,0,0,0.125,12.75,0.0,0,0,0,0.125,12.75,0.0,0,0,0,0.0,12.75,0.0,0,0,0,0.0,12.75,0.0,0,0,0,0.125,12.8,0.0,0,0,0,kReverse,kOff,-86.92,2.23,2.25,0.03967285,-0.9814453,0.03668213,32.28,0.0,1.0,-7.861801,11.626907,
55.762192,true,true,true,0.125,12.75,0.0,0,0,0,0.125,12.75,0.0,0,0,0,0.125,12.75,0.0,0,0,0,0.125,12.75,0.0,0,0,0,0.0,12.75,0.0,0,0,0,0.0,12.75,0.0,0,0,0,0.125,12.8,0.0,0,0,0,kReverse,kOff,-86.92,2.23,2.25,0.035949707,-0.9838867,0.039489746,32.28,0.0,-2.0,-7.861801,11.626907,
55.785582,true,true,true,0.125,12.75,0.0,0,0,0,0.125,12.75,0.0,0,0,0,0.125,12.75,0.0,0,0,0,0.125,12.75,0.0,0,0,0,0.0,12.75,0.0,0,0,0,0.0,12.75,0.0,0,0,0,0.125,12.8,0.0,0,0,0,kReverse,kOff,-86.92,2.23,2.25,0.040527344,-0.9844971,0.037902832,32.28,0.0,2.0,-7.861801,11.626907,
55.81296799999999,true,true,true,0.125,12.75,0.0,0,0,0,0.125,12.75,0.0,0,0,0,0.125,12.75,0.0,0,0,0,0.125,12.75,0.0,0,0,0,0.0,12.75,0.0,0,0,0,0.0,12.75,0.0,0,0,0,0.125,12.8,0.0,0,0,0,kReverse,kOff,-86.92,2.23,2.25,0.039733887,-0.9805908,0.030456543,32.28,0.0,1.0,-7.861801,11.626907,
55.839159,true,true,true,0.125,12.75,0.0,0,0,0,0.125,12.75,0.0,0,0,0,0.125,12.75,0.0,0,0,0,0.125,12.75,0.0,0,0,0,0.0,12.75,0.0,0,0,0,0.0,12.75,0.0,0,0,0,0.125,12.8,0.0,0,0,0,kReverse,kOff,-86.92,2.23,2.25,0.03845215,-0.9801636,0.03765869,32.28,0.0,0.0,-7.861801,11.626907,
55.865005000000004,true,true,true,0.125,12.75,0.0,0,0,0,0.125,12.75,0.0,0,0,0,0.125,12.700000000000001,0.0,0,0,0,0.125,12.75,0.0,0,0,0,0.0,12.75,0.0,0,0,0,0.0,12.75,0.0,0,0,0,0.125,12.8,0.0,0,0,0,kReverse,kOff,-86.92,2.23,2.25,0.03704834,-0.98010254,0.036315918,32.28,0.0,-1.0,-7.861801,11.626907,
55.89139200000001,true,true,true,0.125,12.75,0.0,0,0,0,0.125,12.75,0.0,0,0,0,0.125,12.700000000000001,0.0,0,0,0,0.125,12.75,0.0,0,0,0,0.0,12.75,0.0,0,0,0,0.0,12.75,0.0,0,0,0,0.125,12.8,0.0,0,0,0,kReverse,kOff,-86.92,2.23,2.25,0.03778076,-0.98321533,0.035949707,32.28,0.0,0.0,-7.861801,11.626907,
55.91450199999999,true,true,true,0.125,12.75,0.0,0,0,0,0.125,12.75,0.0,0,0,0,0.125,12.700000000000001,0.0,0,0,0,0.125,12.75,0.0,0,0,0,0.0,12.75,0.0,0,0,0,0.0,12.75,0.0,0,0,0,0.125,12.8,0.0,0,0,0,kReverse,kOff,-86.93,2.23,2.24,0.038269043,-0.9830322,0.041870117,32.28,0.0,0.0,-7.861801,11.626907,
55.940946,true,true,true,0.125,12.75,0.0,0,0,0,0.125,12.75,0.0,0,0,0,0.125,12.700000000000001,0.0,0,0,0,0.125,12.75,0.0,0,0,0,0.0,12.75,0.0,0,0,0,0.0,12.75,0.0,0,0,0,0.125,12.8,0.0,0,0,0,kReverse,kOff,-86.92,2.24,2.25,0.039733887,-0.9852905,0.034240723,32.28,0.0,1.0,-7.861801,11.626907,
55.969502999999996,true,true,true,0.125,12.75,0.0,0,0,0,0.125,12.75,0.0,0,0,0,0.125,12.700000000000001,0.0,0,0,0,0.125,12.75,0.0,0,0,0,0.0,12.75,0.0,0,0,0,0.0,12.75,0.0,0,0,0,0.125,12.8,0.0,0,0,0,kReverse,kOff,-86.93,2.23,2.25,0.035217285,-0.98217773,0.041381836,32.28,0.0,-3.0,-7.861801,11.626907,
55.99226300000001,true,true,true,0.125,12.75,0.0,0,0,0,0.125,12.75,0.0,0,0,0,0.125,12.700000000000001,0.0,0,0,0,0.125,12.75,0.0,0,0,0,0.0,12.75,0.0,0,0,0,0.0,12.75,0.0,0,0,0,0.125,12.8,0.0,0,0,0,kReverse,kOff,-86.92,2.23,2.25,0.038024902,-0.9834595,0.03741455,32.28,0.0,0.0,-7.861801,11.626907,
56.015072,true,true,true,0.125,12.75,0.0,0,0,0,0.125,12.75,0.0,0,0,0,0.125,12.700000000000001,0.0,0,0,0,0.125,12.75,0.0,0,0,0,0.0,12.75,0.0,0,0,0,0.0,12.75,0.0,0,0,0,0.125,12.8,0.0,0,0,0,kReverse,kOff,-86.93,2.23,2.25,0.040222168,-0.9829712,0.036499023,32.28,0.0,1.0,-7.861801,11.626907,
56.040808999999996,true,true,true,0.125,12.75,0.0,0,0,0,0.125,12.75,0.0,0,0,0,0.125,12.75,0.0,0,0,0,0.125,12.75,0.0,0,0,0,0.0,12.75,0.0,0,0,0,0.0,12.75,0.0,0,0,0,0.125,12.8,0.0,0,0,0,kReverse,kOff,-86.93,2.23,2.25,0.03942871,-0.9828491,0.03125,32.28,0.0,0.0,-7.861801,11.626907,
56.06300199999999,true,true,true,0.125,12.75,0.0,0,0,0,0.125,12.75,0.0,0,0,0,0.125,12.75,0.0,0,0,0,0.125,12.75,0.0,0,0,0,0.0,12.75,0.0,0,0,0,0.0,12.75,0.0,0,0,0,0.125,12.8,0.0,0,0,0,kReverse,kOff,-86.93,2.23,2.25,0.038269043,-0.9812622,0.03845215,32.28,0.0,0.0,-7.861801,11.626907,
56.088187000000005,true,true,true,0.125,12.75,0.0,0,0,0,0.125,12.75,0.0,0,0,0,0.125,12.75,0.0,0,0,0,0.125,12.75,0.0,0,0,0,0.0,12.75,0.0,0,0,0,0.0,12.75,0.0,0,0,0,0.125,12.8,0.0,0,0,0,kReverse,kOff,-86.92,2.23,2.25,0.03942871,-0.9831543,0.037841797,32.28,0.0,0.0,-7.861801,11.626907,
56.11719899999999,true,true,true,0.125,12.75,0.0,0,0,0,0.125,12.75,0.0,0,0,0,0.125,12.75,0.0,0,0,0,0.125,12.75,0.0,0,0,0,0.0,12.75,0.0,0,0,0,0.0,12.75,0.0,0,0,0,0.125,12.8,0.0,0,0,0,kReverse,kOff,-86.93,2.23,2.25,0.039489746,-0.98565674,0.03643799,32.28,0.0,0.0,-7.861801,11.626907,
56.141561,true,true,true,0.125,12.75,0.0,0,0,0,0.125,12.75,0.0,0,0,0,0.125,12.75,0.0,0,0,0,0.125,12.75,0.0,0,0,0,0.0,12.75,0.0,0,0,0,0.0,12.75,0.0,0,0,0,0.125,12.8,0.0,0,0,0,kReverse,kOff,-86.93,2.23,2.24,0.038513184,-0.98461914,0.037475586,32.28,0.0,0.0,-7.861801,11.626907,
56.166524,true,true,true,0.125,12.75,0.0,0,0,0,0.125,12.75,0.0,0,0,0,0.125,12.75,0.0,0,0,0,0.125,12.75,0.0,0,0,0,0.0,12.75,0.0,0,0,0,0.0,12.75,0.0,0,0,0,0.125,12.8,0.0,0,0,0,kReverse,kOff,-86.93,2.23,2.24,0.039978027,-0.9840088,0.03173828,32.28,0.0,1.0,-7.861801,11.626907,
56.196417000000004,true,true,true,0.125,12.75,0.0,0,0,0,0.125,12.75,0.0,0,0,0,0.125,12.700000000000001,0.0,0,0,0,0.125,12.75,0.0,0,0,0,0.0,12.75,0.0,0,0,0,0.0,12.75,0.0,0,0,0,0.125,12.8,0.0,0,0,0,kReverse,kOff,-86.93,2.23,2.25,0.039489746,-0.98168945,0.039123535,32.28,0.0,1.0,-7.861801,11.626907,
56.217724000000004,true,true,true,0.125,12.75,0.0,0,0,0,0.125,12.75,0.0,0,0,0,0.125,12.700000000000001,0.0,0,0,0,0.125,12.75,0.0,0,0,0,0.0,12.75,0.0,0,0,0,0.0,12.75,0.0,0,0,0,0.125,12.8,0.0,0,0,0,kReverse,kOff,-86.93,2.23,2.25,0.037902832,-0.9802246,0.036621094,32.26,0.0,0.0,-7.861801,11.626907,
56.237897,true,true,true,0.125,12.75,0.0,0,0,0,0.125,12.75,0.0,0,0,0,0.125,12.700000000000001,0.0,0,0,0,0.125,12.75,0.0,0,0,0,0.0,12.75,0.0,0,0,0,0.0,12.75,0.0,0,0,0,0.125,12.8,0.0,0,0,0,kReverse,kOff,-86.92,2.24,2.25,0.03503418,-0.9807129,0.036865234,32.26,0.0,-3.0,-7.861801,11.626907,
56.258914999999995,true,true,true,0.125,12.75,0.0,0,0,0,0.125,12.75,0.0,0,0,0,0.125,12.700000000000001,0.0,0,0,0,0.125,12.75,0.0,0,0,0,0.0,12.75,0.0,0,0,0,0.0,12.75,0.0,0,0,0,0.125,12.8,0.0,0,0,0,kReverse,kOff,-86.92,2.24,2.25,0.038635254,-0.9831543,0.035827637,32.26,0.0,0.0,-7.861801,11.626907,
56.280073,true,true,true,0.125,12.75,0.0,0,0,0,0.125,12.75,0.0,0,0,0,0.125,12.700000000000001,0.0,0,0,0,0.125,12.75,0.0,0,0,0,0.0,12.75,0.0,0,0,0,0.0,12.75,0.0,0,0,0,0.125,12.8,0.0,0,0,0,kReverse,kOff,-86.92,2.24,2.25,0.038146973,-0.98638916,0.03479004,32.26,0.0,0.0,-7.861801,11.626907,
56.301528999999995,true,true,true,0.125,12.75,0.0,0,0,0,0.125,12.75,0.0,0,0,0,0.125,12.700000000000001,0.0,0,0,0,0.125,12.75,0.0,0,0,0,0.0,12.75,0.0,0,0,0,0.0,12.75,0.0,0,0,0,0.125,12.8,0.0,0,0,0,kReverse,kOff,-86.93,2.24,2.25,0.03869629,-0.9833374,0.033081055,32.26,0.0,0.0,-7.861801,11.626907,
56.326528999999994,true,true,true,0.125,12.75,0.0,0,0,0,0.125,12.75,0.0,0,0,0,0.125,12.700000000000001,0.0,0,0,0,0.125,12.75,0.0,0,0,0,0.0,12.75,0.0,0,0,0,0.0,12.75,0.0,0,0,0,0.125,12.8,0.0,0,0,0,kReverse,kOff,-86.93,2.24,2.25,0.04119873,-0.98132324,0.03527832,32.26,0.0,2.0,-7.861801,11.626907,
56.34780800000001,true,true,true,0.125,12.75,0.0,0,0,0,0.125,12.75,0.0,0,0,0,0.125,12.700000000000001,0.0,0,0,0,0.125,12.75,0.0,0,0,0,0.0,12.75,0.0,0,0,0,0.0,12.75,0.0,0,0,0,0.125,12.8,0.0,0,0,0,kReverse,kOff,-86.92,2.24,2.25,0.037963867,-0.9847412,0.03967285,32.26,0.0,0.0,-7.861801,11.626907,
56.373991,true,true,true,0.125,12.75,0.0,0,0,0,0.125,12.75,0.0,0,0,0,0.125,12.700000000000001,0.0,0,0,0,0.125,12.75,0.0,0,0,0,0.0,12.75,0.0,0,0,0,0.0,12.75,0.0,0,0,0,0.125,12.8,0.0,0,0,0,kReverse,kOff,-86.93,2.24,2.25,0.036987305,-0.9828491,0.035583496,32.26,0.0,-1.0,-7.861801,11.626907,
56.397716,true,true,true,0.125,12.75,0.0,0,0,0,0.125,12.75,0.0,0,0,0,0.125,12.700000000000001,0.0,0,0,0,0.125,12.75,0.0,0,0,0,0.0,12.75,0.0,0,0,0,0.0,12.75,0.0,0,0,0,0.125,12.8,0.0,0,0,0,kReverse,kOff,-86.92,2.24,2.25,0.040161133,-0.98205566,0.037231445,32.26,0.0,1.0,-7.861801,11.626907,
56.419523,true,true,true,0.125,12.75,0.0,0,0,0,0.125,12.75,0.0,0,0,0,0.125,12.700000000000001,0.0,0,0,0,0.125,12.75,0.0,0,0,0,0.0,12.75,0.0,0,0,0,0.0,12.75,0.0,0,0,0,0.125,12.8,0.0,0,0,0,kReverse,kOff,-86.92,2.24,2.25,0.038391113,-0.9816284,0.036254883,32.26,0.0,0.0,-7.861801,11.626907,
56.44292900000001,true,true,true,0.125,12.75,0.0,0,0,0,0.125,12.75,0.0,0,0,0,0.125,12.700000000000001,0.0,0,0,0,0.125,12.75,0.0,0,0,0,0.0,12.75,0.0,0,0,0,0.0,12.75,0.0,0,0,0,0.125,12.8,0.0,0,0,0,kReverse,kOff,-86.92,2.24,2.26,0.038879395,-0.9819336,0.036865234,32.26,0.0,0.0,-7.861801,11.626907,
56.469986999999996,true,true,true,0.125,12.75,0.0,0,0,0,0.125,12.75,0.0,0,0,0,0.125,12.700000000000001,0.0,0,0,0,0.125,12.75,0.0,0,0,0,0.0,12.75,0.0,0,0,0,0.0,12.75,0.0,0,0,0,0.125,12.8,0.0,0,0,0,kReverse,kOff,-86.92,2.24,2.26,0.039733887,-0.9819946,0.03643799,32.26,0.0,1.0,-7.861801,11.626907,
56.50177099999999,true,true,true,0.125,12.75,0.0,0,0,0,0.125,12.75,0.0,0,0,0,0.125,12.700000000000001,0.0,0,0,0,0.125,12.75,0.0,0,0,0,0.0,12.75,0.0,0,0,0,0.0,12.75,0.0,0,0,0,0.125,12.8,0.0,0,0,0,kReverse,kOff,-86.92,2.24,2.26,0.036499023,-0.9834595,0.0368042,32.26,0.0,-2.0,-7.861801,11.626907,
56.531553,true,true,true,0.125,12.75,0.0,0,0,0,0.125,12.75,0.0,0,0,0,0.125,12.700000000000001,0.0,0,0,0,0.125,12.75,0.0,0,0,0,0.0,12.75,0.0,0,0,0,0.0,12.75,0.0,0,0,0,0.125,12.8,0.0,0,0,0,kReverse,kOff,-86.92,2.24,2.26,0.040405273,-0.9835205,0.0345459,32.26,0.0,1.0,-7.861801,11.626907,
56.557035000000006,true,true,true,0.125,12.75,0.0,0,0,0,0.125,12.75,0.0,0,0,0,0.125,12.700000000000001,0.0,0,0,0,0.125,12.75,0.0,0,0,0,0.0,12.75,0.0,0,0,0,0.0,12.75,0.0,0,0,0,0.125,12.8,0.0,0,0,0,kReverse,kOff,-86.92,2.24,2.26,0.042053223,-0.98443604,0.03753662,32.26,0.0,3.0,-7.861801,11.626907,
56.581265,true,true,true,0.125,12.75,0.0,0,0,0,0.125,12.75,0.0,0,0,0,0.125,12.700000000000001,0.0,0,0,0,0.125,12.75,0.0,0,0,0,0.0,12.75,0.0,0,0,0,0.0,12.75,0.0,0,0,0,0.125,12.8,0.0,0,0,0,kReverse,kOff,-86.92,2.24,2.26,0.035461426,-0.98132324,0.04248047,32.26,0.0,-3.0,-7.861801,11.626907,
56.609433,true,true,true,0.125,12.75,0.0,0,0,0,0.125,12.75,0.0,0,0,0,0.125,12.700000000000001,0.0,0,0,0,0.125,12.75,0.0,0,0,0,0.0,12.75,0.0,0,0,0,0.0,12.75,0.0,0,0,0,0.125,12.8,0.0,0,0,0,kReverse,kOff,-86.92,2.24,2.26,0.038757324,-0.9807739,0.030456543,32.26,0.0,0.0,-7.861801,11.626907,
56.635004,true,true,true,0.125,12.75,0.0,0,0,0,0.125,12.75,0.0,0,0,0,0.125,12.700000000000001,0.0,0,0,0,0.125,12.75,0.0,0,0,0,0.0,12.75,0.0,0,0,0,0.0,12.75,0.0,0,0,0,0.125,12.8,0.0,0,0,0,kReverse,kOff,-86.92,2.25,2.26,0.041137695,-0.9817505,0.03375244,32.26,0.0,2.0,-7.861801,11.626907,
56.657992,true,true,true,0.125,12.75,0.0,0,0,0,0.125,12.75,0.0,0,0,0,0.125,12.700000000000001,0.0,0,0,0,0.125,12.75,0.0,0,0,0,0.0,12.75,0.0,0,0,0,0.0,12.75,0.0,0,0,0,0.125,12.8,0.0,0,0,0,kReverse,kOff,-86.92,2.25,2.26,0.038330078,-0.9793701,0.033203125,32.26,0.0,0.0,-7.861801,11.626907,
56.681456000000004,true,true,true,0.125,12.75,0.0,0,0,0,0.125,12.75,0.0,0,0,0,0.125,12.700000000000001,0.0,0,0,0,0.125,12.75,0.0,0,0,0,0.0,12.75,0.0,0,0,0,0.0,12.75,0.0,0,0,0,0.125,12.8,0.0,0,0,0,kReverse,kOff,-86.92,2.25,2.26,0.038391113,-0.9828491,0.031677246,32.26,0.0,0.0,-7.861801,11.626907,
56.70392699999999,true,true,true,0.125,12.75,0.0,0,0,0,0.125,12.75,0.0,0,0,0,0.125,12.700000000000001,0.0,0,0,0,0.125,12.75,0.0,0,0,0,0.0,12.75,0.0,0,0,0,0.0,12.75,0.0,0,0,0,0.125,12.8,0.0,0,0,0,kReverse,kOff,-86.92,2.25,2.26,0.037353516,-0.97924805,0.038513184,32.26,0.0,-1.0,-7.861801,11.626907,
56.730256999999995,true,true,true,0.125,12.75,0.0,0,0,0,0.125,12.75,0.0,0,0,0,0.125,12.700000000000001,0.0,0,0,0,0.125,12.75,0.0,0,0,0,0.0,12.75,0.0,0,0,0,0.0,12.75,0.0,0,0,0,0.125,12.8,0.0,0,0,0,kReverse,kOff,-86.92,2.24,2.26,0.03930664,-0.98394775,0.03564453,32.3,0.0,0.0,-7.861801,11.626907,
56.759099,true,true,true,0.125,12.75,0.0,0,0,0,0.125,12.75,0.0,0,0,0,0.125,12.700000000000001,0.0,0,0,0,0.125,12.75,0.0,0,0,0,0.125,12.75,0.0,0,0,0,0.0,12.75,0.0,0,0,0,0.125,12.8,0.0,0,0,0,kReverse,kOff,-86.92,2.24,2.26,0.03540039,-0.9836426,0.038757324,32.3,0.0,-3.0,-7.861801,11.626907,
56.782869999999996,true,true,true,0.125,12.75,0.0,0,0,0,0.125,12.75,0.0,0,0,0,0.125,12.700000000000001,0.0,0,0,0,0.125,12.75,0.0,0,0,0,0.0,12.75,0.0,0,0,0,0.0,12.75,0.0,0,0,0,0.125,12.8,0.0,0,0,0,kReverse,kOff,-86.92,2.24,2.26,0.037902832,-0.9846802,0.036193848,32.3,0.0,0.0,-7.861801,11.626907,
56.807649999999995,true,true,true,0.125,12.75,0.0,0,0,0,0.125,12.75,0.0,0,0,0,0.125,12.700000000000001,0.0,0,0,0,0.125,12.75,0.0,0,0,0,0.0,12.75,0.0,0,0,0,0.0,12.75,0.0,0,0,0,0.125,12.8,0.0,0,0,0,kReverse,kOff,-86.92,2.24,2.26,0.03869629,-0.97857666,0.036376953,32.3,0.0,0.0,-7.861801,11.626907,
56.83564500000001,true,true,true,0.125,12.75,0.0,0,0,0,0.125,12.75,0.0,0,0,0,0.125,12.700000000000001,0.0,0,0,0,0.125,12.75,0.0,0,0,0,0.0,12.75,0.0,0,0,0,0.0,12.75,0.0,0,0,0,0.125,12.8,0.0,0,0,0,kReverse,kOff,-86.92,2.24,2.26,0.037963867,-0.9833374,0.03338623,32.3,0.0,0.0,-7.861801,11.626907,
56.860227,true,true,true,0.125,12.75,0.0,0,0,0,0.125,12.75,0.0,0,0,0,0.125,12.700000000000001,0.0,0,0,0,0.125,12.75,0.0,0,0,0,0.0,12.75,0.0,0,0,0,0.0,12.75,0.0,0,0,0,0.125,12.8,0.0,0,0,0,kReverse,kOff,-86.92,2.24,2.26,0.0390625,-0.9847412,0.036987305,32.3,0.0,0.0,-7.861801,11.626907,
56.88061999999999,true,true,true,0.125,12.75,0.0,0,0,0,0.125,12.75,0.0,0,0,0,0.125,12.700000000000001,0.0,0,0,0,0.125,12.75,0.0,0,0,0,0.0,12.75,0.0,0,0,0,0.0,12.75,0.0,0,0,0,0.125,12.8,0.0,0,0,0,kReverse,kOff,-86.92,2.25,2.26,0.037719727,-0.98254395,0.034362793,32.3,0.0,0.0,-7.861801,11.626907,
56.903395999999994,true,true,true,0.125,12.75,0.0,0,0,0,0.125,12.75,0.0,0,0,0,0.125,12.700000000000001,0.0,0,0,0,0.125,12.75,0.0,0,0,0,0.0,12.75,0.0,0,0,0,0.0,12.75,0.0,0,0,0,0.125,12.8,0.0,0,0,0,kReverse,kOff,-86.92,2.24,2.26,0.039916992,-0.98791504,0.03564453,32.3,0.0,1.0,-7.861801,11.626907,
56.93104700000001,true,true,true,0.125,12.75,0.0,0,0,0,0.125,12.75,0.0,0,0,0,0.125,12.700000000000001,0.0,0,0,0,0.125,12.75,0.0,0,0,0,0.0,12.75,0.0,0,0,0,0.0,12.75,0.0,0,0,0,0.125,12.8,0.0,0,0,0,kReverse,kOff,-86.92,2.24,2.26,0.035705566,-0.9849243,0.039123535,32.3,0.0,-2.0,-7.861801,11.626907,
56.960899000000005,true,true,true,0.125,12.75,0.0,0,0,0,0.125,12.75,0.0,0,0,0,0.125,12.700000000000001,0.0,0,0,0,0.125,12.75,0.0,0,0,0,0.0,12.75,0.0,0,0,0,0.0,12.75,0.0,0,0,0,0.125,12.8,0.0,0,0,0,kReverse,kOff,-86.92,2.24,2.26,0.037841797,-0.98114014,0.035095215,32.3,0.0,0.0,-7.861801,11.626907,
56.988741999999995,true,true,true,0.125,12.75,0.0,0,0,0,0.125,12.75,0.0,0,0,0,0.125,12.700000000000001,0.0,0,0,0,0.125,12.75,0.0,0,0,0,0.0,12.75,0.0,0,0,0,0.0,12.75,0.0,0,0,0,0.125,12.8,0.0,0,0,0,kReverse,kOff,-86.92,2.24,2.25,0.04034424,-0.9833374,0.036315918,32.3,0.0,1.0,-7.861801,11.626907,
57.014398,true,true,true,0.125,12.75,0.0,0,0,0,0.125,12.75,0.0,0,0,0,0.125,12.700000000000001,0.0,0,0,0,0.125,12.75,0.0,0,0,0,0.0,12.75,0.0,0,0,0,0.0,12.75,0.0,0,0,0,0.125,12.8,0.0,0,0,0,kReverse,kOff,-86.92,2.24,2.25,0.038208008,-0.9830322,0.035827637,32.3,0.0,0.0,-7.861801,11.626907,
57.040577000000006,true,true,true,0.125,12.75,0.0,0,0,0,0.125,12.75,0.0,0,0,0,0.125,12.700000000000001,0.0,0,0,0,0.125,12.75,0.0,0,0,0,0.0,12.75,0.0,0,0,0,0.0,12.75,0.0,0,0,0,0.125,12.8,0.0,0,0,0,kReverse,kOff,-86.92,2.24,2.26,0.03857422,-0.9845581,0.040039062,32.3,0.0,0.0,-7.861801,11.626907,
57.069754,true,true,true,0.125,12.75,0.0,0,0,0,0.125,12.75,0.0,0,0,0,0.125,12.700000000000001,0.0,0,0,0,0.125,12.75,0.0,0,0,0,0.0,12.75,0.0,0,0,0,0.0,12.75,0.0,0,0,0,0.125,12.8,0.0,0,0,0,kReverse,kOff,-86.92,2.24,2.26,0.036071777,-0.9852905,0.036987305,32.3,0.0,-2.0,-7.861801,11.626907,
57.099488,true,true,true,0.125,12.75,0.0,0,0,0,0.125,12.75,0.0,0,0,0,0.125,12.700000000000001,0.0,0,0,0,0.125,12.75,0.0,0,0,0,0.0,12.75,0.0,0,0,0,0.0,12.75,0.0,0,0,0,0.0,12.8,0.0,0,0,0,kReverse,kOff,-86.92,2.24,2.26,0.038879395,-0.9816284,0.03491211,32.3,0.0,0.0,-7.861801,11.626907,
57.123782999999996,true,true,true,0.125,12.75,0.0,0,0,0,0.125,12.75,0.0,0,0,0,0.125,12.700000000000001,0.0,0,0,0,0.125,12.75,0.0,0,0,0,0.0,12.75,0.0,0,0,0,0.0,12.75,0.0,0,0,0,0.0,12.8,0.0,0,0,0,kReverse,kOff,-86.92,2.24,2.26,0.038635254,-0.97906494,0.03515625,32.3,0.0,0.0,-7.861801,11.626907,
57.150940000000006,true,true,true,0.125,12.75,0.0,0,0,0,0.125,12.75,0.0,0,0,0,0.125,12.700000000000001,0.0,0,0,0,0.125,12.75,0.0,0,0,0,0.0,12.75,0.0,0,0,0,0.0,12.75,0.0,0,0,0,0.125,12.8,0.0,0,0,0,kReverse,kOff,-86.92,2.24,2.26,0.036010742,-0.9838257,0.03845215,32.3,0.0,-2.0,-7.861801,11.626907,
57.178306,true,true,true,0.125,12.75,0.0,0,0,0,0.125,12.75,0.0,0,0,0,0.125,12.700000000000001,0.0,0,0,0,0.125,12.75,0.0,0,0,0,0.0,12.75,0.0,0,0,0,0.0,12.75,0.0,0,0,0,0.125,12.8,0.0,0,0,0,kReverse,kOff,-86.92,2.24,2.26,0.03479004,-0.9805908,0.037963867,32.3,0.0,-3.0,-7.861801,11.626907,
57.201492,true,true,true,0.125,12.75,0.0,0,0,0,0.125,12.75,0.0,0,0,0,0.125,12.700000000000001,0.0,0,0,0,0.125,12.75,0.0,0,0,0,0.0,12.75,0.0,0,0,0,0.0,12.75,0.0,0,0,0,0.125,12.8,0.0,0,0,0,kReverse,kOff,-86.92,2.24,2.25,0.040100098,-0.9818115,0.035217285,32.3,0.0,1.0,-7.861801,11.626907,
57.226431,true,true,true,0.125,12.75,0.0,0,0,0,0.125,12.75,0.0,0,0,0,0.125,12.700000000000001,0.0,0,0,0,0.125,12.75,0.0,0,0,0,0.0,12.75,0.0,0,0,0,0.0,12.75,0.0,0,0,0,0.125,12.8,0.0,0,0,0,kReverse,kOff,-86.92,2.24,2.25,0.038757324,-0.9855957,0.032409668,32.31,0.0,0.0,-7.861801,11.626907,
57.257155,true,true,true,0.125,12.75,0.0,0,0,0,0.125,12.75,0.0,0,0,0,0.125,12.700000000000001,0.0,0,0,0,0.125,12.75,0.0,0,0,0,0.0,12.75,0.0,0,0,0,0.0,12.75,0.0,0,0,0,0.125,12.8,0.0,0,0,0,kReverse,kOff,-86.92,2.24,2.25,0.03918457,-0.98358154,0.039489746,32.31,0.0,0.0,-7.861801,11.626907,
57.279011,true,true,true,0.125,12.75,0.0,0,0,0,0.125,12.75,0.0,0,0,0,0.125,12.700000000000001,0.0,0,0,0,0.125,12.75,0.0,0,0,0,0.0,12.75,0.0,0,0,0,0.0,12.75,0.0,0,0,0,0.125,12.8,0.0,0,0,0,kReverse,kOff,-86.92,2.24,2.26,0.040771484,-0.9813843,0.038024902,32.31,0.0,2.0,-7.861801,11.626907,
57.315477,true,true,true,0.125,12.75,0.0,0,0,0,0.125,12.75,0.0,0,0,0,0.125,12.700000000000001,0.0,0,0,0,0.125,12.75,0.0,0,0,0,0.0,12.75,0.0,0,0,0,0.0,12.75,0.0,0,0,0,0.125,12.8,0.0,0,0,0,kReverse,kOff,-86.92,2.24,2.26,0.03668213,-0.98413086,0.034301758,32.31,0.0,-1.0,-7.861801,11.626907,
57.34228,true,true,true,0.125,12.75,0.0,0,0,0,0.125,12.75,0.0,0,0,0,0.125,12.700000000000001,0.0,0,0,0,0.125,12.75,0.0,0,0,0,0.0,12.75,0.0,0,0,0,0.0,12.75,0.0,0,0,0,0.125,12.8,0.0,0,0,0,kReverse,kOff,-86.92,2.24,2.26,0.040893555,-0.9824829,0.03338623,32.31,0.0,2.0,-7.861801,11.626907,
57.368739,true,true,true,0.125,12.75,0.0,0,0,0,0.125,12.75,0.0,0,0,0,0.125,12.700000000000001,0.0,0,0,0,0.125,12.75,0.0,0,0,0,0.0,12.75,0.0,0,0,0,0.0,12.75,0.0,0,0,0,0.125,12.8,0.0,0,0,0,kReverse,kOff,-86.92,2.24,2.26,0.041015625,-0.9821167,0.03503418,32.31,0.0,2.0,-7.861801,11.626907,
57.390231,true,true,true,0.125,12.75,0.0,0,0,0,0.125,12.75,0.0,0,0,0,0.125,12.700000000000001,0.0,0,0,0,0.125,12.75,0.0,0,0,0,0.0,12.75,0.0,0,0,0,0.0,12.75,0.0,0,0,0,0.125,12.8,0.0,0,0,0,kReverse,kOff,-86.92,2.24,2.26,0.036987305,-0.98358154,0.038330078,32.31,0.0,-1.0,-7.861801,11.626907,
57.415425000000006,true,true,true,0.125,12.75,0.0,0,0,0,0.125,12.75,0.0,0,0,0,0.125,12.700000000000001,0.0,0,0,0,0.125,12.75,0.0,0,0,0,0.0,12.75,0.0,0,0,0,0.0,12.75,0.0,0,0,0,0.125,12.8,0.0,0,0,0,kReverse,kOff,-86.92,2.24,2.25,0.038391113,-0.98516846,0.033447266,32.31,0.0,0.0,-7.861801,11.626907,
57.438967999999996,true,true,true,0.125,12.75,0.0,0,0,0,0.125,12.75,0.0,0,0,0,0.125,12.700000000000001,0.0,0,0,0,0.125,12.75,0.0,0,0,0,0.0,12.75,0.0,0,0,0,0.0,12.75,0.0,0,0,0,0.125,12.8,0.0,0,0,0,kReverse,kOff,-86.92,2.24,2.25,0.039855957,-0.9828491,0.034240723,32.31,0.0,1.0,-7.861801,11.626907,
57.462520999999995,true,true,true,0.125,12.75,0.0,0,0,0,0.125,12.75,0.0,0,0,0,0.125,12.75,0.0,0,0,0,0.125,12.75,0.0,0,0,0,0.0,12.75,0.0,0,0,0,0.0,12.75,0.0,0,0,0,0.125,12.8,0.0,0,0,0,kReverse,kOff,-86.92,2.24,2.26,0.038330078,-0.9827881,0.036621094,32.31,0.0,0.0,-7.861801,11.626907,
57.488665999999995,true,true,true,0.125,12.75,0.0,0,0,0,0.125,12.75,0.0,0,0,0,0.125,12.75,0.0,0,0,0,0.125,12.75,0.0,0,0,0,0.0,12.75,0.0,0,0,0,0.0,12.75,0.0,0,0,0,0.125,12.8,0.0,0,0,0,kReverse,kOff,-86.92,2.24,2.26,0.039245605,-0.98480225,0.037902832,32.31,0.0,0.0,-7.861801,11.626907,
57.51325599999999,true,true,true,0.125,12.75,0.0,0,0,0,0.125,12.75,0.0,0,0,0,0.125,12.75,0.0,0,0,0,0.125,12.75,0.0,0,0,0,0.0,12.75,0.0,0,0,0,0.0,12.75,0.0,0,0,0,0.125,12.8,0.0,0,0,0,kReverse,kOff,-86.92,2.24,2.25,0.041137695,-0.98602295,0.03881836,32.31,0.0,2.0,-7.861801,11.626907,
57.549282000000005,true,true,true,0.125,12.75,0.0,0,0,0,0.125,12.75,0.0,0,0,0,0.125,12.75,0.0,0,0,0,0.125,12.75,0.0,0,0,0,0.0,12.75,0.0,0,0,0,0.0,12.75,0.0,0,0,0,0.125,12.8,0.0,0,0,0,kReverse,kOff,-86.92,2.24,2.25,0.03881836,-0.98217773,0.037109375,32.31,0.0,0.0,-7.861801,11.626907,
57.577534,true,true,true,0.125,12.75,0.0,0,0,0,0.125,12.75,0.0,0,0,0,0.125,12.75,0.0,0,0,0,0.125,12.75,0.0,0,0,0,0.0,12.75,0.0,0,0,0,0.0,12.75,0.0,0,0,0,0.0,12.8,0.0,0,0,0,kReverse,kOff,-86.92,2.24,2.25,0.038146973,-0.98443604,0.034362793,32.31,0.0,0.0,-7.861801,11.626907,
57.601287,true,true,true,0.125,12.75,0.0,0,0,0,0.125,12.75,0.0,0,0,0,0.125,12.75,0.0,0,0,0,0.125,12.75,0.0,0,0,0,0.0,12.75,0.0,0,0,0,0.0,12.75,0.0,0,0,0,0.0,12.8,0.0,0,0,0,kReverse,kOff,-86.92,2.24,2.25,0.038024902,-0.98150635,0.039916992,32.31,0.0,0.0,-7.861801,11.626907,
57.618460999999996,true,true,true,0.125,12.75,0.0,0,0,0,0.125,12.75,0.0,0,0,0,0.125,12.700000000000001,0.0,0,0,0,0.125,12.75,0.0,0,0,0,0.0,12.75,0.0,0,0,0,0.0,12.75,0.0,0,0,0,0.0,12.8,0.0,0,0,0,kReverse,kOff,-86.92,2.24,2.25,0.037841797,-0.9836426,0.038208008,32.31,0.0,0.0,-7.861801,11.626907,
57.658129,true,true,true,0.125,12.75,0.0,0,0,0,0.125,12.75,0.0,0,0,0,0.125,12.700000000000001,0.0,0,0,0,0.125,12.75,0.0,0,0,0,0.0,12.75,0.0,0,0,0,0.0,12.75,0.0,0,0,0,0.125,12.8,0.0,0,0,0,kReverse,kOff,-86.92,2.24,2.25,0.03741455,-0.98651123,0.038269043,32.31,0.0,-1.0,-7.861801,11.626907,
57.68043300000001,true,true,true,0.125,12.75,0.0,0,0,0,0.125,12.75,0.0,0,0,0,0.125,12.700000000000001,0.0,0,0,0,0.125,12.75,0.0,0,0,0,0.0,12.75,0.0,0,0,0,0.0,12.75,0.0,0,0,0,0.125,12.8,0.0,0,0,0,kReverse,kOff,-86.92,2.24,2.25,0.038635254,-0.9829712,0.035705566,32.31,0.0,0.0,-7.861801,11.626907,
57.701685,true,true,true,0.125,12.75,0.0,0,0,0,0.125,12.75,0.0,0,0,0,0.125,12.700000000000001,0.0,0,0,0,0.125,12.75,0.0,0,0,0,0.0,12.75,0.0,0,0,0,0.0,12.75,0.0,0,0,0,0.125,12.8,0.0,0,0,0,kReverse,kOff,-86.92,2.24,2.25,0.03668213,-0.9836426,0.03643799,32.31,0.0,-1.0,-7.861801,11.626907,
57.72485799999999,true,true,true,0.125,12.75,0.0,0,0,0,0.125,12.75,0.0,0,0,0,0.125,12.700000000000001,0.0,0,0,0,0.125,12.75,0.0,0,0,0,0.0,12.75,0.0,0,0,0,0.0,12.75,0.0,0,0,0,0.125,12.8,0.0,0,0,0,kReverse,kOff,-86.92,2.24,2.25,0.038330078,-0.9840698,0.03765869,32.31,0.0,0.0,-7.861801,11.626907,
57.748807,true,true,true,0.125,12.75,0.0,0,0,0,0.125,12.75,0.0,0,0,0,0.125,12.700000000000001,0.0,0,0,0,0.125,12.75,0.0,0,0,0,0.0,12.75,0.0,0,0,0,0.0,12.75,0.0,0,0,0,0.125,12.8,0.0,0,0,0,kReverse,kOff,-86.92,2.24,2.25,0.03729248,-0.9844971,0.03491211,32.26,0.0,-1.0,-7.861801,11.626907,
57.775881999999996,true,true,true,0.125,12.75,0.0,0,0,0,0.125,12.75,0.0,0,0,0,0.125,12.700000000000001,0.0,0,0,0,0.125,12.75,0.0,0,0,0,0.0,12.75,0.0,0,0,0,0.0,12.75,0.0,0,0,0,0.125,12.8,0.0,0,0,0,kReverse,kOff,-86.92,2.24,2.25,0.037719727,-0.98083496,0.033325195,32.26,0.0,0.0,-7.861801,11.626907,
57.79839200000001,true,true,true,0.125,12.75,0.0,0,0,0,0.125,12.75,0.0,0,0,0,0.125,12.700000000000001,0.0,0,0,0,0.125,12.75,0.0,0,0,0,0.0,12.75,0.0,0,0,0,0.0,12.75,0.0,0,0,0,0.125,12.8,0.0,0,0,0,kReverse,kOff,-86.93,2.24,2.25,0.03942871,-0.986084,0.0413208,32.26,0.0,0.0,-7.861801,11.626907,
57.82165700000001,true,true,true,0.125,12.75,0.0,0,0,0,0.125,12.75,0.0,0,0,0,0.125,12.700000000000001,0.0,0,0,0,0.125,12.75,0.0,0,0,0,0.0,12.75,0.0,0,0,0,0.0,12.75,0.0,0,0,0,0.125,12.8,0.0,0,0,0,kReverse,kOff,-86.92,2.24,2.25,0.038635254,-0.98095703,0.034057617,32.26,0.0,0.0,-7.861801,11.626907,
57.84375599999999,true,true,true,0.125,12.75,0.0,0,0,0,0.125,12.75,0.0,0,0,0,0.125,12.700000000000001,0.0,0,0,0,0.125,12.75,0.0,0,0,0,0.0,12.75,0.0,0,0,0,0.0,12.75,0.0,0,0,0,0.125,12.8,0.0,0,0,0,kReverse,kOff,-86.93,2.24,2.25,0.038330078,-0.9849243,0.037109375,32.26,0.0,0.0,-7.861801,11.626907,
57.87306600000001,true,true,true,0.125,12.75,0.0,0,0,0,0.125,12.75,0.0,0,0,0,0.125,12.700000000000001,0.0,0,0,0,0.125,12.75,0.0,0,0,0,0.0,12.75,0.0,0,0,0,0.0,12.75,0.0,0,0,0,0.125,12.8,0.0,0,0,0,kReverse,kOff,-86.93,2.24,2.26,0.036254883,-0.9816284,0.03289795,32.26,0.0,-2.0,-7.861801,11.626907,
57.89899400000001,true,true,true,0.125,12.75,0.0,0,0,0,0.125,12.75,0.0,0,0,0,0.125,12.700000000000001,0.0,0,0,0,0.125,12.75,0.0,0,0,0,0.0,12.75,0.0,0,0,0,0.0,12.75,0.0,0,0,0,0.125,12.8,0.0,0,0,0,kReverse,kOff,-86.93,2.24,2.25,0.04248047,-0.98516846,0.03125,32.26,0.0,3.0,-7.861801,11.626907,
57.921997000000005,true,true,true,0.125,12.75,0.0,0,0,0,0.125,12.75,0.0,0,0,0,0.125,12.700000000000001,0.0,0,0,0,0.125,12.75,0.0,0,0,0,0.0,12.75,0.0,0,0,0,0.0,12.75,0.0,0,0,0,0.125,12.8,0.0,0,0,0,kReverse,kOff,-86.93,2.24,2.26,0.04058838,-0.98223877,0.036376953,32.26,0.0,2.0,-7.861801,11.626907,
57.948057,true,true,true,0.125,12.75,0.0,0,0,0,0.125,12.75,0.0,0,0,0,0.125,12.75,0.0,0,0,0,0.125,12.75,0.0,0,0,0,0.0,12.75,0.0,0,0,0,0.0,12.75,0.0,0,0,0,0.125,12.8,0.0,0,0,0,kReverse,kOff,-86.93,2.24,2.26,0.038757324,-0.98321533,0.036499023,32.26,0.0,0.0,-7.861801,11.626907,
57.973608999999996,true,true,true,0.125,12.75,0.0,0,0,0,0.125,12.75,0.0,0,0,0,0.125,12.75,0.0,0,0,0,0.125,12.75,0.0,0,0,0,0.0,12.75,0.0,0,0,0,0.0,12.75,0.0,0,0,0,0.125,12.8,0.0,0,0,0,kReverse,kOff,-86.93,2.24,2.26,0.038269043,-0.98602295,0.034851074,32.26,0.0,0.0,-7.861801,11.626907,
58.000781,true,true,true,0.125,12.75,0.0,0,0,0,0.125,12.75,0.0,0,0,0,0.125,12.75,0.0,0,0,0,0.125,12.75,0.0,0,0,0,0.0,12.75,0.0,0,0,0,0.0,12.75,0.0,0,0,0,0.125,12.8,0.0,0,0,0,kReverse,kOff,-86.93,2.24,2.26,0.038635254,-0.9814453,0.04168701,32.26,0.0,0.0,-7.861801,11.626907,
58.023156,true,true,true,0.125,12.75,0.0,0,0,0,0.125,12.75,0.0,0,0,0,0.125,12.75,0.0,0,0,0,0.125,12.75,0.0,0,0,0,0.0,12.75,0.0,0,0,0,0.0,12.75,0.0,0,0,0,0.125,12.8,0.0,0,0,0,kReverse,kOff,-86.92,2.24,2.26,0.038330078,-0.9849243,0.03778076,32.26,0.0,0.0,-7.861801,11.626907,
58.049825,true,true,true,0.125,12.75,0.0,0,0,0,0.125,12.75,0.0,0,0,0,0.125,12.75,0.0,0,0,0,0.125,12.75,0.0,0,0,0,0.0,12.75,0.0,0,0,0,0.0,12.75,0.0,0,0,0,0.125,12.8,0.0,0,0,0,kReverse,kOff,-86.92,2.24,2.26,0.03778076,-0.9821167,0.03387451,32.26,0.0,0.0,-7.861801,11.626907,
58.07478699999999,true,true,true,0.125,12.75,0.0,0,0,0,0.125,12.75,0.0,0,0,0,0.125,12.75,0.0,0,0,0,0.125,12.75,0.0,0,0,0,0.0,12.75,0.0,0,0,0,0.0,12.75,0.0,0,0,0,0.125,12.8,0.0,0,0,0,kReverse,kOff,-86.93,2.24,2.26,0.038085938,-0.9837036,0.039916992,32.26,0.0,0.0,-7.861801,11.626907,
58.098008,true,true,true,0.125,12.75,0.0,0,0,0,0.125,12.75,0.0,0,0,0,0.125,12.75,0.0,0,0,0,0.125,12.75,0.0,0,0,0,0.0,12.75,0.0,0,0,0,0.0,12.75,0.0,0,0,0,0.125,12.8,0.0,0,0,0,kReverse,kOff,-86.93,2.24,2.26,0.039978027,-0.98657227,0.03112793,32.26,0.0,1.0,-7.861801,11.626907,
58.12113899999999,true,true,true,0.125,12.75,0.0,0,0,0,0.125,12.75,0.0,0,0,0,0.125,12.700000000000001,0.0,0,0,0,0.125,12.75,0.0,0,0,0,0.0,12.75,0.0,0,0,0,0.0,12.75,0.0,0,0,0,0.125,12.8,0.0,0,0,0,kReverse,kOff,-86.92,2.24,2.26,0.03930664,-0.98101807,0.03918457,32.26,0.0,0.0,-7.861801,11.626907,
58.14533599999999,true,true,true,0.125,12.75,0.0,0,0,0,0.125,12.75,0.0,0,0,0,0.125,12.700000000000001,0.0,0,0,0,0.125,12.75,0.0,0,0,0,0.0,12.75,0.0,0,0,0,0.0,12.75,0.0,0,0,0,0.125,12.8,0.0,0,0,0,kReverse,kOff,-86.92,2.24,2.26,0.038269043,-0.98309326,0.03527832,32.26,0.0,0.0,-7.861801,11.626907,
58.172813,true,true,true,0.125,12.75,0.0,0,0,0,0.125,12.75,0.0,0,0,0,0.125,12.700000000000001,0.0,0,0,0,0.125,12.75,0.0,0,0,0,0.0,12.75,0.0,0,0,0,0.0,12.75,0.0,0,0,0,0.125,12.8,0.0,0,0,0,kReverse,kOff,-86.92,2.24,2.26,0.038269043,-0.98309326,0.03527832,32.26,0.0,0.0,-7.861801,11.626907,
58.197409,true,true,true,0.125,12.75,0.0,0,0,0,0.125,12.75,0.0,0,0,0,0.125,12.700000000000001,0.0,0,0,0,0.125,12.75,0.0,0,0,0,0.0,12.75,0.0,0,0,0,0.0,12.75,0.0,0,0,0,0.125,12.8,0.0,0,0,0,kReverse,kOff,-86.92,2.24,2.26,0.0390625,-0.98358154,0.038330078,32.26,0.0,0.0,-7.861801,11.626907,
58.220467000000006,true,true,true,0.125,12.75,0.0,0,0,0,0.125,12.75,0.0,0,0,0,0.125,12.700000000000001,0.0,0,0,0,0.125,12.75,0.0,0,0,0,0.0,12.75,0.0,0,0,0,0.0,12.75,0.0,0,0,0,0.125,12.8,0.0,0,0,0,kReverse,kOff,-86.92,2.24,2.26,0.038146973,-0.9852295,0.04309082,32.26,0.0,0.0,-7.861801,11.626907,
58.250353000000004,true,true,true,0.125,12.75,0.0,0,0,0,0.125,12.75,0.0,0,0,0,0.125,12.700000000000001,0.0,0,0,0,0.125,12.75,0.0,0,0,0,0.0,12.75,0.0,0,0,0,0.0,12.75,0.0,0,0,0,0.125,12.8,0.0,0,0,0,kReverse,kOff,-86.92,2.24,2.26,0.040039062,-0.9834595,0.030822754,32.26,0.0,1.0,-7.861801,11.626907,
58.273083,true,true,true,0.125,12.75,0.0,0,0,0,0.125,12.75,0.0,0,0,0,0.125,12.75,0.0,0,0,0,0.125,12.75,0.0,0,0,0,0.0,12.75,0.0,0,0,0,0.0,12.75,0.0,0,0,0,0.125,12.8,0.0,0,0,0,kReverse,kOff,-86.92,2.24,2.26,0.03881836,-0.98010254,0.03479004,32.33,0.0,0.0,-7.861801,11.626907,
58.295229000000006,true,true,true,0.125,12.75,0.0,0,0,0,0.125,12.75,0.0,0,0,0,0.125,12.75,0.0,0,0,0,0.125,12.75,0.0,0,0,0,0.0,12.75,0.0,0,0,0,0.0,12.75,0.0,0,0,0,0.125,12.8,0.0,0,0,0,kReverse,kOff,-86.92,2.25,2.26,0.03955078,-0.9852905,0.03479004,32.33,0.0,0.0,-7.861801,11.626907,
58.314818,true,true,true,0.125,12.75,0.0,0,0,0,0.125,12.75,0.0,0,0,0,0.125,12.75,0.0,0,0,0,0.125,12.75,0.0,0,0,0,0.0,12.75,0.0,0,0,0,0.0,12.75,0.0,0,0,0,0.125,12.8,0.0,0,0,0,kReverse,kOff,-86.92,2.24,2.26,0.03778076,-0.98083496,0.032714844,32.33,0.0,0.0,-7.861801,11.626907,
58.337296,true,true,true,0.125,12.75,0.0,0,0,0,0.125,12.75,0.0,0,0,0,0.125,12.75,0.0,0,0,0,0.125,12.75,0.0,0,0,0,0.0,12.75,0.0,0,0,0,0.0,12.75,0.0,0,0,0,0.125,12.8,0.0,0,0,0,kReverse,kOff,-86.92,2.24,2.26,0.03753662,-0.9798584,0.03955078,32.33,0.0,0.0,-7.861801,11.626907,
58.360155,true,true,true,0.125,12.75,0.0,0,0,0,0.125,12.75,0.0,0,0,0,0.125,12.75,0.0,0,0,0,0.125,12.75,0.0,0,0,0,0.0,12.75,0.0,0,0,0,0.0,12.75,0.0,0,0,0,0.125,12.8,0.0,0,0,0,kReverse,kOff,-86.92,2.24,2.26,0.039489746,-0.9845581,0.03515625,32.33,0.0,0.0,-7.861801,11.626907,
58.382960999999995,true,true,true,0.125,12.75,0.0,0,0,0,0.125,12.75,0.0,0,0,0,0.125,12.75,0.0,0,0,0,0.125,12.75,0.0,0,0,0,0.0,12.75,0.0,0,0,0,0.0,12.75,0.0,0,0,0,0.125,12.8,0.0,0,0,0,kReverse,kOff,-86.92,2.24,2.26,0.037841797,-0.9822998,0.036193848,32.33,0.0,0.0,-7.861801,11.626907,
58.410307,true,true,true,0.125,12.75,0.0,0,0,0,0.125,12.75,0.0,0,0,0,0.125,12.75,0.0,0,0,0,0.125,12.75,0.0,0,0,0,0.0,12.75,0.0,0,0,0,0.0,12.75,0.0,0,0,0,0.0,12.8,0.0,0,0,0,kReverse,kOff,-86.92,2.24,2.26,0.037597656,-0.9819946,0.03704834,32.33,0.0,0.0,-7.861801,11.626907,
58.429123999999995,true,true,true,0.125,12.75,0.0,0,0,0,0.125,12.75,0.0,0,0,0,0.125,12.700000000000001,0.0,0,0,0,0.125,12.75,0.0,0,0,0,0.0,12.75,0.0,0,0,0,0.0,12.75,0.0,0,0,0,0.0,12.8,0.0,0,0,0,kReverse,kOff,-86.92,2.24,2.26,0.038757324,-0.98742676,0.035217285,32.33,0.0,0.0,-7.861801,11.626907,
58.443087,true,true,true,0.125,12.75,0.0,0,0,0,0.125,12.75,0.0,0,0,0,0.125,12.700000000000001,0.0,0,0,0,0.125,12.75,0.0,0,0,0,0.0,12.75,0.0,0,0,0,0.0,12.75,0.0,0,0,0,0.0,12.8,0.0,0,0,0,kReverse,kOff,-86.92,2.24,2.26,0.04296875,-0.98358154,0.036376953,32.33,0.0,4.0,-7.861801,11.626907,
58.456732,true,true,true,0.125,12.75,0.0,0,0,0,0.125,12.75,0.0,0,0,0,0.125,12.700000000000001,0.0,0,0,0,0.125,12.75,0.0,0,0,0,0.0,12.75,0.0,0,0,0,0.0,12.75,0.0,0,0,0,0.0,12.8,0.0,0,0,0,kReverse,kOff,-86.92,2.24,2.26,0.04144287,-0.98217773,0.033935547,32.33,0.0,2.0,-7.861801,11.626907,
58.475901,true,true,true,0.125,12.75,0.0,0,0,0,0.125,12.75,0.0,0,0,0,0.125,12.700000000000001,0.0,0,0,0,0.125,12.75,0.0,0,0,0,0.0,12.75,0.0,0,0,0,0.0,12.75,0.0,0,0,0,0.125,12.8,0.0,0,0,0,kReverse,kOff,-86.92,2.24,2.26,0.038513184,-0.98254395,0.031066895,32.33,0.0,0.0,-7.861801,11.626907,
58.508354999999995,true,true,true,0.125,12.75,0.0,0,0,0,0.125,12.75,0.0,0,0,0,0.125,12.700000000000001,0.0,0,0,0,0.125,12.75,0.0,0,0,0,0.0,12.75,0.0,0,0,0,0.0,12.75,0.0,0,0,0,0.125,12.8,0.0,0,0,0,kReverse,kOff,-86.92,2.24,2.26,0.039733887,-0.98236084,0.032836914,32.33,0.0,1.0,-7.861801,11.626907,
58.539505999999996,true,true,true,0.125,12.75,0.0,0,0,0,0.125,12.75,0.0,0,0,0,0.125,12.700000000000001,0.0,0,0,0,0.125,12.75,0.0,0,0,0,0.0,12.75,0.0,0,0,0,0.0,12.75,0.0,0,0,0,0.125,12.8,0.0,0,0,0,kReverse,kOff,-86.92,2.25,2.26,0.037353516,-0.98547363,0.03253174,32.33,0.0,-1.0,-7.861801,11.626907,
58.562527,true,true,true,0.125,12.75,0.0,0,0,0,0.125,12.75,0.0,0,0,0,0.125,12.700000000000001,0.0,0,0,0,0.125,12.75,0.0,0,0,0,0.0,12.75,0.0,0,0,0,0.0,12.75,0.0,0,0,0,0.125,12.8,0.0,0,0,0,kReverse,kOff,-86.92,2.25,2.26,0.038513184,-0.9836426,0.03717041,32.33,0.0,0.0,-7.861801,11.626907,
58.59874800000001,true,true,true,0.125,12.75,0.0,0,0,0,0.125,12.75,0.0,0,0,0,0.125,12.700000000000001,0.0,0,0,0,0.125,12.75,0.0,0,0,0,0.0,12.75,0.0,0,0,0,0.0,12.75,0.0,0,0,0,0.125,12.8,0.0,0,0,0,kReverse,kOff,-86.92,2.24,2.26,0.0390625,-0.98272705,0.0335083,32.33,0.0,0.0,-7.861801,11.626907,
58.625686,true,true,true,0.125,12.75,0.0,0,0,0,0.125,12.75,0.0,0,0,0,0.125,12.700000000000001,0.0,0,0,0,0.125,12.75,0.0,0,0,0,0.0,12.75,0.0,0,0,0,0.0,12.75,0.0,0,0,0,0.125,12.8,0.0,0,0,0,kReverse,kOff,-86.92,2.24,2.26,0.036499023,-0.9824829,0.041381836,32.33,0.0,-2.0,-7.861801,11.626907,
58.652229999999996,true,true,true,0.125,12.75,0.0,0,0,0,0.125,12.75,0.0,0,0,0,0.125,12.700000000000001,0.0,0,0,0,0.125,12.75,0.0,0,0,0,0.0,12.75,0.0,0,0,0,0.0,12.75,0.0,0,0,0,0.125,12.8,0.0,0,0,0,kReverse,kForward,-86.92,2.24,2.26,0.039611816,-0.98583984,0.03717041,32.33,0.0,0.0,-7.861801,11.626907,
58.681183000000004,true,true,true,0.125,12.75,0.0,0,0,0,0.125,12.75,0.0,0,0,0,0.125,12.700000000000001,0.0,0,0,0,0.125,12.75,0.0,0,0,0,0.0,12.75,0.0,0,0,0,0.0,12.75,0.0,0,0,0,0.125,12.8,0.0,0,0,0,kReverse,kForward,-86.92,2.24,2.26,0.039978027,-0.9623413,0.036499023,32.33,0.0,2.0,-7.861801,11.626907,
58.70552800000001,true,true,true,0.125,12.75,0.0,0,0,0,0.125,12.75,0.0,0,0,0,0.125,12.700000000000001,0.0,0,0,0,0.125,12.75,0.0,0,0,0,0.0,12.75,0.0,0,0,0,0.0,12.75,0.0,0,0,0,0.125,12.8,0.0,0,0,0,kReverse,kForward,-86.92,2.24,2.26,0.043029785,-0.99798584,0.045898438,32.33,0.0,3.0,-7.861801,11.626907,
58.73619899999999,true,true,true,0.125,12.75,0.0,0,0,0,0.125,12.75,0.0,0,0,0,0.125,12.700000000000001,0.0,0,0,0,0.125,12.75,0.0,0,0,0,0.0,12.75,0.0,0,0,0,0.0,12.75,0.0,0,0,0,0.125,12.8,0.0,0,0,0,kReverse,kForward,-86.92,2.24,2.26,0.032836914,-0.972229,0.04888916,32.33,0.0,-5.0,-7.861801,11.626907,
58.761027,true,true,true,0.125,12.75,0.0,0,0,0,0.125,12.75,0.0,0,0,0,0.125,12.700000000000001,0.0,0,0,0,0.125,12.75,0.0,0,0,0,0.0,12.75,0.0,0,0,0,0.0,12.75,0.0,0,0,0,0.0,12.8,0.0,0,0,0,kReverse,kForward,-86.92,2.24,2.26,0.031433105,-0.9915161,0.016845703,32.29,0.0,-7.0,-7.861801,11.626907,
58.786229999999996,true,true,true,0.125,12.75,0.0,0,0,0,0.125,12.75,0.0,0,0,0,0.125,12.700000000000001,0.0,0,0,0,0.125,12.75,0.0,0,0,0,0.0,12.75,0.0,0,0,0,0.0,12.75,0.0,0,0,0,0.0,12.8,0.0,0,0,0,kReverse,kForward,-86.92,2.24,2.26,0.044128418,-0.98498535,0.044067383,32.29,0.0,5.0,-7.861801,11.626907,
58.814820000000005,true,true,true,0.125,12.75,0.0,0,0,0,0.125,12.75,0.0,0,0,0,0.125,12.700000000000001,0.0,0,0,0,0.125,12.75,0.0,0,0,0,0.0,12.75,0.0,0,0,0,0.0,12.75,0.0,0,0,0,0.125,12.8,0.0,0,0,0,kReverse,kForward,-86.93,2.24,2.26,0.047790527,-0.9829712,0.047851562,32.29,0.0,9.0,-7.861801,11.626907,
58.84151799999999,true,true,true,0.125,12.75,0.0,0,0,0,0.125,12.75,0.0,0,0,0,0.125,12.700000000000001,0.0,0,0,0,0.125,12.75,0.0,0,0,0,0.0,12.75,0.0,0,0,0,0.0,12.75,0.0,0,0,0,0.125,12.8,0.0,0,0,0,kReverse,kForward,-86.93,2.24,2.25,0.0435791,-0.9904175,0.032958984,32.29,0.0,4.0,-7.861801,11.626907,
58.866125,true,true,true,0.125,12.75,0.0,0,0,0,0.125,12.75,0.0,0,0,0,0.125,12.700000000000001,0.0,0,0,0,0.125,12.75,0.0,0,0,0,0.0,12.75,0.0,0,0,0,0.0,12.75,0.0,0,0,0,0.125,12.8,0.0,0,0,0,kReverse,kForward,-86.93,2.24,2.26,0.033325195,-0.9909668,0.035888672,32.29,0.0,-5.0,-7.861801,11.626907,
58.897091,true,true,true,0.125,12.75,0.0,0,0,0,0.125,12.700000000000001,0.0,0,0,0,0.125,12.700000000000001,0.0,0,0,0,0.125,12.75,0.0,0,0,0,0.0,12.75,0.0,0,0,0,0.0,12.75,0.0,0,0,0,0.125,12.8,0.0,0,0,0,kReverse,kForward,-86.92,2.24,2.26,0.039245605,-0.9783325,0.02935791,32.29,0.0,0.0,-7.861801,11.626907,
58.920399,true,true,true,0.125,12.75,0.0,0,0,0,0.125,12.700000000000001,0.0,0,0,0,0.125,12.700000000000001,0.0,0,0,0,0.125,12.75,0.0,0,0,0,0.125,12.75,0.0,0,0,0,0.0,12.700000000000001,0.0,0,0,0,0.125,12.8,0.0,0,0,0,kReverse,kForward,-86.92,2.24,2.26,0.059753418,-0.9779663,0.036254883,32.29,0.0,21.0,-7.861786,11.626907,
58.94528699999999,true,true,true,0.125,12.75,0.0,0,0,0,0.125,12.700000000000001,0.0,0,0,0,0.125,12.700000000000001,0.0,0,0,0,0.125,12.75,0.0,0,0,0,0.125,12.75,0.0,0,0,0,0.0,12.700000000000001,0.0,0,0,0,0.125,12.8,0.0,0,0,0,kReverse,kForward,-86.92,2.24,2.26,0.035705566,-0.9862671,0.035095215,32.29,0.0,-3.0,-7.8617706,11.626907,
58.97048699999999,true,true,true,0.125,12.75,0.0,0,0,0,0.125,12.700000000000001,0.0,0,0,0,0.125,12.700000000000001,0.0,0,0,0,0.125,12.75,0.0,0,0,0,0.0,12.75,0.0,0,0,0,0.0,12.700000000000001,0.0,0,0,0,0.125,12.8,0.0,0,0,0,kReverse,kForward,-86.93,2.24,2.26,0.044006348,-0.9802246,0.04876709,32.29,0.0,5.0,-7.8617554,11.626907,
