timer,lineLeft,lineCenter,lineRight,LeftFrontCurrent,LeftFrontVoltage,LeftFrontValue,LeftFrontPosition,LeftFrontVelocity,LeftFrontFaults,LeftRearCurrent,LeftRearVoltage,LeftRearValue,LeftRearPosition,LeftRearVelocity,LeftRearFaults,RightFrontCurrent,RightFrontVoltage,RightFrontValue,RightFrontPosition,RightFrontVelocity,RightFrontFaults,RightRearCurrent,RightRearVoltage,RightRearValue,RightRearPosition,RightRearVelocity,RightRearFaults,LiftCurrent,LiftVoltage,LiftValue,LiftPosition,LiftVelocity,LiftFaults,WristCurrent,WristVoltage,WristValue,WristPosition,WristVelocity,WristFaults,RollerCurrent,RollerVoltage,RollerValue,RollerPosition,RollerVelocity,RollerFaults,PushersState,PivotsState,navx_Pitch,navx_Roll,navx_Yaw,navx_XAcc,navx_YAcc,navx_ZAcc,navx_Temp,navx_Bar,navx_Alt,navx_XDis,navx_YDis,
672.9744619999999,true,true,true,0.125,12.8,0.0,-4595,0,0,0.125,12.8,0.0,0,0,0,0.125,12.8,0.0,-74904,0,0,0.125,12.85,0.0,0,0,0,0.0,12.8,0.0,4,0,0,0.0,12.8,0.0,0,0,0,0.125,12.9,0.0,0,0,0,kReverse,kOff,-86.24,1.67,-177.83,0.030517578,-0.98028564,0.058166504,32.9,0.0,-1.0,-0.34239197,3.796524,
672.9987379999999,true,true,true,0.125,12.8,0.0,-4595,0,0,0.125,12.8,0.0,0,0,0,0.125,12.8,0.0,-74904,0,0,0.125,12.85,0.0,0,0,0,0.0,12.8,0.0,4,0,0,0.0,12.8,0.0,0,0,0,0.125,12.9,0.0,0,0,0,kReverse,kOff,-86.24,1.67,-177.83,0.030212402,-0.98339844,0.053649902,32.9,0.0,0.0,-0.34239197,3.796524,
673.0151,true,true,true,0.125,12.8,0.0,-4595,0,0,0.125,12.8,0.0,0,0,0,0.125,12.8,0.0,-74904,0,0,0.125,12.85,0.0,0,0,0,0.0,12.8,0.0,4,0,0,0.0,12.8,0.0,0,0,0,0.125,12.9,0.0,0,0,0,kReverse,kOff,-86.24,1.68,-177.83,0.031921387,-0.98443604,0.057800293,32.9,0.0,-2.0,-0.34239197,3.796524,
673.0350859999999,true,true,true,0.125,12.8,0.0,-4595,0,0,0.125,12.8,0.0,0,0,0,0.125,12.8,0.0,-74904,0,0,0.125,12.85,0.0,0,0,0,0.0,12.8,0.0,4,0,0,0.0,12.8,0.0,0,0,0,0.125,12.9,0.0,0,0,0,kReverse,kOff,-86.24,1.68,-177.83,0.02746582,-0.9852295,0.059631348,32.9,0.0,1.0,-0.34239197,3.796524,
673.0542969999999,true,true,true,0.125,12.8,0.0,-4595,0,0,0.125,12.8,0.0,0,0,0,0.125,12.8,0.0,-74904,0,0,0.125,12.85,0.0,0,0,0,0.0,12.8,0.0,4,0,0,0.0,12.8,0.0,0,0,0,0.125,12.9,0.0,0,0,0,kReverse,kOff,-86.24,1.68,-177.83,0.029724121,-0.9815674,0.05895996,32.9,0.0,0.0,-0.34239197,3.796524,
673.074903,true,true,true,0.125,12.8,0.0,-4595,0,0,0.125,12.8,0.0,0,0,0,0.125,12.8,0.0,-74904,0,0,0.125,12.85,0.0,0,0,0,0.0,12.8,0.0,4,0,0,0.0,12.8,0.0,0,0,0,0.125,12.9,0.0,0,0,0,kReverse,kOff,-86.24,1.68,-177.83,0.027770996,-0.98376465,0.053649902,32.9,0.0,1.0,-0.34239197,3.796524,
673.0959049999999,true,true,true,0.125,12.8,0.0,-4595,0,0,0.125,12.8,0.0,0,0,0,0.125,12.8,0.0,-74904,0,0,0.125,12.85,0.0,0,0,0,0.0,12.8,0.0,4,0,0,0.0,12.8,0.0,0,0,0,0.125,12.9,0.0,0,0,0,kReverse,kOff,-86.24,1.68,-177.83,0.03100586,-0.98309326,0.059143066,32.9,0.0,-2.0,-0.34239197,3.796524,
673.1156569999999,true,true,true,0.125,12.8,0.0,-4595,0,0,0.125,12.8,0.0,0,0,0,0.125,12.8,0.0,-74904,0,0,0.125,12.85,0.0,0,0,0,0.0,12.8,0.0,4,0,0,0.0,12.8,0.0,0,0,0,0.125,12.9,0.0,0,0,0,kReverse,kOff,-86.25,1.68,-177.83,0.029907227,-0.9835205,0.057495117,32.9,0.0,0.0,-0.34239197,3.796524,
673.135691,true,true,true,0.125,12.8,0.0,-4595,0,0,0.125,12.8,0.0,0,0,0,0.125,12.8,0.0,-74904,0,0,0.125,12.85,0.0,0,0,0,0.0,12.8,0.0,4,0,0,0.0,12.8,0.0,0,0,0,0.125,12.9,0.0,0,0,0,kReverse,kOff,-86.25,1.68,-177.83,0.028625488,-0.9812012,0.05706787,32.9,0.0,0.0,-0.34239197,3.796524,
673.1555419999999,true,true,true,0.125,12.8,0.0,-4595,0,0,0.125,12.8,0.0,0,0,0,0.125,12.8,0.0,-74904,0,0,0.125,12.85,0.0,0,0,0,0.0,12.8,0.0,4,0,0,0.0,12.8,0.0,0,0,0,0.125,12.9,0.0,0,0,0,kReverse,kOff,-86.25,1.68,-177.83,0.029968262,-0.98773193,0.055480957,32.9,0.0,0.0,-0.34239197,3.796524,
673.1761039999999,true,true,true,0.125,12.8,0.0,-4595,0,0,0.125,12.8,0.0,0,0,0,0.125,12.8,0.0,-74904,0,0,0.125,12.85,0.0,0,0,0,0.0,12.8,0.0,4,0,0,0.0,12.8,0.0,0,0,0,0.125,12.9,0.0,0,0,0,kReverse,kOff,-86.25,1.68,-177.83,0.028869629,-0.9822998,0.05682373,32.9,0.0,0.0,-0.34239197,3.796524,
673.196153,true,true,true,0.125,12.8,0.0,-4595,0,0,0.125,12.8,0.0,0,0,0,0.125,12.8,0.0,-74904,0,0,0.125,12.85,0.0,0,0,0,0.0,12.8,0.0,4,0,0,0.0,12.8,0.0,0,0,0,0.125,12.9,0.0,0,0,0,kReverse,kOff,-86.25,1.68,-177.83,0.029724121,-0.9836426,0.058044434,32.9,0.0,0.0,-0.34239197,3.796524,
673.214712,true,true,true,0.125,12.8,0.0,-4595,0,0,0.125,12.8,0.0,0,0,0,0.125,12.8,0.0,-74904,0,0,0.125,12.85,0.0,0,0,0,0.0,12.8,0.0,4,0,0,0.0,12.8,0.0,0,0,0,0.125,12.9,0.0,0,0,0,kReverse,kOff,-86.25,1.68,-177.83,0.02734375,-0.9830322,0.061767578,32.9,0.0,1.0,-0.34239197,3.796524,
673.234165,true,true,true,0.125,12.8,0.0,-4595,0,0,0.125,12.8,0.0,0,0,0,0.125,12.8,0.0,-74904,0,0,0.125,12.85,0.0,0,0,0,0.125,12.8,0.0,4,0,0,0.0,12.8,0.0,0,0,0,0.125,12.9,0.0,0,0,0,kReverse,kOff,-86.25,1.68,-177.83,0.02734375,-0.9830322,0.061767578,32.9,0.0,1.0,-0.34239197,3.796524,
673.252044,true,true,true,0.125,12.8,0.0,-4595,0,0,0.125,12.8,0.0,0,0,0,0.125,12.8,0.0,-74904,0,0,0.125,12.85,0.0,0,0,0,0.125,12.8,0.0,4,0,0,0.0,12.8,0.0,0,0,0,0.125,12.9,0.0,0,0,0,kReverse,kOff,-86.24,1.68,-177.83,0.030212402,-0.98687744,0.059448242,32.9,0.0,-1.0,-0.34239197,3.796524,
673.272794,true,true,true,0.125,12.8,0.0,-4595,0,0,0.125,12.8,0.0,0,0,0,0.125,12.8,0.0,-74904,0,0,0.125,12.85,0.0,0,0,0,0.0,12.8,0.0,4,0,0,0.0,12.8,0.0,0,0,0,0.125,12.9,0.0,0,0,0,kReverse,kOff,-86.24,1.68,-177.83,0.027893066,-0.98114014,0.05908203,32.9,0.0,0.0,-0.34239197,3.796524,
673.2931769999999,true,true,true,0.125,12.8,0.0,-4595,0,0,0.125,12.8,0.0,0,0,0,0.125,12.8,0.0,-74904,0,0,0.125,12.85,0.0,0,0,0,0.0,12.8,0.0,4,0,0,0.0,12.8,0.0,0,0,0,0.125,12.9,0.0,0,0,0,kReverse,kOff,-86.24,1.68,-177.83,0.029663086,-0.982605,0.055603027,32.9,0.0,0.0,-0.34239197,3.796524,
673.3128439999999,true,true,true,0.125,12.8,0.0,-4595,0,0,0.125,12.8,0.0,0,0,0,0.125,12.8,0.0,-74904,0,0,0.125,12.85,0.0,0,0,0,0.0,12.8,0.0,4,0,0,0.0,12.8,0.0,0,0,0,0.125,12.9,0.0,0,0,0,kReverse,kOff,-86.24,1.68,-177.83,0.027404785,-0.98461914,0.05206299,32.9,0.0,2.0,-0.34239197,3.796524,
673.332558,true,true,true,0.125,12.8,0.0,-4595,0,0,0.125,12.8,0.0,0,0,0,0.125,12.8,0.0,-74904,0,0,0.125,12.85,0.0,0,0,0,0.0,12.8,0.0,4,0,0,0.0,12.8,0.0,0,0,0,0.125,12.9,0.0,0,0,0,kReverse,kOff,-86.24,1.67,-177.83,0.030456543,-0.9822998,0.06298828,32.9,0.0,-2.0,-0.34239197,3.796524,
673.354438,true,true,true,0.125,12.8,0.0,-4595,0,0,0.125,12.8,0.0,0,0,0,0.125,12.8,0.0,-74904,0,0,0.125,12.85,0.0,0,0,0,0.0,12.8,0.0,4,0,0,0.0,12.8,0.0,0,0,0,0.125,12.9,0.0,0,0,0,kReverse,kOff,-86.24,1.68,-177.83,0.028503418,-0.9844971,0.057617188,32.9,0.0,0.0,-0.34239197,3.796524,
673.3741229999999,true,true,true,0.125,12.8,0.0,-4595,0,0,0.125,12.8,0.0,0,0,0,0.125,12.8,0.0,-74904,0,0,0.125,12.85,0.0,0,0,0,0.0,12.8,0.0,4,0,0,0.0,12.8,0.0,0,0,0,0.125,12.9,0.0,0,0,0,kReverse,kOff,-86.24,1.67,-177.83,0.027282715,-0.98236084,0.060791016,32.9,0.0,1.0,-0.34239197,3.796524,
673.394323,true,true,true,0.125,12.8,0.0,-4595,0,0,0.125,12.8,0.0,0,0,0,0.125,12.8,0.0,-74904,0,0,0.125,12.85,0.0,0,0,0,0.0,12.8,0.0,4,0,0,0.0,12.8,0.0,0,0,0,0.125,12.9,0.0,0,0,0,kReverse,kOff,-86.24,1.67,-177.83,0.03161621,-0.98028564,0.053100586,32.9,0.0,-2.0,-0.34239197,3.796524,
673.4151719999999,true,true,true,0.125,12.8,0.0,-4595,0,0,0.125,12.8,0.0,0,0,0,0.125,12.8,0.0,-74904,0,0,0.125,12.85,0.0,0,0,0,0.0,12.8,0.0,4,0,0,0.0,12.8,0.0,0,0,0,0.125,12.9,0.0,0,0,0,kReverse,kOff,-86.24,1.67,-177.83,0.02947998,-0.9840088,0.05230713,32.9,0.0,0.0,-0.34239197,3.796524,
673.4343189999998,true,true,true,0.125,12.8,0.0,-4595,0,0,0.125,12.8,0.0,0,0,0,0.125,12.8,0.0,-74904,0,0,0.125,12.85,0.0,0,0,0,0.0,12.8,0.0,4,0,0,0.0,12.8,0.0,0,0,0,0.0,12.9,0.0,0,0,0,kReverse,kOff,-86.24,1.68,-177.83,0.03100586,-0.9831543,0.057617188,32.9,0.0,-2.0,-0.34239197,3.796524,
673.4552919999999,true,true,true,0.125,12.8,0.0,-4595,0,0,0.125,12.8,0.0,0,0,0,0.125,12.8,0.0,-74904,0,0,0.125,12.85,0.0,0,0,0,0.0,12.8,0.0,4,0,0,0.0,12.8,0.0,0,0,0,0.0,12.9,0.0,0,0,0,kReverse,kOff,-86.25,1.68,-177.83,0.03112793,-0.98168945,0.059143066,32.88,0.0,-2.0,-0.34239197,3.796524,
673.4757169999999,true,true,true,0.125,12.8,0.0,-4595,0,0,0.125,12.8,0.0,0,0,0,0.125,12.8,0.0,-74904,0,0,0.125,12.85,0.0,0,0,0,0.0,12.8,0.0,4,0,0,0.0,12.8,0.0,0,0,0,0.125,12.9,0.0,0,0,0,kReverse,kOff,-86.25,1.68,-177.83,0.028625488,-0.9838867,0.055847168,32.88,0.0,0.0,-0.34239197,3.796524,
673.4975319999999,true,true,true,0.125,12.8,0.0,-4595,0,0,0.125,12.8,0.0,0,0,0,0.125,12.8,0.0,-74904,0,0,0.125,12.85,0.0,0,0,0,0.0,12.8,0.0,4,0,0,0.0,12.8,0.0,0,0,0,0.125,12.9,0.0,0,0,0,kReverse,kOff,-86.25,1.68,-177.83,0.028259277,-0.982666,0.058166504,32.88,0.0,0.0,-0.34239197,3.796524,
673.5195249999999,true,true,true,0.125,12.8,0.0,-4595,0,0,0.125,12.8,0.0,0,0,0,0.125,12.8,0.0,-74904,0,0,0.125,12.85,0.0,0,0,0,0.0,12.8,0.0,4,0,0,0.0,12.8,0.0,0,0,0,0.125,12.9,0.0,0,0,0,kReverse,kOff,-86.25,1.68,-177.83,0.029296875,-0.9837036,0.059326172,32.88,0.0,0.0,-0.34239197,3.796524,
673.5375499999999,true,true,true,0.125,12.8,0.0,-4595,0,0,0.125,12.8,0.0,0,0,0,0.125,12.8,0.0,-74904,0,0,0.125,12.85,0.0,0,0,0,0.0,12.8,0.0,4,0,0,0.0,12.8,0.0,0,0,0,0.125,12.9,0.0,0,0,0,kReverse,kOff,-86.25,1.68,-177.83,0.02923584,-0.986084,0.06036377,32.88,0.0,0.0,-0.34239197,3.796524,
673.560806,true,true,true,0.125,12.8,0.0,-4595,0,0,0.125,12.8,0.0,0,0,0,0.125,12.8,0.0,-74904,0,0,0.125,12.85,0.0,0,0,0,0.0,12.8,0.0,4,0,0,0.0,12.8,0.0,0,0,0,0.125,12.9,0.0,0,0,0,kReverse,kOff,-86.24,1.68,-177.83,0.030212402,-0.9822998,0.05621338,32.88,0.0,-1.0,-0.34239197,3.796524,
673.583973,true,true,true,0.125,12.8,0.0,-4595,0,0,0.125,12.8,0.0,0,0,0,0.125,12.8,0.0,-74904,0,0,0.125,12.85,0.0,0,0,0,0.0,12.8,0.0,4,0,0,0.0,12.8,0.0,0,0,0,0.125,12.9,0.0,0,0,0,kReverse,kOff,-86.24,1.68,-177.83,0.03137207,-0.9822998,0.0579834,32.88,0.0,-2.0,-0.34239197,3.796524,
673.604846,true,true,true,0.125,12.8,0.0,-4595,0,0,0.125,12.8,0.0,0,0,0,0.125,12.8,0.0,-74904,0,0,0.125,12.85,0.0,0,0,0,0.0,12.8,0.0,4,0,0,0.0,12.8,0.0,0,0,0,0.125,12.9,0.0,0,0,0,kReverse,kOff,-86.24,1.68,-177.83,0.030029297,-0.98272705,0.05883789,32.88,0.0,-1.0,-0.34239197,3.796524,
673.62835,true,true,true,0.125,12.8,0.0,-4595,0,0,0.125,12.8,0.0,0,0,0,0.125,12.8,0.0,-74904,0,0,0.125,12.85,0.0,0,0,0,0.0,12.8,0.0,4,0,0,0.0,12.8,0.0,0,0,0,0.125,12.9,0.0,0,0,0,kReverse,kOff,-86.24,1.68,-177.83,0.030090332,-0.984375,0.053955078,32.88,0.0,0.0,-0.34239197,3.796524,
673.646022,true,true,true,0.125,12.8,0.0,-4595,0,0,0.125,12.8,0.0,0,0,0,0.125,12.8,0.0,-74904,0,0,0.125,12.85,0.0,0,0,0,0.0,12.8,0.0,4,0,0,0.0,12.8,0.0,0,0,0,0.125,12.9,0.0,0,0,0,kReverse,kOff,-86.24,1.69,-177.82,0.028320312,-0.98223877,0.06439209,32.88,0.0,0.0,-0.34239197,3.796524,
673.670392,true,true,true,0.125,12.8,0.0,-4595,0,0,0.125,12.8,0.0,0,0,0,0.125,12.8,0.0,-74904,0,0,0.125,12.85,0.0,0,0,0,0.0,12.8,0.0,4,0,0,0.0,12.8,0.0,0,0,0,0.125,12.9,0.0,0,0,0,kReverse,kOff,-86.24,1.69,-177.82,0.029785156,-0.9810791,0.055114746,32.88,0.0,0.0,-0.34239197,3.796524,
673.6900739999999,true,true,true,0.125,12.8,0.0,-4595,0,0,0.125,12.8,0.0,0,0,0,0.125,12.8,0.0,-74904,0,0,0.125,12.85,0.0,0,0,0,0.0,12.8,0.0,4,0,0,0.0,12.8,0.0,0,0,0,0.125,12.9,0.0,0,0,0,kReverse,kOff,-86.24,1.69,-177.82,0.029846191,-0.9818115,0.056518555,32.88,0.0,0.0,-0.34239197,3.796524,
673.7117209999999,true,true,true,0.125,12.8,0.0,-4595,0,0,0.125,12.8,0.0,0,0,0,0.125,12.8,0.0,-74904,0,0,0.125,12.85,0.0,0,0,0,0.0,12.8,0.0,4,0,0,0.0,12.8,0.0,0,0,0,0.125,12.9,0.0,0,0,0,kReverse,kOff,-86.24,1.68,-177.83,0.026794434,-0.9810791,0.06060791,32.88,0.0,1.0,-0.34239197,3.796524,
673.73228,true,true,true,0.125,12.8,0.0,-4595,0,0,0.125,12.8,0.0,0,0,0,0.125,12.8,0.0,-74904,0,0,0.125,12.85,0.0,0,0,0,0.0,12.8,0.0,4,0,0,0.0,12.8,0.0,0,0,0,0.125,12.9,0.0,0,0,0,kReverse,kOff,-86.24,1.68,-177.83,0.029663086,-0.9863281,0.05670166,32.88,0.0,0.0,-0.34239197,3.796524,
673.7528439999999,true,true,true,0.125,12.8,0.0,-4595,0,0,0.125,12.8,0.0,0,0,0,0.125,12.8,0.0,-74904,0,0,0.125,12.85,0.0,0,0,0,0.0,12.8,0.0,4,0,0,0.0,12.8,0.0,0,0,0,0.125,12.9,0.0,0,0,0,kReverse,kOff,-86.24,1.69,-177.82,0.029541016,-0.9805908,0.059265137,32.88,0.0,0.0,-0.34239197,3.796524,
673.7729009999999,true,true,true,0.125,12.8,0.0,-4595,0,0,0.125,12.8,0.0,0,0,0,0.125,12.8,0.0,-74904,0,0,0.125,12.85,0.0,0,0,0,0.0,12.8,0.0,4,0,0,0.0,12.8,0.0,0,0,0,0.125,12.9,0.0,0,0,0,kReverse,kOff,-86.24,1.69,-177.82,0.028137207,-0.98443604,0.051818848,32.88,0.0,1.0,-0.34239197,3.796524,
673.792862,true,true,true,0.125,12.8,0.0,-4595,0,0,0.125,12.8,0.0,0,0,0,0.125,12.8,0.0,-74904,0,0,0.125,12.85,0.0,0,0,0,0.0,12.8,0.0,4,0,0,0.0,12.8,0.0,0,0,0,0.125,12.9,0.0,0,0,0,kReverse,kOff,-86.24,1.68,-177.83,0.029296875,-0.98327637,0.058044434,32.88,0.0,0.0,-0.34239197,3.796524,
673.8145299999999,true,true,true,0.125,12.8,0.0,-4595,0,0,0.125,12.8,0.0,0,0,0,0.125,12.8,0.0,-74904,0,0,0.125,12.85,0.0,0,0,0,0.0,12.8,0.0,4,0,0,0.0,12.8,0.0,0,0,0,0.125,12.9,0.0,0,0,0,kReverse,kOff,-86.24,1.68,-177.83,0.030395508,-0.98254395,0.055114746,32.88,0.0,-1.0,-0.34239197,3.796524,
673.8345869999999,true,true,true,0.125,12.8,0.0,-4595,0,0,0.125,12.8,0.0,0,0,0,0.125,12.8,0.0,-74904,0,0,0.125,12.85,0.0,0,0,0,0.0,12.8,0.0,4,0,0,0.0,12.8,0.0,0,0,0,0.125,12.9,0.0,0,0,0,kReverse,kOff,-86.24,1.68,-177.83,0.026000977,-0.9831543,0.057617188,32.88,0.0,2.0,-0.34239197,3.796524,
673.85372,true,true,true,0.125,12.8,0.0,-4595,0,0,0.125,12.8,0.0,0,0,0,0.125,12.8,0.0,-74904,0,0,0.125,12.85,0.0,0,0,0,0.0,12.8,0.0,4,0,0,0.0,12.8,0.0,0,0,0,0.125,12.9,0.0,0,0,0,kReverse,kOff,-86.24,1.68,-177.83,0.029846191,-0.9845581,0.0569458,32.88,0.0,0.0,-0.34239197,3.796524,
673.8738629999999,true,true,true,0.125,12.8,0.0,-4595,0,0,0.125,12.8,0.0,0,0,0,0.125,12.8,0.0,-74904,0,0,0.125,12.85,0.0,0,0,0,0.0,12.8,0.0,4,0,0,0.0,12.8,0.0,0,0,0,0.125,12.9,0.0,0,0,0,kReverse,kOff,-86.24,1.68,-177.83,0.027709961,-0.9844971,0.05645752,32.88,0.0,1.0,-0.34239197,3.796524,
673.895283,true,true,true,0.125,12.8,0.0,-4595,0,0,0.125,12.8,0.0,0,0,0,0.125,12.8,0.0,-74904,0,0,0.125,12.85,0.0,0,0,0,0.0,12.8,0.0,4,0,0,0.0,12.8,0.0,0,0,0,0.125,12.9,0.0,0,0,0,kReverse,kOff,-86.25,1.68,-177.83,0.028259277,-0.9830322,0.059570312,32.88,0.0,0.0,-0.34239197,3.796524,
673.916054,true,true,true,0.125,12.8,0.0,-4595,0,0,0.125,12.8,0.0,0,0,0,0.125,12.8,0.0,-74904,0,0,0.125,12.85,0.0,0,0,0,0.0,12.8,0.0,4,0,0,0.0,12.8,0.0,0,0,0,0.125,12.9,0.0,0,0,0,kReverse,kOff,-86.25,1.68,-177.83,0.02911377,-0.9835205,0.061035156,32.88,0.0,0.0,-0.34239197,3.796524,
673.9369879999999,true,true,true,0.125,12.8,0.0,-4595,0,0,0.125,12.8,0.0,0,0,0,0.125,12.8,0.0,-74904,0,0,0.125,12.85,0.0,0,0,0,0.0,12.8,0.0,4,0,0,0.0,12.8,0.0,0,0,0,0.125,12.9,0.0,0,0,0,kReverse,kOff,-86.25,1.68,-177.83,0.029663086,-0.9803467,0.06048584,32.88,0.0,-1.0,-0.34239197,3.796524,
673.956421,true,true,true,0.125,12.8,0.0,-4595,0,0,0.125,12.8,0.0,0,0,0,0.125,12.8,0.0,-74904,0,0,0.125,12.85,0.0,0,0,0,0.0,12.8,0.0,4,0,0,0.0,12.8,0.0,0,0,0,0.125,12.9,0.0,0,0,0,kReverse,kOff,-86.25,1.68,-177.83,0.030334473,-0.9801636,0.05810547,32.87,0.0,-1.0,-0.34239197,3.796524,
673.981466,true,true,true,0.125,12.8,0.0,-4595,0,0,0.125,12.8,0.0,0,0,0,0.125,12.8,0.0,-74904,0,0,0.125,12.85,0.0,0,0,0,0.0,12.8,0.0,4,0,0,0.0,12.8,0.0,0,0,0,0.125,12.9,0.0,0,0,0,kReverse,kOff,-86.25,1.68,-177.83,0.028564453,-0.98376465,0.060913086,32.87,0.0,0.0,-0.34239197,3.796524,
674.00636,true,true,true,0.125,12.8,0.0,-4595,0,0,0.125,12.8,0.0,0,0,0,0.125,12.8,0.0,-74904,0,0,0.125,12.85,0.0,0,0,0,0.0,12.8,0.0,4,0,0,0.0,12.8,0.0,0,0,0,0.125,12.9,0.0,0,0,0,kReverse,kOff,-86.25,1.68,-177.83,0.029418945,-0.9814453,0.054382324,32.87,0.0,0.0,-0.34239197,3.796524,
674.02125,true,true,true,0.125,12.8,0.0,-4595,0,0,0.125,12.8,0.0,0,0,0,0.125,12.8,0.0,-74904,0,0,0.125,12.85,0.0,0,0,0,0.0,12.8,0.0,4,0,0,0.0,12.8,0.0,0,0,0,0.125,12.9,0.0,0,0,0,kReverse,kOff,-86.25,1.68,-177.83,0.030273438,-0.9850464,0.054382324,32.87,0.0,0.0,-0.34239197,3.796524,
674.0536609999999,true,true,true,0.125,12.8,0.0,-4595,0,0,0.125,12.8,0.0,0,0,0,0.125,12.8,0.0,-74904,0,0,0.125,12.85,0.0,0,0,0,0.0,12.8,0.0,4,0,0,0.0,12.8,0.0,0,0,0,0.125,12.9,0.0,0,0,0,kReverse,kOff,-86.25,1.68,-177.83,0.029968262,-0.9834595,0.055541992,32.87,0.0,0.0,-0.34239197,3.796524,
674.0803779999999,true,true,true,0.125,12.8,0.0,-4595,0,0,0.125,12.8,0.0,0,0,0,0.125,12.8,0.0,-74904,0,0,0.125,12.85,0.0,0,0,0,0.0,12.8,0.0,4,0,0,0.0,12.8,0.0,0,0,0,0.125,12.9,0.0,0,0,0,kReverse,kOff,-86.25,1.68,-177.83,0.030456543,-0.98535156,0.0569458,32.87,0.0,-1.0,-0.34239197,3.796524,
674.102366,true,true,true,0.125,12.8,0.0,-4595,0,0,0.125,12.8,0.0,0,0,0,0.125,12.8,0.0,-74904,0,0,0.125,12.85,0.0,0,0,0,0.0,12.8,0.0,4,0,0,0.0,12.8,0.0,0,0,0,0.125,12.9,0.0,0,0,0,kReverse,kOff,-86.26,1.69,-177.82,0.03112793,-0.9848633,0.058410645,32.87,0.0,-2.0,-0.34239197,3.796524,
674.1241399999999,true,true,true,0.125,12.8,0.0,-4595,0,0,0.125,12.8,0.0,0,0,0,0.125,12.8,0.0,-74904,0,0,0.125,12.85,0.0,0,0,0,0.0,12.8,0.0,4,0,0,0.0,12.8,0.0,0,0,0,0.125,12.9,0.0,0,0,0,kReverse,kOff,-86.26,1.69,-177.82,0.02734375,-0.9835205,0.055725098,32.87,0.0,1.0,-0.34239197,3.796524,
674.15081,true,true,true,0.125,12.8,0.0,-4595,0,0,0.125,12.8,0.0,0,0,0,0.125,12.8,0.0,-74904,0,0,0.125,12.85,0.0,0,0,0,0.0,12.8,0.0,4,0,0,0.0,12.8,0.0,0,0,0,0.125,12.9,0.0,0,0,0,kReverse,kOff,-86.25,1.69,-177.82,0.028869629,-0.9840088,0.058288574,32.87,0.0,0.0,-0.34239197,3.796524,
674.171554,true,true,true,0.125,12.8,0.0,-4595,0,0,0.125,12.8,0.0,0,0,0,0.125,12.8,0.0,-74904,0,0,0.125,12.85,0.0,0,0,0,0.0,12.8,0.0,4,0,0,0.0,12.8,0.0,0,0,0,0.125,12.9,0.0,0,0,0,kReverse,kOff,-86.25,1.68,-177.83,0.02947998,-0.9813843,0.057556152,32.87,0.0,0.0,-0.34239197,3.796524,
674.190303,true,true,true,0.125,12.8,0.0,-4595,0,0,0.125,12.8,0.0,0,0,0,0.125,12.8,0.0,-74904,0,0,0.125,12.85,0.0,0,0,0,0.0,12.8,0.0,4,0,0,0.0,12.8,0.0,0,0,0,0.125,12.9,0.0,0,0,0,kReverse,kOff,-86.25,1.68,-177.83,0.028930664,-0.9849243,0.059509277,32.87,0.0,0.0,-0.34239197,3.796524,
674.209447,true,true,true,0.125,12.8,0.0,-4595,0,0,0.125,12.8,0.0,0,0,0,0.125,12.8,0.0,-74904,0,0,0.125,12.85,0.0,0,0,0,0.0,12.8,0.0,4,0,0,0.0,12.8,0.0,0,0,0,0.125,12.9,0.0,0,0,0,kReverse,kOff,-86.25,1.68,-177.83,0.027404785,-0.9805908,0.06213379,32.87,0.0,0.0,-0.34239197,3.796524,
674.2310839999999,true,true,true,0.125,12.8,0.0,-4595,0,0,0.125,12.8,0.0,0,0,0,0.125,12.8,0.0,-74904,0,0,0.125,12.85,0.0,0,0,0,0.0,12.8,0.0,4,0,0,0.0,12.8,0.0,0,0,0,0.125,12.9,0.0,0,0,0,kReverse,kOff,-86.25,1.69,-177.82,0.030090332,-0.9847412,0.0625,32.87,0.0,-1.0,-0.34239197,3.796524,
674.2512929999999,true,true,true,0.125,12.8,0.0,-4595,0,0,0.125,12.8,0.0,0,0,0,0.125,12.8,0.0,-74904,0,0,0.125,12.85,0.0,0,0,0,0.0,12.8,0.0,4,0,0,0.0,12.8,0.0,0,0,0,0.125,12.9,0.0,0,0,0,kReverse,kOff,-86.25,1.69,-177.82,0.029785156,-0.9819336,0.053833008,32.87,0.0,0.0,-0.34239197,3.796524,
674.271359,true,true,true,0.125,12.8,0.0,-4595,0,0,0.125,12.8,0.0,0,0,0,0.125,12.8,0.0,-74904,0,0,0.125,12.85,0.0,0,0,0,0.125,12.8,0.0,4,0,0,0.0,12.8,0.0,0,0,0,0.125,12.9,0.0,0,0,0,kReverse,kOff,-86.25,1.69,-177.82,0.029663086,-0.984375,0.059020996,32.87,0.0,0.0,-0.34239197,3.796524,
674.2906989999999,true,true,true,0.125,12.8,0.0,-4595,0,0,0.125,12.8,0.0,0,0,0,0.125,12.8,0.0,-74904,0,0,0.125,12.85,0.0,0,0,0,0.0,12.8,0.0,4,0,0,0.0,12.8,0.0,0,0,0,0.0,12.9,0.0,0,0,0,kReverse,kOff,-86.25,1.69,-177.82,0.030334473,-0.98236084,0.060668945,32.87,0.0,-1.0,-0.34239197,3.796524,
674.3122749999999,true,true,true,0.125,12.8,0.0,-4595,0,0,0.125,12.8,0.0,0,0,0,0.125,12.8,0.0,-74904,0,0,0.125,12.85,0.0,0,0,0,0.0,12.8,0.0,4,0,0,0.0,12.8,0.0,0,0,0,0.0,12.9,0.0,0,0,0,kReverse,kOff,-86.25,1.69,-177.82,0.028564453,-0.9819946,0.057922363,32.87,0.0,0.0,-0.34239197,3.796524,
674.3322049999999,true,true,true,0.125,12.8,0.0,-4595,0,0,0.125,12.8,0.0,0,0,0,0.125,12.8,0.0,-74904,0,0,0.125,12.85,0.0,0,0,0,0.0,12.8,0.0,4,0,0,0.0,12.8,0.0,0,0,0,0.0,12.9,0.0,0,0,0,kReverse,kOff,-86.25,1.69,-177.82,0.031311035,-0.9845581,0.058776855,32.87,0.0,-2.0,-0.34239197,3.796524,
674.352696,true,true,true,0.125,12.8,0.0,-4595,0,0,0.125,12.8,0.0,0,0,0,0.125,12.8,0.0,-74904,0,0,0.125,12.85,0.0,0,0,0,0.0,12.8,0.0,4,0,0,0.0,12.8,0.0,0,0,0,0.125,12.9,0.0,0,0,0,kReverse,kOff,-86.25,1.69,-177.82,0.028503418,-0.9836426,0.055908203,32.87,0.0,0.0,-0.34239197,3.796524,
674.373416,true,true,true,0.125,12.8,0.0,-4595,0,0,0.125,12.8,0.0,0,0,0,0.125,12.8,0.0,-74904,0,0,0.125,12.85,0.0,0,0,0,0.0,12.8,0.0,4,0,0,0.0,12.8,0.0,0,0,0,0.125,12.9,0.0,0,0,0,kReverse,kOff,-86.25,1.69,-177.82,0.029296875,-0.98443604,0.053344727,32.87,0.0,0.0,-0.34239197,3.796524,
674.392444,true,true,true,0.125,12.8,0.0,-4595,0,0,0.125,12.8,0.0,0,0,0,0.125,12.8,0.0,-74904,0,0,0.125,12.85,0.0,0,0,0,0.0,12.8,0.0,4,0,0,0.0,12.8,0.0,0,0,0,0.125,12.9,0.0,0,0,0,kReverse,kOff,-86.25,1.69,-177.82,0.028808594,-0.98431396,0.05596924,32.87,0.0,0.0,-0.34239197,3.796524,
674.4115739999999,true,true,true,0.125,12.8,0.0,-4595,0,0,0.125,12.8,0.0,0,0,0,0.125,12.8,0.0,-74904,0,0,0.125,12.85,0.0,0,0,0,0.0,12.8,0.0,4,0,0,0.0,12.8,0.0,0,0,0,0.125,12.9,0.0,0,0,0,kReverse,kOff,-86.25,1.69,-177.83,0.030761719,-0.9790039,0.057250977,32.87,0.0,-1.0,-0.34239197,3.796524,
674.4296839999998,true,true,true,0.125,12.8,0.0,-4595,0,0,0.125,12.8,0.0,0,0,0,0.125,12.8,0.0,-74904,0,0,0.125,12.85,0.0,0,0,0,0.0,12.8,0.0,4,0,0,0.0,12.8,0.0,0,0,0,0.125,12.9,0.0,0,0,0,kReverse,kOff,-86.25,1.69,-177.82,0.032104492,-0.9819946,0.05444336,32.87,0.0,-2.0,-0.34239197,3.796524,
674.4462849999999,true,true,true,0.125,12.8,0.0,-4595,0,0,0.125,12.8,0.0,0,0,0,0.125,12.8,0.0,-74904,0,0,0.125,12.85,0.0,0,0,0,0.0,12.8,0.0,4,0,0,0.0,12.8,0.0,0,0,0,0.125,12.9,0.0,0,0,0,kReverse,kOff,-86.25,1.69,-177.82,0.03161621,-0.9829712,0.05731201,32.87,0.0,-2.0,-0.34239197,3.796524,
674.470186,true,true,true,0.125,12.8,0.0,-4595,0,0,0.125,12.8,0.0,0,0,0,0.125,12.8,0.0,-74904,0,0,0.125,12.85,0.0,0,0,0,0.0,12.8,0.0,4,0,0,0.0,12.8,0.0,0,0,0,0.125,12.9,0.0,0,0,0,kReverse,kOff,-86.25,1.69,-177.82,0.030761719,-0.9816284,0.053833008,32.87,0.0,-1.0,-0.34239197,3.796524,
674.4897139999999,true,true,true,0.125,12.8,0.0,-4595,0,0,0.125,12.8,0.0,0,0,0,0.125,12.8,0.0,-74904,0,0,0.125,12.85,0.0,0,0,0,0.0,12.8,0.0,4,0,0,0.0,12.8,0.0,0,0,0,0.125,12.9,0.0,0,0,0,kReverse,kOff,-86.25,1.69,-177.82,0.028564453,-0.9830322,0.05706787,32.86,0.0,0.0,-0.34239197,3.796524,
674.51275,true,true,true,0.125,12.8,0.0,-4595,0,0,0.125,12.8,0.0,0,0,0,0.125,12.8,0.0,-74904,0,0,0.125,12.85,0.0,0,0,0,0.0,12.8,0.0,4,0,0,0.0,12.8,0.0,0,0,0,0.125,12.9,0.0,0,0,0,kReverse,kOff,-86.25,1.69,-177.82,0.028442383,-0.9835205,0.05822754,32.86,0.0,0.0,-0.34239197,3.796524,
674.5324079999999,true,true,true,0.125,12.8,0.0,-4595,0,0,0.125,12.8,0.0,0,0,0,0.125,12.8,0.0,-74904,0,0,0.125,12.85,0.0,0,0,0,0.0,12.8,0.0,4,0,0,0.0,12.8,0.0,0,0,0,0.125,12.9,0.0,0,0,0,kReverse,kOff,-86.25,1.69,-177.82,0.03112793,-0.9854126,0.054626465,32.86,0.0,-1.0,-0.34239197,3.796524,
674.552865,true,true,true,0.125,12.8,0.0,-4595,0,0,0.125,12.8,0.0,0,0,0,0.125,12.8,0.0,-74904,0,0,0.125,12.85,0.0,0,0,0,0.0,12.8,0.0,4,0,0,0.0,12.8,0.0,0,0,0,0.125,12.9,0.0,0,0,0,kReverse,kOff,-86.25,1.69,-177.82,0.029418945,-0.9835205,0.054016113,32.86,0.0,0.0,-0.34239197,3.796524,
674.573631,true,true,true,0.125,12.8,0.0,-4595,0,0,0.125,12.8,0.0,0,0,0,0.125,12.8,0.0,-74904,0,0,0.125,12.85,0.0,0,0,0,0.0,12.8,0.0,4,0,0,0.0,12.8,0.0,0,0,0,0.125,12.9,0.0,0,0,0,kReverse,kOff,-86.25,1.69,-177.82,0.030273438,-0.98535156,0.057434082,32.86,0.0,0.0,-0.34239197,3.796524,
674.594245,true,true,true,0.125,12.8,0.0,-4595,0,0,0.125,12.8,0.0,0,0,0,0.125,12.8,0.0,-74904,0,0,0.125,12.85,0.0,0,0,0,0.0,12.8,0.0,4,0,0,0.0,12.8,0.0,0,0,0,0.125,12.9,0.0,0,0,0,kReverse,kOff,-86.25,1.69,-177.82,0.028747559,-0.98547363,0.060913086,32.86,0.0,0.0,-0.34239197,3.796524,
674.615697,true,true,true,0.125,12.8,0.0,-4595,0,0,0.125,12.8,0.0,0,0,0,0.125,12.8,0.0,-74904,0,0,0.125,12.85,0.0,0,0,0,0.0,12.8,0.0,4,0,0,0.0,12.8,0.0,0,0,0,0.125,12.9,0.0,0,0,0,kReverse,kOff,-86.25,1.69,-177.82,0.030761719,-0.98327637,0.05682373,32.86,0.0,-1.0,-0.34239197,3.796524,
674.635771,true,true,true,0.125,12.8,0.0,-4595,0,0,0.125,12.8,0.0,0,0,0,0.125,12.8,0.0,-74904,0,0,0.125,12.85,0.0,0,0,0,0.0,12.8,0.0,4,0,0,0.0,12.8,0.0,0,0,0,0.125,12.9,0.0,0,0,0,kReverse,kOff,-86.25,1.69,-177.82,0.030761719,-0.9804077,0.0569458,32.86,0.0,-1.0,-0.34239197,3.796524,
674.654546,true,true,true,0.125,12.8,0.0,-4595,0,0,0.125,12.8,0.0,0,0,0,0.125,12.8,0.0,-74904,0,0,0.125,12.85,0.0,0,0,0,0.0,12.8,0.0,4,0,0,0.0,12.8,0.0,0,0,0,0.125,12.9,0.0,0,0,0,kReverse,kOff,-86.25,1.69,-177.82,0.028381348,-0.98101807,0.057556152,32.86,0.0,0.0,-0.34239197,3.796524,
674.6695609999999,true,true,true,0.125,12.8,0.0,-4595,0,0,0.125,12.8,0.0,0,0,0,0.125,12.8,0.0,-74904,0,0,0.125,12.85,0.0,0,0,0,0.0,12.8,0.0,4,0,0,0.0,12.8,0.0,0,0,0,0.125,12.9,0.0,0,0,0,kReverse,kOff,-86.25,1.7,-177.82,0.031799316,-0.98254395,0.053894043,32.86,0.0,-2.0,-0.34239197,3.796524,
674.69571,true,true,true,0.125,12.8,0.0,-4595,0,0,0.125,12.8,0.0,0,0,0,0.125,12.8,0.0,-74904,0,0,0.125,12.85,0.0,0,0,0,0.0,12.8,0.0,4,0,0,0.0,12.8,0.0,0,0,0,0.125,12.9,0.0,0,0,0,kReverse,kOff,-86.25,1.69,-177.82,0.028503418,-0.9816284,0.053344727,32.86,0.0,1.0,-0.34239197,3.796524,
674.716485,true,true,true,0.125,12.8,0.0,-4595,0,0,0.125,12.8,0.0,0,0,0,0.125,12.8,0.0,-74904,0,0,0.125,12.85,0.0,0,0,0,0.0,12.8,0.0,4,0,0,0.0,12.8,0.0,0,0,0,0.125,12.9,0.0,0,0,0,kReverse,kOff,-86.25,1.69,-177.82,0.027893066,-0.9815674,0.056762695,32.86,0.0,1.0,-0.34239197,3.796524,
674.7407189999999,true,true,true,0.125,12.8,0.0,-4595,0,0,0.125,12.8,0.0,0,0,0,0.125,12.8,0.0,-74904,0,0,0.125,12.85,0.0,0,0,0,0.0,12.8,0.0,4,0,0,0.0,12.8,0.0,0,0,0,0.125,12.9,0.0,0,0,0,kReverse,kOff,-86.25,1.69,-177.82,0.030578613,-0.9857178,0.056274414,32.86,0.0,-1.0,-0.34239197,3.796524,
674.762262,true,true,true,0.125,12.8,0.0,-4595,0,0,0.125,12.8,0.0,0,0,0,0.125,12.8,0.0,-74904,0,0,0.125,12.85,0.0,0,0,0,0.0,12.8,0.0,4,0,0,0.0,12.8,0.0,0,0,0,0.125,12.9,0.0,0,0,0,kReverse,kOff,-86.25,1.69,-177.82,0.026977539,-0.9833374,0.057800293,32.86,0.0,2.0,-0.34239197,3.796524,
674.7848409999999,true,true,true,0.125,12.8,0.0,-4595,0,0,0.125,12.8,0.0,0,0,0,0.125,12.8,0.0,-74904,0,0,0.125,12.85,0.0,0,0,0,0.0,12.8,0.0,4,0,0,0.0,12.8,0.0,0,0,0,0.125,12.9,0.0,0,0,0,kReverse,kOff,-86.25,1.69,-177.82,0.030517578,-0.9840088,0.058898926,32.86,0.0,-1.0,-0.34239197,3.796524,
674.808196,true,true,true,0.125,12.8,0.0,-4595,0,0,0.125,12.8,0.0,0,0,0,0.125,12.8,0.0,-74904,0,0,0.125,12.85,0.0,0,0,0,0.0,12.8,0.0,4,0,0,0.0,12.8,0.0,0,0,0,0.125,12.9,0.0,0,0,0,kReverse,kOff,-86.25,1.69,-177.83,0.026672363,-0.98236084,0.05670166,32.86,0.0,2.0,-0.34239197,3.796524,
674.827815,true,true,true,0.125,12.8,0.0,-4595,0,0,0.125,12.8,0.0,0,0,0,0.125,12.8,0.0,-74904,0,0,0.125,12.85,0.0,0,0,0,0.0,12.8,0.0,4,0,0,0.0,12.8,0.0,0,0,0,0.125,12.9,0.0,0,0,0,kReverse,kOff,-86.25,1.69,-177.83,0.028930664,-0.98327637,0.055786133,32.86,0.0,0.0,-0.34239197,3.796524,
674.8497659999999,true,true,true,0.125,12.8,0.0,-4595,0,0,0.125,12.8,0.0,0,0,0,0.125,12.8,0.0,-74904,0,0,0.125,12.85,0.0,0,0,0,0.0,12.8,0.0,4,0,0,0.0,12.8,0.0,0,0,0,0.125,12.9,0.0,0,0,0,kReverse,kOff,-86.25,1.69,-177.83,0.029907227,-0.9816284,0.060302734,32.86,0.0,-1.0,-0.34239197,3.796524,
674.8706209999999,true,true,true,0.125,12.8,0.0,-4595,0,0,0.125,12.8,0.0,0,0,0,0.125,12.8,0.0,-74904,0,0,0.125,12.85,0.0,0,0,0,0.0,12.8,0.0,4,0,0,0.0,12.8,0.0,0,0,0,0.125,12.9,0.0,0,0,0,kReverse,kOff,-86.25,1.69,-177.82,0.030944824,-0.9851074,0.05279541,32.86,0.0,-1.0,-0.34239197,3.796524,
674.891183,true,true,true,0.125,12.8,0.0,-4595,0,0,0.125,12.8,0.0,0,0,0,0.125,12.8,0.0,-74904,0,0,0.125,12.85,0.0,0,0,0,0.0,12.8,0.0,4,0,0,0.0,12.8,0.0,0,0,0,0.125,12.9,0.0,0,0,0,kReverse,kOff,-86.25,1.69,-177.82,0.031066895,-0.98358154,0.05810547,32.86,0.0,-1.0,-0.34239197,3.796524,
674.9109859999999,true,true,true,0.125,12.8,0.0,-4595,0,0,0.125,12.8,0.0,0,0,0,0.125,12.8,0.0,-74904,0,0,0.125,12.85,0.0,0,0,0,0.0,12.8,0.0,4,0,0,0.0,12.8,0.0,0,0,0,0.125,12.9,0.0,0,0,0,kReverse,kOff,-86.25,1.69,-177.82,0.029968262,-0.9844971,0.05480957,32.86,0.0,0.0,-0.34239197,3.796524,
674.9321,true,true,true,0.125,12.8,0.0,-4595,0,0,0.125,12.8,0.0,0,0,0,0.125,12.8,0.0,-74904,0,0,0.125,12.85,0.0,0,0,0,0.0,12.8,0.0,4,0,0,0.0,12.8,0.0,0,0,0,0.125,12.9,0.0,0,0,0,kReverse,kOff,-86.25,1.69,-177.82,0.031555176,-0.9845581,0.058288574,32.86,0.0,-2.0,-0.34239197,3.796524,
674.9526099999999,true,true,true,0.125,12.8,0.0,-4595,0,0,0.125,12.8,0.0,0,0,0,0.125,12.8,0.0,-74904,0,0,0.125,12.85,0.0,0,0,0,0.0,12.8,0.0,4,0,0,0.0,12.8,0.0,0,0,0,0.125,12.9,0.0,0,0,0,kReverse,kOff,-86.25,1.69,-177.82,0.028930664,-0.982666,0.05493164,32.86,0.0,0.0,-0.34239197,3.796524,
674.972419,true,true,true,0.125,12.8,0.0,-4595,0,0,0.125,12.8,0.0,0,0,0,0.125,12.8,0.0,-74904,0,0,0.125,12.85,0.0,0,0,0,0.0,12.8,0.0,4,0,0,0.0,12.8,0.0,0,0,0,0.125,12.9,0.0,0,0,0,kReverse,kOff,-86.25,1.69,-177.82,0.029663086,-0.98101807,0.05706787,32.86,0.0,0.0,-0.34239197,3.796524,
674.9915909999999,true,true,true,0.125,12.8,0.0,-4595,0,0,0.125,12.8,0.0,0,0,0,0.125,12.8,0.0,-74904,0,0,0.125,12.85,0.0,0,0,0,0.0,12.8,0.0,4,0,0,0.0,12.8,0.0,0,0,0,0.125,12.9,0.0,0,0,0,kReverse,kOff,-86.25,1.69,-177.82,0.028259277,-0.9819946,0.055358887,32.88,0.0,1.0,-0.34239197,3.796524,
675.011764,true,true,true,0.125,12.8,0.0,-4595,0,0,0.125,12.8,0.0,0,0,0,0.125,12.8,0.0,-74904,0,0,0.125,12.85,0.0,0,0,0,0.0,12.8,0.0,4,0,0,0.0,12.8,0.0,0,0,0,0.125,12.9,0.0,0,0,0,kReverse,kOff,-86.25,1.69,-177.82,0.03186035,-0.9831543,0.06097412,32.88,0.0,-3.0,-0.34239197,3.796524,
675.0298310000001,true,true,true,0.125,12.8,0.0,-4595,0,0,0.125,12.8,0.0,0,0,0,0.125,12.8,0.0,-74904,0,0,0.125,12.85,0.0,0,0,0,0.0,12.8,0.0,4,0,0,0.0,12.8,0.0,0,0,0,0.125,12.9,0.0,0,0,0,kReverse,kOff,-86.26,1.69,-177.83,0.02935791,-0.9851074,0.059020996,32.88,0.0,0.0,-0.34239197,3.796524,
675.049125,true,true,true,0.125,12.8,0.0,-4595,0,0,0.125,12.8,0.0,0,0,0,0.125,12.8,0.0,-74904,0,0,0.125,12.85,0.0,0,0,0,0.0,12.8,0.0,4,0,0,0.0,12.8,0.0,0,0,0,0.125,12.9,0.0,0,0,0,kReverse,kOff,-86.25,1.69,-177.82,0.030395508,-0.9859619,0.055908203,32.88,0.0,0.0,-0.34239197,3.796524,
675.06925,true,true,true,0.125,12.8,0.0,-4595,0,0,0.125,12.8,0.0,0,0,0,0.125,12.8,0.0,-74904,0,0,0.125,12.85,0.0,0,0,0,0.0,12.8,0.0,4,0,0,0.0,12.8,0.0,0,0,0,0.125,12.9,0.0,0,0,0,kReverse,kOff,-86.25,1.69,-177.82,0.030273438,-0.982666,0.055664062,32.88,0.0,0.0,-0.34239197,3.796524,
675.089651,true,true,true,0.125,12.8,0.0,-4595,0,0,0.125,12.8,0.0,0,0,0,0.125,12.8,0.0,-74904,0,0,0.125,12.85,0.0,0,0,0,0.0,12.8,0.0,4,0,0,0.0,12.8,0.0,0,0,0,0.125,12.9,0.0,0,0,0,kReverse,kOff,-86.26,1.7,-177.82,0.029968262,-0.9837036,0.058166504,32.88,0.0,0.0,-0.34239197,3.796524,
675.1115699999999,true,true,true,0.125,12.8,0.0,-4595,0,0,0.125,12.8,0.0,0,0,0,0.125,12.8,0.0,-74904,0,0,0.125,12.85,0.0,0,0,0,0.0,12.8,0.0,4,0,0,0.0,12.8,0.0,0,0,0,0.125,12.9,0.0,0,0,0,kReverse,kOff,-86.26,1.7,-177.82,0.029296875,-0.9831543,0.058654785,32.88,0.0,0.0,-0.34239197,3.796524,
675.1300369999999,true,true,true,0.125,12.8,0.0,-4595,0,0,0.125,12.8,0.0,0,0,0,0.125,12.8,0.0,-74904,0,0,0.125,12.85,0.0,0,0,0,0.0,12.8,0.0,4,0,0,0.0,12.8,0.0,0,0,0,0.125,12.9,0.0,0,0,0,kReverse,kOff,-86.25,1.69,-177.82,0.027832031,-0.98480225,0.059020996,32.88,0.0,1.0,-0.34239197,3.796524,
675.151012,true,true,true,0.125,12.8,0.0,-4595,0,0,0.125,12.8,0.0,0,0,0,0.125,12.8,0.0,-74904,0,0,0.125,12.85,0.0,0,0,0,0.0,12.8,0.0,4,0,0,0.0,12.8,0.0,0,0,0,0.125,12.9,0.0,0,0,0,kReverse,kOff,-86.25,1.69,-177.82,0.030090332,-0.98516846,0.05987549,32.88,0.0,-1.0,-0.34239197,3.796524,
675.169867,true,true,true,0.125,12.8,0.0,-4595,0,0,0.125,12.8,0.0,0,0,0,0.125,12.8,0.0,-74904,0,0,0.125,12.85,0.0,0,0,0,0.0,12.8,0.0,4,0,0,0.0,12.8,0.0,0,0,0,0.125,12.9,0.0,0,0,0,kReverse,kOff,-86.25,1.69,-177.82,0.025512695,-0.9869385,0.06097412,32.88,0.0,3.0,-0.34239197,3.796524,
675.1897479999999,true,true,true,0.125,12.8,0.0,-4595,0,0,0.125,12.8,0.0,0,0,0,0.125,12.8,0.0,-74904,0,0,0.125,12.85,0.0,0,0,0,0.0,12.8,0.0,4,0,0,0.0,12.8,0.0,0,0,0,0.125,12.9,0.0,0,0,0,kReverse,kOff,-86.25,1.69,-177.82,0.02923584,-0.9810791,0.059692383,32.88,0.0,0.0,-0.34239197,3.796524,
675.210441,true,true,true,0.125,12.8,0.0,-4595,0,0,0.125,12.8,0.0,0,0,0,0.125,12.8,0.0,-74904,0,0,0.125,12.85,0.0,0,0,0,0.0,12.8,0.0,4,0,0,0.0,12.8,0.0,0,0,0,0.125,12.9,0.0,0,0,0,kReverse,kOff,-86.25,1.69,-177.82,0.02947998,-0.98583984,0.057128906,32.88,0.0,0.0,-0.34239197,3.796524,
675.230595,true,true,true,0.125,12.8,0.0,-4595,0,0,0.125,12.8,0.0,0,0,0,0.125,12.8,0.0,-74904,0,0,0.125,12.85,0.0,0,0,0,0.0,12.8,0.0,4,0,0,0.0,12.8,0.0,0,0,0,0.125,12.9,0.0,0,0,0,kReverse,kOff,-86.25,1.69,-177.82,0.03137207,-0.9855957,0.061035156,32.88,0.0,-2.0,-0.34239197,3.796524,
675.2511889999998,true,true,true,0.125,12.8,0.0,-4595,0,0,0.125,12.8,0.0,0,0,0,0.125,12.8,0.0,-74904,0,0,0.125,12.85,0.0,0,0,0,0.0,12.8,0.0,4,0,0,0.0,12.8,0.0,0,0,0,0.125,12.9,0.0,0,0,0,kReverse,kOff,-86.25,1.69,-177.82,0.029296875,-0.9835205,0.060546875,32.88,0.0,0.0,-0.34239197,3.796524,
675.273132,true,true,true,0.125,12.8,0.0,-4595,0,0,0.125,12.8,0.0,0,0,0,0.125,12.8,0.0,-74904,0,0,0.125,12.85,0.0,0,0,0,0.0,12.8,0.0,4,0,0,0.0,12.8,0.0,0,0,0,0.125,12.9,0.0,0,0,0,kReverse,kOff,-86.25,1.69,-177.82,0.030090332,-0.98431396,0.06109619,32.88,0.0,-1.0,-0.34239197,3.796524,
675.292556,true,true,true,0.125,12.8,0.0,-4595,0,0,0.125,12.8,0.0,0,0,0,0.125,12.8,0.0,-74904,0,0,0.125,12.85,0.0,0,0,0,0.0,12.8,0.0,4,0,0,0.0,12.8,0.0,0,0,0,0.125,12.9,0.0,0,0,0,kReverse,kOff,-86.25,1.69,-177.82,0.02935791,-0.9862671,0.058532715,32.88,0.0,0.0,-0.34239197,3.796524,
675.3068619999999,true,true,true,0.125,12.8,0.0,-4595,0,0,0.125,12.8,0.0,0,0,0,0.125,12.8,0.0,-74904,0,0,0.125,12.85,0.0,0,0,0,0.0,12.8,0.0,4,0,0,0.0,12.8,0.0,0,0,0,0.125,12.9,0.0,0,0,0,kReverse,kOff,-86.25,1.69,-177.82,0.028442383,-0.9852905,0.05822754,32.88,0.0,0.0,-0.34239197,3.796524,
675.3458029999999,true,true,true,0.125,12.8,0.0,-4595,0,0,0.125,12.8,0.0,0,0,0,0.125,12.8,0.0,-74904,0,0,0.125,12.85,0.0,0,0,0,0.0,12.8,0.0,4,0,0,0.0,12.8,0.0,0,0,0,0.125,12.9,0.0,0,0,0,kReverse,kOff,-86.25,1.7,-177.82,0.030151367,-0.9846802,0.059448242,32.88,0.0,-1.0,-0.34239197,3.796524,
675.3680319999999,true,true,true,0.125,12.8,0.0,-4595,0,0,0.125,12.8,0.0,0,0,0,0.125,12.8,0.0,-74904,0,0,0.125,12.85,0.0,0,0,0,0.0,12.8,0.0,4,0,0,0.0,12.8,0.0,0,0,0,0.125,12.9,0.0,0,0,0,kReverse,kOff,-86.25,1.7,-177.82,0.030517578,-0.9830322,0.05682373,32.88,0.0,-1.0,-0.34239197,3.796524,
675.3878339999999,true,true,true,0.125,12.8,0.0,-4595,0,0,0.125,12.8,0.0,0,0,0,0.125,12.8,0.0,-74904,0,0,0.125,12.85,0.0,0,0,0,0.0,12.8,0.0,4,0,0,0.0,12.8,0.0,0,0,0,0.125,12.9,0.0,0,0,0,kReverse,kOff,-86.25,1.7,-177.82,0.030273438,-0.9848633,0.049987793,32.88,0.0,0.0,-0.34239197,3.796524,
675.4115969999999,true,true,true,0.125,12.8,0.0,-4595,0,0,0.125,12.8,0.0,0,0,0,0.125,12.8,0.0,-74904,0,0,0.125,12.85,0.0,0,0,0,0.0,12.8,0.0,4,0,0,0.0,12.8,0.0,0,0,0,0.125,12.9,0.0,0,0,0,kReverse,kOff,-86.25,1.7,-177.82,0.029724121,-0.98602295,0.055358887,32.88,0.0,0.0,-0.34239197,3.796524,
675.4307289999999,true,true,true,0.125,12.8,0.0,-4595,0,0,0.125,12.8,0.0,0,0,0,0.125,12.8,0.0,-74904,0,0,0.125,12.85,0.0,0,0,0,0.0,12.8,0.0,4,0,0,0.0,12.8,0.0,0,0,0,0.125,12.9,0.0,0,0,0,kReverse,kOff,-86.25,1.7,-177.82,0.028747559,-0.9813843,0.053955078,32.88,0.0,0.0,-0.34239197,3.796524,
675.448951,true,true,true,0.125,12.8,0.0,-4595,0,0,0.125,12.8,0.0,0,0,0,0.125,12.8,0.0,-74904,0,0,0.125,12.85,0.0,0,0,0,0.0,12.8,0.0,4,0,0,0.0,12.8,0.0,0,0,0,0.125,12.9,0.0,0,0,0,kReverse,kOff,-86.25,1.7,-177.82,0.030578613,-0.9847412,0.05987549,32.88,0.0,-1.0,-0.34239197,3.796524,
675.4666629999999,true,true,true,0.125,12.8,0.0,-4595,0,0,0.125,12.8,0.0,0,0,0,0.125,12.8,0.0,-74904,0,0,0.125,12.85,0.0,0,0,0,0.125,12.8,0.0,4,0,0,0.0,12.8,0.0,0,0,0,0.125,12.9,0.0,0,0,0,kReverse,kOff,-86.25,1.7,-177.82,0.028686523,-0.9867554,0.059448242,32.88,0.0,0.0,-0.34239197,3.796524,
675.488928,true,true,true,0.125,12.8,0.0,-4595,0,0,0.125,12.8,0.0,0,0,0,0.125,12.8,0.0,-74904,0,0,0.125,12.85,0.0,0,0,0,0.0,12.8,0.0,4,0,0,0.0,12.8,0.0,0,0,0,0.125,12.9,0.0,0,0,0,kReverse,kOff,-86.25,1.7,-177.82,0.030700684,-0.9819946,0.057128906,32.88,0.0,-1.0,-0.34239197,3.796524,
675.509558,true,true,true,0.125,12.8,0.0,-4595,0,0,0.125,12.8,0.0,0,0,0,0.125,12.8,0.0,-74904,0,0,0.125,12.85,0.0,0,0,0,0.0,12.8,0.0,4,0,0,0.0,12.8,0.0,0,0,0,0.125,12.9,0.0,0,0,0,kReverse,kOff,-86.25,1.7,-177.82,0.030456543,-0.982666,0.057373047,32.89,0.0,-1.0,-0.34239197,3.796524,
675.5308579999999,true,true,true,0.125,12.8,0.0,-4595,0,0,0.125,12.8,0.0,0,0,0,0.125,12.8,0.0,-74904,0,0,0.125,12.85,0.0,0,0,0,0.0,12.8,0.0,4,0,0,0.0,12.8,0.0,0,0,0,0.125,12.9,0.0,0,0,0,kReverse,kOff,-86.25,1.7,-177.82,0.02923584,-0.98394775,0.059448242,32.89,0.0,0.0,-0.34239197,3.796524,
675.5520409999999,true,true,true,0.125,12.8,0.0,-4595,0,0,0.125,12.8,0.0,0,0,0,0.125,12.8,0.0,-74904,0,0,0.125,12.85,0.0,0,0,0,0.0,12.8,0.0,4,0,0,0.0,12.8,0.0,0,0,0,0.125,12.9,0.0,0,0,0,kReverse,kOff,-86.25,1.7,-177.82,0.02935791,-0.9864502,0.055786133,32.89,0.0,0.0,-0.34239197,3.796524,
675.5725669999999,true,true,true,0.125,12.8,0.0,-4595,0,0,0.125,12.8,0.0,0,0,0,0.125,12.8,0.0,-74904,0,0,0.125,12.85,0.0,0,0,0,0.0,12.8,0.0,4,0,0,0.0,12.8,0.0,0,0,0,0.125,12.9,0.0,0,0,0,kReverse,kOff,-86.25,1.7,-177.82,0.030456543,-0.98168945,0.05718994,32.89,0.0,-1.0,-0.34239197,3.796524,
675.592861,true,true,true,0.125,12.8,0.0,-4595,0,0,0.125,12.8,0.0,0,0,0,0.125,12.8,0.0,-74904,0,0,0.125,12.85,0.0,0,0,0,0.0,12.8,0.0,4,0,0,0.0,12.8,0.0,0,0,0,0.125,12.9,0.0,0,0,0,kReverse,kOff,-86.25,1.7,-177.82,0.03173828,-0.98394775,0.057373047,32.89,0.0,-2.0,-0.34239197,3.796524,
675.61413,true,true,true,0.125,12.8,0.0,-4595,0,0,0.125,12.8,0.0,0,0,0,0.125,12.8,0.0,-74904,0,0,0.125,12.85,0.0,0,0,0,0.0,12.8,0.0,4,0,0,0.0,12.8,0.0,0,0,0,0.0,12.9,0.0,0,0,0,kReverse,kOff,-86.25,1.7,-177.82,0.025817871,-0.98669434,0.06298828,32.89,0.0,2.0,-0.34239197,3.796524,
