timer,lineLeft,lineCenter,lineRight,LeftFrontCurrent,LeftFrontVoltage,LeftFrontValue,LeftFrontPosition,LeftFrontVelocity,LeftFrontFaults,LeftRearCurrent,LeftRearVoltage,LeftRearValue,LeftRearPosition,LeftRearVelocity,LeftRearFaults,RightFrontCurrent,RightFrontVoltage,RightFrontValue,RightFrontPosition,RightFrontVelocity,RightFrontFaults,RightRearCurrent,RightRearVoltage,RightRearValue,RightRearPosition,RightRearVelocity,RightRearFaults,LiftCurrent,LiftVoltage,LiftValue,LiftPosition,LiftVelocity,LiftFaults,WristCurrent,WristVoltage,WristValue,WristPosition,WristVelocity,WristFaults,RollerCurrent,RollerVoltage,RollerValue,RollerPosition,RollerVelocity,RollerFaults,PushersState,PivotsState,navx_Pitch,navx_Roll,navx_Yaw,navx_XAcc,navx_YAcc,navx_ZAcc,navx_Temp,navx_Bar,navx_Alt,navx_XDis,navx_YDis,
584.342198,true,true,true,0.125,12.700000000000001,0.0,0,0,0,0.125,12.75,0.0,0,0,0,0.125,12.700000000000001,0.0,0,0,0,0.125,12.75,0.0,0,0,0,0.125,12.75,0.0,0,0,0,0.0,12.700000000000001,0.0,0,0,0,0.125,12.75,0.0,0,0,0,kReverse,kReverse,-87.0,2.2,2.28,0.03778076,-0.9802246,0.03125,33.25,0.0,0.0,-7.9779816,12.700821,
584.3698550000001,true,true,true,0.125,12.700000000000001,0.0,0,0,0,0.125,12.75,0.0,0,0,0,0.125,12.700000000000001,0.0,0,0,0,0.125,12.75,0.0,0,0,0,0.125,12.75,0.0,0,0,0,0.0,12.700000000000001,0.0,0,0,0,0.125,12.75,0.0,0,0,0,kReverse,kReverse,-87.01,2.2,2.28,0.039611816,-0.9869995,0.035827637,33.25,0.0,1.0,-7.9779816,12.700821,
584.3948270000001,true,true,true,0.125,12.700000000000001,0.0,0,0,0,0.125,12.75,0.0,0,0,0,0.125,12.700000000000001,0.0,0,0,0,0.125,12.75,0.0,0,0,0,0.0,12.75,0.0,0,0,0,0.0,12.700000000000001,0.0,0,0,0,0.125,12.75,0.0,0,0,0,kReverse,kReverse,-87.01,2.2,2.28,0.03741455,-0.98394775,0.035827637,33.25,0.0,0.0,-7.9779816,12.700821,
584.417292,true,true,true,0.125,12.700000000000001,0.0,0,0,0,0.125,12.75,0.0,0,0,0,0.125,12.700000000000001,0.0,0,0,0,0.125,12.75,0.0,0,0,0,0.0,12.75,0.0,0,0,0,0.0,12.700000000000001,0.0,0,0,0,0.125,12.75,0.0,0,0,0,kReverse,kReverse,-87.0,2.2,2.28,0.04095459,-0.98358154,0.03704834,33.25,0.0,3.0,-7.9779816,12.700821,
584.4417540000001,true,true,true,0.125,12.700000000000001,0.0,0,0,0,0.125,12.75,0.0,0,0,0,0.125,12.700000000000001,0.0,0,0,0,0.125,12.75,0.0,0,0,0,0.0,12.75,0.0,0,0,0,0.0,12.700000000000001,0.0,0,0,0,0.125,12.75,0.0,0,0,0,kReverse,kReverse,-87.01,2.19,2.27,0.03857422,-0.9852905,0.03668213,33.25,0.0,0.0,-7.9779816,12.700821,
584.465557,true,true,true,0.125,12.700000000000001,0.0,0,0,0,0.125,12.75,0.0,0,0,0,0.125,12.700000000000001,0.0,0,0,0,0.125,12.75,0.0,0,0,0,0.125,12.75,0.0,0,0,0,0.0,12.700000000000001,0.0,0,0,0,0.125,12.75,0.0,0,0,0,kReverse,kReverse,-87.01,2.19,2.27,0.03668213,-0.9800415,0.034362793,33.25,0.0,0.0,-7.9779816,12.700821,
584.486056,true,true,true,0.125,12.700000000000001,0.0,0,0,0,0.125,12.75,0.0,0,0,0,0.125,12.700000000000001,0.0,0,0,0,0.125,12.75,0.0,0,0,0,0.125,12.75,0.0,0,0,0,0.0,12.700000000000001,0.0,0,0,0,0.125,12.75,0.0,0,0,0,kReverse,kReverse,-87.01,2.19,2.27,0.038757324,-0.9837036,0.03942871,33.25,0.0,1.0,-7.9779816,12.700821,
584.5079910000001,true,true,true,0.125,12.75,0.0,0,0,0,0.125,12.75,0.0,0,0,0,0.125,12.700000000000001,0.0,0,0,0,0.125,12.75,0.0,0,0,0,0.125,12.75,0.0,0,0,0,0.0,12.75,0.0,0,0,0,0.125,12.8,0.0,0,0,0,kReverse,kReverse,-87.01,2.19,2.27,0.036010742,-0.9867554,0.03918457,33.25,0.0,-1.0,-7.9779816,12.700821,
584.5299750000001,true,true,true,0.125,12.75,0.0,0,0,0,0.125,12.75,0.0,0,0,0,0.125,12.700000000000001,0.0,0,0,0,0.125,12.75,0.0,0,0,0,0.125,12.75,0.0,0,0,0,0.0,12.75,0.0,0,0,0,0.125,12.8,0.0,0,0,0,kReverse,kReverse,-87.0,2.2,2.28,0.03527832,-0.9838867,0.028564453,33.25,0.0,-2.0,-7.9779816,12.700821,
584.547442,true,true,true,0.125,12.75,0.0,0,0,0,0.125,12.75,0.0,0,0,0,0.125,12.700000000000001,0.0,0,0,0,0.125,12.75,0.0,0,0,0,0.125,12.75,0.0,0,0,0,0.0,12.75,0.0,0,0,0,0.125,12.8,0.0,0,0,0,kReverse,kReverse,-87.01,2.2,2.28,0.038391113,-0.98376465,0.034057617,33.25,0.0,0.0,-7.9779816,12.700821,
584.574385,true,true,true,0.125,12.75,0.0,0,0,0,0.125,12.75,0.0,0,0,0,0.125,12.700000000000001,0.0,0,0,0,0.125,12.75,0.0,0,0,0,0.125,12.75,0.0,0,0,0,0.0,12.75,0.0,0,0,0,0.125,12.8,0.0,0,0,0,kReverse,kReverse,-87.0,2.2,2.28,0.037475586,-0.98358154,0.034118652,33.25,0.0,0.0,-7.9779816,12.700821,
584.595012,true,true,true,0.125,12.75,0.0,0,0,0,0.125,12.75,0.0,0,0,0,0.125,12.700000000000001,0.0,0,0,0,0.125,12.75,0.0,0,0,0,0.125,12.75,0.0,0,0,0,0.0,12.75,0.0,0,0,0,0.125,12.8,0.0,0,0,0,kReverse,kReverse,-87.01,2.2,2.28,0.039611816,-0.98327637,0.028625488,33.25,0.0,1.0,-7.9779816,12.700821,
584.6148919999999,true,true,true,0.125,12.75,0.0,0,0,0,0.125,12.75,0.0,0,0,0,0.125,12.700000000000001,0.0,0,0,0,0.125,12.75,0.0,0,0,0,0.125,12.75,0.0,0,0,0,0.0,12.75,0.0,0,0,0,0.125,12.8,0.0,0,0,0,kReverse,kReverse,-87.01,2.2,2.28,0.038269043,-0.98010254,0.034057617,33.25,0.0,0.0,-7.9779816,12.700821,
584.6352850000001,true,true,true,0.125,12.75,0.0,0,0,0,0.125,12.75,0.0,0,0,0,0.125,12.700000000000001,0.0,0,0,0,0.125,12.75,0.0,0,0,0,0.125,12.75,0.0,0,0,0,0.0,12.75,0.0,0,0,0,0.125,12.8,0.0,0,0,0,kReverse,kReverse,-87.01,2.2,2.28,0.03918457,-0.98394775,0.029663086,33.25,0.0,1.0,-7.9779816,12.700821,
584.656012,true,true,true,0.125,12.75,0.0,0,0,0,0.125,12.75,0.0,0,0,0,0.125,12.700000000000001,0.0,0,0,0,0.125,12.75,0.0,0,0,0,0.0,12.700000000000001,0.0,0,0,0,0.0,12.75,0.0,0,0,0,0.125,12.8,0.0,0,0,0,kReverse,kReverse,-87.01,2.19,2.27,0.0368042,-0.9817505,0.043029785,33.25,0.0,0.0,-7.9779816,12.700821,
584.681182,true,true,true,0.125,12.700000000000001,0.0,0,0,0,0.125,12.75,0.0,0,0,0,0.125,12.700000000000001,0.0,0,0,0,0.125,12.75,0.0,0,0,0,0.0,12.700000000000001,0.0,0,0,0,0.0,12.700000000000001,0.0,0,0,0,0.125,12.8,0.0,0,0,0,kReverse,kReverse,-87.01,2.19,2.27,0.03540039,-0.9805298,0.03930664,33.25,0.0,-2.0,-7.9779816,12.700821,
584.70221,true,true,true,0.125,12.700000000000001,0.0,0,0,0,0.125,12.75,0.0,0,0,0,0.125,12.700000000000001,0.0,0,0,0,0.125,12.75,0.0,0,0,0,0.0,12.700000000000001,0.0,0,0,0,0.0,12.700000000000001,0.0,0,0,0,0.125,12.8,0.0,0,0,0,kReverse,kReverse,-87.01,2.19,2.27,0.040283203,-0.98358154,0.029174805,33.25,0.0,2.0,-7.9779816,12.700821,
584.725488,true,true,true,0.125,12.700000000000001,0.0,0,0,0,0.125,12.75,0.0,0,0,0,0.125,12.700000000000001,0.0,0,0,0,0.125,12.75,0.0,0,0,0,0.0,12.700000000000001,0.0,0,0,0,0.0,12.700000000000001,0.0,0,0,0,0.125,12.8,0.0,0,0,0,kReverse,kReverse,-87.01,2.2,2.28,0.039855957,-0.9845581,0.032409668,33.29,0.0,1.0,-7.9779816,12.700821,
584.7488510000001,true,true,true,0.125,12.700000000000001,0.0,0,0,0,0.125,12.75,0.0,0,0,0,0.125,12.700000000000001,0.0,0,0,0,0.125,12.75,0.0,0,0,0,0.0,12.700000000000001,0.0,0,0,0,0.0,12.700000000000001,0.0,0,0,0,0.125,12.8,0.0,0,0,0,kReverse,kReverse,-87.01,2.19,2.27,0.03515625,-0.98217773,0.037353516,33.29,0.0,-2.0,-7.9779816,12.700821,
584.774909,true,true,true,0.125,12.700000000000001,0.0,0,0,0,0.125,12.75,0.0,0,0,0,0.125,12.700000000000001,0.0,0,0,0,0.125,12.75,0.0,0,0,0,0.125,12.700000000000001,0.0,0,0,0,0.0,12.700000000000001,0.0,0,0,0,0.125,12.8,0.0,0,0,0,kReverse,kReverse,-87.0,2.2,2.28,0.03918457,-0.9852295,0.03265381,33.29,0.0,1.0,-7.9779816,12.700821,
584.7975670000001,true,true,true,0.125,12.700000000000001,0.0,0,0,0,0.125,12.75,0.0,0,0,0,0.125,12.700000000000001,0.0,0,0,0,0.125,12.75,0.0,0,0,0,0.125,12.700000000000001,0.0,0,0,0,0.0,12.700000000000001,0.0,0,0,0,0.125,12.8,0.0,0,0,0,kReverse,kReverse,-87.0,2.2,2.28,0.03753662,-0.9847412,0.03161621,33.29,0.0,0.0,-7.9779816,12.700821,
584.818637,true,true,true,0.125,12.700000000000001,0.0,0,0,0,0.125,12.75,0.0,0,0,0,0.125,12.700000000000001,0.0,0,0,0,0.125,12.75,0.0,0,0,0,0.0,12.700000000000001,0.0,0,0,0,0.0,12.75,0.0,0,0,0,0.125,12.8,0.0,0,0,0,kReverse,kReverse,-87.0,2.2,2.28,0.03845215,-0.9818115,0.036254883,33.29,0.0,0.0,-7.9779816,12.700821,
584.843549,true,true,true,0.125,12.700000000000001,0.0,0,0,0,0.125,12.75,0.0,0,0,0,0.125,12.700000000000001,0.0,0,0,0,0.125,12.75,0.0,0,0,0,0.0,12.700000000000001,0.0,0,0,0,0.0,12.75,0.0,0,0,0,0.125,12.8,0.0,0,0,0,kReverse,kReverse,-87.0,2.2,2.28,0.038085938,-0.98516846,0.03869629,33.29,0.0,0.0,-7.9779816,12.700821,
584.867425,true,true,true,0.125,12.700000000000001,0.0,0,0,0,0.125,12.75,0.0,0,0,0,0.125,12.700000000000001,0.0,0,0,0,0.125,12.75,0.0,0,0,0,0.0,12.700000000000001,0.0,0,0,0,0.0,12.75,0.0,0,0,0,0.125,12.8,0.0,0,0,0,kReverse,kReverse,-87.0,2.2,2.28,0.036499023,-0.9821167,0.03692627,33.29,0.0,-1.0,-7.9779816,12.700821,
584.891919,true,true,true,0.125,12.700000000000001,0.0,0,0,0,0.125,12.75,0.0,0,0,0,0.125,12.700000000000001,0.0,0,0,0,0.125,12.75,0.0,0,0,0,0.0,12.700000000000001,0.0,0,0,0,0.0,12.75,0.0,0,0,0,0.125,12.8,0.0,0,0,0,kReverse,kReverse,-87.0,2.2,2.28,0.03515625,-0.98254395,0.03302002,33.29,0.0,-2.0,-7.9779816,12.700821,
584.914519,true,true,true,0.125,12.700000000000001,0.0,0,0,0,0.125,12.75,0.0,0,0,0,0.125,12.700000000000001,0.0,0,0,0,0.125,12.75,0.0,0,0,0,0.0,12.700000000000001,0.0,0,0,0,0.0,12.75,0.0,0,0,0,0.125,12.8,0.0,0,0,0,kReverse,kReverse,-87.0,2.2,2.28,0.036132812,-0.9854126,0.03656006,33.29,0.0,-1.0,-7.9779816,12.700821,
584.9354790000001,true,true,true,0.125,12.700000000000001,0.0,0,0,0,0.125,12.75,0.0,0,0,0,0.125,12.700000000000001,0.0,0,0,0,0.125,12.75,0.0,0,0,0,0.125,12.700000000000001,0.0,0,0,0,0.0,12.75,0.0,0,0,0,0.125,12.8,0.0,0,0,0,kReverse,kReverse,-87.0,2.2,2.28,0.034851074,-0.98773193,0.034362793,33.29,0.0,-3.0,-7.9779816,12.700821,
584.9551440000001,true,true,true,0.125,12.700000000000001,0.0,0,0,0,0.125,12.75,0.0,0,0,0,0.125,12.700000000000001,0.0,0,0,0,0.125,12.75,0.0,0,0,0,0.125,12.700000000000001,0.0,0,0,0,0.0,12.75,0.0,0,0,0,0.125,12.8,0.0,0,0,0,kReverse,kReverse,-87.0,2.2,2.28,0.037109375,-0.9840088,0.03112793,33.29,0.0,0.0,-7.9779816,12.700821,
584.9751490000001,true,true,true,0.125,12.700000000000001,0.0,0,0,0,0.125,12.75,0.0,0,0,0,0.125,12.700000000000001,0.0,0,0,0,0.125,12.75,0.0,0,0,0,0.125,12.700000000000001,0.0,0,0,0,0.0,12.75,0.0,0,0,0,0.125,12.8,0.0,0,0,0,kReverse,kReverse,-87.0,2.2,2.28,0.040283203,-0.9857788,0.035827637,33.29,0.0,2.0,-7.9779816,12.700821,
584.9974030000001,true,true,true,0.125,12.75,0.0,0,0,0,0.125,12.75,0.0,0,0,0,0.125,12.700000000000001,0.0,0,0,0,0.125,12.75,0.0,0,0,0,0.125,12.700000000000001,0.0,0,0,0,0.0,12.75,0.0,0,0,0,0.125,12.8,0.0,0,0,0,kReverse,kReverse,-87.0,2.2,2.28,0.037231445,-0.9815674,0.03289795,33.29,0.0,0.0,-7.9779816,12.700821,
585.018221,true,true,true,0.125,12.75,0.0,0,0,0,0.125,12.75,0.0,0,0,0,0.125,12.700000000000001,0.0,0,0,0,0.125,12.75,0.0,0,0,0,0.125,12.700000000000001,0.0,0,0,0,0.0,12.75,0.0,0,0,0,0.125,12.8,0.0,0,0,0,kReverse,kReverse,-87.0,2.2,2.28,0.039916992,-0.9822998,0.03741455,33.29,0.0,2.0,-7.9779816,12.700821,
585.038259,true,true,true,0.125,12.75,0.0,0,0,0,0.125,12.75,0.0,0,0,0,0.125,12.700000000000001,0.0,0,0,0,0.125,12.75,0.0,0,0,0,0.125,12.700000000000001,0.0,0,0,0,0.0,12.75,0.0,0,0,0,0.125,12.8,0.0,0,0,0,kReverse,kReverse,-87.0,2.2,2.28,0.0390625,-0.98254395,0.037109375,33.29,0.0,1.0,-7.9779816,12.700821,
585.057631,true,true,true,0.125,12.75,0.0,0,0,0,0.125,12.75,0.0,0,0,0,0.125,12.700000000000001,0.0,0,0,0,0.125,12.75,0.0,0,0,0,0.125,12.700000000000001,0.0,0,0,0,0.0,12.75,0.0,0,0,0,0.125,12.8,0.0,0,0,0,kReverse,kReverse,-86.99,2.2,2.28,0.039489746,-0.9837036,0.03894043,33.29,0.0,1.0,-7.9779816,12.700821,
585.0846700000001,true,true,true,0.125,12.75,0.0,0,0,0,0.125,12.75,0.0,0,0,0,0.125,12.700000000000001,0.0,0,0,0,0.125,12.75,0.0,0,0,0,0.125,12.700000000000001,0.0,0,0,0,0.0,12.75,0.0,0,0,0,0.125,12.8,0.0,0,0,0,kReverse,kReverse,-86.99,2.21,2.29,0.03918457,-0.9816284,0.0390625,33.29,0.0,1.0,-7.9779816,12.700821,
585.107586,true,true,true,0.125,12.75,0.0,0,0,0,0.125,12.75,0.0,0,0,0,0.125,12.700000000000001,0.0,0,0,0,0.125,12.75,0.0,0,0,0,0.125,12.700000000000001,0.0,0,0,0,0.0,12.75,0.0,0,0,0,0.125,12.8,0.0,0,0,0,kReverse,kReverse,-86.99,2.21,2.29,0.034301758,-0.98321533,0.03112793,33.29,0.0,-3.0,-7.9779816,12.700821,
585.1342420000001,true,true,true,0.125,12.75,0.0,0,0,0,0.125,12.75,0.0,0,0,0,0.125,12.700000000000001,0.0,0,0,0,0.125,12.75,0.0,0,0,0,0.125,12.700000000000001,0.0,0,0,0,0.0,12.75,0.0,0,0,0,0.125,12.8,0.0,0,0,0,kReverse,kReverse,-86.99,2.21,2.29,0.039611816,-0.9852295,0.030212402,33.29,0.0,1.0,-7.9779816,12.700821,
585.156561,true,true,true,0.125,12.75,0.0,0,0,0,0.125,12.75,0.0,0,0,0,0.125,12.700000000000001,0.0,0,0,0,0.125,12.75,0.0,0,0,0,0.0,12.700000000000001,0.0,0,0,0,0.0,12.700000000000001,0.0,0,0,0,0.125,12.8,0.0,0,0,0,kReverse,kReverse,-86.99,2.21,2.29,0.03753662,-0.98480225,0.036987305,33.29,0.0,0.0,-7.9779816,12.700821,
585.178138,true,true,true,0.125,12.75,0.0,0,0,0,0.125,12.75,0.0,0,0,0,0.125,12.700000000000001,0.0,0,0,0,0.125,12.75,0.0,0,0,0,0.0,12.700000000000001,0.0,0,0,0,0.0,12.700000000000001,0.0,0,0,0,0.125,12.8,0.0,0,0,0,kReverse,kReverse,-86.99,2.21,2.29,0.039123535,-0.98223877,0.039367676,33.29,0.0,1.0,-7.9779816,12.700821,
585.200598,true,true,true,0.125,12.75,0.0,0,0,0,0.125,12.75,0.0,0,0,0,0.125,12.700000000000001,0.0,0,0,0,0.125,12.75,0.0,0,0,0,0.0,12.700000000000001,0.0,0,0,0,0.0,12.700000000000001,0.0,0,0,0,0.125,12.8,0.0,0,0,0,kReverse,kReverse,-86.99,2.21,2.29,0.036376953,-0.98358154,0.03479004,33.29,0.0,-1.0,-7.9779816,12.700821,
585.223344,true,true,true,0.125,12.75,0.0,0,0,0,0.125,12.75,0.0,0,0,0,0.125,12.700000000000001,0.0,0,0,0,0.125,12.75,0.0,0,0,0,0.125,12.700000000000001,0.0,0,0,0,0.0,12.700000000000001,0.0,0,0,0,0.125,12.8,0.0,0,0,0,kReverse,kReverse,-86.99,2.21,2.29,0.035705566,-0.98272705,0.033325195,33.29,0.0,-2.0,-7.9779816,12.700821,
585.248597,true,true,true,0.125,12.75,0.0,0,0,0,0.125,12.75,0.0,0,0,0,0.125,12.700000000000001,0.0,0,0,0,0.125,12.75,0.0,0,0,0,0.125,12.700000000000001,0.0,0,0,0,0.0,12.700000000000001,0.0,0,0,0,0.125,12.8,0.0,0,0,0,kForward,kReverse,-86.99,2.21,2.29,0.040771484,-0.984375,0.03869629,33.26,0.0,2.0,-7.9779816,12.700821,
585.2720260000001,true,true,true,0.125,12.75,0.0,0,0,0,0.125,12.75,0.0,0,0,0,0.125,12.700000000000001,0.0,0,0,0,0.125,12.75,0.0,0,0,0,0.125,12.700000000000001,0.0,0,0,0,0.0,12.700000000000001,0.0,0,0,0,0.125,12.8,0.0,0,0,0,kForward,kReverse,-86.99,2.21,2.29,0.035461426,-0.97906494,0.02935791,33.26,0.0,-2.0,-7.9779816,12.700821,
585.29264,true,true,true,0.125,12.75,0.0,0,0,0,0.125,12.75,0.0,0,0,0,0.125,12.700000000000001,0.0,0,0,0,0.125,12.75,0.0,0,0,0,0.0,12.700000000000001,0.0,0,0,0,0.0,12.700000000000001,0.0,0,0,0,0.125,12.8,0.0,0,0,0,kForward,kReverse,-86.99,2.21,2.29,0.034729004,-0.9784546,0.0256958,33.26,0.0,-3.0,-7.9779816,12.700821,
585.316738,true,true,true,0.125,12.75,0.0,0,0,0,0.125,12.75,0.0,0,0,0,0.125,12.700000000000001,0.0,0,0,0,0.125,12.75,0.0,0,0,0,0.0,12.75,0.0,0,0,0,0.0,12.700000000000001,0.0,0,0,0,0.125,12.8,0.0,0,0,0,kForward,kReverse,-86.99,2.21,2.29,0.026977539,-0.9850464,0.05126953,33.26,0.0,-10.0,-7.9779816,12.700821,
585.3362390000001,true,true,true,0.125,12.75,0.0,0,0,0,0.125,12.75,0.0,0,0,0,0.125,12.700000000000001,0.0,0,0,0,0.125,12.75,0.0,0,0,0,0.125,12.75,0.0,0,0,0,0.0,12.700000000000001,0.0,0,0,0,0.125,12.8,0.0,0,0,0,kForward,kReverse,-86.99,2.21,2.29,0.03173828,-0.98010254,0.029907227,33.26,0.0,-6.0,-7.9779816,12.700821,
585.354685,true,true,true,0.125,12.75,0.0,0,0,0,0.125,12.75,0.0,0,0,0,0.125,12.700000000000001,0.0,0,0,0,0.125,12.75,0.0,0,0,0,0.125,12.75,0.0,0,0,0,0.0,12.700000000000001,0.0,0,0,0,0.125,12.8,0.0,0,0,0,kForward,kReverse,-86.99,2.21,2.29,0.038024902,-0.97180176,0.052246094,33.26,0.0,1.0,-7.9779816,12.700821,
585.3756220000001,true,true,true,0.125,12.75,0.0,0,0,0,0.125,12.75,0.0,0,0,0,0.125,12.700000000000001,0.0,0,0,0,0.125,12.75,0.0,0,0,0,0.125,12.75,0.0,0,0,0,0.0,12.700000000000001,0.0,0,0,0,0.125,12.8,0.0,0,0,0,kForward,kReverse,-86.98,2.21,2.29,0.025878906,-0.99554443,0.03930664,33.26,0.0,-12.0,-7.977936,12.700897,
585.395247,true,true,true,0.125,12.75,0.0,0,0,0,0.125,12.75,0.0,0,0,0,0.125,12.700000000000001,0.0,0,0,0,0.125,12.75,0.0,0,0,0,0.125,12.75,0.0,0,0,0,0.0,12.700000000000001,0.0,0,0,0,0.125,12.8,0.0,0,0,0,kForward,kReverse,-86.99,2.2,2.28,0.032165527,-0.94085693,-0.003112793,33.26,0.0,-5.0,-7.9779205,12.700928,
585.414112,true,true,true,0.125,12.75,0.0,0,0,0,0.125,12.75,0.0,0,0,0,0.125,12.700000000000001,0.0,0,0,0,0.125,12.75,0.0,0,0,0,0.125,12.75,0.0,0,0,0,0.0,12.700000000000001,0.0,0,0,0,0.125,12.8,0.0,0,0,0,kForward,kReverse,-86.99,2.2,2.28,0.019165039,-1.0038452,0.03765869,33.26,0.0,-19.0,-7.9779205,12.700882,
585.4495360000001,true,true,true,0.125,12.75,0.0,0,0,0,0.125,12.75,0.0,0,0,0,0.125,12.700000000000001,0.0,0,0,0,0.125,12.75,0.0,0,0,0,0.125,12.75,0.0,0,0,0,0.0,12.700000000000001,0.0,0,0,0,0.125,12.8,0.0,0,0,0,kForward,kReverse,-86.99,2.2,2.28,0.032104492,-1.0049438,0.026733398,33.26,0.0,-7.0,-7.9779205,12.700882,
585.4759500000001,true,true,true,0.125,12.75,0.0,0,0,0,0.125,12.75,0.0,0,0,0,0.125,12.700000000000001,0.0,0,0,0,0.125,12.75,0.0,0,0,0,0.125,12.75,0.0,0,0,0,0.0,12.700000000000001,0.0,0,0,0,0.125,12.8,0.0,0,0,0,kForward,kReverse,-86.99,2.2,2.28,0.0289917,-0.97839355,0.034362793,33.26,0.0,-8.0,-7.9779205,12.700882,
585.498992,true,true,true,0.125,12.75,0.0,0,0,0,0.125,12.75,0.0,0,0,0,0.125,12.700000000000001,0.0,0,0,0,0.125,12.75,0.0,0,0,0,0.125,12.75,0.0,0,0,0,0.0,12.700000000000001,0.0,0,0,0,0.125,12.8,0.0,0,0,0,kForward,kReverse,-86.99,2.2,2.28,0.03656006,-0.9767456,0.040771484,33.26,0.0,0.0,-7.9779205,12.700882,
585.518666,true,true,true,0.125,12.75,0.0,0,0,0,0.125,12.75,0.0,0,0,0,0.125,12.700000000000001,0.0,0,0,0,0.125,12.75,0.0,0,0,0,0.125,12.75,0.0,0,0,0,0.0,12.700000000000001,0.0,0,0,0,0.125,12.8,0.0,0,0,0,kForward,kReverse,-86.99,2.2,2.28,0.049865723,-0.9812012,0.044006348,33.26,0.0,12.0,-7.9779205,12.700882,
585.540799,true,true,true,0.125,12.75,0.0,0,0,0,0.125,12.75,0.0,0,0,0,0.125,12.700000000000001,0.0,0,0,0,0.125,12.75,0.0,0,0,0,0.125,12.75,0.0,0,0,0,0.0,12.700000000000001,0.0,0,0,0,0.125,12.8,0.0,0,0,0,kForward,kReverse,-86.99,2.2,2.28,0.03918457,-0.99108887,0.02142334,33.26,0.0,0.0,-7.9779205,12.700882,
585.563748,true,true,true,0.125,12.75,0.0,0,0,0,0.125,12.75,0.0,0,0,0,0.125,12.700000000000001,0.0,0,0,0,0.125,12.75,0.0,0,0,0,0.125,12.75,0.0,0,0,0,0.0,12.700000000000001,0.0,0,0,0,0.125,12.8,0.0,0,0,0,kForward,kReverse,-86.99,2.2,2.28,0.03552246,-0.9935303,0.0335083,33.26,0.0,-2.0,-7.9779205,12.700882,
585.588392,true,true,true,0.125,12.75,0.0,0,0,0,0.125,12.75,0.0,0,0,0,0.125,12.700000000000001,0.0,0,0,0,0.125,12.75,0.0,0,0,0,0.125,12.75,0.0,0,0,0,0.0,12.700000000000001,0.0,0,0,0,0.125,12.8,0.0,0,0,0,kForward,kReverse,-86.99,2.2,2.28,0.036315918,-0.97650146,0.030822754,33.26,0.0,-1.0,-7.9779205,12.700882,
585.609641,true,true,true,0.125,12.75,0.0,0,0,0,0.125,12.75,0.0,0,0,0,0.125,12.700000000000001,0.0,0,0,0,0.125,12.75,0.0,0,0,0,0.125,12.75,0.0,0,0,0,0.0,12.700000000000001,0.0,0,0,0,0.125,12.8,0.0,0,0,0,kForward,kReverse,-86.99,2.2,2.28,0.034179688,-0.9830322,0.036621094,33.26,0.0,-3.0,-7.9779205,12.700882,
585.634181,true,true,true,0.125,12.75,0.0,0,0,0,0.125,12.75,0.0,0,0,0,0.125,12.700000000000001,0.0,0,0,0,0.125,12.75,0.0,0,0,0,0.125,12.75,0.0,0,0,0,0.0,12.700000000000001,0.0,0,0,0,0.125,12.8,0.0,0,0,0,kForward,kReverse,-86.99,2.2,2.28,0.036315918,-0.98236084,0.03918457,33.26,0.0,-1.0,-7.9779205,12.700882,
585.6541920000001,true,true,true,0.125,12.75,0.0,0,0,0,0.125,12.75,0.0,0,0,0,0.125,12.700000000000001,0.0,0,0,0,0.125,12.75,0.0,0,0,0,0.125,12.75,0.0,0,0,0,0.0,12.700000000000001,0.0,0,0,0,0.125,12.8,0.0,0,0,0,kForward,kReverse,-86.99,2.2,2.28,0.036376953,-0.98779297,0.029541016,33.26,0.0,-1.0,-7.9779205,12.700882,
585.675311,true,true,true,0.125,12.75,0.0,0,0,0,0.125,12.75,0.0,0,0,0,0.125,12.700000000000001,0.0,0,0,0,0.125,12.75,0.0,0,0,0,0.125,12.75,0.0,0,0,0,0.0,12.700000000000001,0.0,0,0,0,0.125,12.8,0.0,0,0,0,kForward,kReverse,-86.99,2.2,2.28,0.037841797,-0.9831543,0.032043457,33.26,0.0,0.0,-7.9779205,12.700882,
585.6957950000001,true,true,true,0.125,12.75,0.0,0,0,0,0.125,12.75,0.0,0,0,0,0.125,12.700000000000001,0.0,0,0,0,0.125,12.75,0.0,0,0,0,0.0,12.75,0.0,0,0,0,0.0,12.700000000000001,0.0,0,0,0,0.125,12.8,0.0,0,0,0,kForward,kReverse,-86.99,2.2,2.28,0.038391113,-0.9837036,0.034729004,33.26,0.0,0.0,-7.9779205,12.700882,
585.717337,true,true,true,0.125,12.75,0.0,0,0,0,0.125,12.75,0.0,0,0,0,0.125,12.700000000000001,0.0,0,0,0,0.125,12.75,0.0,0,0,0,0.0,12.75,0.0,0,0,0,0.0,12.700000000000001,0.0,0,0,0,0.125,12.8,0.0,0,0,0,kForward,kReverse,-86.99,2.2,2.28,0.03656006,-0.9841919,0.033447266,33.26,0.0,-1.0,-7.9779205,12.700882,
585.741265,true,true,true,0.125,12.75,0.0,0,0,0,0.125,12.75,0.0,0,0,0,0.125,12.700000000000001,0.0,0,0,0,0.125,12.75,0.0,0,0,0,0.0,12.75,0.0,0,0,0,0.0,12.700000000000001,0.0,0,0,0,0.125,12.8,0.0,0,0,0,kForward,kReverse,-86.99,2.19,2.27,0.037719727,-0.98236084,0.038635254,33.24,0.0,0.0,-7.9779205,12.700882,
585.76586,true,true,true,0.125,12.75,0.0,0,0,0,0.125,12.75,0.0,0,0,0,0.125,12.700000000000001,0.0,0,0,0,0.125,12.75,0.0,0,0,0,0.0,12.75,0.0,0,0,0,0.0,12.700000000000001,0.0,0,0,0,0.125,12.8,0.0,0,0,0,kForward,kReverse,-86.99,2.19,2.27,0.03857422,-0.97888184,0.035949707,33.24,0.0,1.0,-7.9779205,12.700882,
585.788944,true,true,true,0.125,12.700000000000001,0.0,0,0,0,0.125,12.75,0.0,0,0,0,0.125,12.700000000000001,0.0,0,0,0,0.125,12.75,0.0,0,0,0,0.0,12.75,0.0,0,0,0,0.0,12.700000000000001,0.0,0,0,0,0.125,12.8,0.0,0,0,0,kForward,kReverse,-86.99,2.19,2.27,0.034362793,-0.9859009,0.037353516,33.24,0.0,-3.0,-7.9779205,12.700882,
585.813544,true,true,true,0.125,12.700000000000001,0.0,0,0,0,0.125,12.75,0.0,0,0,0,0.125,12.700000000000001,0.0,0,0,0,0.125,12.75,0.0,0,0,0,0.0,12.75,0.0,0,0,0,0.0,12.700000000000001,0.0,0,0,0,0.125,12.8,0.0,0,0,0,kForward,kReverse,-86.99,2.19,2.27,0.041748047,-0.9838257,0.036865234,33.24,0.0,4.0,-7.9779205,12.700882,
585.833858,true,true,true,0.125,12.700000000000001,0.0,0,0,0,0.125,12.75,0.0,0,0,0,0.125,12.700000000000001,0.0,0,0,0,0.125,12.75,0.0,0,0,0,0.0,12.75,0.0,0,0,0,0.0,12.700000000000001,0.0,0,0,0,0.125,12.8,0.0,0,0,0,kForward,kReverse,-86.99,2.2,2.28,0.03778076,-0.9850464,0.029541016,33.24,0.0,-1.0,-7.9779205,12.700882,
585.8544720000001,true,true,true,0.125,12.700000000000001,0.0,0,0,0,0.125,12.75,0.0,0,0,0,0.125,12.700000000000001,0.0,0,0,0,0.125,12.75,0.0,0,0,0,0.125,12.75,0.0,0,0,0,0.0,12.700000000000001,0.0,0,0,0,0.125,12.8,0.0,0,0,0,kForward,kReverse,-86.99,2.19,2.27,0.037109375,-0.9830322,0.038330078,33.24,0.0,0.0,-7.9779205,12.700882,
585.8761440000001,true,true,true,0.125,12.700000000000001,0.0,0,0,0,0.125,12.75,0.0,0,0,0,0.125,12.700000000000001,0.0,0,0,0,0.125,12.75,0.0,0,0,0,0.125,12.75,0.0,0,0,0,0.0,12.700000000000001,0.0,0,0,0,0.125,12.8,0.0,0,0,0,kForward,kReverse,-86.99,2.19,2.27,0.036254883,-0.980896,0.033081055,33.24,0.0,-1.0,-7.9779205,12.700882,
585.8972930000001,true,true,true,0.125,12.700000000000001,0.0,0,0,0,0.125,12.75,0.0,0,0,0,0.125,12.700000000000001,0.0,0,0,0,0.125,12.75,0.0,0,0,0,0.125,12.75,0.0,0,0,0,0.0,12.700000000000001,0.0,0,0,0,0.125,12.8,0.0,0,0,0,kForward,kReverse,-86.99,2.19,2.27,0.043151855,-0.98236084,0.030395508,33.24,0.0,5.0,-7.9779205,12.700882,
585.919537,true,true,true,0.125,12.700000000000001,0.0,0,0,0,0.125,12.75,0.0,0,0,0,0.125,12.700000000000001,0.0,0,0,0,0.125,12.75,0.0,0,0,0,0.0,12.75,0.0,0,0,0,0.0,12.700000000000001,0.0,0,0,0,0.125,12.8,0.0,0,0,0,kForward,kReverse,-86.99,2.19,2.27,0.040161133,-0.9859619,0.032592773,33.24,0.0,2.0,-7.9779205,12.700882,
585.9453030000001,true,true,true,0.125,12.75,0.0,0,0,0,0.125,12.75,0.0,0,0,0,0.125,12.700000000000001,0.0,0,0,0,0.125,12.75,0.0,0,0,0,0.0,12.700000000000001,0.0,0,0,0,0.0,12.700000000000001,0.0,0,0,0,0.125,12.75,0.0,0,0,0,kForward,kReverse,-86.99,2.19,2.27,0.040222168,-0.9804077,0.03717041,33.24,0.0,2.0,-7.9779205,12.700882,
585.970415,true,true,true,0.125,12.75,0.0,0,0,0,0.125,12.75,0.0,0,0,0,0.125,12.700000000000001,0.0,0,0,0,0.125,12.75,0.0,0,0,0,0.0,12.700000000000001,0.0,0,0,0,0.0,12.700000000000001,0.0,0,0,0,0.125,12.75,0.0,0,0,0,kForward,kReverse,-86.99,2.19,2.27,0.034301758,-0.98358154,0.03326416,33.24,0.0,-3.0,-7.9779205,12.700882,
585.993108,true,true,true,0.125,12.75,0.0,0,0,0,0.125,12.75,0.0,0,0,0,0.125,12.700000000000001,0.0,0,0,0,0.125,12.75,0.0,0,0,0,0.0,12.700000000000001,0.0,0,0,0,0.0,12.700000000000001,0.0,0,0,0,0.125,12.75,0.0,0,0,0,kForward,kReverse,-87.0,2.19,2.27,0.041137695,-0.9824219,0.04626465,33.24,0.0,3.0,-7.9779205,12.700882,
586.01599,true,true,true,0.125,12.75,0.0,0,0,0,0.125,12.75,0.0,0,0,0,0.125,12.700000000000001,0.0,0,0,0,0.125,12.75,0.0,0,0,0,0.125,12.700000000000001,0.0,0,0,0,0.0,12.700000000000001,0.0,0,0,0,0.125,12.75,0.0,0,0,0,kForward,kReverse,-86.99,2.19,2.27,0.03564453,-0.9840088,0.031433105,33.24,0.0,-2.0,-7.9779205,12.700882,
586.037499,true,true,true,0.125,12.75,0.0,0,0,0,0.125,12.75,0.0,0,0,0,0.125,12.700000000000001,0.0,0,0,0,0.125,12.75,0.0,0,0,0,0.125,12.700000000000001,0.0,0,0,0,0.0,12.700000000000001,0.0,0,0,0,0.125,12.75,0.0,0,0,0,kForward,kReverse,-86.99,2.19,2.27,0.03692627,-0.982666,0.04034424,33.24,0.0,0.0,-7.9779205,12.700882,
586.059314,true,true,true,0.125,12.75,0.0,0,0,0,0.125,12.75,0.0,0,0,0,0.125,12.700000000000001,0.0,0,0,0,0.125,12.75,0.0,0,0,0,0.125,12.700000000000001,0.0,0,0,0,0.0,12.700000000000001,0.0,0,0,0,0.125,12.75,0.0,0,0,0,kForward,kReverse,-86.99,2.19,2.27,0.040405273,-0.98669434,0.02911377,33.24,0.0,2.0,-7.9779205,12.700882,
586.082537,true,true,true,0.125,12.75,0.0,0,0,0,0.125,12.75,0.0,0,0,0,0.125,12.700000000000001,0.0,0,0,0,0.125,12.75,0.0,0,0,0,0.0,12.700000000000001,0.0,0,0,0,0.0,12.700000000000001,0.0,0,0,0,0.125,12.75,0.0,0,0,0,kForward,kReverse,-86.99,2.19,2.27,0.038024902,-0.98150635,0.03729248,33.24,0.0,0.0,-7.9779205,12.700882,
586.109938,true,true,true,0.125,12.75,0.0,0,0,0,0.125,12.75,0.0,0,0,0,0.125,12.700000000000001,0.0,0,0,0,0.125,12.75,0.0,0,0,0,0.0,12.700000000000001,0.0,0,0,0,0.0,12.700000000000001,0.0,0,0,0,0.125,12.8,0.0,0,0,0,kForward,kReverse,-86.99,2.19,2.27,0.036865234,-0.9829712,0.035095215,33.24,0.0,0.0,-7.9779205,12.700882,
586.128468,true,true,true,0.125,12.75,0.0,0,0,0,0.125,12.75,0.0,0,0,0,0.125,12.700000000000001,0.0,0,0,0,0.125,12.75,0.0,0,0,0,0.0,12.700000000000001,0.0,0,0,0,0.0,12.700000000000001,0.0,0,0,0,0.125,12.8,0.0,0,0,0,kForward,kReverse,-86.99,2.19,2.27,0.03778076,-0.9844971,0.03466797,33.24,0.0,0.0,-7.9779205,12.700882,
586.1502760000001,true,true,true,0.125,12.75,0.0,0,0,0,0.125,12.75,0.0,0,0,0,0.125,12.700000000000001,0.0,0,0,0,0.125,12.75,0.0,0,0,0,0.0,12.700000000000001,0.0,0,0,0,0.0,12.700000000000001,0.0,0,0,0,0.125,12.8,0.0,0,0,0,kForward,kReverse,-86.99,2.19,2.27,0.036315918,-0.9840698,0.036071777,33.24,0.0,-1.0,-7.9779205,12.700882,
586.172094,true,true,true,0.125,12.75,0.0,0,0,0,0.125,12.75,0.0,0,0,0,0.125,12.700000000000001,0.0,0,0,0,0.125,12.75,0.0,0,0,0,0.125,12.700000000000001,0.0,0,0,0,0.0,12.700000000000001,0.0,0,0,0,0.125,12.8,0.0,0,0,0,kForward,kReverse,-86.99,2.19,2.27,0.039794922,-0.9844971,0.03741455,33.24,0.0,2.0,-7.9779205,12.700882,
586.194706,true,true,true,0.125,12.75,0.0,0,0,0,0.125,12.75,0.0,0,0,0,0.125,12.700000000000001,0.0,0,0,0,0.125,12.75,0.0,0,0,0,0.125,12.700000000000001,0.0,0,0,0,0.0,12.700000000000001,0.0,0,0,0,0.125,12.8,0.0,0,0,0,kForward,kReverse,-86.99,2.19,2.27,0.038635254,-0.98413086,0.039733887,33.24,0.0,1.0,-7.9779205,12.700882,
586.2138030000001,true,true,true,0.125,12.75,0.0,0,0,0,0.125,12.75,0.0,0,0,0,0.125,12.700000000000001,0.0,0,0,0,0.125,12.75,0.0,0,0,0,0.125,12.700000000000001,0.0,0,0,0,0.0,12.700000000000001,0.0,0,0,0,0.125,12.8,0.0,0,0,0,kForward,kReverse,-86.99,2.19,2.27,0.03918457,-0.97998047,0.04034424,33.24,0.0,1.0,-7.9779205,12.700882,
586.235616,true,true,true,0.125,12.75,0.0,0,0,0,0.125,12.75,0.0,0,0,0,0.125,12.700000000000001,0.0,0,0,0,0.125,12.75,0.0,0,0,0,0.125,12.700000000000001,0.0,0,0,0,0.0,12.700000000000001,0.0,0,0,0,0.125,12.8,0.0,0,0,0,kForward,kReverse,-86.99,2.19,2.27,0.036132812,-0.9836426,0.030273438,33.28,0.0,-1.0,-7.9779205,12.700882,
586.256477,true,true,true,0.125,12.75,0.0,0,0,0,0.125,12.700000000000001,0.0,0,0,0,0.125,12.700000000000001,0.0,0,0,0,0.125,12.75,0.0,0,0,0,0.125,12.75,0.0,0,0,0,0.0,12.700000000000001,0.0,0,0,0,0.125,12.8,0.0,0,0,0,kForward,kReverse,-86.99,2.19,2.27,0.039916992,-0.9849243,0.034240723,33.28,0.0,2.0,-7.9779205,12.700882,
586.2776700000001,true,true,true,0.125,12.75,0.0,0,0,0,0.125,12.700000000000001,0.0,0,0,0,0.125,12.700000000000001,0.0,0,0,0,0.125,12.75,0.0,0,0,0,0.125,12.75,0.0,0,0,0,0.0,12.700000000000001,0.0,0,0,0,0.125,12.8,0.0,0,0,0,kForward,kReverse,-86.99,2.19,2.27,0.037231445,-0.98132324,0.035888672,33.28,0.0,0.0,-7.9779205,12.700882,
586.298181,true,true,true,0.125,12.75,0.0,0,0,0,0.125,12.700000000000001,0.0,0,0,0,0.125,12.700000000000001,0.0,0,0,0,0.125,12.75,0.0,0,0,0,0.125,12.75,0.0,0,0,0,0.0,12.700000000000001,0.0,0,0,0,0.125,12.8,0.0,0,0,0,kForward,kReverse,-86.99,2.19,2.27,0.037719727,-0.98461914,0.039367676,33.28,0.0,0.0,-7.9779205,12.700882,
586.319379,true,true,true,0.125,12.75,0.0,0,0,0,0.125,12.700000000000001,0.0,0,0,0,0.125,12.700000000000001,0.0,0,0,0,0.125,12.75,0.0,0,0,0,0.125,12.75,0.0,0,0,0,0.0,12.700000000000001,0.0,0,0,0,0.125,12.8,0.0,0,0,0,kForward,kReverse,-86.99,2.19,2.27,0.040283203,-0.98291016,0.036132812,33.28,0.0,2.0,-7.9779205,12.700882,
586.344732,true,true,true,0.125,12.75,0.0,0,0,0,0.125,12.700000000000001,0.0,0,0,0,0.125,12.700000000000001,0.0,0,0,0,0.125,12.75,0.0,0,0,0,0.0,12.75,0.0,0,0,0,0.0,12.700000000000001,0.0,0,0,0,0.125,12.8,0.0,0,0,0,kForward,kReverse,-86.99,2.19,2.27,0.036132812,-0.9822998,0.028503418,33.28,0.0,-1.0,-7.9779205,12.700882,
586.365883,true,true,true,0.125,12.75,0.0,0,0,0,0.125,12.700000000000001,0.0,0,0,0,0.125,12.700000000000001,0.0,0,0,0,0.125,12.75,0.0,0,0,0,0.0,12.75,0.0,0,0,0,0.0,12.700000000000001,0.0,0,0,0,0.125,12.8,0.0,0,0,0,kForward,kReverse,-86.99,2.19,2.27,0.03967285,-0.9824219,0.034484863,33.28,0.0,1.0,-7.9779205,12.700882,
586.388018,true,true,true,0.125,12.75,0.0,0,0,0,0.125,12.700000000000001,0.0,0,0,0,0.125,12.700000000000001,0.0,0,0,0,0.125,12.75,0.0,0,0,0,0.0,12.75,0.0,0,0,0,0.0,12.700000000000001,0.0,0,0,0,0.125,12.8,0.0,0,0,0,kForward,kReverse,-86.99,2.19,2.27,0.032958984,-0.98217773,0.033447266,33.28,0.0,-4.0,-7.9779205,12.700882,
586.409426,true,true,true,0.125,12.75,0.0,0,0,0,0.125,12.700000000000001,0.0,0,0,0,0.125,12.700000000000001,0.0,0,0,0,0.125,12.75,0.0,0,0,0,0.0,12.75,0.0,0,0,0,0.0,12.700000000000001,0.0,0,0,0,0.125,12.8,0.0,0,0,0,kForward,kReverse,-86.99,2.19,2.27,0.0368042,-0.98339844,0.034240723,33.28,0.0,0.0,-7.9779205,12.700882,
586.433655,true,true,true,0.125,12.75,0.0,0,0,0,0.125,12.75,0.0,0,0,0,0.125,12.700000000000001,0.0,0,0,0,0.125,12.75,0.0,0,0,0,0.0,12.700000000000001,0.0,0,0,0,0.0,12.75,0.0,0,0,0,0.125,12.8,0.0,0,0,0,kForward,kReverse,-86.99,2.19,2.27,0.037841797,-0.9833374,0.032714844,33.28,0.0,0.0,-7.9779205,12.700882,
586.4529660000001,true,true,true,0.125,12.75,0.0,0,0,0,0.125,12.75,0.0,0,0,0,0.125,12.700000000000001,0.0,0,0,0,0.125,12.75,0.0,0,0,0,0.0,12.700000000000001,0.0,0,0,0,0.0,12.75,0.0,0,0,0,0.125,12.8,0.0,0,0,0,kForward,kReverse,-87.0,2.19,2.27,0.036376953,-0.98565674,0.032043457,33.28,0.0,-1.0,-7.9779205,12.700882,
586.4729260000001,true,true,true,0.125,12.75,0.0,0,0,0,0.125,12.75,0.0,0,0,0,0.125,12.700000000000001,0.0,0,0,0,0.125,12.75,0.0,0,0,0,0.0,12.700000000000001,0.0,0,0,0,0.0,12.75,0.0,0,0,0,0.125,12.8,0.0,0,0,0,kForward,kReverse,-87.0,2.19,2.27,0.038208008,-0.9846802,0.036865234,33.28,0.0,0.0,-7.9779205,12.700882,
586.4943059999999,true,true,true,0.125,12.75,0.0,0,0,0,0.125,12.75,0.0,0,0,0,0.125,12.700000000000001,0.0,0,0,0,0.125,12.75,0.0,0,0,0,0.0,12.700000000000001,0.0,0,0,0,0.0,12.75,0.0,0,0,0,0.125,12.8,0.0,0,0,0,kForward,kReverse,-87.0,2.19,2.27,0.037597656,-0.9866333,0.035583496,33.28,0.0,0.0,-7.9779205,12.700882,
586.514064,true,true,true,0.125,12.75,0.0,0,0,0,0.125,12.75,0.0,0,0,0,0.125,12.700000000000001,0.0,0,0,0,0.125,12.75,0.0,0,0,0,0.0,12.700000000000001,0.0,0,0,0,0.0,12.75,0.0,0,0,0,0.125,12.8,0.0,0,0,0,kForward,kReverse,-87.0,2.19,2.27,0.036010742,-0.9822998,0.0368042,33.28,0.0,-1.0,-7.9779205,12.700882,
586.535621,true,true,true,0.125,12.75,0.0,0,0,0,0.125,12.75,0.0,0,0,0,0.125,12.700000000000001,0.0,0,0,0,0.125,12.75,0.0,0,0,0,0.125,12.700000000000001,0.0,0,0,0,0.0,12.75,0.0,0,0,0,0.125,12.8,0.0,0,0,0,kForward,kReverse,-87.0,2.19,2.27,0.039367676,-0.9831543,0.030700684,33.28,0.0,1.0,-7.9779205,12.700882,
586.5570740000001,true,true,true,0.125,12.75,0.0,0,0,0,0.125,12.75,0.0,0,0,0,0.125,12.700000000000001,0.0,0,0,0,0.125,12.75,0.0,0,0,0,0.125,12.700000000000001,0.0,0,0,0,0.0,12.75,0.0,0,0,0,0.125,12.8,0.0,0,0,0,kForward,kReverse,-87.0,2.19,2.27,0.035705566,-0.98376465,0.036010742,33.28,0.0,-2.0,-7.9779205,12.700882,
586.579976,true,true,true,0.125,12.75,0.0,0,0,0,0.125,12.75,0.0,0,0,0,0.125,12.700000000000001,0.0,0,0,0,0.125,12.75,0.0,0,0,0,0.125,12.75,0.0,0,0,0,0.0,12.700000000000001,0.0,0,0,0,0.125,12.8,0.0,0,0,0,kForward,kReverse,-87.0,2.19,2.27,0.038635254,-0.9840698,0.038635254,33.28,0.0,0.0,-7.9779205,12.700882,
586.613824,true,true,true,0.125,12.75,0.0,0,0,0,0.125,12.75,0.0,0,0,0,0.125,12.700000000000001,0.0,0,0,0,0.125,12.75,0.0,0,0,0,0.125,12.75,0.0,0,0,0,0.0,12.700000000000001,0.0,0,0,0,0.125,12.8,0.0,0,0,0,kForward,kReverse,-87.0,2.19,2.27,0.0368042,-0.9829712,0.0357666,33.28,0.0,0.0,-7.9779205,12.700882,
586.6380700000001,true,true,true,0.125,12.75,0.0,0,0,0,0.125,12.75,0.0,0,0,0,0.125,12.700000000000001,0.0,0,0,0,0.125,12.75,0.0,0,0,0,0.125,12.75,0.0,0,0,0,0.0,12.700000000000001,0.0,0,0,0,0.125,12.8,0.0,0,0,0,kForward,kReverse,-87.0,2.19,2.27,0.03387451,-0.98291016,0.032470703,33.28,0.0,-3.0,-7.9779205,12.700882,
586.661009,true,true,true,0.125,12.75,0.0,0,0,0,0.125,12.75,0.0,0,0,0,0.125,12.700000000000001,0.0,0,0,0,0.125,12.75,0.0,0,0,0,0.0,12.75,0.0,0,0,0,0.0,12.700000000000001,0.0,0,0,0,0.125,12.8,0.0,0,0,0,kForward,kReverse,-87.0,2.18,2.26,0.040161133,-0.9844971,0.033813477,33.28,0.0,2.0,-7.9779205,12.700882,
586.6878270000001,true,true,true,0.125,12.75,0.0,0,0,0,0.125,12.75,0.0,0,0,0,0.125,12.700000000000001,0.0,0,0,0,0.125,12.75,0.0,0,0,0,0.0,12.75,0.0,0,0,0,0.0,12.700000000000001,0.0,0,0,0,0.125,12.8,0.0,0,0,0,kForward,kReverse,-87.0,2.18,2.26,0.038330078,-0.9842529,0.038757324,33.28,0.0,0.0,-7.9779205,12.700882,
586.7115620000001,true,true,true,0.125,12.75,0.0,0,0,0,0.125,12.75,0.0,0,0,0,0.125,12.700000000000001,0.0,0,0,0,0.125,12.75,0.0,0,0,0,0.0,12.75,0.0,0,0,0,0.0,12.700000000000001,0.0,0,0,0,0.125,12.8,0.0,0,0,0,kForward,kReverse,-87.0,2.18,2.26,0.04034424,-0.9844971,0.039794922,33.28,0.0,2.0,-7.9779205,12.700882,
586.7350580000001,true,true,true,0.125,12.75,0.0,0,0,0,0.125,12.75,0.0,0,0,0,0.125,12.700000000000001,0.0,0,0,0,0.125,12.75,0.0,0,0,0,0.0,12.75,0.0,0,0,0,0.0,12.700000000000001,0.0,0,0,0,0.125,12.8,0.0,0,0,0,kForward,kReverse,-87.0,2.19,2.27,0.04034424,-0.9838867,0.034362793,33.28,0.0,2.0,-7.9779205,12.700882,
586.7560730000001,true,true,true,0.125,12.700000000000001,0.0,0,0,0,0.125,12.75,0.0,0,0,0,0.125,12.700000000000001,0.0,0,0,0,0.125,12.75,0.0,0,0,0,0.0,12.75,0.0,0,0,0,0.0,12.700000000000001,0.0,0,0,0,0.125,12.8,0.0,0,0,0,kForward,kReverse,-87.0,2.19,2.27,0.03503418,-0.9828491,0.036865234,33.27,0.0,-2.0,-7.9779205,12.700882,
586.7755290000001,true,true,true,0.125,12.700000000000001,0.0,0,0,0,0.125,12.75,0.0,0,0,0,0.125,12.700000000000001,0.0,0,0,0,0.125,12.75,0.0,0,0,0,0.0,12.75,0.0,0,0,0,0.0,12.700000000000001,0.0,0,0,0,0.125,12.8,0.0,0,0,0,kForward,kReverse,-87.0,2.19,2.27,0.042053223,-0.9822998,0.032226562,33.27,0.0,4.0,-7.9779205,12.700882,
586.795956,true,true,true,0.125,12.700000000000001,0.0,0,0,0,0.125,12.75,0.0,0,0,0,0.125,12.700000000000001,0.0,0,0,0,0.125,12.75,0.0,0,0,0,0.0,12.75,0.0,0,0,0,0.0,12.700000000000001,0.0,0,0,0,0.125,12.8,0.0,0,0,0,kForward,kReverse,-87.0,2.19,2.27,0.03918457,-0.9855957,0.034423828,33.27,0.0,1.0,-7.9779205,12.700882,
586.816445,true,true,true,0.125,12.700000000000001,0.0,0,0,0,0.125,12.75,0.0,0,0,0,0.125,12.700000000000001,0.0,0,0,0,0.125,12.75,0.0,0,0,0,0.125,12.75,0.0,0,0,0,0.0,12.700000000000001,0.0,0,0,0,0.125,12.8,0.0,0,0,0,kForward,kReverse,-86.99,2.2,2.28,0.038208008,-0.98358154,0.034973145,33.27,0.0,0.0,-7.9779205,12.700882,
586.835939,true,true,true,0.125,12.700000000000001,0.0,0,0,0,0.125,12.75,0.0,0,0,0,0.125,12.700000000000001,0.0,0,0,0,0.125,12.75,0.0,0,0,0,0.125,12.75,0.0,0,0,0,0.0,12.700000000000001,0.0,0,0,0,0.125,12.8,0.0,0,0,0,kForward,kReverse,-86.99,2.2,2.28,0.038146973,-0.9871216,0.034973145,33.27,0.0,0.0,-7.9779205,12.700882,
586.8574160000001,true,true,true,0.125,12.700000000000001,0.0,0,0,0,0.125,12.75,0.0,0,0,0,0.125,12.700000000000001,0.0,0,0,0,0.125,12.75,0.0,0,0,0,0.125,12.75,0.0,0,0,0,0.0,12.700000000000001,0.0,0,0,0,0.125,12.8,0.0,0,0,0,kForward,kReverse,-86.99,2.2,2.28,0.036071777,-0.9841919,0.034362793,33.27,0.0,-1.0,-7.9779205,12.700882,
586.880395,true,true,true,0.125,12.700000000000001,0.0,0,0,0,0.125,12.75,0.0,0,0,0,0.125,12.700000000000001,0.0,0,0,0,0.125,12.75,0.0,0,0,0,0.125,12.75,0.0,0,0,0,0.0,12.700000000000001,0.0,0,0,0,0.125,12.8,0.0,0,0,0,kForward,kReverse,-86.99,2.2,2.28,0.04156494,-0.98535156,0.035095215,33.27,0.0,3.0,-7.9779205,12.700882,
586.902669,true,true,true,0.125,12.75,0.0,0,0,0,0.125,12.75,0.0,0,0,0,0.125,12.700000000000001,0.0,0,0,0,0.125,12.75,0.0,0,0,0,0.0,12.700000000000001,0.0,0,0,0,0.0,12.700000000000001,0.0,0,0,0,0.125,12.8,0.0,0,0,0,kForward,kReverse,-86.99,2.2,2.28,0.032714844,-0.9822998,0.03375244,33.27,0.0,-5.0,-7.9779205,12.700882,
586.927924,true,true,true,0.125,12.75,0.0,0,0,0,0.125,12.75,0.0,0,0,0,0.125,12.700000000000001,0.0,0,0,0,0.125,12.75,0.0,0,0,0,0.0,12.700000000000001,0.0,0,0,0,0.0,12.700000000000001,0.0,0,0,0,0.125,12.8,0.0,0,0,0,kForward,kReverse,-86.99,2.2,2.28,0.03845215,-0.9818115,0.034484863,33.27,0.0,0.0,-7.9779205,12.700882,
586.951858,true,true,true,0.125,12.75,0.0,0,0,0,0.125,12.75,0.0,0,0,0,0.125,12.700000000000001,0.0,0,0,0,0.125,12.75,0.0,0,0,0,0.0,12.700000000000001,0.0,0,0,0,0.0,12.700000000000001,0.0,0,0,0,0.125,12.8,0.0,0,0,0,kForward,kReverse,-86.99,2.2,2.28,0.039916992,-0.9835205,0.038208008,33.27,0.0,2.0,-7.9779205,12.700882,
586.9732730000001,true,true,true,0.125,12.75,0.0,0,0,0,0.125,12.75,0.0,0,0,0,0.125,12.700000000000001,0.0,0,0,0,0.125,12.75,0.0,0,0,0,0.0,12.700000000000001,0.0,0,0,0,0.0,12.700000000000001,0.0,0,0,0,0.125,12.8,0.0,0,0,0,kForward,kReverse,-86.99,2.2,2.28,0.038269043,-0.9824219,0.036010742,33.27,0.0,0.0,-7.9779205,12.700882,
586.9952710000001,true,true,true,0.125,12.75,0.0,0,0,0,0.125,12.75,0.0,0,0,0,0.125,12.700000000000001,0.0,0,0,0,0.125,12.75,0.0,0,0,0,0.0,12.700000000000001,0.0,0,0,0,0.0,12.700000000000001,0.0,0,0,0,0.125,12.8,0.0,0,0,0,kForward,kReverse,-86.99,2.2,2.28,0.040222168,-0.9833374,0.036621094,33.27,0.0,2.0,-7.9779205,12.700882,
587.016821,true,true,true,0.125,12.75,0.0,0,0,0,0.125,12.75,0.0,0,0,0,0.125,12.700000000000001,0.0,0,0,0,0.125,12.75,0.0,0,0,0,0.125,12.700000000000001,0.0,0,0,0,0.0,12.700000000000001,0.0,0,0,0,0.125,12.8,0.0,0,0,0,kForward,kReverse,-86.99,2.2,2.28,0.040222168,-0.98236084,0.033081055,33.27,0.0,2.0,-7.9779205,12.700882,
587.037185,true,true,true,0.125,12.75,0.0,0,0,0,0.125,12.75,0.0,0,0,0,0.125,12.700000000000001,0.0,0,0,0,0.125,12.75,0.0,0,0,0,0.125,12.700000000000001,0.0,0,0,0,0.0,12.700000000000001,0.0,0,0,0,0.125,12.8,0.0,0,0,0,kForward,kReverse,-86.99,2.2,2.28,0.038757324,-0.9840698,0.0335083,33.27,0.0,0.0,-7.9779205,12.700882,
587.0563440000001,true,true,true,0.125,12.75,0.0,0,0,0,0.125,12.75,0.0,0,0,0,0.125,12.700000000000001,0.0,0,0,0,0.125,12.75,0.0,0,0,0,0.125,12.700000000000001,0.0,0,0,0,0.0,12.700000000000001,0.0,0,0,0,0.125,12.8,0.0,0,0,0,kForward,kReverse,-86.99,2.2,2.28,0.03955078,-0.9845581,0.03869629,33.27,0.0,1.0,-7.9779205,12.700882,
587.0794450000001,true,true,true,0.125,12.700000000000001,0.0,0,0,0,0.125,12.75,0.0,0,0,0,0.125,12.700000000000001,0.0,0,0,0,0.125,12.75,0.0,0,0,0,0.125,12.700000000000001,0.0,0,0,0,0.0,12.700000000000001,0.0,0,0,0,0.125,12.8,0.0,0,0,0,kForward,kReverse,-86.99,2.2,2.28,0.03881836,-0.9793091,0.039489746,33.27,0.0,1.0,-7.9779205,12.700882,
587.1019100000001,true,true,true,0.125,12.700000000000001,0.0,0,0,0,0.125,12.75,0.0,0,0,0,0.125,12.700000000000001,0.0,0,0,0,0.125,12.75,0.0,0,0,0,0.125,12.700000000000001,0.0,0,0,0,0.0,12.700000000000001,0.0,0,0,0,0.125,12.8,0.0,0,0,0,kForward,kReverse,-86.98,2.21,2.29,0.03692627,-0.9810791,0.030883789,33.27,0.0,-1.0,-7.9779205,12.700882,
587.120919,true,true,true,0.125,12.700000000000001,0.0,0,0,0,0.125,12.75,0.0,0,0,0,0.125,12.700000000000001,0.0,0,0,0,0.125,12.75,0.0,0,0,0,0.125,12.700000000000001,0.0,0,0,0,0.0,12.700000000000001,0.0,0,0,0,0.125,12.8,0.0,0,0,0,kForward,kReverse,-86.99,2.2,2.28,0.035705566,-0.9810791,0.03955078,33.27,0.0,-1.0,-7.9779205,12.700882,
587.1453740000001,true,true,true,0.125,12.700000000000001,0.0,0,0,0,0.125,12.75,0.0,0,0,0,0.125,12.700000000000001,0.0,0,0,0,0.125,12.75,0.0,0,0,0,0.125,12.700000000000001,0.0,0,0,0,0.0,12.700000000000001,0.0,0,0,0,0.125,12.8,0.0,0,0,0,kForward,kReverse,-86.99,2.2,2.28,0.036132812,-0.98205566,0.038269043,33.27,0.0,-1.0,-7.9779205,12.700882,
587.169312,true,true,true,0.125,12.700000000000001,0.0,0,0,0,0.125,12.75,0.0,0,0,0,0.125,12.700000000000001,0.0,0,0,0,0.125,12.75,0.0,0,0,0,0.125,12.700000000000001,0.0,0,0,0,0.0,12.700000000000001,0.0,0,0,0,0.125,12.8,0.0,0,0,0,kForward,kReverse,-86.99,2.2,2.28,0.03845215,-0.98321533,0.03375244,33.27,0.0,0.0,-7.9779205,12.700882,
587.194382,true,true,true,0.125,12.700000000000001,0.0,0,0,0,0.125,12.75,0.0,0,0,0,0.125,12.700000000000001,0.0,0,0,0,0.125,12.75,0.0,0,0,0,0.125,12.700000000000001,0.0,0,0,0,0.0,12.700000000000001,0.0,0,0,0,0.125,12.8,0.0,0,0,0,kForward,kReverse,-86.99,2.2,2.28,0.03765869,-0.9812622,0.027832031,33.27,0.0,0.0,-7.9779205,12.700882,
587.218514,true,true,true,0.125,12.75,0.0,0,0,0,0.125,12.75,0.0,0,0,0,0.125,12.700000000000001,0.0,0,0,0,0.125,12.75,0.0,0,0,0,0.125,12.75,0.0,0,0,0,0.0,12.75,0.0,0,0,0,0.125,12.8,0.0,0,0,0,kForward,kReverse,-86.99,2.2,2.28,0.038269043,-0.9846802,0.034179688,33.27,0.0,0.0,-7.9779205,12.700882,
587.24689,true,true,true,0.125,12.75,0.0,0,0,0,0.125,12.75,0.0,0,0,0,0.125,12.700000000000001,0.0,0,0,0,0.125,12.75,0.0,0,0,0,0.125,12.75,0.0,0,0,0,0.0,12.75,0.0,0,0,0,0.125,12.8,0.0,0,0,0,kForward,kReverse,-86.99,2.2,2.28,0.039489746,-0.9837036,0.035583496,33.27,0.0,1.0,-7.9779205,12.700882,
587.272199,true,true,true,0.125,12.75,0.0,0,0,0,0.125,12.75,0.0,0,0,0,0.125,12.700000000000001,0.0,0,0,0,0.125,12.75,0.0,0,0,0,0.125,12.75,0.0,0,0,0,0.0,12.75,0.0,0,0,0,0.125,12.8,0.0,0,0,0,kForward,kReverse,-86.99,2.2,2.28,0.04168701,-0.98205566,0.032958984,33.28,0.0,3.0,-7.9779205,12.700882,
587.294853,true,true,true,0.125,12.75,0.0,0,0,0,0.125,12.75,0.0,0,0,0,0.125,12.700000000000001,0.0,0,0,0,0.125,12.75,0.0,0,0,0,0.125,12.75,0.0,0,0,0,0.0,12.75,0.0,0,0,0,0.125,12.8,0.0,0,0,0,kForward,kReverse,-86.98,2.21,2.29,0.038330078,-0.9848633,0.034606934,33.28,0.0,0.0,-7.9779205,12.700882,
587.3157490000001,true,true,true,0.125,12.75,0.0,0,0,0,0.125,12.75,0.0,0,0,0,0.125,12.700000000000001,0.0,0,0,0,0.125,12.75,0.0,0,0,0,0.125,12.75,0.0,0,0,0,0.0,12.75,0.0,0,0,0,0.125,12.8,0.0,0,0,0,kForward,kReverse,-86.98,2.21,2.29,0.037475586,-0.9831543,0.03491211,33.28,0.0,0.0,-7.9779205,12.700882,
587.336956,true,true,true,0.125,12.75,0.0,0,0,0,0.125,12.75,0.0,0,0,0,0.125,12.700000000000001,0.0,0,0,0,0.125,12.75,0.0,0,0,0,0.125,12.75,0.0,0,0,0,0.0,12.75,0.0,0,0,0,0.125,12.8,0.0,0,0,0,kForward,kReverse,-86.99,2.2,2.28,0.038269043,-0.9824219,0.043945312,33.28,0.0,0.0,-7.9779205,12.700882,
587.3608550000001,true,true,true,0.125,12.75,0.0,0,0,0,0.125,12.75,0.0,0,0,0,0.125,12.700000000000001,0.0,0,0,0,0.125,12.75,0.0,0,0,0,0.125,12.75,0.0,0,0,0,0.0,12.75,0.0,0,0,0,0.125,12.8,0.0,0,0,0,kForward,kReverse,-86.98,2.2,2.28,0.035705566,-0.9840698,0.03112793,33.28,0.0,-2.0,-7.9779205,12.700882,
587.380031,true,true,true,0.125,12.75,0.0,0,0,0,0.125,12.75,0.0,0,0,0,0.125,12.700000000000001,0.0,0,0,0,0.125,12.75,0.0,0,0,0,0.125,12.700000000000001,0.0,0,0,0,0.0,12.700000000000001,0.0,0,0,0,0.125,12.8,0.0,0,0,0,kForward,kReverse,-86.99,2.2,2.28,0.035461426,-0.98205566,0.03253174,33.28,0.0,-2.0,-7.9779205,12.700882,
587.4018010000001,true,true,true,0.125,12.75,0.0,0,0,0,0.125,12.75,0.0,0,0,0,0.125,12.700000000000001,0.0,0,0,0,0.125,12.75,0.0,0,0,0,0.125,12.700000000000001,0.0,0,0,0,0.0,12.700000000000001,0.0,0,0,0,0.125,12.8,0.0,0,0,0,kForward,kReverse,-86.99,2.2,2.28,0.036010742,-0.9840088,0.033813477,33.28,0.0,-1.0,-7.9779205,12.700882,
587.42317,true,true,true,0.125,12.75,0.0,0,0,0,0.125,12.75,0.0,0,0,0,0.125,12.700000000000001,0.0,0,0,0,0.125,12.75,0.0,0,0,0,0.125,12.700000000000001,0.0,0,0,0,0.0,12.700000000000001,0.0,0,0,0,0.125,12.8,0.0,0,0,0,kForward,kReverse,-86.99,2.2,2.28,0.03692627,-0.98461914,0.034057617,33.28,0.0,-1.0,-7.9779205,12.700882,
587.4508420000001,true,true,true,0.125,12.75,0.0,0,0,0,0.125,12.75,0.0,0,0,0,0.125,12.700000000000001,0.0,0,0,0,0.125,12.75,0.0,0,0,0,0.125,12.700000000000001,0.0,0,0,0,0.0,12.700000000000001,0.0,0,0,0,0.125,12.8,0.0,0,0,0,kForward,kReverse,-86.99,2.2,2.28,0.038085938,-0.9821167,0.0368042,33.28,0.0,0.0,-7.9779205,12.700882,
587.471454,true,true,true,0.125,12.75,0.0,0,0,0,0.125,12.75,0.0,0,0,0,0.125,12.700000000000001,0.0,0,0,0,0.125,12.75,0.0,0,0,0,0.125,12.700000000000001,0.0,0,0,0,0.0,12.700000000000001,0.0,0,0,0,0.125,12.8,0.0,0,0,0,kForward,kReverse,-86.99,2.2,2.28,0.039245605,-0.9830322,0.032409668,33.28,0.0,1.0,-7.9779205,12.700882,
587.490797,true,true,true,0.125,12.75,0.0,0,0,0,0.125,12.75,0.0,0,0,0,0.125,12.700000000000001,0.0,0,0,0,0.125,12.75,0.0,0,0,0,0.125,12.700000000000001,0.0,0,0,0,0.0,12.700000000000001,0.0,0,0,0,0.125,12.8,0.0,0,0,0,kForward,kReverse,-86.99,2.2,2.28,0.039367676,-0.984375,0.030090332,33.28,0.0,1.0,-7.9779205,12.700882,
587.511688,true,true,true,0.125,12.75,0.0,0,0,0,0.125,12.75,0.0,0,0,0,0.125,12.700000000000001,0.0,0,0,0,0.125,12.75,0.0,0,0,0,0.125,12.700000000000001,0.0,0,0,0,0.0,12.700000000000001,0.0,0,0,0,0.125,12.8,0.0,0,0,0,kForward,kReverse,-86.99,2.2,2.28,0.04095459,-0.98431396,0.03765869,33.28,0.0,3.0,-7.9779205,12.700882,
587.531603,true,true,true,0.125,12.75,0.0,0,0,0,0.125,12.75,0.0,0,0,0,0.125,12.700000000000001,0.0,0,0,0,0.125,12.75,0.0,0,0,0,0.125,12.700000000000001,0.0,0,0,0,0.0,12.700000000000001,0.0,0,0,0,0.125,12.8,0.0,0,0,0,kForward,kReverse,-86.98,2.2,2.28,0.034118652,-0.9812622,0.03729248,33.28,0.0,-3.0,-7.9779205,12.700882,
587.555018,true,true,true,0.125,12.75,0.0,0,0,0,0.125,12.75,0.0,0,0,0,0.125,12.700000000000001,0.0,0,0,0,0.125,12.75,0.0,0,0,0,0.0,12.700000000000001,0.0,0,0,0,0.0,12.700000000000001,0.0,0,0,0,0.125,12.8,0.0,0,0,0,kForward,kReverse,-86.99,2.2,2.28,0.039123535,-0.979187,0.030029297,33.28,0.0,1.0,-7.9779205,12.700882,
587.5752950000001,true,true,true,0.125,12.75,0.0,0,0,0,0.125,12.75,0.0,0,0,0,0.125,12.700000000000001,0.0,0,0,0,0.125,12.75,0.0,0,0,0,0.0,12.700000000000001,0.0,0,0,0,0.0,12.700000000000001,0.0,0,0,0,0.125,12.8,0.0,0,0,0,kForward,kReverse,-86.99,2.2,2.28,0.038024902,-0.98327637,0.037109375,33.28,0.0,0.0,-7.9779205,12.700882,
587.5966540000001,true,true,true,0.125,12.75,0.0,0,0,0,0.125,12.75,0.0,0,0,0,0.125,12.700000000000001,0.0,0,0,0,0.125,12.75,0.0,0,0,0,0.125,12.700000000000001,0.0,0,0,0,0.0,12.700000000000001,0.0,0,0,0,0.125,12.8,0.0,0,0,0,kForward,kReverse,-86.99,2.2,2.28,0.038208008,-0.98553467,0.03515625,33.28,0.0,0.0,-7.9779205,12.700882,
587.616937,true,true,true,0.125,12.75,0.0,0,0,0,0.125,12.75,0.0,0,0,0,0.125,12.700000000000001,0.0,0,0,0,0.125,12.75,0.0,0,0,0,0.125,12.700000000000001,0.0,0,0,0,0.0,12.700000000000001,0.0,0,0,0,0.125,12.8,0.0,0,0,0,kForward,kReverse,-86.98,2.2,2.28,0.03564453,-0.9854126,0.038879395,33.28,0.0,-2.0,-7.9779205,12.700882,
587.6371350000001,true,true,true,0.125,12.75,0.0,0,0,0,0.125,12.75,0.0,0,0,0,0.125,12.700000000000001,0.0,0,0,0,0.125,12.75,0.0,0,0,0,0.125,12.700000000000001,0.0,0,0,0,0.0,12.700000000000001,0.0,0,0,0,0.125,12.8,0.0,0,0,0,kForward,kReverse,-86.98,2.2,2.28,0.037597656,-0.98394775,0.03265381,33.28,0.0,0.0,-7.9779205,12.700882,
587.658135,true,true,true,0.125,12.75,0.0,0,0,0,0.125,12.75,0.0,0,0,0,0.125,12.700000000000001,0.0,0,0,0,0.125,12.75,0.0,0,0,0,0.125,12.700000000000001,0.0,0,0,0,0.0,12.700000000000001,0.0,0,0,0,0.125,12.8,0.0,0,0,0,kForward,kReverse,-86.98,2.2,2.28,0.040771484,-0.9822998,0.03375244,33.28,0.0,2.0,-7.9779205,12.700882,
587.692623,true,true,true,0.125,12.75,0.0,0,0,0,0.125,12.75,0.0,0,0,0,0.125,12.700000000000001,0.0,0,0,0,0.125,12.75,0.0,0,0,0,0.0,12.700000000000001,0.0,0,0,0,0.0,12.700000000000001,0.0,0,0,0,0.125,12.8,0.0,0,0,0,kForward,kReverse,-86.99,2.2,2.28,0.03967285,-0.98187256,0.039245605,33.28,0.0,1.0,-7.9779205,12.700882,
587.717672,true,true,true,0.125,12.75,0.0,0,0,0,0.125,12.75,0.0,0,0,0,0.125,12.700000000000001,0.0,0,0,0,0.125,12.75,0.0,0,0,0,0.0,12.700000000000001,0.0,0,0,0,0.0,12.700000000000001,0.0,0,0,0,0.125,12.8,0.0,0,0,0,kForward,kReverse,-86.99,2.2,2.28,0.035217285,-0.9830322,0.031066895,33.28,0.0,-2.0,-7.9779205,12.700882,
587.74074,true,true,true,0.125,12.75,0.0,0,0,0,0.125,12.75,0.0,0,0,0,0.125,12.700000000000001,0.0,0,0,0,0.125,12.75,0.0,0,0,0,0.0,12.700000000000001,0.0,0,0,0,0.0,12.700000000000001,0.0,0,0,0,0.125,12.8,0.0,0,0,0,kForward,kReverse,-86.99,2.2,2.28,0.035217285,-0.9830322,0.031066895,33.28,0.0,-2.0,-7.9779205,12.700882,
587.765299,true,true,true,0.125,12.75,0.0,0,0,0,0.125,12.75,0.0,0,0,0,0.125,12.700000000000001,0.0,0,0,0,0.125,12.75,0.0,0,0,0,0.125,12.700000000000001,0.0,0,0,0,0.0,12.700000000000001,0.0,0,0,0,0.125,12.8,0.0,0,0,0,kForward,kReverse,-86.98,2.21,2.29,0.04071045,-0.9834595,0.03375244,33.28,0.0,2.0,-7.9779205,12.700882,
587.792508,true,true,true,0.125,12.75,0.0,0,0,0,0.125,12.75,0.0,0,0,0,0.125,12.700000000000001,0.0,0,0,0,0.125,12.75,0.0,0,0,0,0.125,12.700000000000001,0.0,0,0,0,0.0,12.700000000000001,0.0,0,0,0,0.125,12.8,0.0,0,0,0,kForward,kReverse,-86.98,2.21,2.29,0.039611816,-0.9819946,0.04321289,33.25,0.0,1.0,-7.9779205,12.700882,
587.815341,true,true,true,0.125,12.75,0.0,0,0,0,0.125,12.75,0.0,0,0,0,0.125,12.700000000000001,0.0,0,0,0,0.125,12.75,0.0,0,0,0,0.125,12.700000000000001,0.0,0,0,0,0.0,12.700000000000001,0.0,0,0,0,0.125,12.8,0.0,0,0,0,kForward,kReverse,-86.98,2.21,2.29,0.040222168,-0.9835205,0.030761719,33.25,0.0,2.0,-7.9779205,12.700882,
587.8377790000001,true,true,true,0.125,12.75,0.0,0,0,0,0.125,12.75,0.0,0,0,0,0.125,12.700000000000001,0.0,0,0,0,0.125,12.75,0.0,0,0,0,0.125,12.700000000000001,0.0,0,0,0,0.0,12.700000000000001,0.0,0,0,0,0.125,12.8,0.0,0,0,0,kForward,kReverse,-86.99,2.2,2.28,0.037719727,-0.97979736,0.03881836,33.25,0.0,0.0,-7.9779205,12.700882,
587.8637510000001,true,true,true,0.125,12.75,0.0,0,0,0,0.125,12.75,0.0,0,0,0,0.125,12.700000000000001,0.0,0,0,0,0.125,12.75,0.0,0,0,0,0.125,12.700000000000001,0.0,0,0,0,0.0,12.700000000000001,0.0,0,0,0,0.125,12.8,0.0,0,0,0,kForward,kReverse,-86.99,2.2,2.28,0.037597656,-0.9863281,0.03564453,33.25,0.0,0.0,-7.9779205,12.700882,
587.8910430000001,true,true,true,0.125,12.75,0.0,0,0,0,0.125,12.75,0.0,0,0,0,0.125,12.700000000000001,0.0,0,0,0,0.125,12.75,0.0,0,0,0,0.125,12.700000000000001,0.0,0,0,0,0.0,12.700000000000001,0.0,0,0,0,0.125,12.8,0.0,0,0,0,kForward,kReverse,-86.99,2.2,2.28,0.033447266,-0.9819946,0.038146973,33.25,0.0,-4.0,-7.9779205,12.700882,
587.9107349999999,true,true,true,0.125,12.75,0.0,0,0,0,0.125,12.75,0.0,0,0,0,0.125,12.700000000000001,0.0,0,0,0,0.125,12.75,0.0,0,0,0,0.125,12.700000000000001,0.0,0,0,0,0.0,12.700000000000001,0.0,0,0,0,0.125,12.8,0.0,0,0,0,kForward,kReverse,-86.99,2.2,2.28,0.03869629,-0.9871826,0.039794922,33.25,0.0,0.0,-7.9779205,12.700882,
