timer,lineLeft,lineCenter,lineRight,LeftFrontCurrent,LeftFrontVoltage,LeftFrontValue,LeftFrontPosition,LeftFrontVelocity,LeftFrontFaults,LeftRearCurrent,LeftRearVoltage,LeftRearValue,LeftRearPosition,LeftRearVelocity,LeftRearFaults,RightFrontCurrent,RightFrontVoltage,RightFrontValue,RightFrontPosition,RightFrontVelocity,RightFrontFaults,RightRearCurrent,RightRearVoltage,RightRearValue,RightRearPosition,RightRearVelocity,RightRearFaults,LiftCurrent,LiftVoltage,LiftValue,LiftPosition,LiftVelocity,LiftFaults,WristCurrent,WristVoltage,WristValue,WristPosition,WristVelocity,WristFaults,RollerCurrent,RollerVoltage,RollerValue,RollerPosition,RollerVelocity,RollerFaults,PushersState,PivotsState,navx_Pitch,navx_Roll,navx_Yaw,navx_XAcc,navx_YAcc,navx_ZAcc,navx_Temp,navx_Bar,navx_Alt,navx_XDis,navx_YDis,
2238.760607,true,true,true,0.125,12.700000000000001,0.0,0,0,0,0.125,12.700000000000001,0.0,0,0,0,0.125,12.65,0.0,0,0,0,0.125,12.700000000000001,0.0,0,0,0,0.0,12.700000000000001,0.0,0,0,0,0.0,12.700000000000001,0.0,0,0,0,0.125,12.75,0.0,0,0,0,kOff,kReverse,-87.05,2.17,2.48,0.03894043,-0.9800415,0.039855957,34.03,0.0,2.0,-7.878708,13.978043,
2238.779738,true,true,true,0.125,12.700000000000001,0.0,0,0,0,0.125,12.700000000000001,0.0,0,0,0,0.125,12.65,0.0,0,0,0,0.125,12.700000000000001,0.0,0,0,0,0.0,12.700000000000001,0.0,0,0,0,0.0,12.700000000000001,0.0,0,0,0,0.125,12.75,0.0,0,0,0,kForward,kReverse,-87.05,2.17,2.48,0.036315918,-0.98547363,0.02960205,34.03,0.0,-1.0,-7.878708,13.978043,
2238.7970920000002,true,true,true,0.125,12.700000000000001,0.0,0,0,0,0.125,12.700000000000001,0.0,0,0,0,0.125,12.65,0.0,0,0,0,0.125,12.700000000000001,0.0,0,0,0,0.0,12.700000000000001,0.0,0,0,0,0.0,12.700000000000001,0.0,0,0,0,0.125,12.75,0.0,0,0,0,kReverse,kReverse,-87.06,2.16,2.47,0.03955078,-0.9312744,0.0075683594,34.03,0.0,0.0,-7.878708,13.978027,
2238.8170440000004,true,true,true,0.125,12.700000000000001,0.0,0,0,0,0.125,12.700000000000001,0.0,0,0,0,0.125,12.65,0.0,0,0,0,0.125,12.700000000000001,0.0,0,0,0,0.125,12.700000000000001,0.0,0,0,0,0.0,12.700000000000001,0.0,0,0,0,0.125,12.75,0.0,0,0,0,kReverse,kReverse,-87.05,2.15,2.46,0.10058594,-1.1156006,-0.010437012,34.03,0.0,50.0,-7.8786774,13.978043,
2238.8371810000003,true,true,true,0.125,12.700000000000001,0.0,0,0,0,0.125,12.700000000000001,0.0,0,0,0,0.125,12.65,0.0,0,0,0,0.125,12.700000000000001,0.0,0,0,0,0.125,12.700000000000001,0.0,0,0,0,0.0,12.700000000000001,0.0,0,0,0,0.125,12.75,0.0,0,0,0,kReverse,kReverse,-87.06,2.19,2.49,-0.13464355,-0.47253418,0.16766357,34.03,0.0,-127.0,-7.8786774,13.978134,
2238.857597,true,true,true,0.125,12.700000000000001,0.0,0,0,0,0.125,12.700000000000001,0.0,0,0,0,0.125,12.65,0.0,0,0,0,0.125,12.700000000000001,0.0,0,0,0,0.125,12.700000000000001,0.0,0,0,0,0.0,12.700000000000001,0.0,0,0,0,0.125,12.75,0.0,0,0,0,kReverse,kReverse,-87.04,2.18,2.49,0.008972168,-0.9454956,0.0014038086,34.03,0.0,-31.0,-7.8787994,13.978317,
2238.877199,true,true,true,0.125,12.700000000000001,0.0,0,0,0,0.125,12.700000000000001,0.0,0,0,0,0.125,12.65,0.0,0,0,0,0.125,12.700000000000001,0.0,0,0,0,0.125,12.700000000000001,0.0,0,0,0,0.0,12.700000000000001,0.0,0,0,0,0.125,12.75,0.0,0,0,0,kReverse,kReverse,-87.09,2.15,2.45,0.099853516,-0.8413086,0.12005615,34.03,0.0,81.0,-7.8789062,13.979095,
2238.8973340000002,true,true,true,0.125,12.3,0.0,0,0,0,0.125,12.3,0.0,0,0,0,0.125,12.3,0.0,0,0,0,0.125,12.35,0.0,0,0,0,0.125,12.35,0.0,0,0,0,0.0,12.700000000000001,0.0,0,0,0,0.125,12.35,0.0,0,0,0,kReverse,kReverse,-87.08,2.13,2.43,0.23309326,-1.2182617,0.3708496,34.03,0.0,234.0,-7.8786926,13.979813,
2238.917261,true,true,true,0.125,12.3,0.0,0,0,0,0.125,12.3,0.0,0,0,0,0.125,12.3,0.0,0,0,0,0.125,12.35,0.0,0,0,0,0.125,12.35,0.0,0,0,0,0.0,12.3,0.0,0,0,0,0.125,12.35,0.0,0,0,0,kReverse,kReverse,-87.04,2.16,2.47,0.18243408,-1.2218628,0.2845459,34.03,0.0,170.0,-7.8782043,13.980896,
2238.9373830000004,true,true,true,0.125,12.3,0.0,0,0,0,0.125,12.3,0.0,0,0,0,0.125,12.3,0.0,0,0,0,0.125,12.35,0.0,0,0,0,0.125,12.35,0.0,0,0,0,0.0,12.3,0.0,0,0,0,0.125,12.35,0.0,0,0,0,kReverse,kReverse,-87.02,2.2,2.51,-0.061279297,-1.1643066,0.21472168,34.03,0.0,-78.0,-7.877075,13.983658,
2238.9580250000004,true,true,true,0.125,12.3,0.0,0,0,0,0.125,12.3,0.0,0,0,0,0.125,12.3,0.0,0,0,0,0.125,12.35,0.0,0,0,0,0.125,12.35,0.0,0,0,0,0.0,12.3,0.0,0,0,0,0.125,12.35,0.0,0,0,0,kReverse,kReverse,-87.03,2.17,2.48,-0.07562256,-1.050415,0.12188721,34.03,0.0,-101.0,-7.876648,13.985321,
2238.9773630000004,true,true,true,0.125,12.3,0.0,0,0,0,0.125,12.3,0.0,0,0,0,0.125,12.3,0.0,0,0,0,0.125,12.35,0.0,0,0,0,0.125,12.35,0.0,0,0,0,0.0,12.3,0.0,0,0,0,0.125,12.35,0.0,0,0,0,kReverse,kReverse,-87.06,2.17,2.47,0.046447754,-1.0579834,0.024719238,34.03,0.0,4.0,-7.876129,13.988937,
2238.997301,true,true,true,0.125,12.3,0.0,0,0,0,0.125,12.3,0.0,0,0,0,0.125,12.3,0.0,0,0,0,0.125,12.35,0.0,0,0,0,0.125,12.35,0.0,0,0,0,0.0,12.3,0.0,0,0,0,0.125,12.35,0.0,0,0,0,kReverse,kReverse,-87.04,2.19,2.5,-0.0068359375,-0.72406006,-0.033996582,34.03,0.0,-43.0,-7.875931,13.990738,
2239.017236,true,true,true,0.125,12.3,0.0,0,0,0,0.125,12.3,0.0,0,0,0,0.125,12.3,0.0,0,0,0,0.125,12.35,0.0,0,0,0,0.0,12.35,0.0,0,0,0,0.0,12.3,0.0,0,0,0,0.125,12.35,0.0,0,0,0,kReverse,kReverse,-87.0,2.2,2.51,0.06616211,-0.66015625,-0.044006348,34.03,0.0,30.0,-7.8757324,13.992432,
2239.037443,true,true,true,0.125,12.3,0.0,0,0,0,0.125,12.3,0.0,0,0,0,0.125,12.3,0.0,0,0,0,0.125,12.35,0.0,0,0,0,0.0,12.35,0.0,0,0,0,0.0,12.3,0.0,0,0,0,0.125,12.35,0.0,0,0,0,kReverse,kReverse,-87.0,2.2,2.51,0.13745117,-0.81170654,-0.04486084,34.03,0.0,93.0,-7.875122,13.995361,
2239.057594,true,true,true,0.125,12.3,0.0,0,0,0,0.125,12.3,0.0,0,0,0,0.125,12.25,0.0,0,0,0,0.125,12.3,0.0,0,0,0,0.0,12.3,0.0,0,0,0,0.0,12.3,0.0,0,0,0,0.125,12.35,0.0,0,0,0,kReverse,kReverse,-86.98,2.2,2.52,0.0256958,-0.8427124,-0.2514038,34.03,0.0,-49.0,-7.8747406,13.996506,
2239.077552,true,true,true,0.125,12.3,0.0,0,0,0,0.125,12.3,0.0,0,0,0,0.125,12.25,0.0,0,0,0,0.125,12.3,0.0,0,0,0,0.125,12.3,0.0,0,0,0,0.0,12.3,0.0,0,0,0,0.125,12.35,0.0,0,0,0,kReverse,kReverse,-87.01,2.2,2.51,0.06109619,-0.92297363,-0.093444824,34.03,0.0,6.0,-7.8743744,13.99736,
2239.097268,true,true,true,0.125,12.3,0.0,0,0,0,0.125,12.3,0.0,0,0,0,0.125,12.25,0.0,0,0,0,0.125,12.3,0.0,0,0,0,0.125,12.3,0.0,0,0,0,0.0,12.3,0.0,0,0,0,0.125,12.35,0.0,0,0,0,kReverse,kReverse,-87.01,2.19,2.5,0.080566406,-1.0267334,-0.00970459,34.03,0.0,33.0,-7.873993,13.998093,
2239.117665,true,true,true,0.125,12.3,0.0,0,0,0,0.125,12.3,0.0,0,0,0,0.125,12.25,0.0,0,0,0,0.125,12.3,0.0,0,0,0,0.125,12.3,0.0,0,0,0,0.0,12.3,0.0,0,0,0,0.125,12.35,0.0,0,0,0,kReverse,kReverse,-87.05,2.17,2.47,0.12286377,-1.1965332,0.18023682,34.03,0.0,97.0,-7.87352,13.998871,
2239.137745,true,true,true,0.125,12.3,0.0,0,0,0,0.125,12.3,0.0,0,0,0,0.125,12.25,0.0,0,0,0,0.125,12.3,0.0,0,0,0,0.125,12.3,0.0,0,0,0,0.0,12.3,0.0,0,0,0,0.125,12.35,0.0,0,0,0,kReverse,kReverse,-87.03,2.19,2.5,0.097473145,-1.3220825,0.18884277,34.03,0.0,67.0,-7.87294,13.999832,
2239.157074,true,true,true,0.125,12.3,0.0,0,0,0,0.125,12.3,0.0,0,0,0,0.125,12.25,0.0,0,0,0,0.125,12.3,0.0,0,0,0,0.125,12.3,0.0,0,0,0,0.0,12.3,0.0,0,0,0,0.125,12.35,0.0,0,0,0,kReverse,kReverse,-87.03,2.17,2.48,-0.08453369,-1.1256714,0.17089844,34.03,0.0,-105.0,-7.8717346,14.002426,
2239.177713,true,true,true,0.125,12.3,0.0,0,0,0,0.125,12.3,0.0,0,0,0,0.125,12.25,0.0,0,0,0,0.125,12.3,0.0,0,0,0,0.125,12.3,0.0,0,0,0,0.0,12.3,0.0,0,0,0,0.125,12.35,0.0,0,0,0,kReverse,kReverse,-87.03,2.17,2.48,-0.12322998,-1.0383301,0.08709717,34.03,0.0,-153.0,-7.871338,14.003983,
2239.197473,true,true,true,0.125,12.3,0.0,0,0,0,0.125,12.3,0.0,0,0,0,0.125,12.25,0.0,0,0,0,0.125,12.3,0.0,0,0,0,0.0,12.3,0.0,0,0,0,0.0,12.3,0.0,0,0,0,0.125,12.35,0.0,0,0,0,kReverse,kReverse,-87.05,2.16,2.47,-0.046447754,-1.1293335,0.030151367,34.03,0.0,-89.0,-7.871109,14.0056,
2239.2171330000006,true,true,true,0.125,12.25,0.0,0,0,0,0.125,12.25,0.0,0,0,0,0.125,12.25,0.0,0,0,0,0.125,12.3,0.0,0,0,0,0.0,12.25,0.0,0,0,0,0.0,12.3,0.0,0,0,0,0.125,12.35,0.0,0,0,0,kReverse,kReverse,-87.05,2.15,2.46,0.020202637,-0.6992798,0.0068359375,34.0,0.0,-8.0,-7.8709106,14.008926,
2239.237129,true,true,true,0.125,12.25,0.0,0,0,0,0.125,12.25,0.0,0,0,0,0.125,12.25,0.0,0,0,0,0.125,12.3,0.0,0,0,0,0.0,12.25,0.0,0,0,0,0.0,12.25,0.0,0,0,0,0.125,12.35,0.0,0,0,0,kReverse,kReverse,-87.04,2.16,2.47,0.040527344,-0.60266113,-0.038024902,34.0,0.0,8.0,-7.8709106,14.010544,
2239.25786,true,true,true,0.125,12.25,0.0,0,0,0,0.125,12.25,0.0,0,0,0,0.125,12.25,0.0,0,0,0,0.125,12.3,0.0,0,0,0,0.125,12.25,0.0,0,0,0,0.0,12.25,0.0,0,0,0,0.125,12.35,0.0,0,0,0,kReverse,kReverse,-87.02,2.16,2.47,0.109802246,-0.7341919,-0.113464355,34.0,0.0,59.0,-7.870865,14.012024,
2239.2771840000005,true,true,true,0.125,12.25,0.0,0,0,0,0.125,12.25,0.0,0,0,0,0.125,12.25,0.0,0,0,0,0.125,12.3,0.0,0,0,0,0.125,12.25,0.0,0,0,0,0.0,12.25,0.0,0,0,0,0.125,12.35,0.0,0,0,0,kReverse,kReverse,-87.01,2.17,2.48,0.07507324,-0.83374023,-0.11651611,34.0,0.0,20.0,-7.8705597,14.014374,
2239.297234,true,true,true,0.125,12.25,0.0,0,0,0,0.125,12.25,0.0,0,0,0,0.125,12.25,0.0,0,0,0,0.125,12.3,0.0,0,0,0,0.125,12.25,0.0,0,0,0,0.0,12.25,0.0,0,0,0,0.125,12.35,0.0,0,0,0,kReverse,kReverse,-87.03,2.16,2.47,0.073913574,-0.93688965,0.012573242,34.0,0.0,34.0,-7.870331,14.015335,
2239.317122,true,true,true,0.125,12.25,0.0,0,0,0,0.125,12.25,0.0,0,0,0,0.125,12.25,0.0,0,0,0,0.125,12.3,0.0,0,0,0,0.0,12.25,0.0,0,0,0,0.0,12.25,0.0,0,0,0,0.125,12.35,0.0,0,0,0,kReverse,kReverse,-87.06,2.14,2.45,0.12634277,-1.3154907,0.119384766,34.0,0.0,87.0,-7.86969,14.017197,
2239.337063,true,true,true,0.125,12.25,0.0,0,0,0,0.125,12.25,0.0,0,0,0,0.125,12.25,0.0,0,0,0,0.125,12.3,0.0,0,0,0,0.0,12.25,0.0,0,0,0,0.0,12.25,0.0,0,0,0,0.125,12.35,0.0,0,0,0,kReverse,kReverse,-87.04,2.18,2.49,0.05621338,-1.345459,0.22076416,34.0,0.0,31.0,-7.869232,14.018311,
2239.35843,true,true,true,0.125,12.25,0.0,0,0,0,0.125,12.25,0.0,0,0,0,0.125,12.25,0.0,0,0,0,0.125,12.3,0.0,0,0,0,0.0,12.25,0.0,0,0,0,0.0,12.25,0.0,0,0,0,0.125,12.35,0.0,0,0,0,kReverse,kReverse,-87.05,2.18,2.48,-0.03741455,-1.083435,0.119384766,34.0,0.0,-65.0,-7.868805,14.019592,
2239.377456,true,true,true,0.125,12.25,0.0,0,0,0,0.125,12.25,0.0,0,0,0,0.125,12.25,0.0,0,0,0,0.125,12.3,0.0,0,0,0,0.125,12.25,0.0,0,0,0,0.0,12.25,0.0,0,0,0,0.125,12.35,0.0,0,0,0,kReverse,kReverse,-87.04,2.17,2.48,-0.0501709,-1.1085205,0.105407715,34.0,0.0,-81.0,-7.8682556,14.022736,
2239.3973220000003,true,true,true,0.125,12.25,0.0,0,0,0,0.125,12.25,0.0,0,0,0,0.125,12.25,0.0,0,0,0,0.125,12.3,0.0,0,0,0,0.125,12.25,0.0,0,0,0,0.0,12.25,0.0,0,0,0,0.125,12.35,0.0,0,0,0,kReverse,kReverse,-87.04,2.19,2.49,-0.035095215,-1.085022,0.0051879883,34.0,0.0,-80.0,-7.868149,14.024445,
2239.4172860000003,true,true,true,0.125,12.25,0.0,0,0,0,0.125,12.25,0.0,0,0,0,0.125,12.25,0.0,0,0,0,0.125,12.3,0.0,0,0,0,0.125,12.25,0.0,0,0,0,0.0,12.25,0.0,0,0,0,0.125,12.35,0.0,0,0,0,kReverse,kReverse,-87.04,2.18,2.49,0.019714355,-0.72369385,-0.0072021484,34.0,0.0,-12.0,-7.868088,14.026108,
2239.437359,true,true,true,0.125,12.25,0.0,0,0,0,0.125,12.25,0.0,0,0,0,0.125,12.25,0.0,0,0,0,0.125,12.3,0.0,0,0,0,0.125,12.25,0.0,0,0,0,0.0,12.25,0.0,0,0,0,0.125,12.35,0.0,0,0,0,kReverse,kReverse,-87.02,2.16,2.47,0.09082031,-0.7266846,-0.2253418,34.0,0.0,24.0,-7.8680573,14.029068,
2239.458196,true,true,true,0.125,12.25,0.0,0,0,0,0.125,12.25,0.0,0,0,0,0.125,12.25,0.0,0,0,0,0.125,12.3,0.0,0,0,0,0.125,12.25,0.0,0,0,0,0.0,12.25,0.0,0,0,0,0.125,12.35,0.0,0,0,0,kReverse,kReverse,-87.02,2.17,2.48,0.10296631,-0.8955078,-0.14630127,34.0,0.0,41.0,-7.867996,14.030136,
2239.4774070000003,true,true,true,0.125,12.25,0.0,0,0,0,0.125,12.25,0.0,0,0,0,0.125,12.25,0.0,0,0,0,0.125,12.3,0.0,0,0,0,0.125,12.25,0.0,0,0,0,0.0,12.25,0.0,0,0,0,0.125,12.35,0.0,0,0,0,kReverse,kReverse,-87.02,2.17,2.48,0.08087158,-0.83947754,-0.101989746,34.0,0.0,28.0,-7.8678894,14.030991,
2239.4972720000005,true,true,true,0.125,12.25,0.0,0,0,0,0.125,12.25,0.0,0,0,0,0.125,12.25,0.0,0,0,0,0.125,12.3,0.0,0,0,0,0.125,12.25,0.0,0,0,0,0.0,12.25,0.0,0,0,0,0.125,12.35,0.0,0,0,0,kReverse,kReverse,-87.03,2.15,2.46,0.09375,-1.0928345,0.11199951,34.0,0.0,63.0,-7.867447,14.032547,
2239.5171800000003,true,true,true,0.125,12.25,0.0,0,0,0,0.125,12.25,0.0,0,0,0,0.125,12.25,0.0,0,0,0,0.125,12.3,0.0,0,0,0,0.125,12.25,0.0,0,0,0,0.0,12.25,0.0,0,0,0,0.125,12.35,0.0,0,0,0,kReverse,kReverse,-87.04,2.15,2.46,0.13647461,-1.3511963,0.15454102,34.0,0.0,100.0,-7.8670807,14.033463,
2239.5372260000004,true,true,true,0.125,12.25,0.0,0,0,0,0.125,12.25,0.0,0,0,0,0.125,12.25,0.0,0,0,0,0.125,12.25,0.0,0,0,0,0.125,12.25,0.0,0,0,0,0.0,12.25,0.0,0,0,0,0.125,12.3,0.0,0,0,0,kReverse,kReverse,-87.04,2.17,2.48,0.019042969,-1.2780151,0.22210693,34.0,0.0,-2.0,-7.866638,14.034561,
2239.5583149999998,true,true,true,0.125,12.25,0.0,0,0,0,0.125,12.25,0.0,0,0,0,0.125,12.25,0.0,0,0,0,0.125,12.25,0.0,0,0,0,0.125,12.25,0.0,0,0,0,0.0,12.25,0.0,0,0,0,0.125,12.3,0.0,0,0,0,kReverse,kReverse,-87.04,2.17,2.48,-0.08642578,-1.0861206,0.1404419,34.0,0.0,-110.0,-7.865982,14.037308,
2239.577544,true,true,true,0.125,12.25,0.0,0,0,0,0.125,12.25,0.0,0,0,0,0.125,12.25,0.0,0,0,0,0.125,12.25,0.0,0,0,0,0.125,12.25,0.0,0,0,0,0.0,12.25,0.0,0,0,0,0.125,12.3,0.0,0,0,0,kReverse,kReverse,-87.05,2.17,2.48,-0.018615723,-1.1056519,0.12322998,34.0,0.0,-47.0,-7.865814,14.03891,
2239.59723,true,true,true,0.125,12.25,0.0,0,0,0,0.125,12.25,0.0,0,0,0,0.125,12.25,0.0,0,0,0,0.125,12.25,0.0,0,0,0,0.125,12.25,0.0,0,0,0,0.0,12.25,0.0,0,0,0,0.125,12.3,0.0,0,0,0,kReverse,kReverse,-87.03,2.18,2.49,0.0038452148,-0.63482666,0.02532959,34.0,0.0,-19.0,-7.8656616,14.042328,
2239.617423,true,true,true,0.125,12.25,0.0,0,0,0,0.125,12.25,0.0,0,0,0,0.125,12.25,0.0,0,0,0,0.125,12.25,0.0,0,0,0,0.0,12.25,0.0,0,0,0,0.0,12.25,0.0,0,0,0,0.125,12.3,0.0,0,0,0,kReverse,kReverse,-87.01,2.18,2.49,0.04888916,-0.6359863,-0.078186035,34.0,0.0,9.0,-7.8656616,14.043991,
2239.6373060000005,true,true,true,0.125,12.25,0.0,0,0,0,0.125,12.25,0.0,0,0,0,0.125,12.25,0.0,0,0,0,0.125,12.25,0.0,0,0,0,0.0,12.25,0.0,0,0,0,0.0,12.25,0.0,0,0,0,0.125,12.3,0.0,0,0,0,kReverse,kReverse,-87.0,2.17,2.49,0.10992432,-0.7791748,-0.26983643,34.0,0.0,34.0,-7.865631,14.04538,
2239.657829,true,true,true,0.125,12.25,0.0,0,0,0,0.125,12.25,0.0,0,0,0,0.125,12.25,0.0,0,0,0,0.125,12.25,0.0,0,0,0,0.0,12.25,0.0,0,0,0,0.0,12.25,0.0,0,0,0,0.125,12.3,0.0,0,0,0,kReverse,kReverse,-87.0,2.19,2.5,0.062683105,-0.86535645,-0.15924072,34.0,0.0,0.0,-7.8655853,14.047287,
2239.6770890000003,true,true,true,0.125,12.25,0.0,0,0,0,0.125,12.25,0.0,0,0,0,0.125,12.25,0.0,0,0,0,0.125,12.25,0.0,0,0,0,0.125,12.25,0.0,0,0,0,0.0,12.25,0.0,0,0,0,0.125,12.3,0.0,0,0,0,kReverse,kReverse,-87.02,2.16,2.47,0.13787842,-1.0577393,0.1171875,34.0,0.0,108.0,-7.865326,14.048111,
2239.697267,true,true,true,0.125,12.25,0.0,0,0,0,0.125,12.25,0.0,0,0,0,0.125,12.25,0.0,0,0,0,0.125,12.25,0.0,0,0,0,0.125,12.25,0.0,0,0,0,0.0,12.25,0.0,0,0,0,0.125,12.3,0.0,0,0,0,kReverse,kReverse,-87.02,2.16,2.47,0.0927124,-1.2022705,0.15808105,34.0,0.0,64.0,-7.865036,14.049057,
2239.717205,true,true,true,0.125,12.25,0.0,0,0,0,0.125,12.25,0.0,0,0,0,0.125,12.25,0.0,0,0,0,0.125,12.25,0.0,0,0,0,0.125,12.25,0.0,0,0,0,0.0,12.25,0.0,0,0,0,0.125,12.3,0.0,0,0,0,kReverse,kReverse,-87.02,2.18,2.49,-0.0033569336,-1.1624756,0.17980957,33.99,0.0,-26.0,-7.8642273,14.051468,
2239.73716,true,true,true,0.125,12.25,0.0,0,0,0,0.125,12.25,0.0,0,0,0,0.125,12.25,0.0,0,0,0,0.125,12.25,0.0,0,0,0,0.125,12.25,0.0,0,0,0,0.0,12.25,0.0,0,0,0,0.125,12.3,0.0,0,0,0,kReverse,kReverse,-87.02,2.18,2.49,-0.111450195,-1.0293579,0.097717285,33.99,0.0,-139.0,-7.863922,14.0529175,
2239.757791,true,true,true,0.125,12.25,0.0,0,0,0,0.125,12.25,0.0,0,0,0,0.125,12.25,0.0,0,0,0,0.125,12.25,0.0,0,0,0,0.125,12.25,0.0,0,0,0,0.0,12.25,0.0,0,0,0,0.125,12.3,0.0,0,0,0,kReverse,kReverse,-87.02,2.18,2.49,-0.07434082,-1.1906738,0.06817627,33.99,0.0,-114.0,-7.863785,14.054459,
2239.7773230000003,true,true,true,0.125,12.25,0.0,0,0,0,0.125,12.25,0.0,0,0,0,0.125,12.25,0.0,0,0,0,0.125,12.25,0.0,0,0,0,0.125,12.25,0.0,0,0,0,0.0,12.25,0.0,0,0,0,0.125,12.3,0.0,0,0,0,kReverse,kReverse,-87.03,2.18,2.49,-0.015930176,-0.7142334,0.046691895,33.99,0.0,-39.0,-7.863693,14.057831,
2239.79858,true,true,true,0.125,12.25,0.0,0,0,0,0.125,12.25,0.0,0,0,0,0.125,12.25,0.0,0,0,0,0.125,12.25,0.0,0,0,0,0.125,12.25,0.0,0,0,0,0.0,12.25,0.0,0,0,0,0.125,12.3,0.0,0,0,0,kReverse,kReverse,-87.01,2.18,2.49,0.0029907227,-0.5645752,-0.08282471,33.99,0.0,-33.0,-7.8637085,14.059525,
2239.8171070000003,true,true,true,0.125,12.25,0.0,0,0,0,0.125,12.25,0.0,0,0,0,0.125,12.25,0.0,0,0,0,0.125,12.25,0.0,0,0,0,0.125,12.25,0.0,0,0,0,0.0,12.25,0.0,0,0,0,0.125,12.3,0.0,0,0,0,kReverse,kReverse,-87.01,2.16,2.48,0.11431885,-0.7885132,-0.16320801,33.99,0.0,54.0,-7.8637085,14.061005,
2239.837246,true,true,true,0.125,12.25,0.0,0,0,0,0.125,12.25,0.0,0,0,0,0.125,12.25,0.0,0,0,0,0.125,12.25,0.0,0,0,0,0.125,12.25,0.0,0,0,0,0.0,12.25,0.0,0,0,0,0.125,12.3,0.0,0,0,0,kReverse,kReverse,-87.01,2.18,2.49,0.062194824,-0.9008789,-0.05444336,33.99,0.0,14.0,-7.8635864,14.0629425,
2239.8579110000005,true,true,true,0.125,12.25,0.0,0,0,0,0.125,12.25,0.0,0,0,0,0.125,12.200000000000001,0.0,0,0,0,0.125,12.25,0.0,0,0,0,0.125,12.25,0.0,0,0,0,0.0,12.25,0.0,0,0,0,0.125,12.3,0.0,0,0,0,kReverse,kReverse,-87.02,2.16,2.47,0.1104126,-0.97991943,0.08520508,33.99,0.0,80.0,-7.863449,14.063721,
2239.877216,true,true,true,0.125,12.25,0.0,0,0,0,0.125,12.25,0.0,0,0,0,0.125,12.200000000000001,0.0,0,0,0,0.125,12.25,0.0,0,0,0,0.125,12.25,0.0,0,0,0,0.0,12.25,0.0,0,0,0,0.125,12.3,0.0,0,0,0,kReverse,kReverse,-87.04,2.14,2.45,0.14831543,-1.2388916,0.19146729,33.99,0.0,122.0,-7.8631744,14.064636,
2239.897234,true,true,true,0.125,12.25,0.0,0,0,0,0.125,12.25,0.0,0,0,0,0.125,12.200000000000001,0.0,0,0,0,0.125,12.25,0.0,0,0,0,0.125,12.25,0.0,0,0,0,0.0,12.25,0.0,0,0,0,0.125,12.3,0.0,0,0,0,kReverse,kReverse,-87.03,2.18,2.49,0.022583008,-1.1989746,0.09716797,33.99,0.0,-14.0,-7.8624115,14.066986,
2239.9172040000003,true,true,true,0.125,12.25,0.0,0,0,0,0.125,12.25,0.0,0,0,0,0.125,12.200000000000001,0.0,0,0,0,0.125,12.25,0.0,0,0,0,0.125,12.25,0.0,0,0,0,0.0,12.25,0.0,0,0,0,0.125,12.3,0.0,0,0,0,kReverse,kReverse,-87.04,2.17,2.48,-0.06964111,-1.0327759,0.13500977,33.99,0.0,-92.0,-7.8621063,14.068375,
2239.937574,true,true,true,0.125,12.25,0.0,0,0,0,0.125,12.25,0.0,0,0,0,0.125,12.200000000000001,0.0,0,0,0,0.125,12.25,0.0,0,0,0,0.125,12.25,0.0,0,0,0,0.0,12.25,0.0,0,0,0,0.125,12.3,0.0,0,0,0,kReverse,kReverse,-87.04,2.17,2.48,-0.095947266,-1.0779419,0.085754395,33.99,0.0,-127.0,-7.8619537,14.06987,
2239.958224,true,true,true,0.125,12.25,0.0,0,0,0,0.125,12.25,0.0,0,0,0,0.125,12.200000000000001,0.0,0,0,0,0.125,12.25,0.0,0,0,0,0.125,12.25,0.0,0,0,0,0.0,12.25,0.0,0,0,0,0.125,12.3,0.0,0,0,0,kReverse,kReverse,-87.05,2.18,2.48,0.032348633,-0.78027344,0.08270264,33.99,0.0,11.0,-7.8619537,14.073074,
2239.981231,true,true,true,0.125,12.25,0.0,0,0,0,0.125,12.25,0.0,0,0,0,0.125,12.200000000000001,0.0,0,0,0,0.125,12.25,0.0,0,0,0,0.0,12.25,0.0,0,0,0,0.0,12.25,0.0,0,0,0,0.125,12.3,0.0,0,0,0,kReverse,kReverse,-87.03,2.18,2.49,0.0154418945,-0.57873535,-0.004333496,33.99,0.0,-10.0,-7.8619843,14.074722,
2239.9995010000002,true,true,true,0.125,12.25,0.0,0,0,0,0.125,12.25,0.0,0,0,0,0.125,12.200000000000001,0.0,0,0,0,0.125,12.25,0.0,0,0,0,0.0,12.25,0.0,0,0,0,0.0,12.25,0.0,0,0,0,0.125,12.3,0.0,0,0,0,kReverse,kReverse,-87.0,2.18,2.49,0.10406494,-0.87890625,-0.20526123,33.99,0.0,33.0,-7.8619537,14.077332,
2240.0237750000006,true,true,true,0.125,12.200000000000001,0.0,0,0,0,0.125,12.25,0.0,0,0,0,0.125,12.200000000000001,0.0,0,0,0,0.125,12.25,0.0,0,0,0,0.0,12.200000000000001,0.0,0,0,0,0.0,12.25,0.0,0,0,0,0.125,12.25,0.0,0,0,0,kReverse,kReverse,-87.04,2.16,2.47,0.111572266,-1.0126953,0.10449219,33.99,0.0,82.0,-7.8617096,14.07901,
2240.0460860000003,true,true,true,0.125,12.200000000000001,0.0,0,0,0,0.125,12.25,0.0,0,0,0,0.125,12.200000000000001,0.0,0,0,0,0.125,12.25,0.0,0,0,0,0.125,12.200000000000001,0.0,0,0,0,0.0,12.200000000000001,0.0,0,0,0,0.125,12.25,0.0,0,0,0,kReverse,kReverse,-87.03,2.15,2.46,0.1138916,-1.1836548,0.16741943,33.99,0.0,87.0,-7.861435,14.079941,
2240.078484,true,true,true,0.125,12.200000000000001,0.0,0,0,0,0.125,12.25,0.0,0,0,0,0.125,12.200000000000001,0.0,0,0,0,0.125,12.25,0.0,0,0,0,0.125,12.200000000000001,0.0,0,0,0,0.0,12.200000000000001,0.0,0,0,0,0.125,12.25,0.0,0,0,0,kReverse,kReverse,-87.04,2.17,2.48,7.9345703E-4,-1.1843262,0.18652344,33.99,0.0,-21.0,-7.8605957,14.082306,
2240.101465,true,true,true,0.125,12.200000000000001,0.0,0,0,0,0.125,12.25,0.0,0,0,0,0.125,12.200000000000001,0.0,0,0,0,0.125,12.25,0.0,0,0,0,0.125,12.200000000000001,0.0,0,0,0,0.0,12.200000000000001,0.0,0,0,0,0.125,12.25,0.0,0,0,0,kReverse,kReverse,-87.03,2.17,2.48,-0.08514404,-1.1846924,0.059692383,33.99,0.0,-125.0,-7.860092,14.08519,
2240.123901,true,true,true,0.125,12.200000000000001,0.0,0,0,0,0.125,12.25,0.0,0,0,0,0.125,12.200000000000001,0.0,0,0,0,0.125,12.25,0.0,0,0,0,0.125,12.200000000000001,0.0,0,0,0,0.0,12.200000000000001,0.0,0,0,0,0.125,12.25,0.0,0,0,0,kReverse,kReverse,-87.06,2.17,2.47,0.001953125,-1.0411987,0.1416626,33.99,0.0,-21.0,-7.8600464,14.086777,
2240.1452639999998,true,true,true,0.125,12.200000000000001,0.0,0,0,0,0.125,12.25,0.0,0,0,0,0.125,12.200000000000001,0.0,0,0,0,0.125,12.25,0.0,0,0,0,0.125,12.200000000000001,0.0,0,0,0,0.0,12.200000000000001,0.0,0,0,0,0.125,12.25,0.0,0,0,0,kReverse,kReverse,-87.03,2.17,2.48,0.005004883,-0.58135986,-0.06573486,33.99,0.0,-29.0,-7.8600464,14.090118,
2240.166251,true,true,true,0.125,12.200000000000001,0.0,0,0,0,0.125,12.200000000000001,0.0,0,0,0,0.125,12.200000000000001,0.0,0,0,0,0.125,12.25,0.0,0,0,0,0.125,12.200000000000001,0.0,0,0,0,0.0,12.200000000000001,0.0,0,0,0,0.125,12.25,0.0,0,0,0,kReverse,kReverse,-87.02,2.15,2.46,0.10699463,-0.7783203,-0.16687012,33.99,0.0,47.0,-7.8600616,14.091583,
2240.187461,true,true,true,0.125,12.200000000000001,0.0,0,0,0,0.125,12.200000000000001,0.0,0,0,0,0.125,12.200000000000001,0.0,0,0,0,0.125,12.25,0.0,0,0,0,0.125,12.200000000000001,0.0,0,0,0,0.0,12.200000000000001,0.0,0,0,0,0.125,12.25,0.0,0,0,0,kReverse,kReverse,-87.03,2.16,2.47,0.075805664,-0.947876,-0.03173828,33.99,0.0,29.0,-7.859955,14.093552,
2240.208238,true,true,true,0.125,12.200000000000001,0.0,0,0,0,0.125,12.200000000000001,0.0,0,0,0,0.125,12.200000000000001,0.0,0,0,0,0.125,12.25,0.0,0,0,0,0.125,12.200000000000001,0.0,0,0,0,0.0,12.200000000000001,0.0,0,0,0,0.125,12.25,0.0,0,0,0,kReverse,kReverse,-87.04,2.15,2.46,0.12591553,-1.0292969,0.1251831,34.0,0.0,99.0,-7.8598022,14.094406,
2240.2299510000003,true,true,true,0.125,12.200000000000001,0.0,0,0,0,0.125,12.200000000000001,0.0,0,0,0,0.125,12.200000000000001,0.0,0,0,0,0.125,12.25,0.0,0,0,0,0.125,12.200000000000001,0.0,0,0,0,0.0,12.200000000000001,0.0,0,0,0,0.125,12.25,0.0,0,0,0,kReverse,kReverse,-87.04,2.16,2.47,0.04852295,-1.3232422,0.22454834,34.0,0.0,25.0,-7.85907,14.096649,
2240.256762,true,true,true,0.125,12.200000000000001,0.0,0,0,0,0.125,12.200000000000001,0.0,0,0,0,0.125,12.200000000000001,0.0,0,0,0,0.125,12.25,0.0,0,0,0,0.125,12.200000000000001,0.0,0,0,0,0.0,12.200000000000001,0.0,0,0,0,0.125,12.25,0.0,0,0,0,kReverse,kReverse,-87.03,2.18,2.49,-0.025146484,-1.0945435,0.05230713,34.0,0.0,-63.0,-7.8586884,14.098022,
2240.2792830000003,true,true,true,0.125,12.200000000000001,0.0,0,0,0,0.125,12.200000000000001,0.0,0,0,0,0.125,12.200000000000001,0.0,0,0,0,0.125,12.25,0.0,0,0,0,0.125,12.200000000000001,0.0,0,0,0,0.0,12.200000000000001,0.0,0,0,0,0.125,12.25,0.0,0,0,0,kReverse,kReverse,-87.04,2.18,2.49,-0.0592041,-1.1071777,0.062927246,34.0,0.0,-96.0,-7.858307,14.100967,
2240.303668,true,true,true,0.125,12.200000000000001,0.0,0,0,0,0.125,12.200000000000001,0.0,0,0,0,0.125,12.200000000000001,0.0,0,0,0,0.125,12.25,0.0,0,0,0,0.125,12.200000000000001,0.0,0,0,0,0.0,12.200000000000001,0.0,0,0,0,0.125,12.25,0.0,0,0,0,kReverse,kReverse,-87.04,2.19,2.49,-0.023742676,-0.97332764,0.07220459,34.0,0.0,-54.0,-7.8582916,14.102539,
2240.324418,true,true,true,0.125,12.200000000000001,0.0,0,0,0,0.125,12.200000000000001,0.0,0,0,0,0.125,12.200000000000001,0.0,0,0,0,0.125,12.25,0.0,0,0,0,0.125,12.200000000000001,0.0,0,0,0,0.0,12.200000000000001,0.0,0,0,0,0.125,12.25,0.0,0,0,0,kReverse,kReverse,-87.03,2.17,2.48,0.061035156,-0.64849854,-0.05114746,34.0,0.0,24.0,-7.8583527,14.105759,
2240.3478050000003,true,true,true,0.125,12.200000000000001,0.0,0,0,0,0.125,12.200000000000001,0.0,0,0,0,0.125,12.200000000000001,0.0,0,0,0,0.125,12.25,0.0,0,0,0,0.125,12.200000000000001,0.0,0,0,0,0.0,12.200000000000001,0.0,0,0,0,0.125,12.25,0.0,0,0,0,kReverse,kReverse,-87.03,2.18,2.49,0.07849121,-0.8996582,-0.15820312,34.0,0.0,14.0,-7.8582916,14.108093,
2240.370278,true,true,true,0.125,12.200000000000001,0.0,0,0,0,0.125,12.200000000000001,0.0,0,0,0,0.125,12.200000000000001,0.0,0,0,0,0.125,12.25,0.0,0,0,0,0.125,12.200000000000001,0.0,0,0,0,0.0,12.200000000000001,0.0,0,0,0,0.125,12.25,0.0,0,0,0,kReverse,kReverse,-87.02,2.17,2.48,0.111450195,-0.9511719,-0.00390625,34.0,0.0,68.0,-7.8581696,14.1089325,
2240.3884470000003,true,true,true,0.125,12.200000000000001,0.0,0,0,0,0.125,12.200000000000001,0.0,0,0,0,0.125,12.200000000000001,0.0,0,0,0,0.125,12.25,0.0,0,0,0,0.125,12.200000000000001,0.0,0,0,0,0.0,12.200000000000001,0.0,0,0,0,0.125,12.25,0.0,0,0,0,kReverse,kReverse,-87.02,2.17,2.48,0.111450195,-0.9511719,-0.00390625,34.0,0.0,68.0,-7.8581696,14.1089325,
2240.411376,true,true,true,0.125,12.200000000000001,0.0,0,0,0,0.125,12.200000000000001,0.0,0,0,0,0.125,12.200000000000001,0.0,0,0,0,0.125,12.25,0.0,0,0,0,0.125,12.200000000000001,0.0,0,0,0,0.0,12.200000000000001,0.0,0,0,0,0.125,12.25,0.0,0,0,0,kReverse,kReverse,-87.05,2.15,2.46,0.0670166,-1.3059692,0.19866943,34.0,0.0,40.0,-7.8575745,14.110855,
2240.4361780000004,true,true,true,0.125,12.200000000000001,0.0,0,0,0,0.125,12.200000000000001,0.0,0,0,0,0.125,12.200000000000001,0.0,0,0,0,0.125,12.25,0.0,0,0,0,0.125,12.200000000000001,0.0,0,0,0,0.0,12.200000000000001,0.0,0,0,0,0.125,12.25,0.0,0,0,0,kReverse,kReverse,-87.05,2.17,2.48,0.040893555,-1.2242432,0.10632324,34.0,0.0,4.0,-7.857193,14.112045,
2240.455992,true,true,true,0.125,12.200000000000001,0.0,0,0,0,0.125,12.200000000000001,0.0,0,0,0,0.125,12.200000000000001,0.0,0,0,0,0.125,12.25,0.0,0,0,0,0.125,12.200000000000001,0.0,0,0,0,0.0,12.200000000000001,0.0,0,0,0,0.125,12.25,0.0,0,0,0,kReverse,kReverse,-87.05,2.17,2.47,-0.0625,-1.0587158,0.101135254,34.0,0.0,-91.0,-7.8568573,14.113327,
2240.478273,true,true,true,0.125,12.200000000000001,0.0,0,0,0,0.125,12.200000000000001,0.0,0,0,0,0.125,12.200000000000001,0.0,0,0,0,0.125,12.25,0.0,0,0,0,0.125,12.200000000000001,0.0,0,0,0,0.0,12.200000000000001,0.0,0,0,0,0.125,12.25,0.0,0,0,0,kReverse,kReverse,-87.05,2.18,2.48,-0.04736328,-1.138916,0.109436035,34.0,0.0,-79.0,-7.8567047,14.116135,
2240.4998800000003,true,true,true,0.125,12.200000000000001,0.0,0,0,0,0.125,12.200000000000001,0.0,0,0,0,0.125,12.200000000000001,0.0,0,0,0,0.125,12.200000000000001,0.0,0,0,0,0.125,12.200000000000001,0.0,0,0,0,0.0,12.200000000000001,0.0,0,0,0,0.125,12.25,0.0,0,0,0,kReverse,kReverse,-87.05,2.18,2.48,0.016235352,-0.7780762,0.1274414,34.0,0.0,1.0,-7.8567505,14.117706,
2240.5213670000003,true,true,true,0.125,12.200000000000001,0.0,0,0,0,0.125,12.200000000000001,0.0,0,0,0,0.125,12.200000000000001,0.0,0,0,0,0.125,12.200000000000001,0.0,0,0,0,0.125,12.200000000000001,0.0,0,0,0,0.0,12.200000000000001,0.0,0,0,0,0.125,12.25,0.0,0,0,0,kReverse,kReverse,-87.01,2.17,2.48,0.07873535,-0.7028198,-0.23406982,34.0,0.0,12.0,-7.8567963,14.120773,
2240.5436070000005,true,true,true,0.125,12.200000000000001,0.0,0,0,0,0.125,12.200000000000001,0.0,0,0,0,0.125,12.200000000000001,0.0,0,0,0,0.125,12.200000000000001,0.0,0,0,0,0.125,12.200000000000001,0.0,0,0,0,0.0,12.200000000000001,0.0,0,0,0,0.125,12.25,0.0,0,0,0,kReverse,kReverse,-87.01,2.17,2.48,0.09265137,-0.87506104,-0.24676514,34.0,0.0,16.0,-7.8567963,14.121841,
2240.5630690000003,true,true,true,0.125,12.200000000000001,0.0,0,0,0,0.125,12.200000000000001,0.0,0,0,0,0.125,12.200000000000001,0.0,0,0,0,0.125,12.200000000000001,0.0,0,0,0,0.125,12.200000000000001,0.0,0,0,0,0.0,12.200000000000001,0.0,0,0,0,0.125,12.25,0.0,0,0,0,kReverse,kReverse,-87.05,2.14,2.45,0.14135742,-1.0730591,0.16149902,34.0,0.0,118.0,-7.856598,14.123413,
2240.5848480000004,true,true,true,0.125,12.200000000000001,0.0,0,0,0,0.125,12.200000000000001,0.0,0,0,0,0.125,12.200000000000001,0.0,0,0,0,0.125,12.200000000000001,0.0,0,0,0,0.125,12.200000000000001,0.0,0,0,0,0.0,12.200000000000001,0.0,0,0,0,0.125,12.25,0.0,0,0,0,kReverse,kReverse,-87.05,2.14,2.45,0.11871338,-1.2540283,0.20922852,34.0,0.0,95.0,-7.8562927,14.124359,
2240.6055180000003,true,true,true,0.125,12.200000000000001,0.0,0,0,0,0.125,12.200000000000001,0.0,0,0,0,0.125,12.200000000000001,0.0,0,0,0,0.125,12.200000000000001,0.0,0,0,0,0.125,12.200000000000001,0.0,0,0,0,0.0,12.200000000000001,0.0,0,0,0,0.125,12.25,0.0,0,0,0,kReverse,kReverse,-87.04,2.18,2.49,-0.022644043,-1.1415405,0.099975586,34.0,0.0,-56.0,-7.8554688,14.1267395,
2240.626885,true,true,true,0.125,12.200000000000001,0.0,0,0,0,0.125,12.200000000000001,0.0,0,0,0,0.125,12.200000000000001,0.0,0,0,0,0.125,12.200000000000001,0.0,0,0,0,0.125,12.200000000000001,0.0,0,0,0,0.0,12.200000000000001,0.0,0,0,0,0.125,12.25,0.0,0,0,0,kReverse,kReverse,-87.05,2.19,2.49,-0.10241699,-1.0688477,0.117492676,34.0,0.0,-129.0,-7.855179,14.128113,
2240.64748,true,true,true,0.125,12.200000000000001,0.0,0,0,0,0.125,12.200000000000001,0.0,0,0,0,0.125,12.200000000000001,0.0,0,0,0,0.125,12.200000000000001,0.0,0,0,0,0.125,12.200000000000001,0.0,0,0,0,0.0,12.200000000000001,0.0,0,0,0,0.125,12.25,0.0,0,0,0,kReverse,kReverse,-87.05,2.19,2.49,0.04486084,-0.9440918,0.1918335,34.0,0.0,32.0,-7.854889,14.1315155,
2240.6684820000005,true,true,true,0.125,12.200000000000001,0.0,0,0,0,0.125,12.200000000000001,0.0,0,0,0,0.125,12.200000000000001,0.0,0,0,0,0.125,12.200000000000001,0.0,0,0,0,0.125,12.200000000000001,0.0,0,0,0,0.0,12.200000000000001,0.0,0,0,0,0.125,12.25,0.0,0,0,0,kReverse,kReverse,-87.03,2.2,2.51,0.012756348,-0.69073486,-0.078308105,34.0,0.0,-29.0,-7.8547516,14.133392,
2240.688817,true,true,true,0.125,12.200000000000001,0.0,0,0,0,0.125,12.200000000000001,0.0,0,0,0,0.125,12.200000000000001,0.0,0,0,0,0.125,12.200000000000001,0.0,0,0,0,0.125,12.200000000000001,0.0,0,0,0,0.0,12.200000000000001,0.0,0,0,0,0.125,12.25,0.0,0,0,0,kReverse,kReverse,-87.01,2.19,2.5,0.10479736,-0.7575073,-0.19250488,34.0,0.0,41.0,-7.8545074,14.136322,
2240.710634,true,true,true,0.125,12.200000000000001,0.0,0,0,0,0.125,12.200000000000001,0.0,0,0,0,0.125,12.200000000000001,0.0,0,0,0,0.125,12.200000000000001,0.0,0,0,0,0.0,12.200000000000001,0.0,0,0,0,0.0,12.200000000000001,0.0,0,0,0,0.125,12.25,0.0,0,0,0,kReverse,kReverse,-87.02,2.18,2.49,0.14001465,-0.8970337,-0.03692627,34.0,0.0,94.0,-7.854294,14.137421,
2240.732242,true,true,true,0.125,12.200000000000001,0.0,0,0,0,0.125,12.200000000000001,0.0,0,0,0,0.125,12.200000000000001,0.0,0,0,0,0.125,12.200000000000001,0.0,0,0,0,0.0,12.200000000000001,0.0,0,0,0,0.0,12.200000000000001,0.0,0,0,0,0.125,12.25,0.0,0,0,0,kReverse,kReverse,-87.03,2.17,2.48,0.13885498,-1.1063232,0.12194824,34.04,0.0,108.0,-7.853943,14.138504,
2240.75376,true,true,true,0.125,12.200000000000001,0.0,0,0,0,0.125,12.200000000000001,0.0,0,0,0,0.125,12.200000000000001,0.0,0,0,0,0.125,12.200000000000001,0.0,0,0,0,0.0,12.200000000000001,0.0,0,0,0,0.0,12.200000000000001,0.0,0,0,0,0.125,12.25,0.0,0,0,0,kReverse,kReverse,-87.04,2.17,2.48,0.10235596,-1.2963867,0.11151123,34.04,0.0,62.0,-7.852844,14.141022,
2240.772903,true,true,true,0.125,12.200000000000001,0.0,0,0,0,0.125,12.200000000000001,0.0,0,0,0,0.125,12.200000000000001,0.0,0,0,0,0.125,12.200000000000001,0.0,0,0,0,0.0,12.200000000000001,0.0,0,0,0,0.0,12.200000000000001,0.0,0,0,0,0.125,12.25,0.0,0,0,0,kReverse,kReverse,-87.04,2.18,2.49,-0.01574707,-1.1906128,0.14624023,34.04,0.0,-44.0,-7.852234,14.142441,
2240.795631,true,true,true,0.125,12.200000000000001,0.0,0,0,0,0.125,12.200000000000001,0.0,0,0,0,0.125,12.200000000000001,0.0,0,0,0,0.125,12.200000000000001,0.0,0,0,0,0.0,12.200000000000001,0.0,0,0,0,0.0,12.200000000000001,0.0,0,0,0,0.125,12.25,0.0,0,0,0,kReverse,kReverse,-87.04,2.19,2.49,-0.08239746,-1.2046509,0.1675415,34.04,0.0,-107.0,-7.8513947,14.145767,
2240.8246040000004,true,true,true,0.125,12.200000000000001,0.0,0,0,0,0.125,12.200000000000001,0.0,0,0,0,0.125,12.200000000000001,0.0,0,0,0,0.125,12.200000000000001,0.0,0,0,0,0.0,12.200000000000001,0.0,0,0,0,0.0,12.200000000000001,0.0,0,0,0,0.125,12.25,0.0,0,0,0,kReverse,kReverse,-87.05,2.19,2.49,1.8310547E-4,-0.9640503,0.15039062,34.04,0.0,-18.0,-7.8511353,14.14769,
2240.846563,true,true,true,0.125,12.200000000000001,0.0,0,0,0,0.125,12.200000000000001,0.0,0,0,0,0.125,12.200000000000001,0.0,0,0,0,0.125,12.200000000000001,0.0,0,0,0,0.0,12.200000000000001,0.0,0,0,0,0.0,12.200000000000001,0.0,0,0,0,0.125,12.25,0.0,0,0,0,kReverse,kReverse,-87.01,2.19,2.5,0.013549805,-0.61499023,-0.2232666,34.04,0.0,-47.0,-7.8507996,14.151367,
2240.8687609999997,true,true,true,0.125,12.200000000000001,0.0,0,0,0,0.125,12.200000000000001,0.0,0,0,0,0.125,12.200000000000001,0.0,0,0,0,0.125,12.200000000000001,0.0,0,0,0,0.0,12.200000000000001,0.0,0,0,0,0.0,12.200000000000001,0.0,0,0,0,0.125,12.25,0.0,0,0,0,kReverse,kReverse,-87.02,2.18,2.49,0.13531494,-0.8530884,-0.12896729,34.04,0.0,77.0,-7.850464,14.153931,
2240.888281,true,true,true,0.125,12.200000000000001,0.0,0,0,0,0.125,12.200000000000001,0.0,0,0,0,0.125,12.200000000000001,0.0,0,0,0,0.125,12.200000000000001,0.0,0,0,0,0.0,12.200000000000001,0.0,0,0,0,0.0,12.200000000000001,0.0,0,0,0,0.125,12.25,0.0,0,0,0,kReverse,kReverse,-87.04,2.17,2.48,0.14196777,-1.0936279,0.07354736,34.04,0.0,104.0,-7.850128,14.154968,
2240.909278,true,true,true,0.125,12.200000000000001,0.0,0,0,0,0.125,12.200000000000001,0.0,0,0,0,0.125,12.200000000000001,0.0,0,0,0,0.125,12.200000000000001,0.0,0,0,0,0.125,12.200000000000001,0.0,0,0,0,0.0,12.200000000000001,0.0,0,0,0,0.125,12.25,0.0,0,0,0,kReverse,kReverse,-87.03,2.17,2.48,0.13885498,-1.1204834,0.17218018,34.04,0.0,115.0,-7.84964,14.156097,
2240.932663,true,true,true,0.125,12.200000000000001,0.0,0,0,0,0.125,12.200000000000001,0.0,0,0,0,0.125,12.200000000000001,0.0,0,0,0,0.125,12.200000000000001,0.0,0,0,0,0.125,12.200000000000001,0.0,0,0,0,0.0,12.200000000000001,0.0,0,0,0,0.125,12.25,0.0,0,0,0,kReverse,kReverse,-87.04,2.19,2.5,-0.0010986328,-1.2207031,0.12695312,34.04,0.0,-34.0,-7.848358,14.158752,
2240.959358,true,true,true,0.125,12.200000000000001,0.0,0,0,0,0.125,12.200000000000001,0.0,0,0,0,0.125,12.200000000000001,0.0,0,0,0,0.125,12.200000000000001,0.0,0,0,0,0.125,12.200000000000001,0.0,0,0,0,0.0,12.200000000000001,0.0,0,0,0,0.125,12.25,0.0,0,0,0,kReverse,kReverse,-87.04,2.2,2.5,-0.08300781,-1.2056274,0.1987915,34.04,0.0,-103.0,-7.847397,14.161972,
2240.9824000000003,true,true,true,0.125,12.200000000000001,0.0,0,0,0,0.125,12.200000000000001,0.0,0,0,0,0.125,12.200000000000001,0.0,0,0,0,0.125,12.200000000000001,0.0,0,0,0,0.125,12.200000000000001,0.0,0,0,0,0.0,12.200000000000001,0.0,0,0,0,0.125,12.25,0.0,0,0,0,kReverse,kReverse,-87.05,2.19,2.49,-0.00982666,-1.0007935,0.15100098,34.04,0.0,-29.0,-7.8470764,14.163879,
2241.002802,true,true,true,0.125,12.200000000000001,0.0,0,0,0,0.125,12.200000000000001,0.0,0,0,0,0.125,12.200000000000001,0.0,0,0,0,0.125,12.200000000000001,0.0,0,0,0,0.125,12.200000000000001,0.0,0,0,0,0.0,12.200000000000001,0.0,0,0,0,0.125,12.25,0.0,0,0,0,kReverse,kReverse,-87.03,2.2,2.51,-0.035949707,-0.7091675,-0.041931152,34.04,0.0,-72.0,-7.8468323,14.165817,
2241.0226740000003,true,true,true,0.125,12.200000000000001,0.0,0,0,0,0.125,12.200000000000001,0.0,0,0,0,0.125,12.200000000000001,0.0,0,0,0,0.125,12.200000000000001,0.0,0,0,0,0.125,12.200000000000001,0.0,0,0,0,0.0,12.200000000000001,0.0,0,0,0,0.125,12.25,0.0,0,0,0,kReverse,kReverse,-87.03,2.17,2.48,0.08972168,-0.7071533,-0.19482422,34.04,0.0,28.0,-7.8465424,14.169098,
2241.0444,true,true,true,0.125,12.200000000000001,0.0,0,0,0,0.125,12.200000000000001,0.0,0,0,0,0.125,12.200000000000001,0.0,0,0,0,0.125,12.200000000000001,0.0,0,0,0,0.0,12.200000000000001,0.0,0,0,0,0.0,12.200000000000001,0.0,0,0,0,0.125,12.25,0.0,0,0,0,kReverse,kReverse,-87.03,2.17,2.48,0.1282959,-0.8491821,-0.15985107,34.04,0.0,66.0,-7.8463287,14.170303,
2241.063684,true,true,true,0.125,12.200000000000001,0.0,0,0,0,0.125,12.200000000000001,0.0,0,0,0,0.125,12.200000000000001,0.0,0,0,0,0.125,12.200000000000001,0.0,0,0,0,0.0,12.200000000000001,0.0,0,0,0,0.0,12.200000000000001,0.0,0,0,0,0.125,12.25,0.0,0,0,0,kReverse,kReverse,-87.04,2.17,2.47,0.13812256,-1.1018066,0.15423584,34.04,0.0,112.0,-7.8455505,14.17247,
2241.0844110000003,true,true,true,0.125,12.200000000000001,0.0,0,0,0,0.125,12.200000000000001,0.0,0,0,0,0.125,12.200000000000001,0.0,0,0,0,0.125,12.200000000000001,0.0,0,0,0,0.0,12.200000000000001,0.0,0,0,0,0.0,12.200000000000001,0.0,0,0,0,0.125,12.25,0.0,0,0,0,kReverse,kReverse,-87.05,2.17,2.47,0.11883545,-1.3013916,0.14587402,34.04,0.0,83.0,-7.8449707,14.173721,
2241.1046950000004,true,true,true,0.125,12.200000000000001,0.0,0,0,0,0.125,12.200000000000001,0.0,0,0,0,0.125,12.200000000000001,0.0,0,0,0,0.125,12.200000000000001,0.0,0,0,0,0.125,12.200000000000001,0.0,0,0,0,0.0,12.200000000000001,0.0,0,0,0,0.125,12.25,0.0,0,0,0,kReverse,kReverse,-87.05,2.18,2.48,0.005554199,-1.2307129,0.117370605,34.04,0.0,-29.0,-7.84433,14.175095,
2241.125429,true,true,true,0.125,12.200000000000001,0.0,0,0,0,0.125,12.200000000000001,0.0,0,0,0,0.125,12.15,0.0,0,0,0,0.125,12.200000000000001,0.0,0,0,0,0.125,12.200000000000001,0.0,0,0,0,0.0,12.200000000000001,0.0,0,0,0,0.125,12.25,0.0,0,0,0,kReverse,kReverse,-87.06,2.18,2.48,-0.08526611,-1.1853027,0.2029419,34.04,0.0,-104.0,-7.843445,14.178192,
2241.146908,true,true,true,0.125,12.200000000000001,0.0,0,0,0,0.125,12.200000000000001,0.0,0,0,0,0.125,12.15,0.0,0,0,0,0.125,12.200000000000001,0.0,0,0,0,0.125,12.200000000000001,0.0,0,0,0,0.0,12.200000000000001,0.0,0,0,0,0.125,12.25,0.0,0,0,0,kReverse,kReverse,-87.06,2.19,2.49,-0.018737793,-1.0004883,0.15368652,34.04,0.0,-38.0,-7.8431854,14.180038,
2241.1685760000005,true,true,true,0.125,12.200000000000001,0.0,0,0,0,0.125,12.200000000000001,0.0,0,0,0,0.125,12.15,0.0,0,0,0,0.125,12.200000000000001,0.0,0,0,0,0.125,12.200000000000001,0.0,0,0,0,0.0,12.200000000000001,0.0,0,0,0,0.125,12.25,0.0,0,0,0,kReverse,kReverse,-87.02,2.19,2.5,-0.002319336,-0.6134033,-0.1640625,34.04,0.0,-53.0,-7.842865,14.183685,
2241.18922,true,true,true,0.125,12.200000000000001,0.0,0,0,0,0.125,12.200000000000001,0.0,0,0,0,0.125,12.15,0.0,0,0,0,0.125,12.200000000000001,0.0,0,0,0,0.125,12.200000000000001,0.0,0,0,0,0.0,12.200000000000001,0.0,0,0,0,0.125,12.25,0.0,0,0,0,kReverse,kReverse,-87.02,2.18,2.49,0.13684082,-0.8584595,-0.13519287,34.04,0.0,77.0,-7.8425903,14.186325,
2241.225054,true,true,true,0.125,12.200000000000001,0.0,0,0,0,0.125,12.200000000000001,0.0,0,0,0,0.125,12.15,0.0,0,0,0,0.125,12.200000000000001,0.0,0,0,0,0.125,12.200000000000001,0.0,0,0,0,0.0,12.200000000000001,0.0,0,0,0,0.125,12.25,0.0,0,0,0,kReverse,kReverse,-87.05,2.17,2.47,0.13995361,-1.1156616,0.1541748,34.04,0.0,113.0,-7.8418427,14.188522,
2241.249643,true,true,true,0.125,12.200000000000001,0.0,0,0,0,0.125,12.200000000000001,0.0,0,0,0,0.125,12.15,0.0,0,0,0,0.125,12.200000000000001,0.0,0,0,0,0.125,12.200000000000001,0.0,0,0,0,0.0,12.200000000000001,0.0,0,0,0,0.125,12.25,0.0,0,0,0,kReverse,kReverse,-87.05,2.18,2.48,0.123413086,-1.3027344,0.14855957,34.04,0.0,88.0,-7.841263,14.189774,
2241.2730100000003,true,true,true,0.125,12.200000000000001,0.0,0,0,0,0.125,12.200000000000001,0.0,0,0,0,0.125,12.15,0.0,0,0,0,0.125,12.200000000000001,0.0,0,0,0,0.125,12.200000000000001,0.0,0,0,0,0.0,12.200000000000001,0.0,0,0,0,0.125,12.25,0.0,0,0,0,kReverse,kReverse,-87.05,2.2,2.5,-0.107299805,-1.0125122,0.089538574,34.04,0.0,-136.0,-7.8401337,14.192642,
2241.294171,true,true,true,0.125,12.200000000000001,0.0,0,0,0,0.125,12.200000000000001,0.0,0,0,0,0.125,12.15,0.0,0,0,0,0.125,12.200000000000001,0.0,0,0,0,0.125,12.200000000000001,0.0,0,0,0,0.0,12.200000000000001,0.0,0,0,0,0.125,12.25,0.0,0,0,0,kReverse,kReverse,-87.05,2.19,2.49,-0.088378906,-1.1923828,0.1842041,34.04,0.0,-110.0,-7.8397827,14.194275,
2241.3185590000003,true,true,true,0.125,12.200000000000001,0.0,0,0,0,0.125,12.200000000000001,0.0,0,0,0,0.125,12.15,0.0,0,0,0,0.125,12.200000000000001,0.0,0,0,0,0.125,12.200000000000001,0.0,0,0,0,0.0,12.15,0.0,0,0,0,0.125,12.25,0.0,0,0,0,kReverse,kReverse,-87.04,2.19,2.5,-0.025268555,-0.68133545,-0.008911133,34.04,0.0,-55.0,-7.8393555,14.198044,
2241.3398190000003,true,true,true,0.125,12.200000000000001,0.0,0,0,0,0.125,12.200000000000001,0.0,0,0,0,0.125,12.15,0.0,0,0,0,0.125,12.200000000000001,0.0,0,0,0,0.125,12.200000000000001,0.0,0,0,0,0.0,12.15,0.0,0,0,0,0.125,12.25,0.0,0,0,0,kForward,kReverse,-87.02,2.19,2.5,0.014221191,-0.6170654,-0.18670654,34.04,0.0,-40.0,-7.8392334,14.199799,
2241.3639730000004,true,true,true,0.125,12.200000000000001,0.0,0,0,0,0.125,12.200000000000001,0.0,0,0,0,0.125,12.15,0.0,0,0,0,0.125,12.200000000000001,0.0,0,0,0,0.125,12.200000000000001,0.0,0,0,0,0.0,12.15,0.0,0,0,0,0.125,12.25,0.0,0,0,0,kForward,kReverse,-87.03,2.17,2.48,0.13409424,-0.87701416,-0.12658691,34.04,0.0,75.0,-7.838928,14.202408,
2241.383987,true,true,true,0.125,12.200000000000001,0.0,0,0,0,0.125,12.200000000000001,0.0,0,0,0,0.125,12.15,0.0,0,0,0,0.125,12.200000000000001,0.0,0,0,0,0.125,12.200000000000001,0.0,0,0,0,0.0,12.15,0.0,0,0,0,0.125,12.25,0.0,0,0,0,kForward,kReverse,-87.05,2.17,2.48,0.14202881,-1.1205444,0.06896973,34.04,0.0,102.0,-7.838608,14.203445,
2241.404506,true,true,true,0.125,12.200000000000001,0.0,0,0,0,0.125,12.200000000000001,0.0,0,0,0,0.125,12.15,0.0,0,0,0,0.125,12.200000000000001,0.0,0,0,0,0.0,12.200000000000001,0.0,0,0,0,0.0,12.15,0.0,0,0,0,0.125,12.25,0.0,0,0,0,kForward,kReverse,-87.06,2.17,2.47,0.10961914,-1.2952881,0.15997314,34.04,0.0,77.0,-7.8375854,14.205826,
2241.424935,true,true,true,0.125,12.200000000000001,0.0,0,0,0,0.125,12.200000000000001,0.0,0,0,0,0.125,12.15,0.0,0,0,0,0.125,12.200000000000001,0.0,0,0,0,0.0,12.200000000000001,0.0,0,0,0,0.0,12.15,0.0,0,0,0,0.125,12.25,0.0,0,0,0,kForward,kReverse,-87.05,2.18,2.49,-0.008117676,-1.1454468,0.12182617,34.04,0.0,-38.0,-7.836975,14.207199,
2241.444947,true,true,true,0.125,12.200000000000001,0.0,0,0,0,0.125,12.200000000000001,0.0,0,0,0,0.125,12.15,0.0,0,0,0,0.125,12.200000000000001,0.0,0,0,0,0.0,12.200000000000001,0.0,0,0,0,0.0,12.15,0.0,0,0,0,0.125,12.25,0.0,0,0,0,kForward,kReverse,-87.05,2.19,2.49,-0.09991455,-1.0361938,0.1194458,34.04,0.0,-94.0,-7.836151,14.210449,
2241.4654140000002,true,true,true,0.125,12.15,0.0,0,0,0,0.125,12.200000000000001,0.0,0,0,0,0.125,12.15,0.0,0,0,0,0.125,12.200000000000001,0.0,0,0,0,0.125,12.200000000000001,0.0,0,0,0,0.0,12.15,0.0,0,0,0,0.125,12.200000000000001,0.0,0,0,0,kForward,kReverse,-87.06,2.19,2.49,0.045959473,-0.9491577,0.13647461,34.04,0.0,25.0,-7.835861,14.212372,
2241.484851,true,true,true,0.125,12.15,0.0,0,0,0,0.125,12.200000000000001,0.0,0,0,0,0.125,12.15,0.0,0,0,0,0.125,12.200000000000001,0.0,0,0,0,0.125,12.200000000000001,0.0,0,0,0,0.0,12.15,0.0,0,0,0,0.125,12.200000000000001,0.0,0,0,0,kForward,kReverse,-87.05,2.2,2.5,-0.002380371,-0.62805176,-0.123046875,34.04,0.0,-48.0,-7.8355865,14.214264,
2241.50552,true,true,true,0.125,12.15,0.0,0,0,0,0.125,12.200000000000001,0.0,0,0,0,0.125,12.15,0.0,0,0,0,0.125,12.200000000000001,0.0,0,0,0,0.125,12.200000000000001,0.0,0,0,0,0.0,12.15,0.0,0,0,0,0.125,12.200000000000001,0.0,0,0,0,kForward,kReverse,-87.02,2.21,2.51,0.035095215,-0.65618896,-0.11602783,34.04,0.0,-11.0,-7.8353577,14.215988,
2241.527447,true,true,true,0.125,12.15,0.0,0,0,0,0.125,12.200000000000001,0.0,0,0,0,0.125,12.15,0.0,0,0,0,0.125,12.200000000000001,0.0,0,0,0,0.125,12.200000000000001,0.0,0,0,0,0.0,12.15,0.0,0,0,0,0.125,12.200000000000001,0.0,0,0,0,kForward,kReverse,-87.01,2.19,2.5,0.119140625,-0.81463623,-0.15856934,34.04,0.0,58.0,-7.835083,14.217468,
2241.549397,true,true,true,0.125,12.15,0.0,0,0,0,0.125,12.200000000000001,0.0,0,0,0,0.125,12.15,0.0,0,0,0,0.125,12.200000000000001,0.0,0,0,0,0.125,12.200000000000001,0.0,0,0,0,0.0,12.15,0.0,0,0,0,0.125,12.200000000000001,0.0,0,0,0,kForward,kReverse,-87.04,2.17,2.48,0.15545654,-1.0947266,0.07745361,34.04,0.0,118.0,-7.8342133,14.21994,
2241.574889,true,true,true,0.125,12.15,0.0,0,0,0,0.125,12.200000000000001,0.0,0,0,0,0.125,12.15,0.0,0,0,0,0.125,12.200000000000001,0.0,0,0,0,0.125,12.200000000000001,0.0,0,0,0,0.0,12.15,0.0,0,0,0,0.125,12.200000000000001,0.0,0,0,0,kForward,kReverse,-87.04,2.17,2.48,0.14178467,-1.1697998,0.08569336,34.04,0.0,102.0,-7.8335724,14.221191,
2241.597875,true,true,true,0.125,12.15,0.0,0,0,0,0.125,12.200000000000001,0.0,0,0,0,0.125,12.15,0.0,0,0,0,0.125,12.200000000000001,0.0,0,0,0,0.125,12.200000000000001,0.0,0,0,0,0.0,12.15,0.0,0,0,0,0.125,12.200000000000001,0.0,0,0,0,kForward,kReverse,-87.05,2.19,2.49,-0.024597168,-1.1038818,0.15112305,34.04,0.0,-48.0,-7.832062,14.223999,
2241.622489,true,true,true,0.125,12.15,0.0,0,0,0,0.125,12.200000000000001,0.0,0,0,0,0.125,12.15,0.0,0,0,0,0.125,12.200000000000001,0.0,0,0,0,0.125,12.15,0.0,0,0,0,0.0,12.15,0.0,0,0,0,0.125,12.200000000000001,0.0,0,0,0,kForward,kReverse,-87.06,2.18,2.48,-0.13183594,-0.99920654,0.082458496,34.04,0.0,-160.0,-7.8314514,14.225601,
2241.645038,true,true,true,0.125,12.15,0.0,0,0,0,0.125,12.200000000000001,0.0,0,0,0,0.125,12.15,0.0,0,0,0,0.125,12.200000000000001,0.0,0,0,0,0.0,12.15,0.0,0,0,0,0.0,12.15,0.0,0,0,0,0.125,12.200000000000001,0.0,0,0,0,kForward,kReverse,-87.06,2.18,2.48,0.00982666,-0.9262085,0.113098145,34.04,0.0,-12.0,-7.830597,14.229416,
2241.665923,true,true,true,0.125,12.15,0.0,0,0,0,0.125,12.200000000000001,0.0,0,0,0,0.125,12.15,0.0,0,0,0,0.125,12.200000000000001,0.0,0,0,0,0.0,12.15,0.0,0,0,0,0.0,12.15,0.0,0,0,0,0.125,12.200000000000001,0.0,0,0,0,kReverse,kReverse,-87.04,2.19,2.49,-0.03338623,-0.6343384,-0.109436035,34.04,0.0,-76.0,-7.830261,14.231384,
2241.6882370000003,true,true,true,0.125,12.15,0.0,0,0,0,0.125,12.200000000000001,0.0,0,0,0,0.125,12.15,0.0,0,0,0,0.125,12.200000000000001,0.0,0,0,0,0.125,12.15,0.0,0,0,0,0.0,12.15,0.0,0,0,0,0.125,12.200000000000001,0.0,0,0,0,kReverse,kReverse,-87.03,2.16,2.47,0.115356445,-0.77008057,-0.16247559,34.04,0.0,56.0,-7.829666,14.234589,
2241.709666,true,true,true,0.125,12.15,0.0,0,0,0,0.125,12.200000000000001,0.0,0,0,0,0.125,12.15,0.0,0,0,0,0.125,12.200000000000001,0.0,0,0,0,0.125,12.15,0.0,0,0,0,0.0,12.15,0.0,0,0,0,0.125,12.200000000000001,0.0,0,0,0,kReverse,kReverse,-87.03,2.17,2.48,0.11254883,-0.9172363,-0.08685303,34.04,0.0,58.0,-7.8292694,14.235809,
2241.7325530000003,true,true,true,0.125,12.15,0.0,0,0,0,0.125,12.200000000000001,0.0,0,0,0,0.125,12.15,0.0,0,0,0,0.125,12.200000000000001,0.0,0,0,0,0.125,12.15,0.0,0,0,0,0.0,12.15,0.0,0,0,0,0.125,12.200000000000001,0.0,0,0,0,kReverse,kReverse,-87.05,2.15,2.46,0.11431885,-1.1808472,0.10083008,34.04,0.0,77.0,-7.8280945,14.238174,
2241.76173,true,true,true,0.125,12.15,0.0,0,0,0,0.125,12.15,0.0,0,0,0,0.125,12.15,0.0,0,0,0,0.125,12.200000000000001,0.0,0,0,0,0.0,12.15,0.0,0,0,0,0.0,12.15,0.0,0,0,0,0.125,12.200000000000001,0.0,0,0,0,kReverse,kReverse,-87.06,2.18,2.48,-0.016113281,-1.1362305,0.19274902,34.03,0.0,-35.0,-7.8266144,14.240952,
2241.785301,true,true,true,0.125,12.15,0.0,0,0,0,0.125,12.15,0.0,0,0,0,0.125,12.15,0.0,0,0,0,0.125,12.200000000000001,0.0,0,0,0,0.0,12.15,0.0,0,0,0,0.0,12.15,0.0,0,0,0,0.125,12.200000000000001,0.0,0,0,0,kReverse,kReverse,-87.05,2.19,2.49,-0.11254883,-1.0566406,0.085876465,34.03,0.0,-143.0,-7.825989,14.242569,
2241.812898,true,true,true,0.125,12.15,0.0,0,0,0,0.125,12.15,0.0,0,0,0,0.125,12.15,0.0,0,0,0,0.125,12.200000000000001,0.0,0,0,0,0.125,12.15,0.0,0,0,0,0.0,12.15,0.0,0,0,0,0.125,12.200000000000001,0.0,0,0,0,kReverse,kReverse,-87.05,2.19,2.49,-0.017028809,-0.8900757,0.061950684,34.03,0.0,-45.0,-7.825165,14.246277,
2241.837336,true,true,true,0.125,12.15,0.0,0,0,0,0.125,12.15,0.0,0,0,0,0.125,12.15,0.0,0,0,0,0.125,12.200000000000001,0.0,0,0,0,0.125,12.15,0.0,0,0,0,0.0,12.15,0.0,0,0,0,0.125,12.200000000000001,0.0,0,0,0,kReverse,kReverse,-87.04,2.18,2.49,0.07623291,-0.71136475,-0.2267456,34.03,0.0,10.0,-7.824585,14.249817,
2241.858478,true,true,true,0.125,12.15,0.0,0,0,0,0.125,12.15,0.0,0,0,0,0.125,12.15,0.0,0,0,0,0.125,12.200000000000001,0.0,0,0,0,0.125,12.15,0.0,0,0,0,0.0,12.15,0.0,0,0,0,0.125,12.200000000000001,0.0,0,0,0,kReverse,kReverse,-87.05,2.18,2.48,0.09869385,-0.833313,-0.14758301,34.03,0.0,39.0,-7.82428,14.251175,
2241.875902,true,true,true,0.125,12.15,0.0,0,0,0,0.125,12.15,0.0,0,0,0,0.125,12.15,0.0,0,0,0,0.125,12.200000000000001,0.0,0,0,0,0.125,12.15,0.0,0,0,0,0.0,12.15,0.0,0,0,0,0.125,12.200000000000001,0.0,0,0,0,kReverse,kReverse,-87.07,2.16,2.46,0.14978027,-1.1430054,0.18713379,34.03,0.0,127.0,-7.8232574,14.253769,
2241.901659,true,true,true,0.125,12.15,0.0,0,0,0,0.125,12.15,0.0,0,0,0,0.125,12.15,0.0,0,0,0,0.125,12.200000000000001,0.0,0,0,0,0.125,12.15,0.0,0,0,0,0.0,12.15,0.0,0,0,0,0.125,12.200000000000001,0.0,0,0,0,kReverse,kReverse,-87.06,2.17,2.47,0.10748291,-1.2576294,0.14337158,34.03,0.0,74.0,-7.822525,14.255264,
2241.925055,true,true,true,0.125,12.15,0.0,0,0,0,0.125,12.15,0.0,0,0,0,0.125,12.15,0.0,0,0,0,0.125,12.200000000000001,0.0,0,0,0,0.125,12.15,0.0,0,0,0,0.0,12.15,0.0,0,0,0,0.125,12.200000000000001,0.0,0,0,0,kReverse,kReverse,-87.06,2.19,2.49,-0.04827881,-1.0325317,0.14202881,34.03,0.0,-70.0,-7.8209686,14.258591,
2241.9467520000003,true,true,true,0.125,12.15,0.0,0,0,0,0.125,12.15,0.0,0,0,0,0.125,12.15,0.0,0,0,0,0.125,12.200000000000001,0.0,0,0,0,0.125,12.15,0.0,0,0,0,0.0,12.15,0.0,0,0,0,0.125,12.200000000000001,0.0,0,0,0,kReverse,kReverse,-87.06,2.19,2.49,-0.12347412,-1.0623779,0.06842041,34.03,0.0,-157.0,-7.8203735,14.260422,
2241.9664860000003,true,true,true,0.125,12.15,0.0,0,0,0,0.125,12.15,0.0,0,0,0,0.125,12.15,0.0,0,0,0,0.125,12.200000000000001,0.0,0,0,0,0.125,12.15,0.0,0,0,0,0.0,12.15,0.0,0,0,0,0.125,12.200000000000001,0.0,0,0,0,kReverse,kReverse,-87.06,2.19,2.49,-0.007385254,-0.7862549,0.06304932,34.03,0.0,-31.0,-7.8195496,14.264465,
2241.986948,true,true,true,0.125,12.15,0.0,0,0,0,0.125,12.15,0.0,0,0,0,0.125,12.15,0.0,0,0,0,0.125,12.200000000000001,0.0,0,0,0,0.125,12.15,0.0,0,0,0,0.0,12.15,0.0,0,0,0,0.125,12.200000000000001,0.0,0,0,0,kReverse,kReverse,-87.05,2.19,2.49,0.018798828,-0.6314697,-0.111206055,34.03,0.0,-25.0,-7.819229,14.2664795,
2242.007997,true,true,true,0.125,12.15,0.0,0,0,0,0.125,12.15,0.0,0,0,0,0.125,12.15,0.0,0,0,0,0.125,12.200000000000001,0.0,0,0,0,0.125,12.15,0.0,0,0,0,0.0,12.15,0.0,0,0,0,0.125,12.200000000000001,0.0,0,0,0,kReverse,kReverse,-87.03,2.17,2.48,0.062561035,-0.6743164,-0.23120117,34.03,0.0,-2.0,-7.8189087,14.268234,
2242.026907,true,true,true,0.125,12.15,0.0,0,0,0,0.125,12.15,0.0,0,0,0,0.125,12.15,0.0,0,0,0,0.125,12.200000000000001,0.0,0,0,0,0.125,12.15,0.0,0,0,0,0.0,12.15,0.0,0,0,0,0.125,12.200000000000001,0.0,0,0,0,kReverse,kReverse,-87.06,2.15,2.46,0.14685059,-0.9555664,0.04296875,34.03,0.0,110.0,-7.8181305,14.270981,
2242.05085,true,true,true,0.125,12.15,0.0,0,0,0,0.125,12.15,0.0,0,0,0,0.125,12.15,0.0,0,0,0,0.125,12.200000000000001,0.0,0,0,0,0.125,12.15,0.0,0,0,0,0.0,12.15,0.0,0,0,0,0.125,12.200000000000001,0.0,0,0,0,kForward,kReverse,-87.08,2.14,2.45,0.1675415,-1.1939087,0.15374756,34.03,0.0,138.0,-7.81752,14.272339,
2242.0743310000003,true,true,true,0.125,12.15,0.0,0,0,0,0.125,12.15,0.0,0,0,0,0.125,12.15,0.0,0,0,0,0.125,12.200000000000001,0.0,0,0,0,0.125,12.15,0.0,0,0,0,0.0,12.15,0.0,0,0,0,0.125,12.200000000000001,0.0,0,0,0,kForward,kReverse,-87.07,2.16,2.46,0.024658203,-1.2244873,0.096191406,34.03,0.0,-13.0,-7.8160553,14.275375,
2242.096535,true,true,true,0.125,12.15,0.0,0,0,0,0.125,12.15,0.0,0,0,0,0.125,12.15,0.0,0,0,0,0.125,12.200000000000001,0.0,0,0,0,0.125,12.15,0.0,0,0,0,0.0,12.15,0.0,0,0,0,0.125,12.200000000000001,0.0,0,0,0,kForward,kReverse,-87.08,2.17,2.47,-0.06488037,-1.0479736,0.103393555,34.03,0.0,-93.0,-7.815399,14.277023,
2242.118432,true,true,true,0.125,12.15,0.0,0,0,0,0.125,12.15,0.0,0,0,0,0.125,12.15,0.0,0,0,0,0.125,12.200000000000001,0.0,0,0,0,0.0,12.15,0.0,0,0,0,0.0,12.15,0.0,0,0,0,0.125,12.200000000000001,0.0,0,0,0,kForward,kReverse,-87.08,2.19,2.49,-0.047302246,-1.1013184,0.14630127,34.03,0.0,-71.0,-7.814514,14.280701,
2242.13804,true,true,true,0.125,12.15,0.0,0,0,0,0.125,12.15,0.0,0,0,0,0.125,12.15,0.0,0,0,0,0.125,12.200000000000001,0.0,0,0,0,0.0,12.15,0.0,0,0,0,0.0,12.15,0.0,0,0,0,0.125,12.200000000000001,0.0,0,0,0,kReverse,kReverse,-87.06,2.19,2.49,-0.008056641,-0.6859131,0.04144287,34.03,0.0,-31.0,-7.8142242,14.282715,
2242.163413,true,true,true,0.125,12.15,0.0,0,0,0,0.125,12.15,0.0,0,0,0,0.125,12.15,0.0,0,0,0,0.125,12.200000000000001,0.0,0,0,0,0.0,12.15,0.0,0,0,0,0.0,12.15,0.0,0,0,0,0.125,12.200000000000001,0.0,0,0,0,kReverse,kReverse,-87.03,2.17,2.48,0.10369873,-0.7304077,-0.21716309,34.03,0.0,38.0,-7.81369,14.286346,
2242.183417,true,true,true,0.125,12.15,0.0,0,0,0,0.125,12.15,0.0,0,0,0,0.125,12.15,0.0,0,0,0,0.125,12.200000000000001,0.0,0,0,0,0.125,12.15,0.0,0,0,0,0.0,12.15,0.0,0,0,0,0.125,12.200000000000001,0.0,0,0,0,kReverse,kReverse,-87.06,2.17,2.47,0.14404297,-1.0630493,0.06762695,34.03,0.0,115.0,-7.8128815,14.288727,
2242.206004,true,true,true,0.125,12.15,0.0,0,0,0,0.125,12.15,0.0,0,0,0,0.125,12.15,0.0,0,0,0,0.125,12.200000000000001,0.0,0,0,0,0.125,12.15,0.0,0,0,0,0.0,12.15,0.0,0,0,0,0.125,12.200000000000001,0.0,0,0,0,kReverse,kReverse,-87.06,2.16,2.47,0.14447021,-1.2437744,0.0949707,34.03,0.0,104.0,-7.812271,14.289856,
2242.226801,true,true,true,0.125,12.15,0.0,0,0,0,0.125,12.15,0.0,0,0,0,0.125,12.15,0.0,0,0,0,0.125,12.200000000000001,0.0,0,0,0,0.125,12.15,0.0,0,0,0,0.0,12.15,0.0,0,0,0,0.125,12.200000000000001,0.0,0,0,0,kReverse,kReverse,-87.08,2.16,2.46,0.012634277,-1.1385498,0.14605713,34.03,0.0,-13.0,-7.8115997,14.291077,
2242.248594,true,true,true,0.125,12.15,0.0,0,0,0,0.125,12.15,0.0,0,0,0,0.125,12.15,0.0,0,0,0,0.125,12.200000000000001,0.0,0,0,0,0.125,12.15,0.0,0,0,0,0.0,12.15,0.0,0,0,0,0.125,12.200000000000001,0.0,0,0,0,kForward,kReverse,-87.07,2.17,2.47,-0.06317139,-1.0118408,0.076049805,34.03,0.0,-94.0,-7.8103943,14.293961,
2242.2742820000003,true,true,true,0.125,12.15,0.0,0,0,0,0.125,12.15,0.0,0,0,0,0.125,12.15,0.0,0,0,0,0.125,12.200000000000001,0.0,0,0,0,0.125,12.15,0.0,0,0,0,0.0,12.15,0.0,0,0,0,0.125,12.200000000000001,0.0,0,0,0,kForward,kReverse,-87.1,2.17,2.46,-0.10119629,-1.19104,0.18945312,34.03,0.0,-121.0,-7.809967,14.295624,
2242.2968960000003,true,true,true,0.125,12.15,0.0,0,0,0,0.125,12.15,0.0,0,0,0,0.125,12.15,0.0,0,0,0,0.125,12.200000000000001,0.0,0,0,0,0.125,12.15,0.0,0,0,0,0.0,12.15,0.0,0,0,0,0.125,12.200000000000001,0.0,0,0,0,kForward,kReverse,-87.06,2.17,2.47,0.0057373047,-0.72021484,-0.059448242,34.03,0.0,-34.0,-7.8094177,14.29924,
2242.320071,true,true,true,0.125,12.15,0.0,0,0,0,0.125,12.15,0.0,0,0,0,0.125,12.15,0.0,0,0,0,0.125,12.200000000000001,0.0,0,0,0,0.125,12.15,0.0,0,0,0,0.0,12.15,0.0,0,0,0,0.125,12.200000000000001,0.0,0,0,0,kReverse,kReverse,-87.07,2.16,2.47,0.06738281,-0.6069946,-0.08660889,34.03,0.0,27.0,-7.8091736,14.300919,
2242.34369,true,true,true,0.125,12.15,0.0,0,0,0,0.125,12.15,0.0,0,0,0,0.125,12.15,0.0,0,0,0,0.125,12.200000000000001,0.0,0,0,0,0.125,12.15,0.0,0,0,0,0.0,12.15,0.0,0,0,0,0.125,12.200000000000001,0.0,0,0,0,kReverse,kReverse,-87.04,2.17,2.48,0.13220215,-1.0354614,-0.06719971,34.03,0.0,76.0,-7.808487,14.303558,
2242.3643290000005,true,true,true,0.125,12.15,0.0,0,0,0,0.125,12.15,0.0,0,0,0,0.125,12.15,0.0,0,0,0,0.125,12.200000000000001,0.0,0,0,0,0.125,12.15,0.0,0,0,0,0.0,12.15,0.0,0,0,0,0.125,12.200000000000001,0.0,0,0,0,kReverse,kReverse,-87.06,2.17,2.47,0.13653564,-0.9720459,0.09515381,34.03,0.0,107.0,-7.8079834,14.304718,
2242.383656,true,true,true,0.125,12.15,0.0,0,0,0,0.125,12.15,0.0,0,0,0,0.125,12.15,0.0,0,0,0,0.125,12.200000000000001,0.0,0,0,0,0.125,12.15,0.0,0,0,0,0.0,12.15,0.0,0,0,0,0.125,12.200000000000001,0.0,0,0,0,kForward,kReverse,-87.05,2.17,2.48,0.038330078,-1.2834473,0.054016113,34.03,0.0,-8.0,-7.8065643,14.30748,
2242.4046780000003,true,true,true,0.125,12.15,0.0,0,0,0,0.125,12.15,0.0,0,0,0,0.125,12.15,0.0,0,0,0,0.125,12.200000000000001,0.0,0,0,0,0.125,12.15,0.0,0,0,0,0.0,12.15,0.0,0,0,0,0.125,12.200000000000001,0.0,0,0,0,kForward,kReverse,-87.08,2.17,2.47,0.0025634766,-1.1365967,0.13208008,34.03,0.0,-26.0,-7.805847,14.309006,
2242.4252770000003,true,true,true,0.125,12.15,0.0,0,0,0,0.125,12.15,0.0,0,0,0,0.125,12.1,0.0,0,0,0,0.125,12.200000000000001,0.0,0,0,0,0.0,12.15,0.0,0,0,0,0.0,12.15,0.0,0,0,0,0.125,12.200000000000001,0.0,0,0,0,kForward,kReverse,-87.08,2.17,2.48,-0.12640381,-1.0717773,0.09655762,34.03,0.0,-156.0,-7.8047028,14.312698,
2242.446596,true,true,true,0.125,12.15,0.0,0,0,0,0.125,12.15,0.0,0,0,0,0.125,12.1,0.0,0,0,0,0.125,12.200000000000001,0.0,0,0,0,0.0,12.15,0.0,0,0,0,0.0,12.15,0.0,0,0,0,0.125,12.200000000000001,0.0,0,0,0,kForward,kReverse,-87.07,2.16,2.47,-0.08380127,-0.8165283,0.04333496,34.03,0.0,-110.0,-7.804413,14.314713,
2242.465398,true,true,true,0.125,12.15,0.0,0,0,0,0.125,12.15,0.0,0,0,0,0.125,12.1,0.0,0,0,0,0.125,12.200000000000001,0.0,0,0,0,0.0,12.15,0.0,0,0,0,0.0,12.15,0.0,0,0,0,0.125,12.200000000000001,0.0,0,0,0,kForward,kReverse,-87.06,2.15,2.46,-0.019958496,-0.63427734,-0.20196533,34.03,0.0,0.0,-7.8041077,14.318222,
2242.487578,true,true,true,0.125,12.15,0.0,0,0,0,0.125,12.15,0.0,0,0,0,0.125,12.1,0.0,0,0,0,0.125,12.200000000000001,0.0,0,0,0,0.125,12.15,0.0,0,0,0,0.0,12.15,0.0,0,0,0,0.125,12.200000000000001,0.0,0,0,0,kReverse,kReverse,-87.07,2.14,2.45,0.13378906,-0.8251343,-0.15814209,34.03,0.0,73.0,-7.80394,14.319534,
2242.508146,true,true,true,0.125,12.15,0.0,0,0,0,0.125,12.15,0.0,0,0,0,0.125,12.1,0.0,0,0,0,0.125,12.200000000000001,0.0,0,0,0,0.125,12.15,0.0,0,0,0,0.0,12.15,0.0,0,0,0,0.125,12.200000000000001,0.0,0,0,0,kReverse,kReverse,-87.06,2.16,2.46,0.053100586,-0.86224365,-0.09320068,34.03,0.0,1.0,-7.803711,14.320618,
2242.5279960000003,true,true,true,0.125,12.15,0.0,0,0,0,0.125,12.15,0.0,0,0,0,0.125,12.1,0.0,0,0,0,0.125,12.200000000000001,0.0,0,0,0,0.0,12.15,0.0,0,0,0,0.0,12.15,0.0,0,0,0,0.125,12.200000000000001,0.0,0,0,0,kReverse,kReverse,-87.07,2.15,2.45,0.12548828,-1.2779541,0.09460449,34.03,0.0,84.0,-7.8029633,14.322632,
2242.548737,true,true,true,0.125,12.15,0.0,0,0,0,0.125,12.15,0.0,0,0,0,0.125,12.1,0.0,0,0,0,0.125,12.200000000000001,0.0,0,0,0,0.0,12.15,0.0,0,0,0,0.0,12.15,0.0,0,0,0,0.125,12.200000000000001,0.0,0,0,0,kReverse,kReverse,-87.08,2.16,2.46,0.024291992,-1.2269897,0.14385986,34.03,0.0,-6.0,-7.802475,14.323761,
2242.584548,true,true,true,0.125,12.15,0.0,0,0,0,0.125,12.15,0.0,0,0,0,0.125,12.1,0.0,0,0,0,0.125,12.200000000000001,0.0,0,0,0,0.125,12.15,0.0,0,0,0,0.0,12.15,0.0,0,0,0,0.125,12.200000000000001,0.0,0,0,0,kReverse,kReverse,-87.08,2.18,2.47,-0.08319092,-1.1481323,0.056030273,34.03,0.0,-122.0,-7.8014526,14.327988,
2242.6198170000002,true,true,true,0.125,12.15,0.0,0,0,0,0.125,12.15,0.0,0,0,0,0.125,12.1,0.0,0,0,0,0.125,12.200000000000001,0.0,0,0,0,0.125,12.15,0.0,0,0,0,0.0,12.15,0.0,0,0,0,0.125,12.200000000000001,0.0,0,0,0,kForward,kReverse,-87.07,2.15,2.45,0.01751709,-0.6345215,-0.15252686,34.03,0.0,-32.0,-7.801285,14.330994,
2242.6454390000004,true,true,true,0.125,12.15,0.0,0,0,0,0.125,12.15,0.0,0,0,0,0.125,12.1,0.0,0,0,0,0.125,12.200000000000001,0.0,0,0,0,0.125,12.15,0.0,0,0,0,0.0,12.15,0.0,0,0,0,0.125,12.200000000000001,0.0,0,0,0,kForward,kReverse,-87.07,2.15,2.45,0.08105469,-0.73742676,-0.17962646,34.03,0.0,21.0,-7.801239,14.332184,
2242.665662,true,true,true,0.125,12.15,0.0,0,0,0,0.125,12.15,0.0,0,0,0,0.125,12.1,0.0,0,0,0,0.125,12.200000000000001,0.0,0,0,0,0.125,12.15,0.0,0,0,0,0.0,12.15,0.0,0,0,0,0.125,12.200000000000001,0.0,0,0,0,kForward,kReverse,-87.09,2.11,2.42,0.13775635,-0.96832275,0.07550049,34.03,0.0,107.0,-7.8010864,14.333893,
2242.686336,true,true,true,0.125,12.15,0.0,0,0,0,0.125,12.15,0.0,0,0,0,0.125,12.1,0.0,0,0,0,0.125,12.200000000000001,0.0,0,0,0,0.125,12.15,0.0,0,0,0,0.0,12.15,0.0,0,0,0,0.125,12.200000000000001,0.0,0,0,0,kReverse,kReverse,-87.08,2.11,2.42,0.11517334,-0.96643066,0.15008545,34.03,0.0,95.0,-7.8008423,14.334778,
