timer,lineLeft,lineCenter,lineRight,LeftFrontCurrent,LeftFrontVoltage,LeftFrontValue,LeftFrontPosition,LeftFrontVelocity,LeftFrontFaults,LeftRearCurrent,LeftRearVoltage,LeftRearValue,LeftRearPosition,LeftRearVelocity,LeftRearFaults,RightFrontCurrent,RightFrontVoltage,RightFrontValue,RightFrontPosition,RightFrontVelocity,RightFrontFaults,RightRearCurrent,RightRearVoltage,RightRearValue,RightRearPosition,RightRearVelocity,RightRearFaults,LiftCurrent,LiftVoltage,LiftValue,LiftPosition,LiftVelocity,LiftFaults,WristCurrent,WristVoltage,WristValue,WristPosition,WristVelocity,WristFaults,RollerCurrent,RollerVoltage,RollerValue,RollerPosition,RollerVelocity,RollerFaults,PushersState,PivotsState,navx_Pitch,navx_Roll,navx_Yaw,navx_XAcc,navx_YAcc,navx_ZAcc,navx_Temp,navx_Bar,navx_Alt,navx_XDis,navx_YDis,
1985.741384,true,true,true,0.125,12.700000000000001,0.0,0,0,0,0.125,12.700000000000001,0.0,0,0,0,0.125,12.65,0.0,0,0,0,0.125,12.75,0.0,0,0,0,0.125,12.700000000000001,0.0,0,0,0,0.0,12.700000000000001,0.0,0,0,0,0.125,12.75,0.0,0,0,0,kOff,kOff,-87.08,2.14,2.42,0.038330078,-0.98480225,0.029907227,34.0,0.0,0.0,-7.9284363,13.82164,
1985.7587079999998,true,true,true,0.125,12.700000000000001,0.0,0,0,0,0.125,12.700000000000001,0.0,0,0,0,0.125,12.65,0.0,0,0,0,0.125,12.75,0.0,0,0,0,0.0,12.700000000000001,0.0,0,0,0,0.0,12.700000000000001,0.0,0,0,0,0.125,12.75,0.0,0,0,0,kReverse,kReverse,-87.08,2.14,2.42,0.035827637,-0.9834595,0.03942871,34.0,0.0,0.0,-7.9284363,13.82164,
1985.77929,true,true,true,0.125,12.1,0.0,0,0,0,0.125,12.35,0.0,0,0,0,0.125,12.1,0.0,0,0,0,0.125,12.1,0.0,0,0,0,0.0,12.0,0.0,0,0,0,0.0,12.700000000000001,0.0,0,0,0,0.125,11.9,0.0,0,0,0,kReverse,kReverse,-87.08,2.14,2.42,0.0256958,-0.9448242,0.025939941,34.0,0.0,-4.0,-7.9284363,13.82164,
1985.8036829999999,true,true,true,0.125,12.1,0.0,0,0,0,0.125,12.35,0.0,0,0,0,0.125,12.1,0.0,0,0,0,0.125,12.1,0.0,0,0,0,0.0,12.0,0.0,0,0,0,0.0,12.0,0.0,0,0,0,0.125,11.9,0.0,0,0,0,kReverse,kReverse,-87.07,2.13,2.41,0.06750488,-0.9332886,-0.002380371,34.0,0.0,27.0,-7.928421,13.8216095,
1985.825126,true,true,true,0.125,12.1,0.0,0,0,0,0.125,12.35,0.0,0,0,0,0.125,12.1,0.0,0,0,0,0.125,12.1,0.0,0,0,0,0.125,12.0,0.0,0,0,0,0.0,12.0,0.0,0,0,0,0.125,11.9,0.0,0,0,0,kReverse,kReverse,-87.05,2.19,2.47,-0.11138916,-0.70996094,-0.09979248,34.0,0.0,-154.0,-7.928482,13.821503,
1985.847669,true,true,true,0.125,12.1,0.0,0,0,0,0.125,12.35,0.0,0,0,0,0.125,12.1,0.0,0,0,0,0.125,12.1,0.0,0,0,0,0.125,12.0,0.0,0,0,0,0.0,12.0,0.0,0,0,0,0.125,11.9,0.0,0,0,0,kReverse,kReverse,-87.09,2.14,2.42,-0.015991211,-1.1868286,-0.09899902,34.0,0.0,-79.0,-7.9284973,13.820816,
1985.883635,true,true,true,0.125,12.1,0.0,0,0,0,0.125,12.35,0.0,0,0,0,0.125,12.1,0.0,0,0,0,0.125,12.1,0.0,0,0,0,0.125,12.0,0.0,0,0,0,0.0,12.0,0.0,0,0,0,0.125,11.9,0.0,0,0,0,kReverse,kReverse,-87.13,2.13,2.43,-0.0040283203,-1.0821533,0.19207764,34.0,0.0,-22.0,-7.928253,13.82103,
1985.90704,true,true,true,0.125,12.1,0.0,0,0,0,0.125,12.35,0.0,0,0,0,0.125,12.1,0.0,0,0,0,0.125,12.1,0.0,0,0,0,0.125,12.0,0.0,0,0,0,0.0,12.0,0.0,0,0,0,0.125,11.9,0.0,0,0,0,kReverse,kReverse,-87.08,2.16,2.43,-0.12567139,-0.86712646,0.004760742,34.0,0.0,-160.0,-7.928238,13.821442,
1985.9298469999999,true,true,true,0.125,12.1,0.0,0,0,0,0.125,12.3,0.0,0,0,0,0.125,12.25,0.0,0,0,0,0.125,12.3,0.0,0,0,0,0.0,12.3,0.0,0,0,0,0.0,12.0,0.0,0,0,0,0.125,12.35,0.0,0,0,0,kReverse,kReverse,-87.03,2.17,2.46,-0.067993164,-0.65252686,-0.11187744,34.0,0.0,-110.0,-7.9284515,13.822388,
1985.9559889999998,true,true,true,0.125,12.3,0.0,0,0,0,0.125,12.3,0.0,0,0,0,0.125,12.25,0.0,0,0,0,0.125,12.3,0.0,0,0,0,0.0,12.3,0.0,0,0,0,0.0,12.25,0.0,0,0,0,0.125,12.35,0.0,0,0,0,kReverse,kReverse,-87.06,2.16,2.44,-0.038757324,-0.75219727,-0.16497803,34.0,0.0,-93.0,-7.928726,13.822662,
1985.977758,true,true,true,0.125,12.3,0.0,0,0,0,0.125,12.3,0.0,0,0,0,0.125,12.25,0.0,0,0,0,0.125,12.3,0.0,0,0,0,0.0,12.3,0.0,0,0,0,0.0,12.25,0.0,0,0,0,0.125,12.35,0.0,0,0,0,kReverse,kReverse,-87.08,2.14,2.42,0.10461426,-1.0153198,-0.072387695,34.0,0.0,51.0,-7.9293823,13.822327,
1986.0010969999998,true,true,true,0.125,12.3,0.0,0,0,0,0.125,12.3,0.0,0,0,0,0.125,12.25,0.0,0,0,0,0.125,12.3,0.0,0,0,0,0.0,12.3,0.0,0,0,0,0.0,12.25,0.0,0,0,0,0.125,12.35,0.0,0,0,0,kReverse,kReverse,-87.06,2.15,2.43,0.11987305,-1.1549072,0.2230835,34.0,0.0,100.0,-7.9295807,13.822052,
1986.0245009999999,true,true,true,0.125,12.3,0.0,0,0,0,0.125,12.3,0.0,0,0,0,0.125,12.25,0.0,0,0,0,0.125,12.3,0.0,0,0,0,0.125,12.3,0.0,0,0,0,0.0,12.25,0.0,0,0,0,0.125,12.35,0.0,0,0,0,kReverse,kReverse,-87.03,2.16,2.44,0.058410645,-1.1793823,-0.09820557,34.0,0.0,-5.0,-7.9296722,13.821823,
1986.0438229999997,true,true,true,0.125,12.3,0.0,0,0,0,0.125,12.3,0.0,0,0,0,0.125,12.25,0.0,0,0,0,0.125,12.3,0.0,0,0,0,0.125,12.3,0.0,0,0,0,0.0,12.25,0.0,0,0,0,0.125,12.35,0.0,0,0,0,kReverse,kReverse,-87.06,2.17,2.45,-0.035705566,-1.0618286,0.1895752,34.0,0.0,-53.0,-7.929718,13.821701,
1986.0663869999998,true,true,true,0.125,12.3,0.0,0,0,0,0.125,12.3,0.0,0,0,0,0.125,12.25,0.0,0,0,0,0.125,12.3,0.0,0,0,0,0.125,12.3,0.0,0,0,0,0.0,12.25,0.0,0,0,0,0.125,12.35,0.0,0,0,0,kReverse,kReverse,-87.08,2.16,2.43,-0.02947998,-1.0418701,0.2581787,34.0,0.0,-37.0,-7.930008,13.822311,
1986.0883099999999,true,true,true,0.125,12.3,0.0,0,0,0,0.125,12.25,0.0,0,0,0,0.125,12.25,0.0,0,0,0,0.125,12.3,0.0,0,0,0,0.125,12.25,0.0,0,0,0,0.0,12.25,0.0,0,0,0,0.125,12.35,0.0,0,0,0,kReverse,kReverse,-87.05,2.14,2.43,-0.006652832,-0.62994385,-0.07165527,34.0,0.0,-43.0,-7.930481,13.823517,
1986.113508,true,true,true,0.125,12.25,0.0,0,0,0,0.125,12.25,0.0,0,0,0,0.125,12.25,0.0,0,0,0,0.125,12.3,0.0,0,0,0,0.125,12.25,0.0,0,0,0,0.0,12.25,0.0,0,0,0,0.125,12.35,0.0,0,0,0,kReverse,kReverse,-87.02,2.14,2.43,0.06958008,-0.8079834,-0.1932373,34.0,0.0,8.0,-7.9307556,13.823898,
1986.138164,true,true,true,0.125,12.25,0.0,0,0,0,0.125,12.25,0.0,0,0,0,0.125,12.25,0.0,0,0,0,0.125,12.3,0.0,0,0,0,0.125,12.25,0.0,0,0,0,0.0,12.25,0.0,0,0,0,0.125,12.35,0.0,0,0,0,kReverse,kReverse,-87.05,2.12,2.41,0.13647461,-1.1074219,0.09460449,34.0,0.0,101.0,-7.931244,13.823837,
1986.1620429999998,true,true,true,0.125,12.25,0.0,0,0,0,0.125,12.25,0.0,0,0,0,0.125,12.25,0.0,0,0,0,0.125,12.3,0.0,0,0,0,0.125,12.25,0.0,0,0,0,0.0,12.25,0.0,0,0,0,0.125,12.35,0.0,0,0,0,kReverse,kReverse,-87.04,2.11,2.4,0.10461426,-1.21344,0.0513916,34.0,0.0,60.0,-7.9313354,13.823761,
1986.178825,true,true,true,0.125,12.25,0.0,0,0,0,0.125,12.25,0.0,0,0,0,0.125,12.25,0.0,0,0,0,0.125,12.3,0.0,0,0,0,0.125,12.25,0.0,0,0,0,0.0,12.25,0.0,0,0,0,0.125,12.35,0.0,0,0,0,kReverse,kReverse,-87.06,2.12,2.4,0.09008789,-1.1859131,-0.0024414062,34.0,0.0,39.0,-7.931381,13.823639,
1986.2027739999999,true,true,true,0.125,12.25,0.0,0,0,0,0.125,12.25,0.0,0,0,0,0.125,12.25,0.0,0,0,0,0.125,12.3,0.0,0,0,0,0.125,12.25,0.0,0,0,0,0.0,12.25,0.0,0,0,0,0.125,12.35,0.0,0,0,0,kReverse,kReverse,-87.07,2.13,2.41,-0.028259277,-1.0759277,0.18414307,34.0,0.0,-47.0,-7.931488,13.823776,
1986.2237579999999,true,true,true,0.125,12.25,0.0,0,0,0,0.125,12.25,0.0,0,0,0,0.125,12.25,0.0,0,0,0,0.125,12.3,0.0,0,0,0,0.125,12.25,0.0,0,0,0,0.0,12.25,0.0,0,0,0,0.125,12.35,0.0,0,0,0,kReverse,kReverse,-87.07,2.14,2.42,0.002319336,-1.076355,0.19006348,34.0,0.0,-16.0,-7.9316254,13.824173,
1986.245019,true,true,true,0.125,12.25,0.0,0,0,0,0.125,12.25,0.0,0,0,0,0.125,12.25,0.0,0,0,0,0.125,12.3,0.0,0,0,0,0.125,12.25,0.0,0,0,0,0.0,12.25,0.0,0,0,0,0.125,12.35,0.0,0,0,0,kReverse,kReverse,-87.02,2.17,2.46,-0.027160645,-0.60150146,-0.057556152,34.0,0.0,-60.0,-7.932068,13.825272,
1986.268142,true,true,true,0.125,12.25,0.0,0,0,0,0.125,12.25,0.0,0,0,0,0.125,12.25,0.0,0,0,0,0.125,12.25,0.0,0,0,0,0.125,12.25,0.0,0,0,0,0.0,12.25,0.0,0,0,0,0.125,12.3,0.0,0,0,0,kReverse,kReverse,-87.0,2.17,2.46,0.061584473,-0.81677246,-0.20965576,34.0,0.0,-3.0,-7.932358,13.825607,
1986.283859,true,true,true,0.125,12.25,0.0,0,0,0,0.125,12.25,0.0,0,0,0,0.125,12.25,0.0,0,0,0,0.125,12.25,0.0,0,0,0,0.125,12.25,0.0,0,0,0,0.0,12.25,0.0,0,0,0,0.125,12.3,0.0,0,0,0,kReverse,kReverse,-87.01,2.17,2.45,0.09918213,-0.89923096,-0.16278076,34.0,0.0,37.0,-7.9326324,13.825653,
1986.300429,true,true,true,0.125,12.25,0.0,0,0,0,0.125,12.25,0.0,0,0,0,0.125,12.25,0.0,0,0,0,0.125,12.25,0.0,0,0,0,0.125,12.25,0.0,0,0,0,0.0,12.25,0.0,0,0,0,0.125,12.3,0.0,0,0,0,kReverse,kReverse,-87.02,2.15,2.43,0.1281128,-1.2127075,0.09069824,34.0,0.0,88.0,-7.932953,13.825409,
1986.321894,true,true,true,0.125,12.25,0.0,0,0,0,0.125,12.25,0.0,0,0,0,0.125,12.25,0.0,0,0,0,0.125,12.25,0.0,0,0,0,0.125,12.25,0.0,0,0,0,0.0,12.25,0.0,0,0,0,0.125,12.3,0.0,0,0,0,kReverse,kReverse,-87.04,2.16,2.44,0.122558594,-1.196228,0.08679199,34.0,0.0,82.0,-7.9329376,13.825333,
1986.3413939999998,true,true,true,0.125,12.25,0.0,0,0,0,0.125,12.25,0.0,0,0,0,0.125,12.25,0.0,0,0,0,0.125,12.25,0.0,0,0,0,0.125,12.25,0.0,0,0,0,0.0,12.25,0.0,0,0,0,0.125,12.3,0.0,0,0,0,kReverse,kReverse,-87.04,2.17,2.45,-0.020629883,-1.0245361,0.14477539,34.0,0.0,-43.0,-7.932892,13.825348,
1986.363767,true,true,true,0.125,12.25,0.0,0,0,0,0.125,12.25,0.0,0,0,0,0.125,12.25,0.0,0,0,0,0.125,12.25,0.0,0,0,0,0.125,12.25,0.0,0,0,0,0.0,12.25,0.0,0,0,0,0.125,12.3,0.0,0,0,0,kReverse,kReverse,-87.04,2.18,2.46,-0.028564453,-1.0878296,0.2109375,34.0,0.0,-45.0,-7.93309,13.826019,
1986.3861749999999,true,true,true,0.125,12.25,0.0,0,0,0,0.125,12.25,0.0,0,0,0,0.125,12.25,0.0,0,0,0,0.125,12.25,0.0,0,0,0,0.125,12.25,0.0,0,0,0,0.0,12.25,0.0,0,0,0,0.125,12.3,0.0,0,0,0,kReverse,kReverse,-87.04,2.19,2.47,-0.04437256,-0.6703491,0.054016113,34.0,0.0,-65.0,-7.933304,13.82663,
1986.4057859999998,true,true,true,0.125,12.25,0.0,0,0,0,0.125,12.25,0.0,0,0,0,0.125,12.25,0.0,0,0,0,0.125,12.25,0.0,0,0,0,0.125,12.25,0.0,0,0,0,0.0,12.25,0.0,0,0,0,0.125,12.3,0.0,0,0,0,kReverse,kReverse,-87.01,2.17,2.46,0.050231934,-0.8311157,-0.2234497,34.0,0.0,-16.0,-7.93396,13.827438,
1986.427747,true,true,true,0.125,12.25,0.0,0,0,0,0.125,12.25,0.0,0,0,0,0.125,12.25,0.0,0,0,0,0.125,12.25,0.0,0,0,0,0.125,12.25,0.0,0,0,0,0.0,12.25,0.0,0,0,0,0.125,12.3,0.0,0,0,0,kReverse,kReverse,-87.03,2.16,2.45,0.12451172,-1.0316772,-0.13336182,34.0,0.0,60.0,-7.9342804,13.827408,
1986.450586,true,true,true,0.125,12.25,0.0,0,0,0,0.125,12.25,0.0,0,0,0,0.125,12.25,0.0,0,0,0,0.125,12.25,0.0,0,0,0,0.125,12.25,0.0,0,0,0,0.0,12.25,0.0,0,0,0,0.125,12.3,0.0,0,0,0,kReverse,kReverse,-87.03,2.14,2.43,0.13427734,-1.2702637,0.053527832,34.0,0.0,86.0,-7.934555,13.827194,
1986.470636,true,true,true,0.125,12.25,0.0,0,0,0,0.125,12.25,0.0,0,0,0,0.125,12.25,0.0,0,0,0,0.125,12.25,0.0,0,0,0,0.125,12.25,0.0,0,0,0,0.0,12.25,0.0,0,0,0,0.125,12.3,0.0,0,0,0,kReverse,kReverse,-87.04,2.15,2.44,0.043029785,-1.1710815,0.028137207,34.0,0.0,-2.0,-7.9345703,13.827087,
1986.4949249999997,true,true,true,0.125,12.25,0.0,0,0,0,0.125,12.25,0.0,0,0,0,0.125,12.25,0.0,0,0,0,0.125,12.25,0.0,0,0,0,0.125,12.25,0.0,0,0,0,0.0,12.25,0.0,0,0,0,0.125,12.3,0.0,0,0,0,kReverse,kReverse,-87.07,2.15,2.43,-0.031066895,-1.1044922,0.23901367,34.0,0.0,-44.0,-7.934723,13.827423,
1986.514163,true,true,true,0.125,12.25,0.0,0,0,0,0.125,12.25,0.0,0,0,0,0.125,12.25,0.0,0,0,0,0.125,12.25,0.0,0,0,0,0.125,12.25,0.0,0,0,0,0.0,12.25,0.0,0,0,0,0.125,12.3,0.0,0,0,0,kReverse,kReverse,-87.07,2.16,2.44,-0.023010254,-0.9700928,0.087768555,34.0,0.0,-51.0,-7.934906,13.827927,
1986.539116,true,true,true,0.125,12.25,0.0,0,0,0,0.125,12.25,0.0,0,0,0,0.125,12.25,0.0,0,0,0,0.125,12.25,0.0,0,0,0,0.125,12.25,0.0,0,0,0,0.0,12.25,0.0,0,0,0,0.125,12.3,0.0,0,0,0,kReverse,kReverse,-87.02,2.17,2.45,0.024108887,-0.7243042,-0.13684082,34.0,0.0,-25.0,-7.935486,13.829025,
1986.561031,true,true,true,0.125,12.25,0.0,0,0,0,0.125,12.25,0.0,0,0,0,0.125,12.25,0.0,0,0,0,0.125,12.25,0.0,0,0,0,0.125,12.25,0.0,0,0,0,0.0,12.25,0.0,0,0,0,0.125,12.3,0.0,0,0,0,kReverse,kReverse,-87.01,2.17,2.45,0.090148926,-0.9020996,-0.25750732,34.0,0.0,15.0,-7.9358063,13.829239,
1986.584647,true,true,true,0.125,12.200000000000001,0.0,0,0,0,0.125,12.25,0.0,0,0,0,0.125,12.200000000000001,0.0,0,0,0,0.125,12.25,0.0,0,0,0,0.125,12.25,0.0,0,0,0,0.0,12.25,0.0,0,0,0,0.125,12.25,0.0,0,0,0,kReverse,kReverse,-87.04,2.15,2.43,0.13720703,-1.2692261,0.081604004,34.0,0.0,93.0,-7.9362335,13.829132,
1986.606042,true,true,true,0.125,12.200000000000001,0.0,0,0,0,0.125,12.25,0.0,0,0,0,0.125,12.200000000000001,0.0,0,0,0,0.125,12.25,0.0,0,0,0,0.125,12.25,0.0,0,0,0,0.0,12.200000000000001,0.0,0,0,0,0.125,12.25,0.0,0,0,0,kReverse,kReverse,-87.03,2.16,2.44,0.11773682,-1.2051392,0.055847168,34.0,0.0,73.0,-7.936264,13.829086,
1986.627159,true,true,true,0.125,12.200000000000001,0.0,0,0,0,0.125,12.25,0.0,0,0,0,0.125,12.200000000000001,0.0,0,0,0,0.125,12.25,0.0,0,0,0,0.125,12.25,0.0,0,0,0,0.0,12.200000000000001,0.0,0,0,0,0.125,12.25,0.0,0,0,0,kReverse,kReverse,-87.05,2.17,2.45,-0.04840088,-1.0136108,0.23803711,34.0,0.0,-57.0,-7.9362335,13.82933,
1986.646743,true,true,true,0.125,12.200000000000001,0.0,0,0,0,0.125,12.25,0.0,0,0,0,0.125,12.200000000000001,0.0,0,0,0,0.125,12.25,0.0,0,0,0,0.125,12.25,0.0,0,0,0,0.0,12.200000000000001,0.0,0,0,0,0.125,12.25,0.0,0,0,0,kReverse,kReverse,-87.05,2.17,2.45,-0.031555176,-1.0681763,0.14282227,34.0,0.0,-56.0,-7.93631,13.829788,
1986.6677659999998,true,true,true,0.125,12.200000000000001,0.0,0,0,0,0.125,12.25,0.0,0,0,0,0.125,12.200000000000001,0.0,0,0,0,0.125,12.25,0.0,0,0,0,0.125,12.25,0.0,0,0,0,0.0,12.200000000000001,0.0,0,0,0,0.125,12.25,0.0,0,0,0,kReverse,kReverse,-87.05,2.19,2.47,-0.06359863,-0.8152466,0.1251831,34.0,0.0,-80.0,-7.9364777,13.830399,
1986.6884909999999,true,true,true,0.125,12.200000000000001,0.0,0,0,0,0.125,12.25,0.0,0,0,0,0.125,12.200000000000001,0.0,0,0,0,0.125,12.25,0.0,0,0,0,0.125,12.25,0.0,0,0,0,0.0,12.200000000000001,0.0,0,0,0,0.125,12.25,0.0,0,0,0,kReverse,kReverse,-87.02,2.17,2.45,0.059814453,-0.800354,-0.2111206,34.0,0.0,-4.0,-7.9371185,13.83139,
1986.7123969999998,true,true,true,0.125,12.200000000000001,0.0,0,0,0,0.125,12.25,0.0,0,0,0,0.125,12.200000000000001,0.0,0,0,0,0.125,12.25,0.0,0,0,0,0.125,12.25,0.0,0,0,0,0.0,12.200000000000001,0.0,0,0,0,0.125,12.25,0.0,0,0,0,kReverse,kReverse,-87.04,2.15,2.44,0.13720703,-1.1997681,0.011291504,34.0,0.0,86.0,-7.9376526,13.831482,
1986.737551,true,true,true,0.125,12.200000000000001,0.0,0,0,0,0.125,12.200000000000001,0.0,0,0,0,0.125,12.200000000000001,0.0,0,0,0,0.125,12.25,0.0,0,0,0,0.125,12.200000000000001,0.0,0,0,0,0.0,12.200000000000001,0.0,0,0,0,0.125,12.25,0.0,0,0,0,kReverse,kReverse,-87.03,2.14,2.43,0.14135742,-1.2214966,0.08477783,34.0,0.0,100.0,-7.9377594,13.831451,
1986.762873,true,true,true,0.125,12.200000000000001,0.0,0,0,0,0.125,12.200000000000001,0.0,0,0,0,0.125,12.200000000000001,0.0,0,0,0,0.125,12.25,0.0,0,0,0,0.125,12.200000000000001,0.0,0,0,0,0.0,12.200000000000001,0.0,0,0,0,0.125,12.25,0.0,0,0,0,kReverse,kReverse,-87.05,2.15,2.43,0.11791992,-1.180603,0.047546387,34.0,0.0,73.0,-7.937744,13.831436,
1986.7845419999999,true,true,true,0.125,12.200000000000001,0.0,0,0,0,0.125,12.200000000000001,0.0,0,0,0,0.125,12.200000000000001,0.0,0,0,0,0.125,12.25,0.0,0,0,0,0.125,12.200000000000001,0.0,0,0,0,0.0,12.200000000000001,0.0,0,0,0,0.125,12.25,0.0,0,0,0,kReverse,kReverse,-87.06,2.17,2.45,-0.055664062,-1.0529785,0.1749878,34.0,0.0,-75.0,-7.9378357,13.831711,
1986.807787,true,true,true,0.125,12.200000000000001,0.0,0,0,0,0.125,12.200000000000001,0.0,0,0,0,0.125,12.200000000000001,0.0,0,0,0,0.125,12.25,0.0,0,0,0,0.125,12.200000000000001,0.0,0,0,0,0.0,12.200000000000001,0.0,0,0,0,0.125,12.25,0.0,0,0,0,kReverse,kReverse,-87.07,2.17,2.45,-0.032226562,-1.0354004,0.2006836,34.0,0.0,-47.0,-7.938019,13.832138,
1986.828617,true,true,true,0.125,12.200000000000001,0.0,0,0,0,0.125,12.200000000000001,0.0,0,0,0,0.125,12.200000000000001,0.0,0,0,0,0.125,12.25,0.0,0,0,0,0.125,12.200000000000001,0.0,0,0,0,0.0,12.200000000000001,0.0,0,0,0,0.125,12.25,0.0,0,0,0,kReverse,kReverse,-87.05,2.18,2.46,-0.059692383,-0.62023926,-0.008972168,34.0,0.0,-86.0,-7.9382935,13.832687,
1986.8500329999997,true,true,true,0.125,12.200000000000001,0.0,0,0,0,0.125,12.200000000000001,0.0,0,0,0,0.125,12.200000000000001,0.0,0,0,0,0.125,12.25,0.0,0,0,0,0.125,12.200000000000001,0.0,0,0,0,0.0,12.200000000000001,0.0,0,0,0,0.125,12.25,0.0,0,0,0,kReverse,kReverse,-87.01,2.17,2.46,0.059753418,-0.8461304,-0.19360352,34.0,0.0,-3.0,-7.939041,13.8333435,
1986.875073,true,true,true,0.125,12.200000000000001,0.0,0,0,0,0.125,12.200000000000001,0.0,0,0,0,0.125,12.200000000000001,0.0,0,0,0,0.125,12.25,0.0,0,0,0,0.125,12.200000000000001,0.0,0,0,0,0.0,12.200000000000001,0.0,0,0,0,0.125,12.25,0.0,0,0,0,kReverse,kReverse,-87.03,2.16,2.45,0.13647461,-1.118042,-0.07495117,34.0,0.0,77.0,-7.939392,13.833328,
1986.9000999999998,true,true,true,0.125,12.200000000000001,0.0,0,0,0,0.125,12.200000000000001,0.0,0,0,0,0.125,12.200000000000001,0.0,0,0,0,0.125,12.200000000000001,0.0,0,0,0,0.125,12.200000000000001,0.0,0,0,0,0.0,12.200000000000001,0.0,0,0,0,0.125,12.25,0.0,0,0,0,kReverse,kReverse,-87.03,2.15,2.44,0.14093018,-1.2369995,0.06323242,34.0,0.0,95.0,-7.9396667,13.833221,
1986.92345,true,true,true,0.125,12.200000000000001,0.0,0,0,0,0.125,12.200000000000001,0.0,0,0,0,0.125,12.200000000000001,0.0,0,0,0,0.125,12.200000000000001,0.0,0,0,0,0.0,12.200000000000001,0.0,0,0,0,0.0,12.200000000000001,0.0,0,0,0,0.125,12.25,0.0,0,0,0,kReverse,kReverse,-87.04,2.17,2.45,0.0134887695,-1.0613403,0.059020996,34.0,0.0,-23.0,-7.939682,13.833206,
1986.941046,true,true,true,0.125,12.200000000000001,0.0,0,0,0,0.125,12.200000000000001,0.0,0,0,0,0.125,12.200000000000001,0.0,0,0,0,0.125,12.200000000000001,0.0,0,0,0,0.0,12.200000000000001,0.0,0,0,0,0.0,12.200000000000001,0.0,0,0,0,0.125,12.25,0.0,0,0,0,kReverse,kReverse,-87.05,2.18,2.46,-0.02355957,-1.126831,0.22692871,34.0,0.0,-39.0,-7.939911,13.83374,
1986.964942,true,true,true,0.125,12.200000000000001,0.0,0,0,0,0.125,12.200000000000001,0.0,0,0,0,0.125,12.200000000000001,0.0,0,0,0,0.125,12.200000000000001,0.0,0,0,0,0.0,12.200000000000001,0.0,0,0,0,0.0,12.200000000000001,0.0,0,0,0,0.125,12.25,0.0,0,0,0,kReverse,kReverse,-87.03,2.19,2.47,-0.04901123,-0.63446045,-0.03515625,34.0,0.0,-80.0,-7.94046,13.834793,
1986.995736,true,true,true,0.125,12.200000000000001,0.0,0,0,0,0.125,12.200000000000001,0.0,0,0,0,0.125,12.200000000000001,0.0,0,0,0,0.125,12.200000000000001,0.0,0,0,0,0.125,12.200000000000001,0.0,0,0,0,0.0,12.200000000000001,0.0,0,0,0,0.125,12.25,0.0,0,0,0,kReverse,kReverse,-87.0,2.19,2.48,0.047912598,-0.8208618,-0.18615723,34.0,0.0,-13.0,-7.940857,13.835144,
1987.019395,true,true,true,0.125,12.200000000000001,0.0,0,0,0,0.125,12.200000000000001,0.0,0,0,0,0.125,12.200000000000001,0.0,0,0,0,0.125,12.200000000000001,0.0,0,0,0,0.125,12.200000000000001,0.0,0,0,0,0.0,12.200000000000001,0.0,0,0,0,0.125,12.25,0.0,0,0,0,kReverse,kReverse,-87.03,2.16,2.45,0.1564331,-1.1144409,0.08026123,34.0,0.0,118.0,-7.941452,13.835114,
1987.0451620000001,true,true,true,0.125,12.200000000000001,0.0,0,0,0,0.125,12.200000000000001,0.0,0,0,0,0.125,12.200000000000001,0.0,0,0,0,0.125,12.200000000000001,0.0,0,0,0,0.125,12.200000000000001,0.0,0,0,0,0.0,12.200000000000001,0.0,0,0,0,0.125,12.25,0.0,0,0,0,kReverse,kReverse,-87.04,2.17,2.45,0.06524658,-1.1445312,0.02734375,34.0,0.0,19.0,-7.9415436,13.835068,
1987.069865,true,true,true,0.125,12.200000000000001,0.0,0,0,0,0.125,12.200000000000001,0.0,0,0,0,0.125,12.200000000000001,0.0,0,0,0,0.125,12.200000000000001,0.0,0,0,0,0.125,12.200000000000001,0.0,0,0,0,0.0,12.200000000000001,0.0,0,0,0,0.125,12.25,0.0,0,0,0,kReverse,kReverse,-87.06,2.16,2.44,-0.036499023,-1.1195068,0.22589111,34.0,0.0,-51.0,-7.9416656,13.835556,
1987.090058,true,true,true,0.125,12.200000000000001,0.0,0,0,0,0.125,12.200000000000001,0.0,0,0,0,0.125,12.200000000000001,0.0,0,0,0,0.125,12.200000000000001,0.0,0,0,0,0.125,12.200000000000001,0.0,0,0,0,0.0,12.200000000000001,0.0,0,0,0,0.125,12.25,0.0,0,0,0,kReverse,kReverse,-87.06,2.17,2.45,-0.039794922,-0.928772,0.06036377,34.0,0.0,-70.0,-7.941864,13.836075,
1987.111263,true,true,true,0.125,12.200000000000001,0.0,0,0,0,0.125,12.200000000000001,0.0,0,0,0,0.125,12.200000000000001,0.0,0,0,0,0.125,12.200000000000001,0.0,0,0,0,0.125,12.200000000000001,0.0,0,0,0,0.0,12.200000000000001,0.0,0,0,0,0.125,12.25,0.0,0,0,0,kReverse,kReverse,-87.05,2.18,2.46,-0.070251465,-0.6350708,0.06933594,34.0,0.0,-86.0,-7.942154,13.83667,
1987.1356739999999,true,true,true,0.125,12.200000000000001,0.0,0,0,0,0.125,12.200000000000001,0.0,0,0,0,0.125,12.200000000000001,0.0,0,0,0,0.125,12.200000000000001,0.0,0,0,0,0.0,12.200000000000001,0.0,0,0,0,0.0,12.200000000000001,0.0,0,0,0,0.125,12.25,0.0,0,0,0,kReverse,kReverse,-87.02,2.17,2.45,0.115478516,-0.9628906,-0.24072266,34.0,0.0,39.0,-7.942917,13.837341,
1987.159117,true,true,true,0.125,12.200000000000001,0.0,0,0,0,0.125,12.200000000000001,0.0,0,0,0,0.125,12.200000000000001,0.0,0,0,0,0.125,12.200000000000001,0.0,0,0,0,0.0,12.200000000000001,0.0,0,0,0,0.0,12.200000000000001,0.0,0,0,0,0.125,12.25,0.0,0,0,0,kReverse,kReverse,-87.04,2.16,2.45,0.14953613,-1.0402832,0.04083252,34.0,0.0,109.0,-7.9431915,13.837311,
1987.180731,true,true,true,0.125,12.200000000000001,0.0,0,0,0,0.125,12.200000000000001,0.0,0,0,0,0.125,12.200000000000001,0.0,0,0,0,0.125,12.200000000000001,0.0,0,0,0,0.0,12.200000000000001,0.0,0,0,0,0.0,12.200000000000001,0.0,0,0,0,0.125,12.25,0.0,0,0,0,kReverse,kReverse,-87.03,2.16,2.45,0.12054443,-1.1873779,0.026367188,34.03,0.0,72.0,-7.9433136,13.83728,
1987.203798,true,true,true,0.125,12.200000000000001,0.0,0,0,0,0.125,12.200000000000001,0.0,0,0,0,0.125,12.200000000000001,0.0,0,0,0,0.125,12.200000000000001,0.0,0,0,0,0.0,12.200000000000001,0.0,0,0,0,0.0,12.200000000000001,0.0,0,0,0,0.125,12.25,0.0,0,0,0,kReverse,kReverse,-87.04,2.18,2.46,-0.050964355,-1.0759888,0.2131958,34.03,0.0,-66.0,-7.9432983,13.8376465,
1987.228015,true,true,true,0.125,12.200000000000001,0.0,0,0,0,0.125,12.200000000000001,0.0,0,0,0,0.125,12.200000000000001,0.0,0,0,0,0.125,12.200000000000001,0.0,0,0,0,0.125,12.200000000000001,0.0,0,0,0,0.0,12.200000000000001,0.0,0,0,0,0.125,12.25,0.0,0,0,0,kReverse,kReverse,-87.04,2.19,2.47,-0.032043457,-1.029541,0.083862305,34.03,0.0,-64.0,-7.943405,13.8381195,
1987.250059,true,true,true,0.125,12.200000000000001,0.0,0,0,0,0.125,12.200000000000001,0.0,0,0,0,0.125,12.200000000000001,0.0,0,0,0,0.125,12.200000000000001,0.0,0,0,0,0.125,12.200000000000001,0.0,0,0,0,0.0,12.200000000000001,0.0,0,0,0,0.125,12.25,0.0,0,0,0,kReverse,kReverse,-87.0,2.19,2.48,0.0025634766,-0.69281006,-0.13952637,34.03,0.0,-46.0,-7.943939,13.839279,
1987.2696159999998,true,true,true,0.125,12.200000000000001,0.0,0,0,0,0.125,12.200000000000001,0.0,0,0,0,0.125,12.200000000000001,0.0,0,0,0,0.125,12.200000000000001,0.0,0,0,0,0.125,12.200000000000001,0.0,0,0,0,0.0,12.200000000000001,0.0,0,0,0,0.125,12.25,0.0,0,0,0,kReverse,kReverse,-87.0,2.19,2.47,0.09564209,-0.93188477,-0.27941895,34.03,0.0,15.0,-7.944275,13.839539,
1987.2928909999998,true,true,true,0.125,12.200000000000001,0.0,0,0,0,0.125,12.200000000000001,0.0,0,0,0,0.125,12.200000000000001,0.0,0,0,0,0.125,12.200000000000001,0.0,0,0,0,0.0,12.200000000000001,0.0,0,0,0,0.0,12.200000000000001,0.0,0,0,0,0.125,12.25,0.0,0,0,0,kReverse,kReverse,-87.03,2.16,2.45,0.14587402,-1.2594604,0.10168457,34.03,0.0,105.0,-7.9446716,13.839523,
1987.314293,true,true,true,0.125,12.200000000000001,0.0,0,0,0,0.125,12.200000000000001,0.0,0,0,0,0.125,12.200000000000001,0.0,0,0,0,0.125,12.200000000000001,0.0,0,0,0,0.0,12.200000000000001,0.0,0,0,0,0.0,12.200000000000001,0.0,0,0,0,0.125,12.25,0.0,0,0,0,kReverse,kReverse,-87.02,2.16,2.45,0.1282959,-1.2001953,0.034484863,34.03,0.0,80.0,-7.944687,13.839523,
1987.335875,true,true,true,0.125,12.200000000000001,0.0,0,0,0,0.125,12.200000000000001,0.0,0,0,0,0.125,12.200000000000001,0.0,0,0,0,0.125,12.200000000000001,0.0,0,0,0,0.0,12.200000000000001,0.0,0,0,0,0.0,12.200000000000001,0.0,0,0,0,0.125,12.25,0.0,0,0,0,kReverse,kReverse,-87.05,2.17,2.45,0.023803711,-1.0166016,0.117492676,34.03,0.0,-3.0,-7.944641,13.839569,
1987.3591679999997,true,true,true,0.125,12.200000000000001,0.0,0,0,0,0.125,12.200000000000001,0.0,0,0,0,0.125,12.200000000000001,0.0,0,0,0,0.125,12.200000000000001,0.0,0,0,0,0.125,12.200000000000001,0.0,0,0,0,0.0,12.200000000000001,0.0,0,0,0,0.125,12.25,0.0,0,0,0,kReverse,kReverse,-87.05,2.18,2.46,-0.02960205,-1.0679932,0.12658691,34.03,0.0,-57.0,-7.944748,13.8402405,
1987.379459,true,true,true,0.125,12.200000000000001,0.0,0,0,0,0.125,12.200000000000001,0.0,0,0,0,0.125,12.200000000000001,0.0,0,0,0,0.125,12.200000000000001,0.0,0,0,0,0.125,12.200000000000001,0.0,0,0,0,0.0,12.200000000000001,0.0,0,0,0,0.125,12.25,0.0,0,0,0,kReverse,kReverse,-87.05,2.19,2.47,-0.07739258,-0.7354126,0.16168213,34.03,0.0,-85.0,-7.9449463,13.840836,
1987.404887,true,true,true,0.125,12.200000000000001,0.0,0,0,0,0.125,12.200000000000001,0.0,0,0,0,0.125,12.200000000000001,0.0,0,0,0,0.125,12.200000000000001,0.0,0,0,0,0.0,12.200000000000001,0.0,0,0,0,0.0,12.200000000000001,0.0,0,0,0,0.125,12.25,0.0,0,0,0,kReverse,kReverse,-87.02,2.17,2.45,0.08538818,-0.8833618,-0.25274658,34.03,0.0,11.0,-7.9456024,13.841751,
1987.426105,true,true,true,0.125,12.200000000000001,0.0,0,0,0,0.125,12.200000000000001,0.0,0,0,0,0.125,12.200000000000001,0.0,0,0,0,0.125,12.200000000000001,0.0,0,0,0,0.0,12.200000000000001,0.0,0,0,0,0.0,12.200000000000001,0.0,0,0,0,0.125,12.25,0.0,0,0,0,kReverse,kReverse,-87.04,2.17,2.45,0.12524414,-0.9560547,-0.028442383,34.03,0.0,79.0,-7.9458923,13.841827,
1987.445855,true,true,true,0.125,12.200000000000001,0.0,0,0,0,0.125,12.200000000000001,0.0,0,0,0,0.125,12.200000000000001,0.0,0,0,0,0.125,12.200000000000001,0.0,0,0,0,0.0,12.200000000000001,0.0,0,0,0,0.0,12.200000000000001,0.0,0,0,0,0.125,12.25,0.0,0,0,0,kReverse,kReverse,-87.03,2.14,2.43,0.14141846,-1.2109985,0.057556152,34.03,0.0,96.0,-7.9460754,13.841904,
1987.4681209999999,true,true,true,0.125,12.200000000000001,0.0,0,0,0,0.125,12.200000000000001,0.0,0,0,0,0.125,12.200000000000001,0.0,0,0,0,0.125,12.200000000000001,0.0,0,0,0,0.125,12.200000000000001,0.0,0,0,0,0.0,12.200000000000001,0.0,0,0,0,0.125,12.25,0.0,0,0,0,kReverse,kReverse,-87.06,2.15,2.43,0.05041504,-1.045227,0.087524414,34.03,0.0,18.0,-7.945999,13.842209,
1987.4886679999997,true,true,true,0.125,12.200000000000001,0.0,0,0,0,0.125,12.200000000000001,0.0,0,0,0,0.125,12.200000000000001,0.0,0,0,0,0.125,12.200000000000001,0.0,0,0,0,0.125,12.200000000000001,0.0,0,0,0,0.0,12.200000000000001,0.0,0,0,0,0.125,12.25,0.0,0,0,0,kReverse,kReverse,-87.05,2.17,2.45,-0.02319336,-1.0792236,0.12597656,34.03,0.0,-51.0,-7.9460754,13.842621,
1987.509889,true,true,true,0.125,12.200000000000001,0.0,0,0,0,0.125,12.200000000000001,0.0,0,0,0,0.125,12.200000000000001,0.0,0,0,0,0.125,12.200000000000001,0.0,0,0,0,0.125,12.200000000000001,0.0,0,0,0,0.0,12.200000000000001,0.0,0,0,0,0.125,12.25,0.0,0,0,0,kReverse,kReverse,-87.06,2.19,2.47,-0.0657959,-0.76934814,0.17401123,34.03,0.0,-73.0,-7.9462433,13.843216,
1987.5292889999998,true,true,true,0.125,12.200000000000001,0.0,0,0,0,0.125,12.200000000000001,0.0,0,0,0,0.125,12.15,0.0,0,0,0,0.125,12.200000000000001,0.0,0,0,0,0.125,12.200000000000001,0.0,0,0,0,0.0,12.200000000000001,0.0,0,0,0,0.125,12.25,0.0,0,0,0,kReverse,kReverse,-87.02,2.18,2.46,0.07537842,-0.8699341,-0.2432251,34.03,0.0,3.0,-7.9468384,13.844131,
1987.550589,true,true,true,0.125,12.200000000000001,0.0,0,0,0,0.125,12.200000000000001,0.0,0,0,0,0.125,12.15,0.0,0,0,0,0.125,12.200000000000001,0.0,0,0,0,0.125,12.200000000000001,0.0,0,0,0,0.0,12.200000000000001,0.0,0,0,0,0.125,12.25,0.0,0,0,0,kReverse,kReverse,-87.03,2.19,2.47,0.12683105,-0.9460449,-0.047973633,34.03,0.0,78.0,-7.947098,13.8441925,
1987.571616,true,true,true,0.125,12.200000000000001,0.0,0,0,0,0.125,12.200000000000001,0.0,0,0,0,0.125,12.15,0.0,0,0,0,0.125,12.200000000000001,0.0,0,0,0,0.125,12.200000000000001,0.0,0,0,0,0.0,12.200000000000001,0.0,0,0,0,0.125,12.25,0.0,0,0,0,kReverse,kReverse,-87.03,2.16,2.45,0.1486206,-1.2183838,0.08258057,34.03,0.0,106.0,-7.9472504,13.8441925,
1987.591754,true,true,true,0.125,12.200000000000001,0.0,0,0,0,0.125,12.200000000000001,0.0,0,0,0,0.125,12.15,0.0,0,0,0,0.125,12.200000000000001,0.0,0,0,0,0.125,12.200000000000001,0.0,0,0,0,0.0,12.200000000000001,0.0,0,0,0,0.125,12.25,0.0,0,0,0,kForward,kReverse,-87.05,2.17,2.45,0.06890869,-1.0569458,0.07598877,34.03,0.0,33.0,-7.9471436,13.844284,
1987.622642,true,true,true,0.125,12.200000000000001,0.0,0,0,0,0.125,12.200000000000001,0.0,0,0,0,0.125,12.15,0.0,0,0,0,0.125,12.200000000000001,0.0,0,0,0,0.125,12.200000000000001,0.0,0,0,0,0.0,12.200000000000001,0.0,0,0,0,0.125,12.25,0.0,0,0,0,kForward,kReverse,-87.06,2.17,2.45,-0.020202637,-1.0831909,0.14172363,34.03,0.0,-46.0,-7.947098,13.844879,
1987.6434849999998,true,true,true,0.125,12.200000000000001,0.0,0,0,0,0.125,12.200000000000001,0.0,0,0,0,0.125,12.15,0.0,0,0,0,0.125,12.200000000000001,0.0,0,0,0,0.125,12.200000000000001,0.0,0,0,0,0.0,12.200000000000001,0.0,0,0,0,0.125,12.25,0.0,0,0,0,kForward,kReverse,-87.06,2.19,2.47,-0.06774902,-0.7908325,0.15356445,34.03,0.0,-79.0,-7.94722,13.845444,
1987.664086,true,true,true,0.125,12.200000000000001,0.0,0,0,0,0.125,12.200000000000001,0.0,0,0,0,0.125,12.15,0.0,0,0,0,0.125,12.200000000000001,0.0,0,0,0,0.125,12.200000000000001,0.0,0,0,0,0.0,12.200000000000001,0.0,0,0,0,0.125,12.25,0.0,0,0,0,kForward,kReverse,-87.03,2.16,2.45,0.07849121,-0.85943604,-0.22784424,34.03,0.0,9.0,-7.9477234,13.8463745,
1987.685704,true,true,true,0.125,12.200000000000001,0.0,0,0,0,0.125,12.200000000000001,0.0,0,0,0,0.125,12.15,0.0,0,0,0,0.125,12.200000000000001,0.0,0,0,0,0.125,12.200000000000001,0.0,0,0,0,0.0,12.200000000000001,0.0,0,0,0,0.125,12.25,0.0,0,0,0,kForward,kReverse,-87.04,2.17,2.45,0.11206055,-0.92974854,-0.066589355,34.04,0.0,62.0,-7.9479523,13.846451,
1987.707122,true,true,true,0.125,12.15,0.0,0,0,0,0.125,12.200000000000001,0.0,0,0,0,0.125,12.15,0.0,0,0,0,0.125,12.200000000000001,0.0,0,0,0,0.125,12.200000000000001,0.0,0,0,0,0.0,12.15,0.0,0,0,0,0.125,12.25,0.0,0,0,0,kForward,kReverse,-87.05,2.14,2.42,0.14752197,-1.1907349,0.06750488,34.04,0.0,105.0,-7.9480286,13.846481,
1987.72773,true,true,true,0.125,12.15,0.0,0,0,0,0.125,12.200000000000001,0.0,0,0,0,0.125,12.15,0.0,0,0,0,0.125,12.200000000000001,0.0,0,0,0,0.125,12.200000000000001,0.0,0,0,0,0.0,12.15,0.0,0,0,0,0.125,12.25,0.0,0,0,0,kForward,kReverse,-87.06,2.14,2.42,-0.0014038086,-1.0793457,0.014709473,34.04,0.0,-44.0,-7.9479523,13.846481,
1987.747876,true,true,true,0.125,12.15,0.0,0,0,0,0.125,12.200000000000001,0.0,0,0,0,0.125,12.15,0.0,0,0,0,0.125,12.200000000000001,0.0,0,0,0,0.125,12.200000000000001,0.0,0,0,0,0.0,12.15,0.0,0,0,0,0.125,12.25,0.0,0,0,0,kForward,kReverse,-87.07,2.15,2.43,-0.03302002,-0.967041,0.3086548,34.04,0.0,-30.0,-7.9479218,13.846664,
1987.768934,true,true,true,0.125,12.15,0.0,0,0,0,0.125,12.200000000000001,0.0,0,0,0,0.125,12.15,0.0,0,0,0,0.125,12.200000000000001,0.0,0,0,0,0.125,12.200000000000001,0.0,0,0,0,0.0,12.15,0.0,0,0,0,0.125,12.25,0.0,0,0,0,kForward,kReverse,-87.05,2.19,2.47,-0.10180664,-0.7817383,0.14733887,34.04,0.0,-113.0,-7.948044,13.847763,
1987.790741,true,true,true,0.125,12.15,0.0,0,0,0,0.125,12.200000000000001,0.0,0,0,0,0.125,12.15,0.0,0,0,0,0.125,12.200000000000001,0.0,0,0,0,0.125,12.200000000000001,0.0,0,0,0,0.0,12.15,0.0,0,0,0,0.125,12.25,0.0,0,0,0,kForward,kReverse,-87.02,2.18,2.46,-0.031433105,-0.6044922,-0.09814453,34.04,0.0,-70.0,-7.948288,13.848419,
1987.8148359999998,true,true,true,0.125,12.15,0.0,0,0,0,0.125,12.200000000000001,0.0,0,0,0,0.125,12.15,0.0,0,0,0,0.125,12.200000000000001,0.0,0,0,0,0.125,12.200000000000001,0.0,0,0,0,0.0,12.15,0.0,0,0,0,0.125,12.25,0.0,0,0,0,kForward,kReverse,-87.02,2.18,2.46,0.10479736,-0.9532471,-0.05999756,34.04,0.0,54.0,-7.948761,13.849075,
1987.8433459999999,true,true,true,0.125,12.15,0.0,0,0,0,0.125,12.15,0.0,0,0,0,0.125,12.15,0.0,0,0,0,0.125,12.200000000000001,0.0,0,0,0,0.125,12.200000000000001,0.0,0,0,0,0.0,12.15,0.0,0,0,0,0.125,12.25,0.0,0,0,0,kForward,kReverse,-87.03,2.15,2.44,0.14147949,-1.2249756,0.10498047,34.04,0.0,102.0,-7.9488373,13.8493805,
1987.8655899999999,true,true,true,0.125,12.15,0.0,0,0,0,0.125,12.15,0.0,0,0,0,0.125,12.15,0.0,0,0,0,0.125,12.200000000000001,0.0,0,0,0,0.125,12.200000000000001,0.0,0,0,0,0.0,12.15,0.0,0,0,0,0.125,12.200000000000001,0.0,0,0,0,kForward,kReverse,-87.05,2.17,2.45,0.070129395,-1.0441284,0.103271484,34.04,0.0,39.0,-7.948715,13.849609,
1987.887603,true,true,true,0.125,12.15,0.0,0,0,0,0.125,12.15,0.0,0,0,0,0.125,12.15,0.0,0,0,0,0.125,12.200000000000001,0.0,0,0,0,0.125,12.200000000000001,0.0,0,0,0,0.0,12.15,0.0,0,0,0,0.125,12.200000000000001,0.0,0,0,0,kForward,kReverse,-87.05,2.18,2.46,-0.040649414,-1.0579834,0.1461792,34.04,0.0,-64.0,-7.9486237,13.850555,
1987.9094689999997,true,true,true,0.125,12.15,0.0,0,0,0,0.125,12.15,0.0,0,0,0,0.125,12.15,0.0,0,0,0,0.125,12.200000000000001,0.0,0,0,0,0.125,12.200000000000001,0.0,0,0,0,0.0,12.15,0.0,0,0,0,0.125,12.200000000000001,0.0,0,0,0,kForward,kReverse,-87.05,2.2,2.48,-0.1003418,-0.7429199,0.1340332,34.04,0.0,-112.0,-7.948761,13.851288,
1987.93172,true,true,true,0.125,12.15,0.0,0,0,0,0.125,12.15,0.0,0,0,0,0.125,12.15,0.0,0,0,0,0.125,12.200000000000001,0.0,0,0,0,0.125,12.200000000000001,0.0,0,0,0,0.0,12.15,0.0,0,0,0,0.125,12.200000000000001,0.0,0,0,0,kForward,kReverse,-87.02,2.18,2.46,0.07904053,-0.92041016,-0.27349854,34.04,0.0,0.0,-7.9493866,13.852371,
1987.953239,true,true,true,0.125,12.15,0.0,0,0,0,0.125,12.15,0.0,0,0,0,0.125,12.15,0.0,0,0,0,0.125,12.200000000000001,0.0,0,0,0,0.0,12.200000000000001,0.0,0,0,0,0.0,12.15,0.0,0,0,0,0.125,12.200000000000001,0.0,0,0,0,kForward,kReverse,-87.04,2.18,2.46,0.1307373,-0.97454834,-0.049316406,34.04,0.0,80.0,-7.9496613,13.852478,
1987.974858,true,true,true,0.125,12.15,0.0,0,0,0,0.125,12.15,0.0,0,0,0,0.125,12.15,0.0,0,0,0,0.125,12.200000000000001,0.0,0,0,0,0.0,12.200000000000001,0.0,0,0,0,0.0,12.15,0.0,0,0,0,0.125,12.200000000000001,0.0,0,0,0,kReverse,kReverse,-87.03,2.16,2.44,0.14141846,-1.2040405,0.053710938,34.04,0.0,96.0,-7.9498596,13.852539,
1988.007061,true,true,true,0.125,12.15,0.0,0,0,0,0.125,12.15,0.0,0,0,0,0.125,12.15,0.0,0,0,0,0.125,12.200000000000001,0.0,0,0,0,0.0,12.15,0.0,0,0,0,0.0,12.15,0.0,0,0,0,0.125,12.200000000000001,0.0,0,0,0,kReverse,kReverse,-87.06,2.17,2.45,-0.055908203,-1.0372314,0.19018555,34.04,0.0,-72.0,-7.949829,13.85257,
1988.032229,true,true,true,0.125,12.15,0.0,0,0,0,0.125,12.15,0.0,0,0,0,0.125,12.15,0.0,0,0,0,0.125,12.200000000000001,0.0,0,0,0,0.125,12.15,0.0,0,0,0,0.0,12.15,0.0,0,0,0,0.125,12.200000000000001,0.0,0,0,0,kReverse,kReverse,-87.06,2.2,2.47,-0.0859375,-0.72436523,0.18359375,34.04,0.0,-90.0,-7.950226,13.853561,
1988.055907,true,true,true,0.125,12.15,0.0,0,0,0,0.125,12.15,0.0,0,0,0,0.125,12.15,0.0,0,0,0,0.125,12.200000000000001,0.0,0,0,0,0.125,12.15,0.0,0,0,0,0.0,12.15,0.0,0,0,0,0.125,12.200000000000001,0.0,0,0,0,kReverse,kReverse,-87.06,2.2,2.47,-0.0859375,-0.72436523,0.18359375,34.04,0.0,-90.0,-7.950226,13.853561,
1988.078288,true,true,true,0.125,12.15,0.0,0,0,0,0.125,12.15,0.0,0,0,0,0.125,12.15,0.0,0,0,0,0.125,12.200000000000001,0.0,0,0,0,0.125,12.15,0.0,0,0,0,0.0,12.15,0.0,0,0,0,0.125,12.200000000000001,0.0,0,0,0,kReverse,kReverse,-87.04,2.18,2.46,0.09338379,-0.9276123,-0.22131348,34.04,0.0,22.0,-7.9510345,13.854248,
1988.1048899999998,true,true,true,0.125,12.15,0.0,0,0,0,0.125,12.15,0.0,0,0,0,0.125,12.15,0.0,0,0,0,0.125,12.200000000000001,0.0,0,0,0,0.125,12.15,0.0,0,0,0,0.0,12.15,0.0,0,0,0,0.125,12.200000000000001,0.0,0,0,0,kReverse,kReverse,-87.05,2.17,2.45,0.1352539,-1.0124512,-0.03778076,34.04,0.0,85.0,-7.9514008,13.854218,
1988.1267249999999,true,true,true,0.125,12.15,0.0,0,0,0,0.125,12.15,0.0,0,0,0,0.125,12.15,0.0,0,0,0,0.125,12.200000000000001,0.0,0,0,0,0.125,12.15,0.0,0,0,0,0.0,12.15,0.0,0,0,0,0.125,12.200000000000001,0.0,0,0,0,kReverse,kReverse,-87.04,2.15,2.43,0.11230469,-1.1203613,0.07952881,34.04,0.0,74.0,-7.951721,13.8541565,
1988.148942,true,true,true,0.125,12.15,0.0,0,0,0,0.125,12.15,0.0,0,0,0,0.125,12.15,0.0,0,0,0,0.125,12.200000000000001,0.0,0,0,0,0.125,12.15,0.0,0,0,0,0.0,12.15,0.0,0,0,0,0.125,12.200000000000001,0.0,0,0,0,kReverse,kReverse,-87.06,2.16,2.44,0.01928711,-0.9838867,0.118896484,34.04,0.0,-5.0,-7.951767,13.854248,
1988.1703129999999,true,true,true,0.125,12.15,0.0,0,0,0,0.125,12.15,0.0,0,0,0,0.125,12.15,0.0,0,0,0,0.125,12.200000000000001,0.0,0,0,0,0.125,12.15,0.0,0,0,0,0.0,12.15,0.0,0,0,0,0.125,12.200000000000001,0.0,0,0,0,kReverse,kReverse,-87.07,2.17,2.45,-0.07977295,-1.0065308,0.08496094,34.04,0.0,-109.0,-7.9521637,13.854813,
1988.1918739999999,true,true,true,0.125,12.15,0.0,0,0,0,0.125,12.15,0.0,0,0,0,0.125,12.15,0.0,0,0,0,0.125,12.200000000000001,0.0,0,0,0,0.125,12.15,0.0,0,0,0,0.0,12.15,0.0,0,0,0,0.125,12.200000000000001,0.0,0,0,0,kReverse,kReverse,-87.06,2.19,2.46,-0.066223145,-0.6990967,0.23065186,34.04,0.0,-63.0,-7.9525604,13.855362,
1988.2159439999998,true,true,true,0.125,12.15,0.0,0,0,0,0.125,12.15,0.0,0,0,0,0.125,12.15,0.0,0,0,0,0.125,12.200000000000001,0.0,0,0,0,0.125,12.15,0.0,0,0,0,0.0,12.15,0.0,0,0,0,0.125,12.200000000000001,0.0,0,0,0,kReverse,kReverse,-87.02,2.18,2.47,0.13061523,-0.95861816,-0.25305176,34.01,0.0,53.0,-7.9535217,13.856201,
1988.231628,true,true,true,0.125,12.15,0.0,0,0,0,0.125,12.15,0.0,0,0,0,0.125,12.15,0.0,0,0,0,0.125,12.200000000000001,0.0,0,0,0,0.0,12.15,0.0,0,0,0,0.0,12.15,0.0,0,0,0,0.125,12.200000000000001,0.0,0,0,0,kReverse,kReverse,-87.02,2.2,2.48,0.12414551,-1.007019,-0.048583984,34.01,0.0,72.0,-7.9539337,13.856186,
1988.2567459999998,true,true,true,0.125,12.15,0.0,0,0,0,0.125,12.15,0.0,0,0,0,0.125,12.15,0.0,0,0,0,0.125,12.200000000000001,0.0,0,0,0,0.0,12.15,0.0,0,0,0,0.0,12.15,0.0,0,0,0,0.125,12.200000000000001,0.0,0,0,0,kReverse,kReverse,-87.03,2.18,2.46,0.09423828,-1.1340332,0.03741455,34.01,0.0,50.0,-7.9543457,13.85611,
1988.280456,true,true,true,0.125,12.15,0.0,0,0,0,0.125,12.15,0.0,0,0,0,0.125,12.15,0.0,0,0,0,0.125,12.200000000000001,0.0,0,0,0,0.0,12.15,0.0,0,0,0,0.0,12.15,0.0,0,0,0,0.125,12.200000000000001,0.0,0,0,0,kReverse,kReverse,-87.06,2.18,2.46,-0.008422852,-0.95996094,0.12567139,34.01,0.0,-31.0,-7.954483,13.85614,
1988.3022829999998,true,true,true,0.125,12.15,0.0,0,0,0,0.125,12.15,0.0,0,0,0,0.125,12.15,0.0,0,0,0,0.125,12.200000000000001,0.0,0,0,0,0.125,12.15,0.0,0,0,0,0.0,12.15,0.0,0,0,0,0.125,12.200000000000001,0.0,0,0,0,kReverse,kReverse,-87.05,2.19,2.47,-0.03503418,-0.99523926,0.049682617,34.01,0.0,-70.0,-7.9549866,13.856628,
1988.326102,true,true,true,0.125,12.15,0.0,0,0,0,0.125,12.15,0.0,0,0,0,0.125,12.15,0.0,0,0,0,0.125,12.200000000000001,0.0,0,0,0,0.125,12.15,0.0,0,0,0,0.0,12.15,0.0,0,0,0,0.125,12.200000000000001,0.0,0,0,0,kReverse,kReverse,-87.05,2.2,2.48,-0.08477783,-0.6824341,0.12286377,34.01,0.0,-96.0,-7.9553986,13.85704,
1988.3476759999999,true,true,true,0.125,12.15,0.0,0,0,0,0.125,12.15,0.0,0,0,0,0.125,12.1,0.0,0,0,0,0.125,12.200000000000001,0.0,0,0,0,0.125,12.15,0.0,0,0,0,0.0,12.1,0.0,0,0,0,0.125,12.200000000000001,0.0,0,0,0,kReverse,kReverse,-87.03,2.18,2.46,0.11505127,-0.9849243,-0.24053955,34.01,0.0,38.0,-7.956497,13.857315,
1988.3691820000001,true,true,true,0.125,12.15,0.0,0,0,0,0.125,12.15,0.0,0,0,0,0.125,12.1,0.0,0,0,0,0.125,12.200000000000001,0.0,0,0,0,0.125,12.15,0.0,0,0,0,0.0,12.1,0.0,0,0,0,0.125,12.200000000000001,0.0,0,0,0,kForward,kReverse,-87.06,2.17,2.45,0.16906738,-1.0635986,0.09466553,34.01,0.0,135.0,-7.9569244,13.857117,
1988.388727,true,true,true,0.125,12.15,0.0,0,0,0,0.125,12.15,0.0,0,0,0,0.125,12.1,0.0,0,0,0,0.125,12.200000000000001,0.0,0,0,0,0.125,12.15,0.0,0,0,0,0.0,12.1,0.0,0,0,0,0.125,12.200000000000001,0.0,0,0,0,kForward,kReverse,-87.05,2.17,2.45,0.08258057,-1.0800171,0.026855469,34.01,0.0,39.0,-7.957306,13.856964,
1988.410662,true,true,true,0.125,12.15,0.0,0,0,0,0.125,12.15,0.0,0,0,0,0.125,12.1,0.0,0,0,0,0.125,12.200000000000001,0.0,0,0,0,0.125,12.15,0.0,0,0,0,0.0,12.1,0.0,0,0,0,0.125,12.200000000000001,0.0,0,0,0,kForward,kReverse,-87.06,2.17,2.45,-0.04058838,-0.9481201,0.2444458,34.01,0.0,-46.0,-7.957443,13.857101,
1988.433865,true,true,true,0.125,12.15,0.0,0,0,0,0.125,12.15,0.0,0,0,0,0.125,12.1,0.0,0,0,0,0.125,12.200000000000001,0.0,0,0,0,0.125,12.15,0.0,0,0,0,0.0,12.1,0.0,0,0,0,0.125,12.200000000000001,0.0,0,0,0,kForward,kReverse,-87.06,2.17,2.45,-0.040039062,-0.93585205,0.03942871,34.01,0.0,-73.0,-7.957947,13.858032,
1988.4583559999999,true,true,true,0.125,12.15,0.0,0,0,0,0.125,12.15,0.0,0,0,0,0.125,12.1,0.0,0,0,0,0.125,12.200000000000001,0.0,0,0,0,0.125,12.15,0.0,0,0,0,0.0,12.1,0.0,0,0,0,0.125,12.200000000000001,0.0,0,0,0,kForward,kReverse,-87.06,2.19,2.47,-0.06567383,-0.6466675,0.060668945,34.01,0.0,-84.0,-7.9583435,13.858612,
1988.4788029999997,true,true,true,0.125,12.15,0.0,0,0,0,0.125,12.15,0.0,0,0,0,0.125,12.1,0.0,0,0,0,0.125,12.200000000000001,0.0,0,0,0,0.125,12.15,0.0,0,0,0,0.0,12.1,0.0,0,0,0,0.125,12.200000000000001,0.0,0,0,0,kForward,kReverse,-87.03,2.17,2.46,0.13647461,-0.99224854,-0.16748047,34.01,0.0,69.0,-7.959259,13.8593445,
1988.503949,true,true,true,0.125,12.15,0.0,0,0,0,0.125,12.15,0.0,0,0,0,0.125,12.1,0.0,0,0,0,0.125,12.15,0.0,0,0,0,0.125,12.15,0.0,0,0,0,0.0,12.1,0.0,0,0,0,0.125,12.200000000000001,0.0,0,0,0,kForward,kReverse,-87.06,2.16,2.44,0.20501709,-1.1386108,0.110839844,34.01,0.0,170.0,-7.959549,13.859482,
1988.5240769999998,true,true,true,0.125,12.15,0.0,0,0,0,0.125,12.15,0.0,0,0,0,0.125,12.1,0.0,0,0,0,0.125,12.15,0.0,0,0,0,0.125,12.15,0.0,0,0,0,0.0,12.15,0.0,0,0,0,0.125,12.200000000000001,0.0,0,0,0,kForward,kReverse,-87.04,2.16,2.44,0.16668701,-1.2067261,0.10241699,34.01,0.0,128.0,-7.9596252,13.859665,
1988.5432489999998,true,true,true,0.125,12.15,0.0,0,0,0,0.125,12.15,0.0,0,0,0,0.125,12.1,0.0,0,0,0,0.125,12.15,0.0,0,0,0,0.125,12.15,0.0,0,0,0,0.0,12.15,0.0,0,0,0,0.125,12.200000000000001,0.0,0,0,0,kForward,kReverse,-87.04,2.19,2.47,-0.060668945,-0.9515381,0.24261475,34.01,0.0,-66.0,-7.95961,13.860184,
1988.565848,true,true,true,0.125,12.15,0.0,0,0,0,0.125,12.15,0.0,0,0,0,0.125,12.1,0.0,0,0,0,0.125,12.15,0.0,0,0,0,0.125,12.15,0.0,0,0,0,0.0,12.15,0.0,0,0,0,0.125,12.200000000000001,0.0,0,0,0,kForward,kReverse,-87.03,2.19,2.47,-0.045959473,-1.1781006,0.19873047,34.01,0.0,-68.0,-7.959717,13.860779,
1988.5866469999999,true,true,true,0.125,12.15,0.0,0,0,0,0.125,12.15,0.0,0,0,0,0.125,12.1,0.0,0,0,0,0.125,12.15,0.0,0,0,0,0.125,12.15,0.0,0,0,0,0.0,12.15,0.0,0,0,0,0.125,12.200000000000001,0.0,0,0,0,kForward,kReverse,-87.01,2.2,2.49,-0.05999756,-0.65289307,0.022705078,34.01,0.0,-84.0,-7.9602356,13.861481,
1988.60738,true,true,true,0.125,12.15,0.0,0,0,0,0.125,12.15,0.0,0,0,0,0.125,12.1,0.0,0,0,0,0.125,12.15,0.0,0,0,0,0.125,12.15,0.0,0,0,0,0.0,12.15,0.0,0,0,0,0.125,12.200000000000001,0.0,0,0,0,kForward,kReverse,-86.99,2.19,2.48,0.04296875,-0.8045654,-0.18792725,34.01,0.0,-18.0,-7.9606323,13.861343,
1988.628544,true,true,true,0.125,12.15,0.0,0,0,0,0.125,12.15,0.0,0,0,0,0.125,12.1,0.0,0,0,0,0.125,12.15,0.0,0,0,0,0.0,12.15,0.0,0,0,0,0.0,12.15,0.0,0,0,0,0.125,12.200000000000001,0.0,0,0,0,kForward,kReverse,-87.02,2.17,2.46,0.15307617,-1.1125488,0.12414551,34.01,0.0,121.0,-7.9611206,13.860535,
1988.651112,true,true,true,0.125,12.15,0.0,0,0,0,0.125,12.15,0.0,0,0,0,0.125,12.1,0.0,0,0,0,0.125,12.15,0.0,0,0,0,0.0,12.1,0.0,0,0,0,0.0,12.15,0.0,0,0,0,0.125,12.200000000000001,0.0,0,0,0,kForward,kReverse,-87.02,2.16,2.45,0.15686035,-1.2253418,0.06011963,34.01,0.0,111.0,-7.9611206,13.860168,
1988.674472,true,true,true,0.125,12.1,0.0,0,0,0,0.125,12.15,0.0,0,0,0,0.125,12.1,0.0,0,0,0,0.125,12.15,0.0,0,0,0,0.0,12.1,0.0,0,0,0,0.0,12.1,0.0,0,0,0,0.125,12.200000000000001,0.0,0,0,0,kForward,kReverse,-87.04,2.18,2.46,-0.053527832,-0.98516846,0.17932129,34.01,0.0,-69.0,-7.961075,13.859512,
1988.700361,true,true,true,0.125,12.1,0.0,0,0,0,0.125,12.15,0.0,0,0,0,0.125,12.1,0.0,0,0,0,0.125,12.15,0.0,0,0,0,0.0,12.1,0.0,0,0,0,0.0,12.1,0.0,0,0,0,0.125,12.200000000000001,0.0,0,0,0,kForward,kReverse,-87.04,2.2,2.48,-0.06488037,-0.7510376,0.0579834,34.04,0.0,-88.0,-7.9613953,13.859528,
1988.724419,true,true,true,0.125,12.1,0.0,0,0,0,0.125,12.15,0.0,0,0,0,0.125,12.1,0.0,0,0,0,0.125,12.15,0.0,0,0,0,0.0,12.1,0.0,0,0,0,0.0,12.1,0.0,0,0,0,0.125,12.200000000000001,0.0,0,0,0,kReverse,kReverse,-87.01,2.2,2.48,-0.028808594,-0.7541504,-0.055725098,34.04,0.0,-68.0,-7.961731,13.859589,
1988.745429,true,true,true,0.125,12.1,0.0,0,0,0,0.125,12.15,0.0,0,0,0,0.125,12.1,0.0,0,0,0,0.125,12.15,0.0,0,0,0,0.125,12.1,0.0,0,0,0,0.0,12.1,0.0,0,0,0,0.125,12.200000000000001,0.0,0,0,0,kReverse,kReverse,-86.99,2.19,2.48,0.055847168,-0.8421631,-0.23675537,34.04,0.0,-13.0,-7.9621124,13.8594055,
1988.7651339999998,true,true,true,0.125,12.1,0.0,0,0,0,0.125,12.15,0.0,0,0,0,0.125,12.1,0.0,0,0,0,0.125,12.15,0.0,0,0,0,0.125,12.1,0.0,0,0,0,0.0,12.1,0.0,0,0,0,0.125,12.200000000000001,0.0,0,0,0,kReverse,kReverse,-87.02,2.17,2.46,0.18701172,-1.1781006,0.19250488,34.04,0.0,161.0,-7.96257,13.858536,
1988.7931949999997,true,true,true,0.125,12.1,0.0,0,0,0,0.125,12.15,0.0,0,0,0,0.125,12.1,0.0,0,0,0,0.125,12.15,0.0,0,0,0,0.125,12.1,0.0,0,0,0,0.0,12.1,0.0,0,0,0,0.125,12.200000000000001,0.0,0,0,0,kReverse,kReverse,-87.03,2.2,2.48,-0.0015258789,-0.96313477,0.052246094,34.04,0.0,-35.0,-7.9624786,13.857788,
1988.813772,true,true,true,0.125,12.1,0.0,0,0,0,0.125,12.15,0.0,0,0,0,0.125,12.1,0.0,0,0,0,0.125,12.15,0.0,0,0,0,0.125,12.1,0.0,0,0,0,0.0,12.1,0.0,0,0,0,0.125,12.200000000000001,0.0,0,0,0,kReverse,kReverse,-87.05,2.19,2.47,-0.050109863,-1.0462036,0.20074463,34.04,0.0,-66.0,-7.962494,13.857544,
1988.839916,true,true,true,0.125,12.1,0.0,0,0,0,0.125,12.15,0.0,0,0,0,0.125,12.1,0.0,0,0,0,0.125,12.15,0.0,0,0,0,0.125,12.1,0.0,0,0,0,0.0,12.1,0.0,0,0,0,0.125,12.200000000000001,0.0,0,0,0,kReverse,kReverse,-87.03,2.22,2.5,-0.05218506,-0.631897,-0.026123047,34.04,0.0,-82.0,-7.9627686,13.857666,
1988.8624249999998,true,true,true,0.125,12.1,0.0,0,0,0,0.125,12.15,0.0,0,0,0,0.125,12.1,0.0,0,0,0,0.125,12.15,0.0,0,0,0,0.125,12.1,0.0,0,0,0,0.0,12.1,0.0,0,0,0,0.125,12.200000000000001,0.0,0,0,0,kReverse,kReverse,-87.03,2.2,2.48,0.053466797,-0.77178955,-0.023742676,34.04,0.0,16.0,-7.9629974,13.857697,
1988.8847700000001,true,true,true,0.125,12.1,0.0,0,0,0,0.125,12.15,0.0,0,0,0,0.125,12.1,0.0,0,0,0,0.125,12.15,0.0,0,0,0,0.125,12.1,0.0,0,0,0,0.0,12.1,0.0,0,0,0,0.125,12.200000000000001,0.0,0,0,0,kReverse,kReverse,-87.04,2.16,2.45,0.18530273,-1.1251221,0.07299805,34.04,0.0,145.0,-7.9633636,13.8573,
1988.9023699999998,true,true,true,0.125,12.1,0.0,0,0,0,0.125,12.15,0.0,0,0,0,0.125,12.1,0.0,0,0,0,0.125,12.15,0.0,0,0,0,0.125,12.1,0.0,0,0,0,0.0,12.1,0.0,0,0,0,0.125,12.200000000000001,0.0,0,0,0,kReverse,kReverse,-87.03,2.15,2.44,0.1482544,-1.2069092,0.11431885,34.04,0.0,111.0,-7.963333,13.857086,
1988.9264919999998,true,true,true,0.125,12.1,0.0,0,0,0,0.125,12.15,0.0,0,0,0,0.125,12.1,0.0,0,0,0,0.125,12.15,0.0,0,0,0,0.125,12.1,0.0,0,0,0,0.0,12.1,0.0,0,0,0,0.125,12.200000000000001,0.0,0,0,0,kReverse,kReverse,-87.05,2.17,2.45,-0.00592041,-0.9770508,0.060668945,34.04,0.0,-38.0,-7.962982,13.856796,
1988.9474619999999,true,true,true,0.125,12.1,0.0,0,0,0,0.125,12.15,0.0,0,0,0,0.125,12.1,0.0,0,0,0,0.125,12.15,0.0,0,0,0,0.125,12.1,0.0,0,0,0,0.0,12.1,0.0,0,0,0,0.125,12.200000000000001,0.0,0,0,0,kReverse,kReverse,-87.05,2.19,2.47,-0.07897949,-1.1090088,0.13671875,34.04,0.0,-106.0,-7.9628906,13.856781,
1988.969227,true,true,true,0.125,12.1,0.0,0,0,0,0.125,12.1,0.0,0,0,0,0.125,12.1,0.0,0,0,0,0.125,12.15,0.0,0,0,0,0.125,12.1,0.0,0,0,0,0.0,12.1,0.0,0,0,0,0.125,12.200000000000001,0.0,0,0,0,kReverse,kReverse,-87.03,2.2,2.48,-0.068847656,-0.61157227,-0.033569336,34.04,0.0,-99.0,-7.9630737,13.8572235,
1988.990768,true,true,true,0.125,12.1,0.0,0,0,0,0.125,12.1,0.0,0,0,0,0.125,12.1,0.0,0,0,0,0.125,12.15,0.0,0,0,0,0.125,12.1,0.0,0,0,0,0.0,12.1,0.0,0,0,0,0.125,12.200000000000001,0.0,0,0,0,kReverse,kReverse,-87.02,2.18,2.47,0.044677734,-0.85357666,-0.23602295,34.04,0.0,-25.0,-7.963318,13.857285,
1989.010726,true,true,true,0.125,12.1,0.0,0,0,0,0.125,12.1,0.0,0,0,0,0.125,12.1,0.0,0,0,0,0.125,12.15,0.0,0,0,0,0.125,12.1,0.0,0,0,0,0.0,12.1,0.0,0,0,0,0.125,12.200000000000001,0.0,0,0,0,kReverse,kReverse,-87.04,2.17,2.45,0.16223145,-1.2095947,0.012573242,34.04,0.0,110.0,-7.9636993,13.85672,
1989.030632,true,true,true,0.125,12.1,0.0,0,0,0,0.125,12.1,0.0,0,0,0,0.125,12.1,0.0,0,0,0,0.125,12.15,0.0,0,0,0,0.0,12.1,0.0,0,0,0,0.0,12.1,0.0,0,0,0,0.125,12.200000000000001,0.0,0,0,0,kReverse,kReverse,-87.04,2.15,2.44,0.14685059,-1.2001953,0.06048584,34.04,0.0,103.0,-7.9636993,13.856354,
1989.052322,true,true,true,0.125,12.1,0.0,0,0,0,0.125,12.1,0.0,0,0,0,0.125,12.1,0.0,0,0,0,0.125,12.15,0.0,0,0,0,0.0,12.1,0.0,0,0,0,0.0,12.1,0.0,0,0,0,0.125,12.200000000000001,0.0,0,0,0,kForward,kReverse,-87.06,2.16,2.44,0.08758545,-1.1045532,0.07684326,34.04,0.0,50.0,-7.9635925,13.856003,
1989.0744169999998,true,true,true,0.125,12.1,0.0,0,0,0,0.125,12.1,0.0,0,0,0,0.125,12.1,0.0,0,0,0,0.125,12.15,0.0,0,0,0,0.0,12.1,0.0,0,0,0,0.0,12.1,0.0,0,0,0,0.125,12.200000000000001,0.0,0,0,0,kForward,kReverse,-87.06,2.17,2.45,-0.065979004,-0.9897461,0.09899902,34.04,0.0,-93.0,-7.963501,13.855728,
1989.106362,true,true,true,0.125,12.1,0.0,0,0,0,0.125,12.1,0.0,0,0,0,0.125,12.1,0.0,0,0,0,0.125,12.15,0.0,0,0,0,0.125,12.1,0.0,0,0,0,0.0,12.1,0.0,0,0,0,0.125,12.200000000000001,0.0,0,0,0,kForward,kReverse,-87.08,2.19,2.46,-0.07476807,-0.84606934,0.1529541,34.04,0.0,-88.0,-7.9636536,13.855637,
1989.1305559999998,true,true,true,0.125,12.1,0.0,0,0,0,0.125,12.1,0.0,0,0,0,0.125,12.1,0.0,0,0,0,0.125,12.15,0.0,0,0,0,0.125,12.1,0.0,0,0,0,0.0,12.1,0.0,0,0,0,0.125,12.200000000000001,0.0,0,0,0,kForward,kReverse,-87.04,2.18,2.46,0.04425049,-0.87841797,-0.1829834,34.04,0.0,-19.0,-7.9642944,13.85553,
1989.153087,true,true,true,0.125,12.1,0.0,0,0,0,0.125,12.1,0.0,0,0,0,0.125,12.1,0.0,0,0,0,0.125,12.15,0.0,0,0,0,0.125,12.1,0.0,0,0,0,0.0,12.1,0.0,0,0,0,0.125,12.200000000000001,0.0,0,0,0,kForward,kReverse,-87.05,2.18,2.46,0.11431885,-0.9346924,-0.053894043,34.04,0.0,65.0,-7.9646454,13.855148,
1989.173669,true,true,true,0.125,12.1,0.0,0,0,0,0.125,12.1,0.0,0,0,0,0.125,12.1,0.0,0,0,0,0.125,12.15,0.0,0,0,0,0.125,12.1,0.0,0,0,0,0.0,12.1,0.0,0,0,0,0.125,12.200000000000001,0.0,0,0,0,kForward,kReverse,-87.06,2.16,2.44,0.13269043,-1.1679077,0.04296875,34.04,0.0,87.0,-7.9649353,13.854202,
1989.1942689999998,true,true,true,0.125,12.1,0.0,0,0,0,0.125,12.1,0.0,0,0,0,0.125,12.1,0.0,0,0,0,0.125,12.15,0.0,0,0,0,0.125,12.1,0.0,0,0,0,0.0,12.1,0.0,0,0,0,0.125,12.200000000000001,0.0,0,0,0,kForward,kReverse,-87.07,2.17,2.45,0.105895996,-1.1206055,0.1317749,34.04,0.0,75.0,-7.9648895,13.853775,
1989.218785,true,true,true,0.125,12.1,0.0,0,0,0,0.125,12.1,0.0,0,0,0,0.125,12.1,0.0,0,0,0,0.125,12.15,0.0,0,0,0,0.125,12.1,0.0,0,0,0,0.0,12.1,0.0,0,0,0,0.125,12.200000000000001,0.0,0,0,0,kForward,kReverse,-87.1,2.18,2.45,-0.047058105,-1.0739136,0.11407471,34.02,0.0,-76.0,-7.9650574,13.853104,
1989.243686,true,true,true,0.125,12.1,0.0,0,0,0,0.125,12.1,0.0,0,0,0,0.125,12.1,0.0,0,0,0,0.125,12.15,0.0,0,0,0,0.125,12.1,0.0,0,0,0,0.0,12.1,0.0,0,0,0,0.125,12.200000000000001,0.0,0,0,0,kForward,kReverse,-87.09,2.2,2.46,0.004211426,-0.8432007,0.18164062,34.02,0.0,-6.0,-7.9652557,13.852966,
1989.264048,true,true,true,0.125,12.1,0.0,0,0,0,0.125,12.1,0.0,0,0,0,0.125,12.1,0.0,0,0,0,0.125,12.15,0.0,0,0,0,0.125,12.1,0.0,0,0,0,0.0,12.1,0.0,0,0,0,0.125,12.200000000000001,0.0,0,0,0,kForward,kReverse,-87.05,2.19,2.47,0.081604004,-0.82855225,-0.15454102,34.02,0.0,23.0,-7.965912,13.852463,
1989.285794,true,true,true,0.125,12.1,0.0,0,0,0,0.125,12.1,0.0,0,0,0,0.125,12.1,0.0,0,0,0,0.125,12.15,0.0,0,0,0,0.125,12.1,0.0,0,0,0,0.0,12.1,0.0,0,0,0,0.125,12.200000000000001,0.0,0,0,0,kForward,kReverse,-87.06,2.18,2.46,0.13336182,-0.9522705,-0.12030029,34.02,0.0,74.0,-7.966217,13.851868,
1989.3076899999999,true,true,true,0.125,12.1,0.0,0,0,0,0.125,12.1,0.0,0,0,0,0.125,12.1,0.0,0,0,0,0.125,12.15,0.0,0,0,0,0.125,12.1,0.0,0,0,0,0.0,12.1,0.0,0,0,0,0.125,12.200000000000001,0.0,0,0,0,kForward,kReverse,-87.07,2.15,2.43,0.10614014,-1.1884766,0.12591553,34.02,0.0,72.0,-7.966446,13.850555,
1989.3284039999999,true,true,true,0.125,12.1,0.0,0,0,0,0.125,12.1,0.0,0,0,0,0.125,12.1,0.0,0,0,0,0.125,12.15,0.0,0,0,0,0.125,12.1,0.0,0,0,0,0.0,12.1,0.0,0,0,0,0.125,12.200000000000001,0.0,0,0,0,kForward,kReverse,-87.08,2.15,2.43,0.0034179688,-0.94989014,0.057434082,34.02,0.0,-28.0,-7.9664917,13.850006,
1989.3486639999999,true,true,true,0.125,12.1,0.0,0,0,0,0.125,12.1,0.0,0,0,0,0.125,12.1,0.0,0,0,0,0.125,12.15,0.0,0,0,0,0.125,12.1,0.0,0,0,0,0.0,12.1,0.0,0,0,0,0.125,12.200000000000001,0.0,0,0,0,kForward,kReverse,-87.08,2.17,2.45,-0.045959473,-1.08844,0.06347656,34.02,0.0,-82.0,-7.9667206,13.849426,
1989.369303,true,true,true,0.125,12.1,0.0,0,0,0,0.125,12.1,0.0,0,0,0,0.125,12.1,0.0,0,0,0,0.125,12.15,0.0,0,0,0,0.125,12.1,0.0,0,0,0,0.0,12.1,0.0,0,0,0,0.125,12.200000000000001,0.0,0,0,0,kForward,kReverse,-87.07,2.19,2.46,-0.0748291,-0.7073364,0.18353271,34.02,0.0,-78.0,-7.9669952,13.849365,
1989.3903369999998,true,true,true,0.125,12.1,0.0,0,0,0,0.125,12.1,0.0,0,0,0,0.125,12.1,0.0,0,0,0,0.125,12.15,0.0,0,0,0,0.125,12.1,0.0,0,0,0,0.0,12.1,0.0,0,0,0,0.125,12.200000000000001,0.0,0,0,0,kForward,kReverse,-87.05,2.18,2.46,-0.030517578,-0.74194336,-0.17773438,34.02,0.0,-86.0,-7.9673767,13.849289,
1989.4122619999998,true,true,true,0.125,12.1,0.0,0,0,0,0.125,12.1,0.0,0,0,0,0.125,12.1,0.0,0,0,0,0.125,12.15,0.0,0,0,0,0.125,12.1,0.0,0,0,0,0.0,12.1,0.0,0,0,0,0.125,12.200000000000001,0.0,0,0,0,kForward,kReverse,-87.07,2.16,2.44,0.12884521,-1.0015259,-0.029907227,34.02,0.0,81.0,-7.9681854,13.848343,
1989.433646,true,true,true,0.125,12.1,0.0,0,0,0,0.125,12.1,0.0,0,0,0,0.125,12.1,0.0,0,0,0,0.125,12.15,0.0,0,0,0,0.125,12.1,0.0,0,0,0,0.0,12.1,0.0,0,0,0,0.125,12.200000000000001,0.0,0,0,0,kForward,kReverse,-87.09,2.14,2.42,0.20147705,-1.2854614,0.111694336,34.02,0.0,161.0,-7.968384,13.847748,
1989.4576769999999,true,true,true,0.125,12.1,0.0,0,0,0,0.125,12.1,0.0,0,0,0,0.125,12.1,0.0,0,0,0,0.125,12.15,0.0,0,0,0,0.125,12.1,0.0,0,0,0,0.0,12.1,0.0,0,0,0,0.125,12.200000000000001,0.0,0,0,0,kForward,kReverse,-87.08,2.16,2.44,0.009216309,-0.97369385,0.18249512,34.02,0.0,-6.0,-7.9684296,13.84671,
1989.483828,true,true,true,0.125,12.1,0.0,0,0,0,0.125,12.1,0.0,0,0,0,0.125,12.1,0.0,0,0,0,0.125,12.15,0.0,0,0,0,0.125,12.1,0.0,0,0,0,0.0,12.1,0.0,0,0,0,0.125,12.200000000000001,0.0,0,0,0,kForward,kReverse,-87.07,2.16,2.44,-0.05847168,-1.0849609,0.1697998,34.02,0.0,-80.0,-7.968506,13.846436,
1989.504309,true,true,true,0.125,12.1,0.0,0,0,0,0.125,12.1,0.0,0,0,0,0.125,12.1,0.0,0,0,0,0.125,12.15,0.0,0,0,0,0.125,12.1,0.0,0,0,0,0.0,12.1,0.0,0,0,0,0.125,12.200000000000001,0.0,0,0,0,kReverse,kReverse,-87.07,2.19,2.46,-0.0869751,-0.6973877,0.12042236,34.02,0.0,-99.0,-7.968918,13.846237,
1989.526967,true,true,true,0.125,12.1,0.0,0,0,0,0.125,12.1,0.0,0,0,0,0.125,12.1,0.0,0,0,0,0.125,12.15,0.0,0,0,0,0.125,12.1,0.0,0,0,0,0.0,12.1,0.0,0,0,0,0.125,12.200000000000001,0.0,0,0,0,kReverse,kReverse,-87.04,2.18,2.46,-0.011474609,-0.73309326,-0.15820312,34.02,0.0,-64.0,-7.9692993,13.846161,
1989.549034,true,true,true,0.125,12.1,0.0,0,0,0,0.125,12.1,0.0,0,0,0,0.125,12.1,0.0,0,0,0,0.125,12.15,0.0,0,0,0,0.125,12.1,0.0,0,0,0,0.0,12.1,0.0,0,0,0,0.125,12.200000000000001,0.0,0,0,0,kReverse,kReverse,-87.06,2.17,2.45,0.15942383,-1.052063,0.023803711,34.02,0.0,116.0,-7.970001,13.845154,
1989.572365,true,true,true,0.125,12.1,0.0,0,0,0,0.125,12.1,0.0,0,0,0,0.125,12.1,0.0,0,0,0,0.125,12.15,0.0,0,0,0,0.125,12.1,0.0,0,0,0,0.0,12.1,0.0,0,0,0,0.125,12.200000000000001,0.0,0,0,0,kReverse,kReverse,-87.07,2.15,2.43,0.18048096,-1.2587891,0.053833008,34.02,0.0,133.0,-7.9701233,13.844513,
1989.5906839999998,true,true,true,0.125,12.1,0.0,0,0,0,0.125,12.1,0.0,0,0,0,0.125,12.1,0.0,0,0,0,0.125,12.15,0.0,0,0,0,0.125,12.1,0.0,0,0,0,0.0,12.1,0.0,0,0,0,0.125,12.200000000000001,0.0,0,0,0,kReverse,kReverse,-87.08,2.16,2.44,0.008728027,-0.96435547,0.20184326,34.02,0.0,-3.0,-7.970047,13.843414,
1989.616311,true,true,true,0.125,12.1,0.0,0,0,0,0.125,12.1,0.0,0,0,0,0.125,12.1,0.0,0,0,0,0.125,12.1,0.0,0,0,0,0.125,12.1,0.0,0,0,0,0.0,12.1,0.0,0,0,0,0.125,12.200000000000001,0.0,0,0,0,kReverse,kReverse,-87.06,2.17,2.45,-0.042297363,-1.1226196,0.18151855,34.02,0.0,-64.0,-7.9700317,13.843155,
1989.6391339999998,true,true,true,0.125,12.1,0.0,0,0,0,0.125,12.1,0.0,0,0,0,0.125,12.1,0.0,0,0,0,0.125,12.1,0.0,0,0,0,0.0,12.1,0.0,0,0,0,0.0,12.1,0.0,0,0,0,0.125,12.200000000000001,0.0,0,0,0,kReverse,kReverse,-87.06,2.19,2.47,-0.0625,-0.6723633,0.11767578,34.02,0.0,-74.0,-7.9702454,13.843079,
1989.659051,true,true,true,0.125,12.1,0.0,0,0,0,0.125,12.1,0.0,0,0,0,0.125,12.1,0.0,0,0,0,0.125,12.1,0.0,0,0,0,0.0,12.1,0.0,0,0,0,0.0,12.1,0.0,0,0,0,0.125,12.200000000000001,0.0,0,0,0,kReverse,kReverse,-87.06,2.16,2.44,0.13574219,-0.9935303,-0.19439697,34.02,0.0,65.0,-7.9706726,13.842712,
1989.686034,true,true,true,0.125,12.1,0.0,0,0,0,0.125,12.1,0.0,0,0,0,0.125,12.1,0.0,0,0,0,0.125,12.1,0.0,0,0,0,0.0,12.1,0.0,0,0,0,0.0,12.1,0.0,0,0,0,0.125,12.200000000000001,0.0,0,0,0,kReverse,kReverse,-87.06,2.17,2.45,0.13623047,-0.99768066,0.028137207,34.02,0.0,96.0,-7.970764,13.842209,
1989.7075869999999,true,true,true,0.125,12.1,0.0,0,0,0,0.125,12.1,0.0,0,0,0,0.125,12.1,0.0,0,0,0,0.125,12.1,0.0,0,0,0,0.125,12.1,0.0,0,0,0,0.0,12.1,0.0,0,0,0,0.125,12.200000000000001,0.0,0,0,0,kReverse,kReverse,-87.08,2.14,2.42,0.076293945,-1.0812378,0.064819336,34.02,0.0,39.0,-7.970581,13.841263,
1989.72628,true,true,true,0.125,12.1,0.0,0,0,0,0.125,12.1,0.0,0,0,0,0.125,12.1,0.0,0,0,0,0.125,12.1,0.0,0,0,0,0.125,12.1,0.0,0,0,0,0.0,12.1,0.0,0,0,0,0.125,12.200000000000001,0.0,0,0,0,kReverse,kReverse,-87.08,2.16,2.43,-0.02960205,-0.9244385,0.16381836,34.02,0.0,-45.0,-7.9704285,13.840912,
1989.746396,true,true,true,0.125,12.1,0.0,0,0,0,0.125,12.1,0.0,0,0,0,0.125,12.1,0.0,0,0,0,0.125,12.1,0.0,0,0,0,0.125,12.1,0.0,0,0,0,0.0,12.1,0.0,0,0,0,0.125,12.200000000000001,0.0,0,0,0,kReverse,kReverse,-87.08,2.17,2.44,-0.066223145,-1.1536255,0.24194336,34.02,0.0,-80.0,-7.9703674,13.840805,
1989.7667049999998,true,true,true,0.125,12.1,0.0,0,0,0,0.125,12.1,0.0,0,0,0,0.125,12.1,0.0,0,0,0,0.125,12.1,0.0,0,0,0,0.125,12.1,0.0,0,0,0,0.0,12.1,0.0,0,0,0,0.125,12.200000000000001,0.0,0,0,0,kReverse,kReverse,-87.05,2.18,2.46,-0.08831787,-0.6524658,0.07720947,34.02,0.0,-104.0,-7.9705963,13.84108,
1989.7871969999999,true,true,true,0.125,12.1,0.0,0,0,0,0.125,12.1,0.0,0,0,0,0.125,12.1,0.0,0,0,0,0.125,12.15,0.0,0,0,0,0.125,12.1,0.0,0,0,0,0.0,12.1,0.0,0,0,0,0.125,12.200000000000001,0.0,0,0,0,kReverse,kReverse,-87.02,2.17,2.45,0.03253174,-0.7909546,-0.18908691,34.02,0.0,-27.0,-7.9708557,13.841156,
1989.8083179999999,true,true,true,0.125,12.1,0.0,0,0,0,0.125,12.1,0.0,0,0,0,0.125,12.1,0.0,0,0,0,0.125,12.15,0.0,0,0,0,0.125,12.1,0.0,0,0,0,0.0,12.1,0.0,0,0,0,0.125,12.200000000000001,0.0,0,0,0,kReverse,kReverse,-87.05,2.16,2.44,0.15625,-1.0426025,0.064819336,34.02,0.0,119.0,-7.9711914,13.8405,
1989.8276199999998,true,true,true,0.125,12.1,0.0,0,0,0,0.125,12.1,0.0,0,0,0,0.125,12.1,0.0,0,0,0,0.125,12.15,0.0,0,0,0,0.125,12.1,0.0,0,0,0,0.0,12.1,0.0,0,0,0,0.125,12.200000000000001,0.0,0,0,0,kReverse,kReverse,-87.06,2.15,2.43,0.16552734,-1.2520142,0.04675293,34.02,0.0,117.0,-7.9711304,13.840088,
1989.849173,true,true,true,0.125,12.1,0.0,0,0,0,0.125,12.1,0.0,0,0,0,0.125,12.1,0.0,0,0,0,0.125,12.15,0.0,0,0,0,0.125,12.1,0.0,0,0,0,0.0,12.1,0.0,0,0,0,0.125,12.200000000000001,0.0,0,0,0,kReverse,kReverse,-87.06,2.16,2.44,0.08093262,-1.1154785,0.028808594,34.02,0.0,37.0,-7.9709625,13.840088,
1989.871033,true,true,true,0.125,12.1,0.0,0,0,0,0.125,12.1,0.0,0,0,0,0.125,12.1,0.0,0,0,0,0.125,12.15,0.0,0,0,0,0.125,12.1,0.0,0,0,0,0.0,12.1,0.0,0,0,0,0.125,12.200000000000001,0.0,0,0,0,kReverse,kReverse,-87.08,2.15,2.43,-0.03729248,-1.1560669,0.20648193,34.02,0.0,-56.0,-7.970764,13.840439,
1989.89097,true,true,true,0.125,12.1,0.0,0,0,0,0.125,12.1,0.0,0,0,0,0.125,12.1,0.0,0,0,0,0.125,12.15,0.0,0,0,0,0.125,12.1,0.0,0,0,0,0.0,12.1,0.0,0,0,0,0.125,12.200000000000001,0.0,0,0,0,kReverse,kReverse,-87.08,2.17,2.45,-0.031982422,-0.9451904,0.090148926,34.02,0.0,-59.0,-7.9707794,13.840881,
1989.914022,true,true,true,0.125,12.1,0.0,0,0,0,0.125,12.1,0.0,0,0,0,0.125,12.1,0.0,0,0,0,0.125,12.15,0.0,0,0,0,0.125,12.1,0.0,0,0,0,0.0,12.1,0.0,0,0,0,0.125,12.200000000000001,0.0,0,0,0,kReverse,kReverse,-87.03,2.16,2.45,0.02178955,-0.81256104,-0.19573975,34.02,0.0,-40.0,-7.971115,13.841797,
