timer,lineLeft,lineCenter,lineRight,LeftFrontCurrent,LeftFrontVoltage,LeftFrontValue,LeftFrontPosition,LeftFrontVelocity,LeftFrontFaults,LeftRearCurrent,LeftRearVoltage,LeftRearValue,LeftRearPosition,LeftRearVelocity,LeftRearFaults,RightFrontCurrent,RightFrontVoltage,RightFrontValue,RightFrontPosition,RightFrontVelocity,RightFrontFaults,RightRearCurrent,RightRearVoltage,RightRearValue,RightRearPosition,RightRearVelocity,RightRearFaults,LiftCurrent,LiftVoltage,LiftValue,LiftPosition,LiftVelocity,LiftFaults,WristCurrent,WristVoltage,WristValue,WristPosition,WristVelocity,WristFaults,RollerCurrent,RollerVoltage,RollerValue,RollerPosition,RollerVelocity,RollerFaults,PushersState,PivotsState,navx_Pitch,navx_Roll,navx_Yaw,navx_XAcc,navx_YAcc,navx_ZAcc,navx_Temp,navx_Bar,navx_Alt,navx_XDis,navx_YDis,
781.887019,true,true,true,0.125,12.65,0.0,-34449,0,0,0.125,12.65,0.0,0,0,0,0.125,12.65,0.0,875,0,0,0.125,12.65,0.0,0,0,0,0.125,12.65,0.0,4,0,0,0.0,12.65,0.0,0,0,0,0.125,12.700000000000001,0.0,0,0,0,kReverse,kOff,-87.23,2.09,2.66,0.032348633,-0.98687744,0.02746582,35.17,0.0,-4.0,-8.145538,11.877991,
781.916005,true,true,true,0.125,12.65,0.0,-34449,0,0,0.125,12.65,0.0,0,0,0,0.125,12.65,0.0,875,0,0,0.125,12.65,0.0,0,0,0,0.125,12.65,0.0,4,0,0,0.0,12.65,0.0,0,0,0,0.125,12.700000000000001,0.0,0,0,0,kReverse,kOff,-87.23,2.09,2.66,0.035339355,-0.98669434,0.032714844,35.17,0.0,0.0,-8.145538,11.877991,
781.938735,true,true,true,0.125,12.65,0.0,-34449,0,0,0.125,12.65,0.0,0,0,0,0.125,12.6,0.0,875,0,0,0.125,12.65,0.0,0,0,0,0.125,12.65,0.0,4,0,0,0.0,12.65,0.0,0,0,0,0.125,12.700000000000001,0.0,0,0,0,kReverse,kOff,-87.24,2.09,2.66,0.035827637,-0.98114014,0.03552246,35.17,0.0,1.0,-8.145538,11.877991,
781.9600819999999,true,true,true,0.125,12.65,0.0,-34449,0,0,0.125,12.65,0.0,0,0,0,0.25,12.6,0.0,875,0,0,0.125,12.65,0.0,0,0,0,0.125,12.65,0.0,4,0,0,0.0,12.65,0.0,0,0,0,0.125,12.700000000000001,0.0,0,0,0,kReverse,kOff,-87.23,2.09,2.66,0.03717041,-0.9838867,0.03173828,35.17,0.0,1.0,-8.145538,11.877991,
781.9798059999999,true,true,true,0.125,12.65,0.0,-34449,0,0,0.125,12.65,0.0,0,0,0,0.25,12.6,0.0,875,0,0,0.125,12.65,0.0,0,0,0,0.125,12.65,0.0,4,0,0,0.0,12.65,0.0,0,0,0,0.125,12.700000000000001,0.0,0,0,0,kReverse,kOff,-87.23,2.1,2.67,0.036499023,-0.9837036,0.031188965,35.17,0.0,0.0,-8.145538,11.877991,
781.999316,true,true,true,0.125,12.65,0.0,-34449,0,0,0.125,12.65,0.0,0,0,0,0.25,12.6,0.0,875,0,0,0.125,12.65,0.0,0,0,0,0.0,12.65,0.0,4,0,0,0.0,12.65,0.0,0,0,0,0.125,12.700000000000001,0.0,0,0,0,kReverse,kOff,-87.23,2.1,2.67,0.03656006,-0.9851074,0.026672363,35.17,0.0,0.0,-8.145538,11.877991,
782.022169,true,true,true,0.125,12.65,0.0,-34449,0,0,0.125,12.65,0.0,0,0,0,0.25,12.6,0.0,875,0,0,0.125,12.65,0.0,0,0,0,0.0,12.65,0.0,4,0,0,0.0,12.65,0.0,0,0,0,0.125,12.700000000000001,0.0,0,0,0,kReverse,kOff,-87.24,2.09,2.66,0.039916992,-0.98358154,0.036010742,35.17,0.0,5.0,-8.145538,11.877991,
782.047114,true,true,true,0.125,12.65,0.0,-34449,0,0,0.125,12.65,0.0,0,0,0,0.25,12.6,0.0,875,0,0,0.125,12.65,0.0,0,0,0,0.0,12.65,0.0,4,0,0,0.0,12.65,0.0,0,0,0,0.125,12.700000000000001,0.0,0,0,0,kReverse,kOff,-87.23,2.1,2.67,0.034423828,-0.984375,0.032470703,35.17,0.0,-1.0,-8.145538,11.877991,
782.069061,true,true,true,0.125,12.65,0.0,-34449,0,0,0.125,12.65,0.0,0,0,0,0.25,12.6,0.0,875,0,0,0.125,12.65,0.0,0,0,0,0.125,12.65,0.0,4,0,0,0.0,12.65,0.0,0,0,0,0.125,12.700000000000001,0.0,0,0,0,kReverse,kOff,-87.24,2.09,2.66,0.036132812,-0.9819946,0.031677246,35.17,0.0,0.0,-8.145538,11.877991,
782.087506,true,true,true,0.125,12.65,0.0,-34449,0,0,0.125,12.65,0.0,0,0,0,0.25,12.65,0.0,875,0,0,0.125,12.65,0.0,0,0,0,0.125,12.65,0.0,4,0,0,0.0,12.65,0.0,0,0,0,0.125,12.700000000000001,0.0,0,0,0,kReverse,kOff,-87.23,2.1,2.67,0.038146973,-0.9817505,0.030334473,35.17,0.0,1.0,-8.145538,11.877991,
782.109869,true,true,true,0.125,12.65,0.0,-34449,0,0,0.125,12.65,0.0,0,0,0,0.25,12.65,0.0,875,0,0,0.125,12.65,0.0,0,0,0,0.125,12.65,0.0,4,0,0,0.0,12.65,0.0,0,0,0,0.125,12.700000000000001,0.0,0,0,0,kReverse,kOff,-87.23,2.1,2.67,0.036193848,-0.9868164,0.027954102,35.17,0.0,0.0,-8.145538,11.877991,
782.1292119999999,true,true,true,0.125,12.65,0.0,-34449,0,0,0.125,12.65,0.0,0,0,0,0.25,12.65,0.0,875,0,0,0.125,12.65,0.0,0,0,0,0.125,12.65,0.0,4,0,0,0.0,12.65,0.0,0,0,0,0.125,12.700000000000001,0.0,0,0,0,kReverse,kOff,-87.23,2.1,2.67,0.036743164,-0.9837036,0.026611328,35.17,0.0,0.0,-8.145538,11.877991,
782.15086,true,true,true,0.125,12.65,0.0,-34449,0,0,0.125,12.65,0.0,0,0,0,0.25,12.65,0.0,875,0,0,0.125,12.65,0.0,0,0,0,0.125,12.65,0.0,4,0,0,0.0,12.65,0.0,0,0,0,0.125,12.700000000000001,0.0,0,0,0,kReverse,kOff,-87.23,2.1,2.67,0.035583496,-0.9824219,0.034973145,35.17,0.0,0.0,-8.145538,11.877991,
782.172029,true,true,true,0.125,12.65,0.0,-34449,0,0,0.125,12.65,0.0,0,0,0,0.25,12.65,0.0,875,0,0,0.125,12.65,0.0,0,0,0,0.125,12.65,0.0,4,0,0,0.0,12.65,0.0,0,0,0,0.125,12.700000000000001,0.0,0,0,0,kReverse,kOff,-87.23,2.1,2.67,0.039001465,-0.9786377,0.028320312,35.17,0.0,2.0,-8.145538,11.877991,
782.1948179999999,true,true,true,0.125,12.65,0.0,-34449,0,0,0.125,12.65,0.0,0,0,0,0.25,12.65,0.0,875,0,0,0.125,12.65,0.0,0,0,0,0.125,12.65,0.0,4,0,0,0.0,12.65,0.0,0,0,0,0.125,12.700000000000001,0.0,0,0,0,kReverse,kOff,-87.23,2.1,2.67,0.034118652,-0.9831543,0.032409668,35.11,0.0,-1.0,-8.145538,11.877991,
782.216566,true,true,true,0.125,12.65,0.0,-34449,0,0,0.125,12.65,0.0,0,0,0,0.25,12.65,0.0,875,0,0,0.125,12.65,0.0,0,0,0,0.125,12.65,0.0,4,0,0,0.0,12.65,0.0,0,0,0,0.125,12.700000000000001,0.0,0,0,0,kReverse,kOff,-87.23,2.1,2.67,0.031677246,-0.9837036,0.030273438,35.11,0.0,-4.0,-8.145538,11.877991,
782.240903,true,true,true,0.125,12.65,0.0,-34449,0,0,0.125,12.65,0.0,0,0,0,0.25,12.65,0.0,875,0,0,0.125,12.65,0.0,0,0,0,0.125,12.65,0.0,4,0,0,0.0,12.65,0.0,0,0,0,0.125,12.700000000000001,0.0,0,0,0,kReverse,kOff,-87.23,2.1,2.67,0.035095215,-0.98516846,0.035217285,35.11,0.0,0.0,-8.145538,11.877991,
782.260702,true,true,true,0.125,12.65,0.0,-34449,0,0,0.125,12.65,0.0,0,0,0,0.25,12.65,0.0,875,0,0,0.125,12.65,0.0,0,0,0,0.125,12.65,0.0,4,0,0,0.0,12.65,0.0,0,0,0,0.125,12.700000000000001,0.0,0,0,0,kReverse,kOff,-87.23,2.09,2.66,0.037902832,-0.9772339,0.027770996,35.11,0.0,1.0,-8.145538,11.877991,
782.2798319999999,true,true,true,0.125,12.65,0.0,-34449,0,0,0.125,12.65,0.0,0,0,0,0.25,12.65,0.0,875,0,0,0.125,12.65,0.0,0,0,0,0.125,12.65,0.0,4,0,0,0.0,12.65,0.0,0,0,0,0.125,12.700000000000001,0.0,0,0,0,kReverse,kOff,-87.23,2.09,2.66,0.034301758,-0.9830322,0.026000977,35.11,0.0,-3.0,-8.145538,11.877991,
782.300246,true,true,true,0.125,12.65,0.0,-34449,0,0,0.125,12.65,0.0,0,0,0,0.25,12.65,0.0,875,0,0,0.125,12.65,0.0,0,0,0,0.125,12.65,0.0,4,0,0,0.0,12.65,0.0,0,0,0,0.125,12.700000000000001,0.0,0,0,0,kReverse,kOff,-87.23,2.09,2.66,0.034973145,-0.98431396,0.029785156,35.11,0.0,-1.0,-8.145538,11.877991,
782.321498,true,true,true,0.125,12.65,0.0,-34449,0,0,0.125,12.65,0.0,0,0,0,0.25,12.65,0.0,875,0,0,0.125,12.65,0.0,0,0,0,0.125,12.65,0.0,4,0,0,0.0,12.65,0.0,0,0,0,0.125,12.700000000000001,0.0,0,0,0,kReverse,kOff,-87.23,2.09,2.66,0.03277588,-0.98309326,0.03967285,35.11,0.0,0.0,-8.145538,11.877991,
782.343522,true,true,true,0.125,12.65,0.0,-34449,0,0,0.125,12.65,0.0,0,0,0,0.25,12.65,0.0,875,0,0,0.125,12.65,0.0,0,0,0,0.125,12.65,0.0,4,0,0,0.0,12.65,0.0,0,0,0,0.125,12.700000000000001,0.0,0,0,0,kReverse,kOff,-87.23,2.09,2.66,0.040771484,-0.98431396,0.023132324,35.11,0.0,2.0,-8.145538,11.877991,
782.3651530000001,true,true,true,0.125,12.65,0.0,-34449,0,0,0.125,12.65,0.0,0,0,0,0.25,12.65,0.0,875,0,0,0.125,12.65,0.0,0,0,0,0.125,12.65,0.0,4,0,0,0.0,12.65,0.0,0,0,0,0.125,12.700000000000001,0.0,0,0,0,kReverse,kOff,-87.24,2.09,2.66,0.03540039,-0.9854126,0.03552246,35.11,0.0,0.0,-8.145538,11.877991,
782.391546,true,true,true,0.125,12.65,0.0,-34449,0,0,0.125,12.65,0.0,0,0,0,0.25,12.65,0.0,875,0,0,0.125,12.65,0.0,0,0,0,0.125,12.65,0.0,4,0,0,0.0,12.65,0.0,0,0,0,0.125,12.700000000000001,0.0,0,0,0,kReverse,kOff,-87.24,2.09,2.66,0.03741455,-0.9817505,0.028381348,35.11,0.0,0.0,-8.145538,11.877991,
782.411573,true,true,true,0.125,12.65,0.0,-34449,0,0,0.125,12.65,0.0,0,0,0,0.25,12.65,0.0,875,0,0,0.125,12.65,0.0,0,0,0,0.125,12.65,0.0,4,0,0,0.0,12.65,0.0,0,0,0,0.125,12.700000000000001,0.0,0,0,0,kReverse,kOff,-87.24,2.09,2.66,0.037109375,-0.982666,0.031982422,35.11,0.0,1.0,-8.145538,11.877991,
782.427727,true,true,true,0.125,12.65,0.0,-34449,0,0,0.125,12.65,0.0,0,0,0,0.25,12.65,0.0,875,0,0,0.125,12.65,0.0,0,0,0,0.125,12.65,0.0,4,0,0,0.0,12.65,0.0,0,0,0,0.125,12.700000000000001,0.0,0,0,0,kReverse,kOff,-87.23,2.1,2.67,0.037231445,-0.9803467,0.032470703,35.11,0.0,1.0,-8.145538,11.877991,
782.451012,true,true,true,0.125,12.65,0.0,-34449,0,0,0.125,12.65,0.0,0,0,0,0.25,12.65,0.0,875,0,0,0.125,12.65,0.0,0,0,0,0.125,12.65,0.0,4,0,0,0.0,12.65,0.0,0,0,0,0.125,12.700000000000001,0.0,0,0,0,kReverse,kOff,-87.24,2.09,2.66,0.03668213,-0.98132324,0.032287598,35.11,0.0,1.0,-8.145538,11.877991,
782.469531,true,true,true,0.125,12.65,0.0,-34449,0,0,0.125,12.65,0.0,0,0,0,0.25,12.65,0.0,875,0,0,0.125,12.65,0.0,0,0,0,0.125,12.65,0.0,4,0,0,0.0,12.65,0.0,0,0,0,0.125,12.700000000000001,0.0,0,0,0,kReverse,kOff,-87.24,2.09,2.66,0.03253174,-0.98480225,0.025817871,35.11,0.0,-4.0,-8.145538,11.877991,
782.4943939999999,true,true,true,0.125,12.65,0.0,-34449,0,0,0.125,12.65,0.0,0,0,0,0.25,12.65,0.0,875,0,0,0.125,12.65,0.0,0,0,0,0.125,12.65,0.0,4,0,0,0.0,12.65,0.0,0,0,0,0.125,12.700000000000001,0.0,0,0,0,kReverse,kOff,-87.24,2.09,2.66,0.03277588,-0.98791504,0.033081055,35.11,0.0,-2.0,-8.145538,11.877991,
782.512658,true,true,true,0.125,12.65,0.0,-34449,0,0,0.125,12.65,0.0,0,0,0,0.25,12.65,0.0,875,0,0,0.125,12.65,0.0,0,0,0,0.125,12.65,0.0,4,0,0,0.0,12.65,0.0,0,0,0,0.125,12.700000000000001,0.0,0,0,0,kReverse,kOff,-87.24,2.08,2.65,0.034973145,-0.9838867,0.030944824,35.11,0.0,0.0,-8.145538,11.877991,
782.53466,true,true,true,0.125,12.65,0.0,-34449,0,0,0.125,12.65,0.0,0,0,0,0.25,12.65,0.0,875,0,0,0.125,12.65,0.0,0,0,0,0.125,12.65,0.0,4,0,0,0.0,12.65,0.0,0,0,0,0.125,12.700000000000001,0.0,0,0,0,kReverse,kOff,-87.24,2.08,2.65,0.033996582,-0.9852905,0.033081055,35.11,0.0,-1.0,-8.145538,11.877991,
782.553888,true,true,true,0.125,12.65,0.0,-34449,0,0,0.125,12.65,0.0,0,0,0,0.25,12.65,0.0,875,0,0,0.125,12.65,0.0,0,0,0,0.125,12.65,0.0,4,0,0,0.0,12.65,0.0,0,0,0,0.125,12.700000000000001,0.0,0,0,0,kReverse,kOff,-87.24,2.09,2.66,0.03704834,-0.9857178,0.030517578,35.11,0.0,0.0,-8.145538,11.877991,
782.5698299999999,true,true,true,0.125,12.65,0.0,-34449,0,0,0.125,12.65,0.0,0,0,0,0.25,12.65,0.0,875,0,0,0.125,12.65,0.0,0,0,0,0.125,12.65,0.0,4,0,0,0.0,12.65,0.0,0,0,0,0.125,12.700000000000001,0.0,0,0,0,kReverse,kOff,-87.24,2.09,2.66,0.03704834,-0.9857178,0.030517578,35.11,0.0,0.0,-8.145538,11.877991,
782.581678,true,true,true,0.125,12.65,0.0,-34449,0,0,0.125,12.65,0.0,0,0,0,0.25,12.65,0.0,875,0,0,0.125,12.65,0.0,0,0,0,0.125,12.65,0.0,4,0,0,0.0,12.65,0.0,0,0,0,0.125,12.700000000000001,0.0,0,0,0,kReverse,kOff,-87.24,2.09,2.66,0.035217285,-0.9851074,0.030700684,35.11,0.0,0.0,-8.145538,11.877991,
782.592941,true,true,true,0.125,12.65,0.0,-34449,0,0,0.125,12.65,0.0,0,0,0,0.25,12.65,0.0,875,0,0,0.125,12.65,0.0,0,0,0,0.125,12.65,0.0,4,0,0,0.0,12.65,0.0,0,0,0,0.125,12.700000000000001,0.0,0,0,0,kReverse,kOff,-87.24,2.09,2.66,0.037109375,-0.9845581,0.037963867,35.11,0.0,3.0,-8.145538,11.877991,
782.604546,true,true,true,0.125,12.65,0.0,-34449,0,0,0.125,12.65,0.0,0,0,0,0.25,12.65,0.0,875,0,0,0.125,12.65,0.0,0,0,0,0.125,12.65,0.0,4,0,0,0.0,12.65,0.0,0,0,0,0.125,12.700000000000001,0.0,0,0,0,kReverse,kOff,-87.23,2.09,2.66,0.041381836,-0.98309326,0.03314209,35.11,0.0,5.0,-8.145538,11.877991,
782.617396,true,true,true,0.125,12.65,0.0,-34449,0,0,0.125,12.65,0.0,0,0,0,0.25,12.65,0.0,875,0,0,0.125,12.65,0.0,0,0,0,0.125,12.65,0.0,4,0,0,0.0,12.65,0.0,0,0,0,0.125,12.700000000000001,0.0,0,0,0,kReverse,kOff,-87.23,2.1,2.67,0.03503418,-0.9800415,0.034362793,35.11,0.0,0.0,-8.145538,11.877991,
782.630819,true,true,true,0.125,12.65,0.0,-34449,0,0,0.125,12.65,0.0,0,0,0,0.25,12.65,0.0,875,0,0,0.125,12.65,0.0,0,0,0,0.125,12.65,0.0,4,0,0,0.0,12.65,0.0,0,0,0,0.125,12.700000000000001,0.0,0,0,0,kReverse,kOff,-87.23,2.1,2.67,0.036376953,-0.982666,0.03173828,35.11,0.0,0.0,-8.145538,11.877991,
782.643009,true,true,true,0.125,12.65,0.0,-34449,0,0,0.125,12.65,0.0,0,0,0,0.25,12.65,0.0,875,0,0,0.125,12.65,0.0,0,0,0,0.125,12.65,0.0,4,0,0,0.0,12.65,0.0,0,0,0,0.125,12.700000000000001,0.0,0,0,0,kReverse,kOff,-87.23,2.09,2.66,0.036743164,-0.98217773,0.032470703,35.11,0.0,1.0,-8.145538,11.877991,
782.6696119999999,true,true,true,0.125,12.65,0.0,-34449,0,0,0.125,12.65,0.0,0,0,0,0.25,12.65,0.0,875,0,0,0.125,12.65,0.0,0,0,0,0.125,12.65,0.0,4,0,0,0.0,12.65,0.0,0,0,0,0.125,12.700000000000001,0.0,0,0,0,kReverse,kOff,-87.24,2.09,2.66,0.034484863,-0.98101807,0.030273438,35.11,0.0,-1.0,-8.145538,11.877991,
782.688975,true,true,true,0.125,12.65,0.0,-34449,0,0,0.125,12.65,0.0,0,0,0,0.25,12.65,0.0,875,0,0,0.125,12.65,0.0,0,0,0,0.125,12.65,0.0,4,0,0,0.0,12.65,0.0,0,0,0,0.125,12.700000000000001,0.0,0,0,0,kReverse,kOff,-87.23,2.09,2.66,0.036865234,-0.98205566,0.034057617,35.11,0.0,1.0,-8.145538,11.877991,
782.711287,true,true,true,0.125,12.65,0.0,-34449,0,0,0.125,12.65,0.0,0,0,0,0.25,12.65,0.0,875,0,0,0.125,12.65,0.0,0,0,0,0.125,12.65,0.0,4,0,0,0.0,12.65,0.0,0,0,0,0.125,12.700000000000001,0.0,0,0,0,kReverse,kOff,-87.23,2.09,2.66,0.034240723,-0.9867554,0.0357666,35.13,0.0,0.0,-8.145538,11.877991,
782.734754,true,true,true,0.125,12.65,0.0,-34449,0,0,0.125,12.65,0.0,0,0,0,0.25,12.65,0.0,875,0,0,0.125,12.65,0.0,0,0,0,0.125,12.65,0.0,4,0,0,0.0,12.65,0.0,0,0,0,0.125,12.700000000000001,0.0,0,0,0,kReverse,kOff,-87.24,2.09,2.66,0.03363037,-0.9835205,0.029418945,35.13,0.0,-2.0,-8.145538,11.877991,
782.759555,true,true,true,0.125,12.65,0.0,-34449,0,0,0.125,12.65,0.0,0,0,0,0.25,12.65,0.0,875,0,0,0.125,12.65,0.0,0,0,0,0.125,12.65,0.0,4,0,0,0.0,12.65,0.0,0,0,0,0.125,12.700000000000001,0.0,0,0,0,kReverse,kOff,-87.24,2.09,2.66,0.03564453,-0.98150635,0.030090332,35.13,0.0,-1.0,-8.145538,11.877991,
782.781057,true,true,true,0.125,12.65,0.0,-34449,0,0,0.125,12.65,0.0,0,0,0,0.25,12.65,0.0,875,0,0,0.125,12.65,0.0,0,0,0,0.125,12.65,0.0,4,0,0,0.0,12.65,0.0,0,0,0,0.125,12.700000000000001,0.0,0,0,0,kReverse,kOff,-87.24,2.09,2.66,0.036743164,-0.9838257,0.030212402,35.13,0.0,0.0,-8.145538,11.877991,
782.80098,true,true,true,0.125,12.65,0.0,-34449,0,0,0.125,12.65,0.0,0,0,0,0.25,12.65,0.0,875,0,0,0.125,12.65,0.0,0,0,0,0.125,12.65,0.0,4,0,0,0.0,12.65,0.0,0,0,0,0.125,12.700000000000001,0.0,0,0,0,kReverse,kOff,-87.24,2.09,2.66,0.03387451,-0.98205566,0.03137207,35.13,0.0,-1.0,-8.145538,11.877991,
782.824119,true,true,true,0.125,12.65,0.0,-34449,0,0,0.125,12.65,0.0,0,0,0,0.25,12.65,0.0,875,0,0,0.125,12.65,0.0,0,0,0,0.125,12.65,0.0,4,0,0,0.0,12.65,0.0,0,0,0,0.125,12.700000000000001,0.0,0,0,0,kReverse,kOff,-87.24,2.09,2.66,0.034973145,-0.9812622,0.031311035,35.13,0.0,0.0,-8.145538,11.877991,
782.84479,true,true,true,0.125,12.65,0.0,-34449,0,0,0.125,12.65,0.0,0,0,0,0.25,12.65,0.0,875,0,0,0.125,12.65,0.0,0,0,0,0.125,12.65,0.0,4,0,0,0.0,12.65,0.0,0,0,0,0.125,12.700000000000001,0.0,0,0,0,kReverse,kOff,-87.23,2.1,2.67,0.03564453,-0.98394775,0.024536133,35.13,0.0,-2.0,-8.145538,11.877991,
782.8668769999999,true,true,true,0.125,12.65,0.0,-34449,0,0,0.125,12.65,0.0,0,0,0,0.25,12.65,0.0,875,0,0,0.125,12.65,0.0,0,0,0,0.125,12.65,0.0,4,0,0,0.0,12.65,0.0,0,0,0,0.125,12.700000000000001,0.0,0,0,0,kReverse,kOff,-87.24,2.09,2.66,0.037109375,-0.98217773,0.031982422,35.13,0.0,1.0,-8.145538,11.877991,
782.888796,true,true,true,0.125,12.65,0.0,-34449,0,0,0.125,12.65,0.0,0,0,0,0.25,12.65,0.0,875,0,0,0.125,12.65,0.0,0,0,0,0.125,12.65,0.0,4,0,0,0.0,12.65,0.0,0,0,0,0.125,12.700000000000001,0.0,0,0,0,kReverse,kOff,-87.24,2.09,2.66,0.036315918,-0.9837036,0.034179688,35.13,0.0,1.0,-8.145538,11.877991,
782.920061,true,true,true,0.125,12.65,0.0,-34449,0,0,0.125,12.65,0.0,0,0,0,0.25,12.65,0.0,875,0,0,0.125,12.65,0.0,0,0,0,0.125,12.65,0.0,4,0,0,0.0,12.65,0.0,0,0,0,0.125,12.700000000000001,0.0,0,0,0,kReverse,kOff,-87.24,2.09,2.66,0.03503418,-0.98480225,0.030151367,35.13,0.0,-1.0,-8.145538,11.877991,
782.9431239999999,true,true,true,0.125,12.65,0.0,-34449,0,0,0.125,12.65,0.0,0,0,0,0.25,12.65,0.0,875,0,0,0.125,12.65,0.0,0,0,0,0.125,12.65,0.0,4,0,0,0.0,12.65,0.0,0,0,0,0.125,12.700000000000001,0.0,0,0,0,kReverse,kOff,-87.24,2.09,2.66,0.03643799,-0.9807129,0.03125,35.13,0.0,0.0,-8.145538,11.877991,
782.9636859999999,true,true,true,0.125,12.65,0.0,-34449,0,0,0.125,12.65,0.0,0,0,0,0.25,12.65,0.0,875,0,0,0.125,12.65,0.0,0,0,0,0.125,12.65,0.0,4,0,0,0.0,12.65,0.0,0,0,0,0.125,12.700000000000001,0.0,0,0,0,kReverse,kOff,-87.24,2.09,2.66,0.034118652,-0.9830322,0.031188965,35.13,0.0,-1.0,-8.145538,11.877991,
782.983837,true,true,true,0.125,12.65,0.0,-34449,0,0,0.125,12.65,0.0,0,0,0,0.25,12.65,0.0,875,0,0,0.125,12.65,0.0,0,0,0,0.125,12.65,0.0,4,0,0,0.0,12.65,0.0,0,0,0,0.125,12.700000000000001,0.0,0,0,0,kReverse,kOff,-87.24,2.09,2.66,0.033813477,-0.9852905,0.031555176,35.13,0.0,-1.0,-8.145538,11.877991,
783.005689,true,true,true,0.125,12.65,0.0,-34449,0,0,0.125,12.65,0.0,0,0,0,0.25,12.65,0.0,875,0,0,0.125,12.65,0.0,0,0,0,0.125,12.65,0.0,4,0,0,0.0,12.65,0.0,0,0,0,0.125,12.700000000000001,0.0,0,0,0,kReverse,kOff,-87.24,2.09,2.66,0.036254883,-0.9824219,0.02960205,35.13,0.0,0.0,-8.145538,11.877991,
783.028424,true,true,true,0.125,12.65,0.0,-34449,0,0,0.125,12.65,0.0,0,0,0,0.25,12.65,0.0,875,0,0,0.125,12.65,0.0,0,0,0,0.125,12.65,0.0,4,0,0,0.0,12.65,0.0,0,0,0,0.125,12.700000000000001,0.0,0,0,0,kReverse,kOff,-87.23,2.1,2.67,0.03479004,-0.98217773,0.030822754,35.13,0.0,-1.0,-8.145538,11.877991,
783.0523830000001,true,true,true,0.125,12.65,0.0,-34449,0,0,0.125,12.65,0.0,0,0,0,0.25,12.65,0.0,875,0,0,0.125,12.65,0.0,0,0,0,0.125,12.65,0.0,4,0,0,0.0,12.65,0.0,0,0,0,0.125,12.700000000000001,0.0,0,0,0,kReverse,kOff,-87.23,2.1,2.67,0.041503906,-0.9831543,0.03137207,35.13,0.0,5.0,-8.145538,11.877991,
783.077204,true,true,true,0.125,12.65,0.0,-34449,0,0,0.125,12.65,0.0,0,0,0,0.25,12.65,0.0,875,0,0,0.125,12.65,0.0,0,0,0,0.125,12.65,0.0,4,0,0,0.0,12.65,0.0,0,0,0,0.125,12.700000000000001,0.0,0,0,0,kReverse,kOff,-87.23,2.11,2.68,0.04107666,-0.98150635,0.027526855,35.13,0.0,3.0,-8.145538,11.877991,
783.096351,true,true,true,0.125,12.65,0.0,-34449,0,0,0.125,12.65,0.0,0,0,0,0.25,12.65,0.0,875,0,0,0.125,12.65,0.0,0,0,0,0.125,12.65,0.0,4,0,0,0.0,12.65,0.0,0,0,0,0.125,12.700000000000001,0.0,0,0,0,kReverse,kOff,-87.23,2.11,2.68,0.040283203,-0.98339844,0.023132324,35.13,0.0,1.0,-8.145538,11.877991,
783.116635,true,true,true,0.125,12.65,0.0,-34449,0,0,0.125,12.65,0.0,0,0,0,0.25,12.65,0.0,875,0,0,0.125,12.65,0.0,0,0,0,0.125,12.65,0.0,4,0,0,0.0,12.65,0.0,0,0,0,0.125,12.700000000000001,0.0,0,0,0,kReverse,kOff,-87.23,2.11,2.68,0.03717041,-0.98205566,0.028869629,35.13,0.0,0.0,-8.145538,11.877991,
783.138789,true,true,true,0.125,12.65,0.0,-34449,0,0,0.125,12.65,0.0,0,0,0,0.25,12.65,0.0,875,0,0,0.125,12.65,0.0,0,0,0,0.125,12.65,0.0,4,0,0,0.0,12.65,0.0,0,0,0,0.125,12.700000000000001,0.0,0,0,0,kReverse,kOff,-87.23,2.11,2.68,0.0368042,-0.9842529,0.033203125,35.13,0.0,1.0,-8.145538,11.877991,
783.160696,true,true,true,0.125,12.65,0.0,-34449,0,0,0.125,12.65,0.0,0,0,0,0.25,12.65,0.0,875,0,0,0.125,12.65,0.0,0,0,0,0.0,12.65,0.0,4,0,0,0.0,12.65,0.0,0,0,0,0.125,12.700000000000001,0.0,0,0,0,kReverse,kOff,-87.23,2.11,2.68,0.0357666,-0.98516846,0.032043457,35.13,0.0,0.0,-8.145538,11.877991,
783.1808599999999,true,true,true,0.125,12.65,0.0,-34449,0,0,0.125,12.65,0.0,0,0,0,0.25,12.65,0.0,875,0,0,0.125,12.65,0.0,0,0,0,0.0,12.65,0.0,4,0,0,0.0,12.65,0.0,0,0,0,0.125,12.700000000000001,0.0,0,0,0,kReverse,kOff,-87.23,2.11,2.68,0.034729004,-0.98760986,0.030639648,35.13,0.0,-1.0,-8.145538,11.877991,
783.2013059999999,true,true,true,0.125,12.65,0.0,-34449,0,0,0.125,12.65,0.0,0,0,0,0.25,12.65,0.0,875,0,0,0.125,12.65,0.0,0,0,0,0.0,12.65,0.0,4,0,0,0.0,12.65,0.0,0,0,0,0.125,12.700000000000001,0.0,0,0,0,kReverse,kOff,-87.23,2.11,2.68,0.0335083,-0.98706055,0.024353027,35.13,0.0,-4.0,-8.145538,11.877991,
783.223876,true,true,true,0.125,12.65,0.0,-34449,0,0,0.125,12.65,0.0,0,0,0,0.25,12.65,0.0,875,0,0,0.125,12.65,0.0,0,0,0,0.125,12.65,0.0,4,0,0,0.0,12.65,0.0,0,0,0,0.125,12.700000000000001,0.0,0,0,0,kReverse,kOff,-87.24,2.1,2.67,0.032287598,-0.9837036,0.031188965,35.08,0.0,-3.0,-8.145538,11.877991,
783.2447530000001,true,true,true,0.125,12.65,0.0,-34449,0,0,0.125,12.65,0.0,0,0,0,0.25,12.65,0.0,875,0,0,0.125,12.65,0.0,0,0,0,0.125,12.65,0.0,4,0,0,0.0,12.65,0.0,0,0,0,0.125,12.700000000000001,0.0,0,0,0,kReverse,kOff,-87.24,2.1,2.67,0.036315918,-0.9833374,0.030517578,35.08,0.0,0.0,-8.145538,11.877991,
783.267706,true,true,true,0.125,12.65,0.0,-34449,0,0,0.125,12.65,0.0,0,0,0,0.25,12.65,0.0,875,0,0,0.125,12.65,0.0,0,0,0,0.125,12.65,0.0,4,0,0,0.0,12.65,0.0,0,0,0,0.125,12.700000000000001,0.0,0,0,0,kReverse,kOff,-87.24,2.1,2.67,0.036132812,-0.9857178,0.029846191,35.08,0.0,0.0,-8.145538,11.877991,
783.287268,true,true,true,0.125,12.65,0.0,-34449,0,0,0.125,12.65,0.0,0,0,0,0.25,12.65,0.0,875,0,0,0.125,12.65,0.0,0,0,0,0.125,12.65,0.0,4,0,0,0.0,12.65,0.0,0,0,0,0.125,12.700000000000001,0.0,0,0,0,kReverse,kOff,-87.24,2.1,2.67,0.036865234,-0.9817505,0.027832031,35.08,0.0,0.0,-8.145538,11.877991,
783.310378,true,true,true,0.125,12.65,0.0,-34449,0,0,0.125,12.65,0.0,0,0,0,0.25,12.65,0.0,875,0,0,0.125,12.65,0.0,0,0,0,0.125,12.65,0.0,4,0,0,0.0,12.65,0.0,0,0,0,0.125,12.700000000000001,0.0,0,0,0,kReverse,kOff,-87.24,2.1,2.67,0.034851074,-0.98431396,0.030883789,35.08,0.0,-1.0,-8.145538,11.877991,
783.3321309999999,true,true,true,0.125,12.65,0.0,-34449,0,0,0.125,12.65,0.0,0,0,0,0.375,12.65,0.0,875,0,0,0.25,12.65,0.0,0,0,0,0.0,12.65,0.0,4,0,0,0.0,12.65,0.0,0,0,0,0.125,12.700000000000001,0.0,0,0,0,kReverse,kOff,-87.24,2.1,2.67,0.03778076,-0.98272705,0.029418945,35.08,0.0,1.0,-8.145538,11.877991,
783.352668,true,true,true,0.125,12.65,0.0,-34449,0,0,0.125,12.6,0.0,0,0,0,0.375,12.65,0.0,874,0,0,0.375,12.65,0.0,0,0,0,0.0,12.65,0.0,4,0,0,0.0,12.65,0.0,0,0,0,0.125,12.700000000000001,0.0,0,0,0,kReverse,kOff,-87.24,2.1,2.67,0.03668213,-0.9819336,0.030029297,35.08,0.0,0.0,-8.145538,11.877991,
783.373459,true,true,true,0.125,12.6,0.0,-34449,0,0,0.125,12.6,0.0,0,0,0,0.375,12.6,0.0,872,0,0,0.875,12.6,0.0,0,0,0,0.0,12.6,0.0,4,0,0,0.0,12.65,0.0,0,0,0,0.125,12.700000000000001,0.0,0,0,0,kReverse,kOff,-87.23,2.11,2.68,0.034057617,-0.9869385,0.013244629,35.08,0.0,-7.0,-8.145538,11.877991,
783.397712,true,true,true,0.125,12.6,0.0,-34449,0,0,0.125,12.6,0.0,0,0,0,0.375,12.6,0.0,864,-2,0,10.5,12.6,0.0,0,0,0,0.125,12.6,0.0,4,0,0,0.0,11.8,0.0,0,0,0,0.125,12.35,0.0,0,0,0,kReverse,kOff,-87.24,2.11,2.67,0.057495117,-0.9960327,-0.011779785,35.08,0.0,6.0,-8.145538,11.87796,
783.419004,true,true,true,0.125,12.6,0.0,-34449,0,0,0.125,12.6,0.0,0,0,0,0.375,12.6,0.0,835,-10,0,20.375,12.6,0.0,0,0,0,0.125,12.6,0.0,4,0,0,0.0,11.8,0.0,0,0,0,0.125,12.35,0.0,0,0,0,kReverse,kOff,-87.24,2.12,2.68,0.019470215,-1.0853271,-0.03265381,35.08,0.0,-39.0,-8.145554,11.877869,
783.437331,true,true,true,0.125,12.6,0.0,-34449,0,0,0.125,12.6,0.0,0,0,0,0.375,12.6,0.0,789,-29,0,31.375,12.6,0.0,0,0,0,0.125,12.6,0.0,4,0,0,0.0,11.8,0.0,0,0,0,0.125,12.35,0.0,0,0,0,kReverse,kOff,-87.22,2.13,2.69,-0.047973633,-0.9968262,-0.024536133,35.08,0.0,-97.0,-8.145676,11.877716,
783.4597879999999,true,true,true,0.125,12.6,0.0,-34449,0,0,0.125,12.6,0.0,0,0,0,0.375,12.6,0.0,724,-65,0,39.875,12.6,0.0,0,0,0,0.125,12.6,0.0,4,0,0,0.0,11.8,0.0,0,0,0,0.125,12.35,0.0,0,0,0,kReverse,kOff,-87.24,2.12,2.68,0.0018310547,-0.85217285,-0.017456055,35.08,0.0,-41.0,-8.146317,11.877335,
783.480967,true,true,true,0.125,12.6,0.0,-34449,0,0,0.125,12.6,0.0,0,0,0,0.375,12.6,0.0,644,-118,0,39.5,12.6,0.0,0,0,0,0.125,12.6,0.0,4,0,0,0.0,11.8,0.0,0,0,0,0.125,12.35,0.0,0,0,0,kReverse,kOff,-87.24,2.12,2.68,0.0018310547,-0.85217285,-0.017456055,35.08,0.0,-72.0,-8.146774,11.877029,
783.5021770000001,true,true,true,0.125,12.6,0.0,-34449,0,0,0.125,12.6,0.0,0,0,0,0.375,12.6,0.0,552,-186,0,36.5,12.6,0.0,0,0,0,0.125,12.6,0.0,4,0,0,0.0,11.8,0.0,0,0,0,0.125,12.35,0.0,0,0,0,kReverse,kOff,-87.25,2.1,2.66,0.07788086,-1.0286255,0.080566406,35.08,0.0,52.0,-8.147247,11.876678,
783.522931,true,true,true,0.125,12.6,0.0,-34449,0,0,0.125,11.9,0.0,0,0,0,0.375,12.6,0.0,347,-337,0,29.875,12.6,0.0,0,0,0,0.125,12.6,0.0,4,0,0,0.0,11.8,0.0,0,0,0,0.125,12.35,0.0,0,0,0,kReverse,kOff,-87.21,2.11,2.69,0.013916016,-1.013855,-0.10949707,35.08,0.0,-65.0,-8.14772,11.8762665,
783.5436480000001,true,true,true,0.125,12.0,0.0,-34449,0,0,0.125,11.9,0.0,0,0,0,0.375,11.95,0.0,237,-403,0,20.75,11.850000000000001,0.0,0,0,0,0.125,12.0,0.0,4,0,0,0.0,11.8,0.0,0,0,0,0.125,12.1,0.0,0,0,0,kReverse,kOff,-87.23,2.11,2.68,0.047058105,-1.0162354,0.091430664,35.08,0.0,27.0,-8.148621,11.875595,
783.563504,true,true,true,0.125,12.0,0.0,-34449,0,0,0.125,11.9,0.0,0,0,0,0.375,11.95,0.0,122,-457,0,18.625,11.850000000000001,0.0,0,0,0,0.125,12.0,0.0,4,0,0,0.0,12.05,0.0,0,0,0,0.125,12.1,0.0,0,0,0,kReverse,kOff,-87.23,2.12,2.68,0.011352539,-0.8972168,0.052246094,35.08,0.0,-13.0,-8.149048,11.875381,
783.583893,true,true,true,0.125,12.0,0.0,-34449,0,0,0.125,11.9,0.0,0,0,0,0.375,11.95,0.0,4,-498,0,18.625,11.850000000000001,0.0,0,0,0,0.125,12.0,0.0,4,0,0,0.0,12.05,0.0,0,0,0,0.125,12.1,0.0,0,0,0,kReverse,kOff,-87.22,2.13,2.69,0.097839355,-1.0252075,0.040100098,35.08,0.0,59.0,-8.149429,11.875183,
783.6036899999999,true,true,true,0.125,12.0,0.0,-34449,0,0,0.125,11.9,0.0,0,0,0,0.375,11.95,0.0,-116,-530,0,15.5,11.850000000000001,0.0,0,0,0,0.125,12.0,0.0,4,0,0,0.0,12.05,0.0,0,0,0,0.125,12.1,0.0,0,0,0,kReverse,kOff,-87.22,2.13,2.69,0.056762695,-0.9628906,0.043273926,35.08,0.0,23.0,-8.150162,11.874817,
783.623915,true,true,true,0.125,12.0,0.0,-34449,0,0,0.125,11.9,0.0,0,0,0,0.375,11.95,0.0,-244,-556,0,14.5,11.850000000000001,0.0,0,0,0,0.125,12.0,0.0,4,0,0,0.0,12.05,0.0,0,0,0,0.125,12.1,0.0,0,0,0,kReverse,kOff,-87.23,2.12,2.68,-0.0036010742,-0.8422241,0.046203613,35.08,0.0,-27.0,-8.150543,11.874664,
783.644826,true,true,true,0.125,12.0,0.0,-34449,0,0,0.125,11.9,0.0,0,0,0,0.375,11.95,0.0,-361,-574,0,13.625,11.850000000000001,0.0,0,0,0,0.125,12.0,0.0,4,0,0,0.0,12.05,0.0,0,0,0,0.125,12.1,0.0,0,0,0,kReverse,kOff,-87.24,2.1,2.66,0.12347412,-1.0432739,0.08282471,35.08,0.0,96.0,-8.150864,11.8745575,
783.6565089999999,true,true,true,0.125,12.0,0.0,-34449,0,0,0.125,11.9,0.0,0,0,0,0.375,11.95,0.0,-361,-574,0,13.625,11.850000000000001,0.0,0,0,0,0.125,12.0,0.0,4,0,0,0.0,12.05,0.0,0,0,0,0.125,12.1,0.0,0,0,0,kReverse,kOff,-87.2,2.13,2.7,0.009765625,-0.87646484,0.101745605,35.08,0.0,0.0,-8.151138,11.874512,
783.6710109999999,true,true,true,0.125,12.0,0.0,-34449,0,0,0.125,11.9,0.0,0,0,0,0.375,11.95,0.0,-486,-589,0,13.0,11.850000000000001,0.0,0,0,0,0.125,12.0,0.0,4,0,0,0.0,12.05,0.0,0,0,0,0.125,12.1,0.0,0,0,0,kReverse,kOff,-87.21,2.12,2.69,0.018737793,-1.0686035,0.05682373,35.08,0.0,-12.0,-8.151398,11.874542,
783.683536,true,true,true,0.125,12.0,0.0,-34449,0,0,0.125,12.200000000000001,0.0,0,0,0,0.375,12.200000000000001,0.0,-612,-601,0,13.0,11.850000000000001,0.0,0,0,0,0.125,12.0,0.0,4,0,0,0.0,12.05,0.0,0,0,0,0.125,12.1,0.0,0,0,0,kReverse,kOff,-87.22,2.11,2.68,-0.001159668,-1.0253296,-0.024230957,35.08,0.0,-54.0,-8.151718,11.8745575,
783.6965429999999,true,true,true,0.125,12.200000000000001,0.0,-34449,0,0,0.125,12.200000000000001,0.0,0,0,0,0.375,12.200000000000001,0.0,-612,-601,0,12.25,12.15,0.0,0,0,0,0.125,12.25,0.0,4,0,0,0.0,12.05,0.0,0,0,0,0.125,12.1,0.0,0,0,0,kReverse,kOff,-87.22,2.11,2.68,-0.001159668,-1.0253296,-0.024230957,35.08,0.0,-54.0,-8.151718,11.8745575,
783.709469,true,true,true,0.125,12.200000000000001,0.0,-34449,0,0,0.125,12.200000000000001,0.0,0,0,0,0.375,12.200000000000001,0.0,-738,-610,0,11.75,12.15,0.0,0,0,0,0.125,12.25,0.0,4,0,0,0.0,12.05,0.0,0,0,0,0.125,12.3,0.0,0,0,0,kReverse,kOff,-87.2,2.11,2.69,0.030944824,-0.88757324,0.0770874,35.08,0.0,13.0,-8.152069,11.874588,
783.7222419999999,true,true,true,0.125,12.200000000000001,0.0,-34449,0,0,0.125,12.200000000000001,0.0,0,0,0,0.375,12.200000000000001,0.0,-871,-618,0,11.125,12.15,0.0,0,0,0,0.125,12.25,0.0,4,0,0,0.0,12.25,0.0,0,0,0,0.125,12.3,0.0,0,0,0,kReverse,kOff,-87.24,2.1,2.67,0.033813477,-1.0024414,0.03277588,35.06,0.0,-2.0,-8.152618,11.874756,
783.754091,true,true,true,0.125,12.200000000000001,0.0,-34449,0,0,0.125,12.200000000000001,0.0,0,0,0,0.375,12.200000000000001,0.0,-992,-623,0,10.75,12.15,0.0,0,0,0,0.125,12.25,0.0,4,0,0,0.0,12.25,0.0,0,0,0,0.125,12.3,0.0,0,0,0,kReverse,kOff,-87.22,2.1,2.67,0.046020508,-1.1220093,-0.033569336,35.06,0.0,-16.0,-8.152878,11.8750305,
783.784444,true,true,true,0.125,12.200000000000001,0.0,-34449,0,0,0.125,12.200000000000001,0.0,0,0,0,0.375,12.200000000000001,0.0,-1248,-632,0,10.25,12.15,0.0,0,0,0,0.125,12.25,0.0,4,0,0,0.0,12.25,0.0,0,0,0,0.125,12.3,0.0,0,0,0,kReverse,kOff,-87.21,2.1,2.68,0.0725708,-0.94873047,0.04095459,35.06,0.0,39.0,-8.152832,11.875427,
783.811287,true,true,true,0.125,12.200000000000001,0.0,-34449,0,0,0.125,12.200000000000001,0.0,0,0,0,0.375,12.200000000000001,0.0,-1376,-634,0,10.25,12.15,0.0,0,0,0,0.125,12.25,0.0,4,0,0,0.0,12.25,0.0,0,0,0,0.125,12.3,0.0,0,0,0,kReverse,kOff,-87.21,2.08,2.67,0.041381836,-1.0585938,0.05621338,35.06,0.0,9.0,-8.152725,11.875885,
783.836762,true,true,true,0.125,12.200000000000001,0.0,-34449,0,0,0.125,12.25,0.0,0,0,0,0.375,12.200000000000001,0.0,-1504,-636,0,10.25,12.15,0.0,0,0,0,0.125,12.25,0.0,4,0,0,0.0,12.25,0.0,0,0,0,0.125,12.3,0.0,0,0,0,kReverse,kOff,-87.21,2.08,2.67,0.093566895,-0.91796875,0.083496094,35.06,0.0,73.0,-8.152618,11.87616,
783.8573839999999,true,true,true,0.125,12.25,0.0,-34449,0,0,0.125,12.25,0.0,0,0,0,0.375,12.25,0.0,-1632,-638,0,10.25,12.200000000000001,0.0,0,0,0,0.125,12.25,0.0,4,0,0,0.0,12.25,0.0,0,0,0,0.125,12.35,0.0,0,0,0,kReverse,kOff,-87.22,2.09,2.67,-0.00390625,-0.9595947,0.05822754,35.06,0.0,-28.0,-8.152267,11.8767395,
783.879906,true,true,true,0.125,12.25,0.0,-34449,0,0,0.125,12.25,0.0,0,0,0,0.375,12.25,0.0,-1761,-639,0,10.125,12.200000000000001,0.0,0,0,0,0.125,12.25,0.0,4,0,0,0.0,12.25,0.0,0,0,0,0.125,12.35,0.0,0,0,0,kReverse,kOff,-87.2,2.07,2.67,0.08319092,-1.0010986,0.08557129,35.06,0.0,60.0,-8.152084,11.87709,
783.9006139999999,true,true,true,0.125,12.25,0.0,-34449,0,0,0.125,12.25,0.0,0,0,0,0.375,12.25,0.0,-1889,-640,0,10.0,12.200000000000001,0.0,0,0,0,0.125,12.25,0.0,4,0,0,0.0,12.25,0.0,0,0,0,0.125,12.35,0.0,0,0,0,kReverse,kOff,-87.19,2.07,2.67,0.02911377,-1.0213623,-0.07269287,35.06,0.0,-39.0,-8.151871,11.877396,
783.9203660000001,true,true,true,0.125,12.25,0.0,-34449,0,0,0.125,12.25,0.0,0,0,0,0.375,12.25,0.0,-2017,-640,0,10.0,12.200000000000001,0.0,0,0,0,0.125,12.25,0.0,4,0,0,0.0,12.25,0.0,0,0,0,0.125,12.35,0.0,0,0,0,kReverse,kOff,-87.19,2.06,2.66,0.090270996,-0.9205322,0.0703125,35.06,0.0,66.0,-8.151459,11.878174,
783.9543299999999,true,true,true,0.125,12.25,0.0,-34449,0,0,0.125,12.25,0.0,0,0,0,0.375,12.25,0.0,-2273,-641,0,7.75,12.200000000000001,0.0,0,0,0,0.0,12.25,0.0,4,0,0,0.0,12.25,0.0,0,0,0,0.125,12.35,0.0,0,0,0,kReverse,kOff,-87.19,2.06,2.66,0.024963379,-1.0602417,-0.0021362305,35.06,0.0,-23.0,-8.1510315,11.878952,
783.981474,true,true,true,0.125,12.25,0.0,-34449,0,0,0.125,12.25,0.0,0,0,0,0.375,12.25,0.0,-2392,-640,0,3.25,12.200000000000001,0.0,0,0,0,0.0,12.25,0.0,4,0,0,0.0,12.25,0.0,0,0,0,0.125,12.35,0.0,0,0,0,kReverse,kOff,-87.2,2.06,2.66,0.054504395,-1.0308838,-0.036987305,35.06,0.0,-5.0,-8.150711,11.879593,
784.003158,true,true,true,0.125,12.25,0.0,-34449,0,0,0.125,12.6,0.0,0,0,0,0.125,12.25,0.0,-2546,-606,0,0.125,12.65,0.0,0,0,0,0.0,12.25,0.0,4,0,0,0.0,12.25,0.0,0,0,0,0.125,12.35,0.0,0,0,0,kReverse,kOff,-87.23,2.05,2.64,0.12597656,-0.93566895,-0.07324219,35.06,0.0,56.0,-8.150528,11.879761,
784.02825,true,true,true,0.125,12.6,0.0,-34449,0,0,0.125,12.6,0.0,0,0,0,0.125,12.6,0.0,-2590,-554,0,0.25,12.65,0.0,0,0,0,0.125,12.6,0.0,4,0,0,0.0,12.25,0.0,0,0,0,0.125,12.65,0.0,0,0,0,kReverse,kOff,-87.26,2.06,2.63,0.07476807,-1.0395508,0.07434082,35.06,0.0,48.0,-8.149841,11.880051,
784.051624,true,true,true,0.125,12.6,0.0,-34449,0,0,0.125,12.6,0.0,0,0,0,0.125,12.6,0.0,-2615,-486,0,0.125,12.65,0.0,0,0,0,0.125,12.6,0.0,4,0,0,0.0,12.55,0.0,0,0,0,0.125,12.65,0.0,0,0,0,kReverse,kOff,-87.21,2.07,2.66,0.045166016,-0.9842529,0.101989746,35.06,0.0,23.0,-8.148987,11.880371,
784.074883,true,true,true,0.125,12.6,0.0,-34449,0,0,0.125,12.6,0.0,0,0,0,0.125,12.6,0.0,-2632,-396,0,0.125,12.65,0.0,0,0,0,0.125,12.6,0.0,4,0,0,0.0,12.55,0.0,0,0,0,0.125,12.65,0.0,0,0,0,kReverse,kOff,-87.27,2.05,2.62,0.13476562,-1.0213013,0.19586182,35.06,0.0,143.0,-8.1484375,11.880676,
784.093777,true,true,true,0.125,12.6,0.0,-34449,0,0,0.125,12.6,0.0,0,0,0,0.125,12.6,0.0,-2642,-301,0,0.125,12.65,0.0,0,0,0,0.125,12.6,0.0,4,0,0,0.0,12.55,0.0,0,0,0,0.125,12.65,0.0,0,0,0,kReverse,kOff,-87.21,2.07,2.66,-0.017089844,-0.92401123,-0.09063721,35.06,0.0,-84.0,-8.147842,11.880997,
784.1161099999999,true,true,true,0.125,12.6,0.0,-34449,0,0,0.125,12.6,0.0,0,0,0,0.125,12.6,0.0,-2647,-213,0,0.125,12.65,0.0,0,0,0,0.125,12.6,0.0,4,0,0,0.0,12.55,0.0,0,0,0,0.125,12.65,0.0,0,0,0,kReverse,kOff,-87.26,2.05,2.63,0.082458496,-1.0465698,0.068237305,35.06,0.0,-42.0,-8.146713,11.8815,
784.132081,true,true,true,0.125,12.6,0.0,-34449,0,0,0.125,12.6,0.0,0,0,0,0.125,12.6,0.0,-2648,-141,0,0.125,12.65,0.0,0,0,0,0.0,12.6,0.0,4,0,0,0.0,12.55,0.0,0,0,0,0.125,12.65,0.0,0,0,0,kReverse,kOff,-87.25,2.06,2.64,0.06488037,-1.0014038,0.07006836,35.06,0.0,39.0,-8.146133,11.881729,
784.155619,true,true,true,0.125,12.6,0.0,-34449,0,0,0.125,12.55,0.0,0,0,0,0.125,12.6,0.0,-2648,-88,0,0.125,12.65,0.0,0,0,0,0.0,12.6,0.0,4,0,0,0.0,12.55,0.0,0,0,0,0.125,12.65,0.0,0,0,0,kReverse,kOff,-87.26,2.05,2.62,0.029663086,-0.98461914,0.032348633,35.06,0.0,-5.0,-8.14505,11.881958,
784.180118,true,true,true,0.125,12.6,0.0,-34449,0,0,0.125,12.55,0.0,0,0,0,0.125,12.55,0.0,-2648,-52,0,0.125,12.6,0.0,0,0,0,0.0,12.6,0.0,4,0,0,0.0,12.55,0.0,0,0,0,0.125,12.65,0.0,0,0,0,kReverse,kOff,-87.23,2.07,2.65,0.0446167,-0.9871826,0.033813477,35.06,0.0,9.0,-8.144516,11.881958,
784.201393,true,true,true,0.125,12.6,0.0,-34449,0,0,0.125,12.55,0.0,0,0,0,0.125,12.55,0.0,-2648,-28,0,0.125,12.6,0.0,0,0,0,0.125,12.6,0.0,4,0,0,0.0,12.6,0.0,0,0,0,0.125,12.65,0.0,0,0,0,kReverse,kOff,-87.26,2.05,2.63,0.06335449,-1.0029907,0.050842285,35.06,0.0,31.0,-8.144501,11.881958,
784.222007,true,true,true,0.125,12.6,0.0,-34449,0,0,0.125,12.55,0.0,0,0,0,0.125,12.55,0.0,-2648,-5,0,0.125,12.6,0.0,0,0,0,0.125,12.6,0.0,4,0,0,0.0,12.6,0.0,0,0,0,0.125,12.65,0.0,0,0,0,kReverse,kOff,-87.24,2.07,2.65,0.026489258,-0.9642334,0.028259277,35.06,0.0,-8.0,-8.14447,11.881958,
784.244509,true,true,true,0.125,12.6,0.0,-34449,0,0,0.125,12.55,0.0,0,0,0,0.125,12.55,0.0,-2648,-1,0,0.125,12.6,0.0,0,0,0,0.125,12.6,0.0,4,0,0,0.0,12.6,0.0,0,0,0,0.125,12.65,0.0,0,0,0,kReverse,kOff,-87.25,2.06,2.64,0.03881836,-0.98779297,0.028076172,35.07,0.0,2.0,-8.144455,11.881897,
784.2666380000001,true,true,true,0.125,12.6,0.0,-34449,0,0,0.125,12.55,0.0,0,0,0,0.125,12.55,0.0,-2648,0,0,0.125,12.6,0.0,0,0,0,0.125,12.6,0.0,4,0,0,0.0,12.6,0.0,0,0,0,0.125,12.65,0.0,0,0,0,kReverse,kOff,-87.24,2.06,2.64,0.029846191,-0.98010254,0.02331543,35.07,0.0,-7.0,-8.144455,11.881851,
784.2896139999999,true,true,true,0.125,12.6,0.0,-34449,0,0,0.125,12.55,0.0,0,0,0,0.125,12.55,0.0,-2648,0,0,0.125,12.6,0.0,0,0,0,0.125,12.6,0.0,4,0,0,0.0,12.6,0.0,0,0,0,0.125,12.65,0.0,0,0,0,kReverse,kOff,-87.25,2.05,2.63,0.032287598,-0.98272705,0.04559326,35.07,0.0,1.0,-8.144455,11.881729,
784.3097750000001,true,true,true,0.125,12.6,0.0,-34449,0,0,0.125,12.55,0.0,0,0,0,0.125,12.55,0.0,-2648,0,0,0.125,12.6,0.0,0,0,0,0.125,12.6,0.0,4,0,0,0.0,12.6,0.0,0,0,0,0.125,12.65,0.0,0,0,0,kReverse,kOff,-87.25,2.06,2.64,0.042907715,-0.9772949,0.037719727,35.07,0.0,9.0,-8.144455,11.881668,
784.330272,true,true,true,0.125,12.6,0.0,-34449,0,0,0.125,12.6,0.0,0,0,0,0.125,12.55,0.0,-2648,0,0,0.125,12.6,0.0,0,0,0,0.125,12.6,0.0,4,0,0,0.0,12.6,0.0,0,0,0,0.125,12.65,0.0,0,0,0,kReverse,kOff,-87.25,2.06,2.64,0.028137207,-0.98431396,0.029296875,35.07,0.0,-7.0,-8.144455,11.881668,
784.349104,true,true,true,0.125,12.6,0.0,-34449,0,0,0.125,12.6,0.0,0,0,0,0.125,12.55,0.0,-2648,0,0,0.125,12.6,0.0,0,0,0,0.125,12.6,0.0,4,0,0,0.0,12.6,0.0,0,0,0,0.125,12.65,0.0,0,0,0,kReverse,kOff,-87.24,2.06,2.64,0.040283203,-0.986084,0.033996582,35.07,0.0,5.0,-8.144455,11.881668,
784.367809,true,true,true,0.125,12.6,0.0,-34449,0,0,0.125,12.6,0.0,0,0,0,0.125,12.55,0.0,-2648,0,0,0.125,12.6,0.0,0,0,0,0.125,12.6,0.0,4,0,0,0.0,12.6,0.0,0,0,0,0.125,12.65,0.0,0,0,0,kReverse,kOff,-87.24,2.06,2.64,0.02722168,-0.9831543,0.019226074,35.07,0.0,-11.0,-8.144455,11.881668,
784.396907,true,true,true,0.125,12.6,0.0,-34449,0,0,0.125,12.6,0.0,0,0,0,0.125,12.55,0.0,-2648,0,0,0.125,12.6,0.0,0,0,0,0.125,12.6,0.0,4,0,0,0.0,12.6,0.0,0,0,0,0.125,12.65,0.0,0,0,0,kReverse,kOff,-87.25,2.06,2.64,0.027954102,-0.9908447,0.028869629,35.07,0.0,-8.0,-8.144455,11.881668,
784.4164930000001,true,true,true,0.125,12.6,0.0,-34449,0,0,0.125,12.6,0.0,0,0,0,0.125,12.55,0.0,-2648,0,0,0.125,12.6,0.0,0,0,0,0.125,12.6,0.0,4,0,0,0.0,12.6,0.0,0,0,0,0.125,12.65,0.0,0,0,0,kReverse,kOff,-87.24,2.06,2.64,0.040527344,-0.9813843,0.03149414,35.07,0.0,4.0,-8.144455,11.881668,
784.4375990000001,true,true,true,0.125,12.6,0.0,-34449,0,0,0.125,12.6,0.0,0,0,0,0.125,12.55,0.0,-2648,0,0,0.125,12.6,0.0,0,0,0,0.125,12.6,0.0,4,0,0,0.0,12.6,0.0,0,0,0,0.125,12.65,0.0,0,0,0,kReverse,kOff,-87.25,2.06,2.64,0.0335083,-0.9848633,0.035705566,35.07,0.0,0.0,-8.144455,11.881668,
784.4603179999999,true,true,true,0.125,12.6,0.0,-34449,0,0,0.125,12.6,0.0,0,0,0,0.125,12.55,0.0,-2648,0,0,0.125,12.6,0.0,0,0,0,0.125,12.6,0.0,4,0,0,0.0,12.6,0.0,0,0,0,0.125,12.65,0.0,0,0,0,kReverse,kOff,-87.25,2.06,2.64,0.03540039,-0.9805908,0.02758789,35.07,0.0,-1.0,-8.144455,11.881668,
784.481443,true,true,true,0.125,12.6,0.0,-34449,0,0,0.125,12.6,0.0,0,0,0,0.125,12.55,0.0,-2648,0,0,0.125,12.6,0.0,0,0,0,0.125,12.6,0.0,4,0,0,0.125,12.6,0.0,0,0,0,0.125,12.65,0.0,0,0,0,kReverse,kOff,-87.25,2.06,2.64,0.033203125,-0.97875977,0.03466797,35.07,0.0,0.0,-8.144455,11.881668,
784.501834,true,true,true,0.125,12.6,0.0,-34449,0,0,0.125,12.6,0.0,0,0,0,0.125,12.6,0.0,-2648,0,0,0.125,12.6,0.0,0,0,0,0.125,12.6,0.0,4,0,0,0.125,12.6,0.0,0,0,0,0.125,12.65,0.0,0,0,0,kReverse,kOff,-87.25,2.06,2.64,0.03869629,-0.98168945,0.026794434,35.07,0.0,1.0,-8.144455,11.881668,
784.522082,true,true,true,0.125,12.6,0.0,-34449,0,0,0.125,12.6,0.0,0,0,0,0.125,12.6,0.0,-2648,0,0,0.125,12.6,0.0,0,0,0,0.125,12.6,0.0,4,0,0,0.0,12.6,0.0,0,0,0,0.125,12.65,0.0,0,0,0,kReverse,kOff,-87.25,2.06,2.64,0.040283203,-0.9859619,0.02758789,35.07,0.0,3.0,-8.144455,11.881668,
784.542493,true,true,true,0.125,12.6,0.0,-34449,0,0,0.125,12.6,0.0,0,0,0,0.125,12.6,0.0,-2648,0,0,0.125,12.6,0.0,0,0,0,0.125,12.6,0.0,4,0,0,0.0,12.6,0.0,0,0,0,0.125,12.65,0.0,0,0,0,kReverse,kOff,-87.24,2.07,2.65,0.031677246,-0.9812012,0.028503418,35.07,0.0,-4.0,-8.144455,11.881668,
784.562143,true,true,true,0.125,12.6,0.0,-34449,0,0,0.125,12.6,0.0,0,0,0,0.125,12.6,0.0,-2648,0,0,0.125,12.6,0.0,0,0,0,0.125,12.6,0.0,4,0,0,0.0,12.6,0.0,0,0,0,0.125,12.65,0.0,0,0,0,kReverse,kOff,-87.25,2.06,2.64,0.038330078,-0.9850464,0.026489258,35.07,0.0,1.0,-8.144455,11.881668,
784.5824520000001,true,true,true,0.125,12.6,0.0,-34449,0,0,0.125,12.6,0.0,0,0,0,0.125,12.6,0.0,-2648,0,0,0.125,12.6,0.0,0,0,0,0.125,12.6,0.0,4,0,0,0.0,12.6,0.0,0,0,0,0.125,12.65,0.0,0,0,0,kReverse,kOff,-87.25,2.06,2.64,0.03741455,-0.98010254,0.030395508,35.07,0.0,1.0,-8.144455,11.881668,
784.6031509999999,true,true,true,0.125,12.6,0.0,-34449,0,0,0.125,12.6,0.0,0,0,0,0.375,12.6,0.0,-2648,0,0,0.25,12.6,0.0,0,0,0,0.125,12.6,0.0,4,0,0,0.0,12.6,0.0,0,0,0,0.125,12.65,0.0,0,0,0,kReverse,kOff,-87.24,2.07,2.65,0.038391113,-0.9816284,0.039916992,35.07,0.0,5.0,-8.144455,11.881668,
784.628571,true,true,true,0.125,12.6,0.0,-34449,0,0,0.125,12.6,0.0,0,0,0,0.375,12.6,0.0,-2648,0,0,0.25,12.6,0.0,0,0,0,0.125,12.6,0.0,4,0,0,0.0,12.6,0.0,0,0,0,0.125,12.65,0.0,0,0,0,kReverse,kOff,-87.24,2.07,2.65,0.034423828,-0.95166016,0.032287598,35.07,0.0,0.0,-8.144455,11.881668,
784.648691,true,true,true,0.125,12.450000000000001,0.0,-34449,0,0,0.125,12.6,0.0,0,0,0,0.375,12.5,0.0,-2646,0,0,3.25,12.450000000000001,0.0,0,0,0,0.125,12.4,0.0,4,0,0,0.0,12.6,0.0,0,0,0,0.125,12.65,0.0,0,0,0,kReverse,kOff,-87.25,2.06,2.64,0.043151855,-1.0062866,0.042236328,35.07,0.0,9.0,-8.144455,11.881668,
784.677242,true,true,true,0.125,12.450000000000001,0.0,-34449,0,0,0.125,12.6,0.0,0,0,0,0.375,12.5,0.0,-2633,2,0,10.25,12.450000000000001,0.0,0,0,0,0.0,12.4,0.0,4,0,0,0.0,12.6,0.0,0,0,0,0.125,12.200000000000001,0.0,0,0,0,kReverse,kOff,-87.24,2.07,2.65,0.014343262,-1.0853271,-0.03137207,35.07,0.0,-43.0,-8.144501,11.881622,
784.697893,true,true,true,0.125,12.450000000000001,0.0,-34449,0,0,0.125,12.6,0.0,0,0,0,0.5,12.5,0.0,-2603,11,0,17.375,12.450000000000001,0.0,0,0,0,0.0,12.4,0.0,4,0,0,0.0,11.9,0.0,0,0,0,0.125,12.200000000000001,0.0,0,0,0,kReverse,kOff,-87.24,2.07,2.65,0.018432617,-1.0134277,0.012390137,35.07,0.0,-23.0,-8.144577,11.8815155,
784.7211629999999,true,true,true,0.125,12.450000000000001,0.0,-34449,0,0,0.125,12.6,0.0,0,0,0,0.375,12.5,0.0,-2495,68,0,27.0,12.450000000000001,0.0,0,0,0,0.0,12.4,0.0,4,0,0,0.0,11.9,0.0,0,0,0,0.125,12.200000000000001,0.0,0,0,0,kReverse,kOff,-87.24,2.07,2.65,0.0256958,-0.9319458,0.07928467,35.07,0.0,7.0,-8.144928,11.881256,
784.743682,true,true,true,0.125,12.450000000000001,0.0,-34449,0,0,0.125,12.6,0.0,0,0,0,0.375,12.5,0.0,-2416,121,0,37.375,12.450000000000001,0.0,0,0,0,0.0,12.4,0.0,4,0,0,0.0,11.9,0.0,0,0,0,0.125,12.200000000000001,0.0,0,0,0,kReverse,kOff,-87.27,2.06,2.63,0.0029907227,-0.9095459,0.07147217,35.05,0.0,-15.0,-8.145126,11.881195,
784.76678,true,true,true,0.125,12.450000000000001,0.0,-34449,0,0,0.125,12.6,0.0,0,0,0,0.375,12.5,0.0,-2323,188,0,37.375,12.450000000000001,0.0,0,0,0,0.125,12.4,0.0,4,0,0,0.0,11.9,0.0,0,0,0,0.125,12.200000000000001,0.0,0,0,0,kReverse,kOff,-87.26,2.06,2.63,0.0335083,-0.95532227,0.10430908,35.05,0.0,21.0,-8.145325,11.881226,
784.77906,true,true,true,0.125,12.450000000000001,0.0,-34449,0,0,0.125,12.6,0.0,0,0,0,0.375,12.5,0.0,-2323,188,0,37.375,12.450000000000001,0.0,0,0,0,0.125,12.4,0.0,4,0,0,0.0,11.9,0.0,0,0,0,0.125,12.200000000000001,0.0,0,0,0,kReverse,kOff,-87.25,2.06,2.64,0.08288574,-0.98553467,0.064331055,35.05,0.0,55.0,-8.145477,11.881302,
784.791178,true,true,true,0.125,12.450000000000001,0.0,-34449,0,0,0.125,12.6,0.0,0,0,0,0.375,12.5,0.0,-2223,263,0,30.25,12.450000000000001,0.0,0,0,0,0.125,12.4,0.0,4,0,0,0.0,11.9,0.0,0,0,0,0.125,12.200000000000001,0.0,0,0,0,kReverse,kOff,-87.27,2.06,2.63,0.024047852,-0.8862915,0.08123779,35.05,0.0,8.0,-8.145569,11.881424,
784.8025250000001,true,true,true,0.125,12.450000000000001,0.0,-34449,0,0,0.125,11.850000000000001,0.0,0,0,0,0.375,11.850000000000001,0.0,-2115,337,0,24.75,12.450000000000001,0.0,0,0,0,0.125,12.4,0.0,4,0,0,0.0,11.9,0.0,0,0,0,0.125,12.200000000000001,0.0,0,0,0,kReverse,kOff,-87.25,2.05,2.63,0.13189697,-0.9918823,0.14074707,35.05,0.0,124.0,-8.145584,11.881653,
784.816736,true,true,true,0.125,11.9,0.0,-34449,0,0,0.125,11.850000000000001,0.0,0,0,0,0.375,11.850000000000001,0.0,-2115,337,0,24.75,11.8,0.0,0,0,0,0.125,11.9,0.0,4,0,0,0.0,11.9,0.0,0,0,0,0.125,12.200000000000001,0.0,0,0,0,kReverse,kOff,-87.23,2.06,2.65,-0.01739502,-0.9644165,0.083984375,35.05,0.0,-33.0,-8.145523,11.881958,
784.829673,true,true,true,0.125,11.9,0.0,-34449,0,0,0.125,11.850000000000001,0.0,0,0,0,0.375,11.850000000000001,0.0,-2003,404,0,21.25,11.8,0.0,0,0,0,0.125,11.9,0.0,4,0,0,0.0,11.9,0.0,0,0,0,0.125,12.05,0.0,0,0,0,kReverse,kOff,-87.21,2.06,2.65,0.020751953,-0.9769287,0.06817627,35.05,0.0,-2.0,-8.145508,11.882355,
784.854301,true,true,true,0.125,11.9,0.0,-34449,0,0,0.125,11.850000000000001,0.0,0,0,0,0.375,11.850000000000001,0.0,-1886,460,0,18.625,11.8,0.0,0,0,0,0.125,11.9,0.0,4,0,0,0.0,12.0,0.0,0,0,0,0.125,12.05,0.0,0,0,0,kReverse,kOff,-87.2,2.06,2.66,0.08355713,-1.0311279,0.04711914,35.05,0.0,48.0,-8.145493,11.882751,
784.880113,true,true,true,0.125,11.9,0.0,-34449,0,0,0.125,11.850000000000001,0.0,0,0,0,0.375,11.850000000000001,0.0,-1766,504,0,16.5,11.8,0.0,0,0,0,0.125,11.9,0.0,4,0,0,0.0,12.0,0.0,0,0,0,0.125,12.05,0.0,0,0,0,kReverse,kOff,-87.2,2.06,2.66,0.010498047,-0.9901123,-0.05871582,35.05,0.0,-51.0,-8.145477,11.88269,
784.901302,true,true,true,0.125,11.9,0.0,-34449,0,0,0.125,11.850000000000001,0.0,0,0,0,0.375,11.850000000000001,0.0,-1645,538,0,15.125,11.8,0.0,0,0,0,0.125,11.9,0.0,4,0,0,0.0,12.0,0.0,0,0,0,0.125,12.05,0.0,0,0,0,kReverse,kOff,-87.23,2.05,2.64,0.0960083,-1.0640259,0.030944824,35.05,0.0,54.0,-8.145538,11.882538,
784.927105,true,true,true,0.125,11.9,0.0,-34449,0,0,0.125,11.850000000000001,0.0,0,0,0,0.375,11.850000000000001,0.0,-1396,583,0,13.125,11.8,0.0,0,0,0,0.125,11.9,0.0,4,0,0,0.0,12.0,0.0,0,0,0,0.125,12.05,0.0,0,0,0,kReverse,kOff,-87.25,2.05,2.63,0.04284668,-0.9700928,0.05029297,35.05,0.0,13.0,-8.145554,11.88237,
784.949891,true,true,true,0.125,11.9,0.0,-34449,0,0,0.125,11.850000000000001,0.0,0,0,0,0.375,11.850000000000001,0.0,-1264,598,0,12.375,11.8,0.0,0,0,0,0.125,11.9,0.0,4,0,0,0.0,12.0,0.0,0,0,0,0.125,12.05,0.0,0,0,0,kReverse,kOff,-87.23,2.06,2.64,0.0670166,-0.95166016,-0.0079956055,35.05,0.0,19.0,-8.145554,11.882278,
784.974739,true,true,true,0.125,12.200000000000001,0.0,-34449,0,0,0.125,12.15,0.0,0,0,0,0.375,12.15,0.0,-1141,610,0,11.75,12.1,0.0,0,0,0,0.125,12.200000000000001,0.0,4,0,0,0.0,12.0,0.0,0,0,0,0.125,12.05,0.0,0,0,0,kReverse,kOff,-87.24,2.06,2.64,0.024536133,-0.97802734,0.0056762695,35.05,0.0,-17.0,-8.145477,11.882034,
784.998503,true,true,true,0.125,12.200000000000001,0.0,-34449,0,0,0.125,12.15,0.0,0,0,0,0.375,12.15,0.0,-1014,619,0,11.25,12.1,0.0,0,0,0,0.125,12.200000000000001,0.0,4,0,0,0.0,12.0,0.0,0,0,0,0.125,12.25,0.0,0,0,0,kReverse,kOff,-87.25,2.06,2.64,0.054992676,-0.90148926,0.07635498,35.05,0.0,35.0,-8.145416,11.881912,
785.018428,true,true,true,0.125,12.200000000000001,0.0,-34449,0,0,0.125,12.15,0.0,0,0,0,0.375,12.15,0.0,-886,626,0,10.875,12.1,0.0,0,0,0,0.125,12.200000000000001,0.0,4,0,0,0.0,12.200000000000001,0.0,0,0,0,0.125,12.25,0.0,0,0,0,kReverse,kOff,-87.21,2.07,2.66,-0.07989502,-0.97875977,-0.128479,35.05,0.0,-158.0,-8.145294,11.881668,
785.038782,true,true,true,0.125,12.200000000000001,0.0,-34449,0,0,0.125,12.15,0.0,0,0,0,0.375,12.15,0.0,-755,632,0,10.75,12.1,0.0,0,0,0,0.125,12.200000000000001,0.0,4,0,0,0.0,12.200000000000001,0.0,0,0,0,0.125,12.25,0.0,0,0,0,kReverse,kOff,-87.21,2.07,2.66,-0.07989502,-0.97875977,-0.128479,35.05,0.0,-158.0,-8.145294,11.881668,
785.05953,true,true,true,0.125,12.200000000000001,0.0,-34449,0,0,0.125,12.15,0.0,0,0,0,0.375,12.15,0.0,-626,637,0,10.5,12.1,0.0,0,0,0,0.125,12.200000000000001,0.0,4,0,0,0.0,12.200000000000001,0.0,0,0,0,0.125,12.25,0.0,0,0,0,kReverse,kOff,-87.23,2.06,2.64,0.01751709,-1.001831,0.03326416,35.05,0.0,-17.0,-8.145477,11.881058,
785.0809760000001,true,true,true,0.125,12.200000000000001,0.0,-34449,0,0,0.125,12.15,0.0,0,0,0,0.375,12.15,0.0,-497,641,0,10.25,12.1,0.0,0,0,0,0.125,12.200000000000001,0.0,4,0,0,0.0,12.200000000000001,0.0,0,0,0,0.125,12.25,0.0,0,0,0,kReverse,kOff,-87.25,2.05,2.63,0.020690918,-0.9439697,-0.013549805,35.05,0.0,-25.0,-8.145615,11.880692,
785.1014749999999,true,true,true,0.125,12.200000000000001,0.0,-34449,0,0,0.125,12.15,0.0,0,0,0,0.375,12.15,0.0,-366,644,0,10.0,12.1,0.0,0,0,0,0.125,12.200000000000001,0.0,4,0,0,0.0,12.200000000000001,0.0,0,0,0,0.125,12.25,0.0,0,0,0,kReverse,kOff,-87.23,2.07,2.65,-0.005065918,-1.0339966,-0.09777832,35.05,0.0,-80.0,-8.145813,11.880249,
785.121762,true,true,true,0.125,12.200000000000001,0.0,-34449,0,0,0.125,12.200000000000001,0.0,0,0,0,0.375,12.15,0.0,-236,646,0,9.875,12.1,0.0,0,0,0,0.125,12.200000000000001,0.0,4,0,0,0.0,12.200000000000001,0.0,0,0,0,0.125,12.25,0.0,0,0,0,kReverse,kOff,-87.22,2.06,2.65,0.016113281,-1.0480347,-0.024841309,35.05,0.0,-38.0,-8.146378,11.879044,
785.1434,true,true,true,0.125,12.200000000000001,0.0,-34449,0,0,0.125,12.200000000000001,0.0,0,0,0,0.375,12.200000000000001,0.0,25,649,0,9.875,12.200000000000001,0.0,0,0,0,0.125,12.200000000000001,0.0,4,0,0,0.0,12.200000000000001,0.0,0,0,0,0.125,12.3,0.0,0,0,0,kReverse,kOff,-87.22,2.07,2.66,0.013671875,-1.0004272,0.023376465,35.05,0.0,-24.0,-8.1467285,11.878372,
785.165445,true,true,true,0.125,12.200000000000001,0.0,-34449,0,0,0.125,12.200000000000001,0.0,0,0,0,0.375,12.200000000000001,0.0,156,651,0,9.875,12.200000000000001,0.0,0,0,0,0.125,12.200000000000001,0.0,4,0,0,0.0,12.200000000000001,0.0,0,0,0,0.125,12.3,0.0,0,0,0,kReverse,kOff,-87.23,2.06,2.65,-0.024047852,-1.0455933,-0.058776855,35.05,0.0,-86.0,-8.147491,11.877045,
785.186661,true,true,true,0.125,12.200000000000001,0.0,-34449,0,0,0.125,12.200000000000001,0.0,0,0,0,0.375,12.200000000000001,0.0,287,652,0,10.0,12.200000000000001,0.0,0,0,0,0.125,12.200000000000001,0.0,4,0,0,0.0,12.200000000000001,0.0,0,0,0,0.125,12.3,0.0,0,0,0,kReverse,kOff,-87.22,2.07,2.66,0.02960205,-0.9701538,0.034606934,35.05,0.0,-4.0,-8.1479645,11.8763275,
785.206367,true,true,true,0.125,12.200000000000001,0.0,-34449,0,0,0.125,12.200000000000001,0.0,0,0,0,0.375,12.200000000000001,0.0,419,652,0,9.875,12.200000000000001,0.0,0,0,0,0.125,12.200000000000001,0.0,4,0,0,0.0,12.200000000000001,0.0,0,0,0,0.125,12.3,0.0,0,0,0,kReverse,kOff,-87.25,2.06,2.64,0.093444824,-1.0564575,0.15710449,35.05,0.0,90.0,-8.148941,11.874878,
785.238652,true,true,true,0.125,12.200000000000001,0.0,-34449,0,0,0.125,12.200000000000001,0.0,0,0,0,0.375,12.200000000000001,0.0,555,653,0,9.875,12.200000000000001,0.0,0,0,0,0.125,12.200000000000001,0.0,4,0,0,0.0,12.200000000000001,0.0,0,0,0,0.125,12.3,0.0,0,0,0,kReverse,kOff,-87.26,2.06,2.63,0.0692749,-1.0482788,0.0524292,35.05,0.0,35.0,-8.149887,11.873489,
785.266022,true,true,true,0.125,12.200000000000001,0.0,-34449,0,0,0.125,12.200000000000001,0.0,0,0,0,0.375,12.200000000000001,0.0,817,654,0,9.75,12.200000000000001,0.0,0,0,0,0.125,12.200000000000001,0.0,4,0,0,0.0,12.200000000000001,0.0,0,0,0,0.125,12.3,0.0,0,0,0,kReverse,kOff,-87.25,2.08,2.65,0.028320312,-0.93530273,0.019226074,35.05,0.0,-8.0,-8.15033,11.872131,
785.291074,true,true,true,0.125,12.200000000000001,0.0,-34449,0,0,0.125,12.200000000000001,0.0,0,0,0,0.375,12.200000000000001,0.0,942,654,0,9.625,12.200000000000001,0.0,0,0,0,0.125,12.200000000000001,0.0,4,0,0,0.0,12.200000000000001,0.0,0,0,0,0.125,12.3,0.0,0,0,0,kReverse,kOff,-87.28,2.06,2.62,0.054748535,-1.0597534,0.21350098,35.05,0.0,70.0,-8.150299,11.870605,
785.318734,true,true,true,0.125,12.200000000000001,0.0,-34449,0,0,0.125,12.200000000000001,0.0,0,0,0,0.375,12.200000000000001,0.0,1073,654,0,9.625,12.200000000000001,0.0,0,0,0,0.0,12.200000000000001,0.0,4,0,0,0.0,12.200000000000001,0.0,0,0,0,0.125,12.25,0.0,0,0,0,kReverse,kOff,-87.24,2.08,2.65,0.0423584,-0.99108887,-0.033325195,35.05,0.0,-13.0,-8.150223,11.869934,
785.34146,true,true,true,0.125,12.200000000000001,0.0,-34449,0,0,0.125,12.200000000000001,0.0,0,0,0,0.375,12.200000000000001,0.0,1204,655,0,9.75,12.200000000000001,0.0,0,0,0,0.0,12.200000000000001,0.0,4,0,0,0.0,12.200000000000001,0.0,0,0,0,0.125,12.25,0.0,0,0,0,kReverse,kOff,-87.27,2.07,2.64,0.11730957,-0.92974854,0.01171875,35.05,0.0,74.0,-8.1502075,11.868195,
785.362679,true,true,true,0.125,12.200000000000001,0.0,-34449,0,0,0.125,12.200000000000001,0.0,0,0,0,0.375,12.200000000000001,0.0,1465,654,0,9.625,12.200000000000001,0.0,0,0,0,0.0,12.200000000000001,0.0,4,0,0,0.0,12.200000000000001,0.0,0,0,0,0.125,12.25,0.0,0,0,0,kReverse,kOff,-87.26,2.08,2.64,0.019470215,-1.017273,0.118774414,35.05,0.0,9.0,-8.1501465,11.86731,
785.386253,true,true,true,0.125,12.200000000000001,0.0,-34449,0,0,0.125,12.200000000000001,0.0,0,0,0,0.375,12.200000000000001,0.0,1596,654,0,9.75,12.200000000000001,0.0,0,0,0,0.0,12.200000000000001,0.0,4,0,0,0.0,12.200000000000001,0.0,0,0,0,0.125,12.25,0.0,0,0,0,kReverse,kOff,-87.24,2.08,2.65,0.06048584,-1.0134277,-0.037902832,35.05,0.0,1.0,-8.149948,11.86554,
785.405478,true,true,true,0.125,12.200000000000001,0.0,-34449,0,0,0.125,12.200000000000001,0.0,0,0,0,0.375,12.200000000000001,0.0,1726,653,0,9.75,12.200000000000001,0.0,0,0,0,0.125,12.200000000000001,0.0,4,0,0,0.0,12.200000000000001,0.0,0,0,0,0.125,12.25,0.0,0,0,0,kReverse,kOff,-87.26,2.09,2.65,0.068847656,-0.95532227,0.062072754,35.05,0.0,42.0,-8.149796,11.864563,
785.429352,true,true,true,0.125,12.200000000000001,0.0,-34449,0,0,0.125,12.200000000000001,0.0,0,0,0,0.375,12.200000000000001,0.0,1857,653,0,9.875,12.200000000000001,0.0,0,0,0,0.125,12.200000000000001,0.0,4,0,0,0.0,12.200000000000001,0.0,0,0,0,0.125,12.25,0.0,0,0,0,kReverse,kOff,-87.25,2.09,2.66,0.04724121,-0.979187,0.054870605,35.05,0.0,18.0,-8.149612,11.863632,
785.4497829999999,true,true,true,0.125,12.200000000000001,0.0,-34449,0,0,0.125,12.200000000000001,0.0,0,0,0,0.375,12.200000000000001,0.0,1994,653,0,9.625,12.200000000000001,0.0,0,0,0,0.125,12.200000000000001,0.0,4,0,0,0.0,12.200000000000001,0.0,0,0,0,0.125,12.25,0.0,0,0,0,kReverse,kOff,-87.25,2.09,2.66,0.051757812,-1.039978,-0.043701172,35.05,0.0,-10.0,-8.149094,11.861923,
785.471713,true,true,true,0.125,12.200000000000001,0.0,-34449,0,0,0.125,12.200000000000001,0.0,0,0,0,0.375,12.200000000000001,0.0,2118,653,0,9.75,12.200000000000001,0.0,0,0,0,0.125,12.200000000000001,0.0,4,0,0,0.0,12.200000000000001,0.0,0,0,0,0.125,12.25,0.0,0,0,0,kReverse,kOff,-87.24,2.09,2.66,7.324219E-4,-1.0593872,0.002319336,35.05,0.0,-45.0,-8.1488495,11.861023,
785.4928649999999,true,true,true,0.125,12.200000000000001,0.0,-34449,0,0,0.125,12.200000000000001,0.0,0,0,0,0.375,12.200000000000001,0.0,2248,652,0,8.375,12.200000000000001,0.0,0,0,0,0.125,12.200000000000001,0.0,4,0,0,0.0,12.25,0.0,0,0,0,0.125,12.25,0.0,0,0,0,kReverse,kOff,-87.25,2.09,2.66,0.008911133,-0.9869995,0.070739746,35.05,0.0,-13.0,-8.148376,11.8593445,
785.514862,true,true,true,0.125,12.200000000000001,0.0,-34449,0,0,0.125,12.200000000000001,0.0,0,0,0,0.375,12.200000000000001,0.0,2375,652,0,5.625,12.200000000000001,0.0,0,0,0,0.125,12.200000000000001,0.0,4,0,0,0.0,12.25,0.0,0,0,0,0.125,12.25,0.0,0,0,0,kReverse,kOff,-87.26,2.08,2.64,0.034851074,-0.9780884,0.15881348,35.05,0.0,38.0,-8.148132,11.858658,
785.530519,true,true,true,0.125,12.200000000000001,0.0,-34449,0,0,0.125,12.200000000000001,0.0,0,0,0,0.375,12.200000000000001,0.0,2491,648,0,2.375,12.200000000000001,0.0,0,0,0,0.125,12.200000000000001,0.0,4,0,0,0.0,12.25,0.0,0,0,0,0.125,12.25,0.0,0,0,0,kReverse,kOff,-87.23,2.09,2.67,0.020446777,-0.80352783,-0.03112793,35.05,0.0,-25.0,-8.147873,11.858017,
785.551696,true,true,true,0.125,12.200000000000001,0.0,-34449,0,0,0.125,12.200000000000001,0.0,0,0,0,0.25,12.200000000000001,0.0,2592,637,0,0.25,12.200000000000001,0.0,0,0,0,0.125,12.200000000000001,0.0,4,0,0,0.0,12.25,0.0,0,0,0,0.125,12.25,0.0,0,0,0,kReverse,kOff,-87.26,2.07,2.64,0.020690918,-0.9277344,0.053344727,35.05,0.0,-4.0,-8.147247,11.856842,
785.572635,true,true,true,0.125,12.200000000000001,0.0,-34449,0,0,0.125,12.200000000000001,0.0,0,0,0,0.25,12.200000000000001,0.0,2663,611,0,0.0,12.200000000000001,0.0,0,0,0,0.125,12.200000000000001,0.0,4,0,0,0.0,12.25,0.0,0,0,0,0.125,12.25,0.0,0,0,0,kReverse,kOff,-87.26,2.07,2.64,-0.010314941,-0.94506836,0.09075928,35.05,0.0,-23.0,-8.146942,11.856354,
785.596916,true,true,true,0.125,12.200000000000001,0.0,-34449,0,0,0.125,12.55,0.0,0,0,0,0.25,12.200000000000001,0.0,2710,565,0,0.0,12.200000000000001,0.0,0,0,0,0.125,12.200000000000001,0.0,4,0,0,0.0,12.25,0.0,0,0,0,0.125,12.25,0.0,0,0,0,kReverse,kOff,-87.27,2.05,2.62,0.057250977,-0.9146118,0.08526611,35.05,0.0,40.0,-8.146332,11.855545,
785.6178719999999,true,true,true,0.125,12.55,0.0,-34449,0,0,0.125,12.55,0.0,0,0,0,0.25,12.5,0.0,2741,497,0,0.0,12.55,0.0,0,0,0,0.125,12.55,0.0,4,0,0,0.0,12.25,0.0,0,0,0,0.125,12.6,0.0,0,0,0,kReverse,kOff,-87.27,2.06,2.63,0.010437012,-0.95770264,0.038024902,35.05,0.0,-20.0,-8.145996,11.855209,
785.64071,true,true,true,0.125,12.55,0.0,-34449,0,0,0.125,12.55,0.0,0,0,0,0.25,12.5,0.0,2761,412,0,0.0,12.55,0.0,0,0,0,0.125,12.55,0.0,4,0,0,0.0,12.55,0.0,0,0,0,0.125,12.6,0.0,0,0,0,kReverse,kOff,-87.28,2.06,2.62,0.05505371,-0.9770508,0.099243164,35.05,0.0,39.0,-8.145645,11.854675,
785.6609470000001,true,true,true,0.125,12.55,0.0,-34449,0,0,0.125,12.55,0.0,0,0,0,0.25,12.5,0.0,2772,321,0,0.0,12.55,0.0,0,0,0,0.125,12.55,0.0,4,0,0,0.0,12.55,0.0,0,0,0,0.125,12.6,0.0,0,0,0,kReverse,kOff,-87.27,2.06,2.63,0.039123535,-0.9706421,0.06317139,35.05,0.0,13.0,-8.1449585,11.854462,
785.681589,true,true,true,0.125,12.55,0.0,-34449,0,0,0.125,12.55,0.0,0,0,0,0.25,12.5,0.0,2779,233,0,0.0,12.55,0.0,0,0,0,0.125,12.55,0.0,4,0,0,0.0,12.55,0.0,0,0,0,0.125,12.6,0.0,0,0,0,kReverse,kOff,-87.27,2.06,2.63,0.052978516,-0.99365234,0.041015625,35.05,0.0,19.0,-8.1449585,11.854279,
785.7019449999999,true,true,true,0.125,12.55,0.0,-34449,0,0,0.125,12.55,0.0,0,0,0,0.25,12.5,0.0,2780,159,0,0.125,12.55,0.0,0,0,0,0.125,12.55,0.0,4,0,0,0.125,12.55,0.0,0,0,0,0.125,12.6,0.0,0,0,0,kReverse,kOff,-87.28,2.05,2.62,0.039367676,-0.99450684,0.053344727,35.05,0.0,10.0,-8.1449585,11.853912,
785.7211480000001,true,true,true,0.125,12.55,0.0,-34449,0,0,0.125,12.55,0.0,0,0,0,0.25,12.5,0.0,2780,101,0,0.125,12.55,0.0,0,0,0,0.125,12.55,0.0,4,0,0,0.0,12.55,0.0,0,0,0,0.125,12.6,0.0,0,0,0,kReverse,kOff,-87.26,2.06,2.63,0.039733887,-0.9854126,0.038513184,35.05,0.0,6.0,-8.1449585,11.85376,
785.742846,true,true,true,0.125,12.55,0.0,-34449,0,0,0.125,12.55,0.0,0,0,0,0.25,12.5,0.0,2780,60,0,0.125,12.55,0.0,0,0,0,0.125,12.55,0.0,4,0,0,0.0,12.55,0.0,0,0,0,0.125,12.6,0.0,0,0,0,kReverse,kOff,-87.27,2.06,2.63,0.02709961,-0.9953003,0.0154418945,35.05,0.0,-13.0,-8.1449585,11.853409,
785.763565,true,true,true,0.125,12.55,0.0,-34449,0,0,0.125,12.55,0.0,0,0,0,0.25,12.5,0.0,2780,16,0,0.125,12.55,0.0,0,0,0,0.125,12.55,0.0,4,0,0,0.0,12.55,0.0,0,0,0,0.125,12.6,0.0,0,0,0,kReverse,kOff,-87.28,2.05,2.62,0.04711914,-0.9996338,0.027832031,35.08,0.0,9.0,-8.1449585,11.85321,
785.785701,true,true,true,0.125,12.55,0.0,-34449,0,0,0.125,12.55,0.0,0,0,0,0.25,12.55,0.0,2780,6,0,0.125,12.55,0.0,0,0,0,0.125,12.55,0.0,4,0,0,0.0,12.55,0.0,0,0,0,0.125,12.6,0.0,0,0,0,kReverse,kOff,-87.27,2.06,2.63,0.039855957,-0.98291016,0.03515625,35.08,0.0,5.0,-8.1449585,11.85321,
785.8114499999999,true,true,true,0.125,12.55,0.0,-34449,0,0,0.125,12.55,0.0,0,0,0,0.25,12.55,0.0,2780,1,0,0.125,12.55,0.0,0,0,0,0.125,12.55,0.0,4,0,0,0.0,12.55,0.0,0,0,0,0.125,12.6,0.0,0,0,0,kReverse,kOff,-87.27,2.06,2.63,0.035583496,-0.9873047,0.026184082,35.08,0.0,-1.0,-8.1449585,11.85321,
785.834789,true,true,true,0.125,12.55,0.0,-34449,0,0,0.125,12.55,0.0,0,0,0,0.25,12.55,0.0,2780,0,0,0.125,12.55,0.0,0,0,0,0.125,12.55,0.0,4,0,0,0.0,12.55,0.0,0,0,0,0.125,12.6,0.0,0,0,0,kReverse,kOff,-87.27,2.06,2.63,0.03741455,-0.9904175,0.034057617,35.08,0.0,2.0,-8.1449585,11.85321,
785.85779,true,true,true,0.125,12.55,0.0,-34449,0,0,0.125,12.55,0.0,0,0,0,0.25,12.55,0.0,2780,0,0,0.125,12.55,0.0,0,0,0,0.125,12.55,0.0,4,0,0,0.0,12.55,0.0,0,0,0,0.125,12.6,0.0,0,0,0,kReverse,kOff,-87.27,2.06,2.63,0.032714844,-0.9831543,0.024719238,35.08,0.0,-4.0,-8.1449585,11.85321,
785.879855,true,true,true,0.125,12.55,0.0,-34449,0,0,0.125,12.55,0.0,0,0,0,0.25,12.55,0.0,2780,0,0,0.125,12.55,0.0,0,0,0,0.125,12.55,0.0,4,0,0,0.0,12.55,0.0,0,0,0,0.125,12.6,0.0,0,0,0,kReverse,kOff,-87.27,2.06,2.63,0.037963867,-0.9834595,0.03338623,35.08,0.0,3.0,-8.1449585,11.85321,
785.898979,true,true,true,0.125,12.55,0.0,-34449,0,0,0.125,12.55,0.0,0,0,0,0.25,12.55,0.0,2780,0,0,0.125,12.55,0.0,0,0,0,0.125,12.55,0.0,4,0,0,0.0,12.55,0.0,0,0,0,0.125,12.6,0.0,0,0,0,kReverse,kOff,-87.27,2.06,2.63,0.03149414,-0.9888916,0.026367188,35.08,0.0,-5.0,-8.1449585,11.85321,
785.9204159999999,true,true,true,0.125,12.55,0.0,-34449,0,0,0.125,12.55,0.0,0,0,0,0.25,12.55,0.0,2780,0,0,0.125,12.55,0.0,0,0,0,0.125,12.55,0.0,4,0,0,0.0,12.55,0.0,0,0,0,0.125,12.6,0.0,0,0,0,kReverse,kOff,-87.27,2.06,2.63,0.034973145,-0.9824829,0.024230957,35.08,0.0,-2.0,-8.1449585,11.85321,
785.941317,true,true,true,0.125,12.55,0.0,-34449,0,0,0.125,12.55,0.0,0,0,0,0.25,12.55,0.0,2780,0,0,0.125,12.55,0.0,0,0,0,0.125,12.55,0.0,4,0,0,0.0,12.55,0.0,0,0,0,0.125,12.6,0.0,0,0,0,kReverse,kOff,-87.27,2.06,2.63,0.03717041,-0.98443604,0.034301758,35.08,0.0,2.0,-8.1449585,11.85321,
