timer,lineLeft,lineCenter,lineRight,LeftFrontCurrent,LeftFrontVoltage,LeftFrontValue,LeftFrontPosition,LeftFrontVelocity,LeftFrontFaults,LeftRearCurrent,LeftRearVoltage,LeftRearValue,LeftRearPosition,LeftRearVelocity,LeftRearFaults,RightFrontCurrent,RightFrontVoltage,RightFrontValue,RightFrontPosition,RightFrontVelocity,RightFrontFaults,RightRearCurrent,RightRearVoltage,RightRearValue,RightRearPosition,RightRearVelocity,RightRearFaults,LiftCurrent,LiftVoltage,LiftValue,LiftPosition,LiftVelocity,LiftFaults,WristCurrent,WristVoltage,WristValue,WristPosition,WristVelocity,WristFaults,RollerCurrent,RollerVoltage,RollerValue,RollerPosition,RollerVelocity,RollerFaults,PushersState,PivotsState,navx_Pitch,navx_Roll,navx_Yaw,navx_XAcc,navx_YAcc,navx_ZAcc,navx_Temp,navx_Bar,navx_Alt,navx_XDis,navx_YDis,
116.308044,true,true,true,0.125,12.65,0.0,0,0,0,0.125,12.65,0.0,0,0,0,0.125,12.65,0.0,0,0,0,0.125,12.65,0.0,0,0,0,0.125,12.65,0.0,4,0,0,0.0,12.65,0.0,0,0,0,0.125,12.75,0.0,0,0,0,kReverse,kOff,-87.14,2.16,2.62,0.038085938,-0.9847412,0.038085938,34.73,0.0,2.0,-8.114426,11.737381,
116.40648499999999,true,true,true,0.125,12.65,0.0,0,0,0,0.125,12.65,0.0,0,0,0,0.125,12.65,0.0,0,0,0,0.125,12.65,0.0,0,0,0,0.125,12.65,0.0,4,0,0,0.0,12.65,0.0,0,0,0,0.125,12.75,0.0,0,0,0,kReverse,kOff,-87.13,2.16,2.62,0.034362793,-0.9816284,0.033447266,34.75,0.0,-2.0,-8.114426,11.737381,
116.44456400000001,true,true,true,0.125,12.65,0.0,0,0,0,0.125,12.65,0.0,0,0,0,0.125,12.65,0.0,0,0,0,0.125,12.65,0.0,0,0,0,0.125,12.65,0.0,4,0,0,0.0,12.65,0.0,0,0,0,0.125,12.75,0.0,0,0,0,kReverse,kOff,-87.13,2.16,2.62,0.03765869,-0.9854126,0.03540039,34.75,0.0,1.0,-8.114426,11.737381,
116.482919,true,true,true,0.125,12.65,0.0,0,0,0,0.125,12.65,0.0,0,0,0,0.125,12.65,0.0,0,0,0,0.125,12.700000000000001,0.0,0,0,0,0.125,12.65,0.0,4,0,0,0.0,12.65,0.0,0,0,0,0.125,12.75,0.0,0,0,0,kReverse,kOff,-87.13,2.16,2.62,0.037353516,-0.9819946,0.031066895,34.75,0.0,0.0,-8.114426,11.737381,
116.524644,true,true,true,0.125,12.65,0.0,0,0,0,0.125,12.65,0.0,0,0,0,0.125,12.65,0.0,0,0,0,0.125,12.700000000000001,0.0,0,0,0,0.125,12.65,0.0,4,0,0,0.0,12.65,0.0,0,0,0,0.125,12.75,0.0,0,0,0,kReverse,kOff,-87.13,2.16,2.62,0.03704834,-0.9819336,0.02758789,34.75,0.0,0.0,-8.114426,11.737381,
116.56229300000001,true,true,true,0.125,12.65,0.0,0,0,0,0.125,12.65,0.0,0,0,0,0.125,12.65,0.0,0,0,0,0.125,12.700000000000001,0.0,0,0,0,0.125,12.65,0.0,4,0,0,0.0,12.65,0.0,0,0,0,0.125,12.75,0.0,0,0,0,kReverse,kOff,-87.13,2.16,2.62,0.03729248,-0.98358154,0.033935547,34.75,0.0,0.0,-8.114426,11.737381,
116.608025,true,true,true,0.125,12.65,0.0,0,0,0,0.125,12.65,0.0,0,0,0,0.125,12.65,0.0,0,0,0,0.125,12.700000000000001,0.0,0,0,0,0.125,12.65,0.0,4,0,0,0.0,12.65,0.0,0,0,0,0.125,12.75,0.0,0,0,0,kReverse,kOff,-87.13,2.16,2.62,0.036254883,-0.98150635,0.03112793,34.75,0.0,-1.0,-8.114426,11.737381,
116.64985300000001,true,true,true,0.125,12.65,0.0,0,0,0,0.125,12.65,0.0,0,0,0,0.125,12.65,0.0,0,0,0,0.125,12.65,0.0,0,0,0,0.125,12.65,0.0,4,0,0,0.0,12.65,0.0,0,0,0,0.125,12.75,0.0,0,0,0,kReverse,kOff,-87.14,2.16,2.62,0.03704834,-0.9859619,0.02947998,34.75,0.0,0.0,-8.114426,11.737381,
116.689276,true,true,true,0.125,12.65,0.0,0,0,0,0.125,12.65,0.0,0,0,0,0.125,12.65,0.0,0,0,0,0.125,12.65,0.0,0,0,0,0.125,12.65,0.0,4,0,0,0.0,12.65,0.0,0,0,0,0.125,12.75,0.0,0,0,0,kReverse,kOff,-87.14,2.16,2.62,0.03765869,-0.98431396,0.028320312,34.75,0.0,0.0,-8.114426,11.737381,
116.72710099999999,true,true,true,0.125,12.65,0.0,0,0,0,0.125,12.65,0.0,0,0,0,0.125,12.65,0.0,0,0,0,0.125,12.65,0.0,0,0,0,0.125,12.65,0.0,4,0,0,0.0,12.65,0.0,0,0,0,0.125,12.75,0.0,0,0,0,kReverse,kOff,-87.14,2.16,2.62,0.03643799,-0.98461914,0.03466797,34.75,0.0,0.0,-8.114426,11.737381,
116.76578599999999,true,true,true,0.125,12.65,0.0,0,0,0,0.125,12.65,0.0,0,0,0,0.125,12.65,0.0,0,0,0,0.125,12.65,0.0,0,0,0,0.125,12.65,0.0,4,0,0,0.0,12.65,0.0,0,0,0,0.125,12.75,0.0,0,0,0,kReverse,kOff,-87.14,2.16,2.62,0.03729248,-0.9835205,0.03540039,34.75,0.0,0.0,-8.114426,11.737381,
116.805002,true,true,true,0.125,12.65,0.0,0,0,0,0.125,12.65,0.0,0,0,0,0.125,12.65,0.0,0,0,0,0.125,12.65,0.0,0,0,0,0.125,12.65,0.0,4,0,0,0.0,12.65,0.0,0,0,0,0.125,12.75,0.0,0,0,0,kReverse,kOff,-87.14,2.16,2.62,0.039245605,-0.9844971,0.03326416,34.75,0.0,2.0,-8.114426,11.737381,
116.842552,true,true,true,0.125,12.65,0.0,0,0,0,0.125,12.65,0.0,0,0,0,0.125,12.65,0.0,0,0,0,0.125,12.65,0.0,0,0,0,0.125,12.65,0.0,4,0,0,0.0,12.65,0.0,0,0,0,0.125,12.75,0.0,0,0,0,kReverse,kOff,-87.14,2.16,2.62,0.039367676,-0.98443604,0.032043457,34.75,0.0,2.0,-8.114426,11.737381,
116.89892199999998,true,true,true,0.125,12.65,0.0,0,0,0,0.125,12.65,0.0,0,0,0,0.125,12.65,0.0,0,0,0,0.125,12.65,0.0,0,0,0,0.125,12.65,0.0,4,0,0,0.0,12.65,0.0,0,0,0,0.125,12.75,0.0,0,0,0,kReverse,kOff,-87.14,2.16,2.62,0.037719727,-0.98443604,0.026428223,34.7,0.0,0.0,-8.114426,11.737381,
116.96210699999999,true,true,true,0.125,12.65,0.0,0,0,0,0.125,12.65,0.0,0,0,0,0.125,12.65,0.0,0,0,0,0.125,12.65,0.0,0,0,0,0.125,12.65,0.0,4,0,0,0.0,12.65,0.0,0,0,0,0.125,12.75,0.0,0,0,0,kReverse,kOff,-87.14,2.16,2.62,0.038391113,-0.98205566,0.02960205,34.7,0.0,0.0,-8.114426,11.737381,
116.990443,true,true,true,0.125,12.65,0.0,0,0,0,0.125,12.65,0.0,0,0,0,0.125,12.65,0.0,0,0,0,0.125,12.65,0.0,0,0,0,0.125,12.65,0.0,4,0,0,0.0,12.65,0.0,0,0,0,0.125,12.75,0.0,0,0,0,kReverse,kOff,-87.14,2.16,2.62,0.035461426,-0.982605,0.03137207,34.7,0.0,-1.0,-8.114426,11.737381,
117.026306,true,true,true,0.125,12.65,0.0,0,0,0,0.125,12.65,0.0,0,0,0,0.125,12.65,0.0,0,0,0,0.125,12.65,0.0,0,0,0,0.125,12.65,0.0,4,0,0,0.0,12.65,0.0,0,0,0,0.125,12.75,0.0,0,0,0,kReverse,kOff,-87.14,2.16,2.62,0.040405273,-0.9852905,0.03173828,34.7,0.0,2.0,-8.114426,11.737381,
117.05803599999999,true,true,true,0.125,12.65,0.0,0,0,0,0.125,12.65,0.0,0,0,0,0.125,12.65,0.0,0,0,0,0.125,12.65,0.0,0,0,0,0.125,12.65,0.0,4,0,0,0.0,12.65,0.0,0,0,0,0.125,12.75,0.0,0,0,0,kReverse,kOff,-87.14,2.16,2.62,0.035888672,-0.9844971,0.03265381,34.7,0.0,-1.0,-8.114426,11.737381,
117.089673,true,true,true,0.125,12.65,0.0,0,0,0,0.125,12.65,0.0,0,0,0,0.125,12.65,0.0,0,0,0,0.125,12.65,0.0,0,0,0,0.125,12.65,0.0,4,0,0,0.0,12.65,0.0,0,0,0,0.125,12.75,0.0,0,0,0,kReverse,kOff,-87.14,2.16,2.62,0.039611816,-0.98376465,0.03466797,34.7,0.0,2.0,-8.114426,11.737381,
117.126231,true,true,true,0.125,12.65,0.0,0,0,0,0.125,12.65,0.0,0,0,0,0.125,12.65,0.0,0,0,0,0.125,12.65,0.0,0,0,0,0.125,12.65,0.0,4,0,0,0.0,12.65,0.0,0,0,0,0.125,12.75,0.0,0,0,0,kReverse,kOff,-87.14,2.16,2.62,0.033813477,-0.986145,0.030883789,34.7,0.0,-3.0,-8.114426,11.737381,
117.15963099999999,true,true,true,0.125,12.65,0.0,0,0,0,0.125,12.65,0.0,0,0,0,0.125,12.65,0.0,0,0,0,0.125,12.65,0.0,0,0,0,0.125,12.65,0.0,4,0,0,0.0,12.65,0.0,0,0,0,0.125,12.75,0.0,0,0,0,kReverse,kOff,-87.14,2.16,2.62,0.038879395,-0.98394775,0.03375244,34.7,0.0,2.0,-8.114426,11.737381,
117.19311400000001,true,true,true,0.125,12.65,0.0,0,0,0,0.125,12.65,0.0,0,0,0,0.125,12.65,0.0,0,0,0,0.125,12.65,0.0,0,0,0,0.125,12.65,0.0,4,0,0,0.0,12.65,0.0,0,0,0,0.125,12.75,0.0,0,0,0,kReverse,kOff,-87.13,2.17,2.63,0.039489746,-0.9834595,0.037475586,34.7,0.0,3.0,-8.114426,11.737381,
117.22702900000002,true,true,true,0.125,12.65,0.0,0,0,0,0.125,12.65,0.0,0,0,0,0.125,12.65,0.0,0,0,0,0.125,12.65,0.0,0,0,0,0.125,12.65,0.0,4,0,0,0.0,12.65,0.0,0,0,0,0.125,12.75,0.0,0,0,0,kReverse,kOff,-87.13,2.17,2.63,0.040405273,-0.9812012,0.038269043,34.7,0.0,4.0,-8.114426,11.737381,
117.270348,true,true,true,0.125,12.65,0.0,0,0,0,0.125,12.65,0.0,0,0,0,0.125,12.65,0.0,0,0,0,0.125,12.65,0.0,0,0,0,0.0,12.65,0.0,4,0,0,0.0,12.65,0.0,0,0,0,0.125,12.75,0.0,0,0,0,kReverse,kOff,-87.13,2.16,2.63,0.038085938,-0.98602295,0.03314209,34.7,0.0,0.0,-8.114426,11.737381,
117.32744,true,true,true,0.125,12.65,0.0,0,0,0,0.125,12.65,0.0,0,0,0,0.125,12.65,0.0,0,0,0,0.125,12.65,0.0,0,0,0,0.0,12.65,0.0,4,0,0,0.0,12.65,0.0,0,0,0,0.125,12.75,0.0,0,0,0,kReverse,kOff,-87.13,2.16,2.63,0.037963867,-0.982666,0.031677246,34.7,0.0,0.0,-8.114426,11.737381,
117.393266,true,true,true,0.125,12.65,0.0,0,0,0,0.125,12.65,0.0,0,0,0,0.125,12.65,0.0,0,0,0,0.125,12.65,0.0,0,0,0,0.125,12.65,0.0,4,0,0,0.0,12.65,0.0,0,0,0,0.125,12.75,0.0,0,0,0,kReverse,kOff,-87.13,2.16,2.63,0.03753662,-0.9812012,0.03466797,34.7,0.0,0.0,-8.114426,11.737381,
117.43265400000001,true,true,true,0.125,12.65,0.0,0,0,0,0.125,12.65,0.0,0,0,0,0.125,12.65,0.0,0,0,0,0.125,12.65,0.0,0,0,0,0.125,12.65,0.0,4,0,0,0.0,12.65,0.0,0,0,0,0.125,12.75,0.0,0,0,0,kReverse,kOff,-87.13,2.16,2.63,0.03845215,-0.9819336,0.033203125,34.69,0.0,1.0,-8.114426,11.737381,
117.478002,true,true,true,0.125,12.65,0.0,0,0,0,0.125,12.65,0.0,0,0,0,0.125,12.65,0.0,0,0,0,0.125,12.65,0.0,0,0,0,0.125,12.65,0.0,4,0,0,0.0,12.65,0.0,0,0,0,0.125,12.75,0.0,0,0,0,kReverse,kOff,-87.13,2.16,2.63,0.038330078,-0.9836426,0.03668213,34.69,0.0,2.0,-8.114426,11.737381,
117.505084,true,true,true,0.125,12.65,0.0,0,0,0,0.125,12.65,0.0,0,0,0,0.125,12.65,0.0,0,0,0,0.125,12.65,0.0,0,0,0,0.125,12.65,0.0,4,0,0,0.0,12.65,0.0,0,0,0,0.125,12.75,0.0,0,0,0,kReverse,kOff,-87.13,2.17,2.63,0.037963867,-0.98565674,0.036071777,34.69,0.0,1.0,-8.114426,11.737381,
117.53399499999999,true,true,true,0.125,12.65,0.0,0,0,0,0.125,12.65,0.0,0,0,0,0.125,12.65,0.0,0,0,0,0.125,12.65,0.0,0,0,0,0.125,12.65,0.0,4,0,0,0.0,12.65,0.0,0,0,0,0.125,12.75,0.0,0,0,0,kReverse,kOff,-87.12,2.17,2.63,0.038879395,-0.98339844,0.034423828,34.69,0.0,2.0,-8.114426,11.737381,
117.564829,true,true,true,0.125,12.65,0.0,0,0,0,0.125,12.65,0.0,0,0,0,0.125,12.65,0.0,0,0,0,0.125,12.65,0.0,0,0,0,0.125,12.65,0.0,4,0,0,0.0,12.65,0.0,0,0,0,0.125,12.75,0.0,0,0,0,kReverse,kOff,-87.12,2.17,2.63,0.040161133,-0.982605,0.028381348,34.69,0.0,1.0,-8.114426,11.737381,
117.59577299999998,true,true,true,0.125,12.65,0.0,0,0,0,0.125,12.65,0.0,0,0,0,0.125,12.65,0.0,0,0,0,0.125,12.65,0.0,0,0,0,0.125,12.65,0.0,4,0,0,0.0,12.65,0.0,0,0,0,0.125,12.75,0.0,0,0,0,kReverse,kOff,-87.12,2.17,2.63,0.03955078,-0.9815674,0.029907227,34.69,0.0,1.0,-8.114426,11.737381,
117.62632800000002,true,true,true,0.125,12.65,0.0,0,0,0,0.125,12.65,0.0,0,0,0,0.125,12.65,0.0,0,0,0,0.125,12.65,0.0,0,0,0,0.125,12.65,0.0,4,0,0,0.0,12.65,0.0,0,0,0,0.125,12.75,0.0,0,0,0,kReverse,kOff,-87.13,2.17,2.63,0.036376953,-0.9841919,0.032470703,34.69,0.0,0.0,-8.114426,11.737381,
117.649829,true,true,true,0.125,12.65,0.0,0,0,0,0.125,12.65,0.0,0,0,0,0.125,12.65,0.0,0,0,0,0.125,12.65,0.0,0,0,0,0.125,12.65,0.0,4,0,0,0.0,12.65,0.0,0,0,0,0.125,12.75,0.0,0,0,0,kReverse,kOff,-87.12,2.17,2.63,0.03540039,-0.9851074,0.027404785,34.69,0.0,-3.0,-8.114426,11.737381,
117.67750099999999,true,true,true,0.125,12.65,0.0,0,0,0,0.125,12.65,0.0,0,0,0,0.125,12.65,0.0,0,0,0,0.125,12.65,0.0,0,0,0,0.125,12.65,0.0,4,0,0,0.0,12.65,0.0,0,0,0,0.125,12.75,0.0,0,0,0,kReverse,kOff,-87.12,2.17,2.63,0.039367676,-0.9801636,0.028686523,34.69,0.0,1.0,-8.114426,11.737381,
117.70806599999999,true,true,true,0.125,12.65,0.0,0,0,0,0.125,12.65,0.0,0,0,0,0.125,12.65,0.0,0,0,0,0.125,12.65,0.0,0,0,0,0.125,12.65,0.0,4,0,0,0.0,12.65,0.0,0,0,0,0.125,12.75,0.0,0,0,0,kReverse,kOff,-87.12,2.17,2.63,0.03765869,-0.98254395,0.034301758,34.69,0.0,0.0,-8.114426,11.737381,
117.736897,true,true,true,0.125,12.65,0.0,0,0,0,0.125,12.65,0.0,0,0,0,0.125,12.65,0.0,0,0,0,0.125,12.65,0.0,0,0,0,0.125,12.65,0.0,4,0,0,0.0,12.65,0.0,0,0,0,0.125,12.75,0.0,0,0,0,kReverse,kOff,-87.12,2.17,2.63,0.036376953,-0.9841919,0.0335083,34.69,0.0,0.0,-8.114426,11.737381,
117.77228,true,true,true,0.125,12.65,0.0,0,0,0,0.125,12.65,0.0,0,0,0,0.125,12.65,0.0,0,0,0,0.125,12.65,0.0,0,0,0,0.125,12.65,0.0,4,0,0,0.0,12.65,0.0,0,0,0,0.125,12.75,0.0,0,0,0,kReverse,kOff,-87.12,2.17,2.63,0.040161133,-0.9845581,0.035339355,34.69,0.0,3.0,-8.114426,11.737381,
117.80355600000001,true,true,true,0.125,12.65,0.0,0,0,0,0.125,12.65,0.0,0,0,0,0.125,12.65,0.0,0,0,0,0.125,12.65,0.0,0,0,0,0.125,12.65,0.0,4,0,0,0.0,12.65,0.0,0,0,0,0.125,12.75,0.0,0,0,0,kReverse,kOff,-87.13,2.17,2.63,0.036315918,-0.9805298,0.030212402,34.69,0.0,-1.0,-8.114426,11.737381,
117.829217,true,true,true,0.125,12.65,0.0,0,0,0,0.125,12.65,0.0,0,0,0,0.125,12.65,0.0,0,0,0,0.125,12.65,0.0,0,0,0,0.125,12.65,0.0,4,0,0,0.0,12.65,0.0,0,0,0,0.125,12.75,0.0,0,0,0,kReverse,kOff,-87.12,2.17,2.63,0.036865234,-0.9819946,0.029541016,34.69,0.0,-1.0,-8.114426,11.737381,
117.85970900000001,true,true,true,0.125,12.65,0.0,0,0,0,0.125,12.65,0.0,0,0,0,0.125,12.65,0.0,0,0,0,0.125,12.65,0.0,0,0,0,0.125,12.65,0.0,4,0,0,0.0,12.65,0.0,0,0,0,0.125,12.75,0.0,0,0,0,kReverse,kOff,-87.13,2.16,2.62,0.035339355,-0.98168945,0.030883789,34.69,0.0,-2.0,-8.114426,11.737381,
117.89016399999998,true,true,true,0.125,12.65,0.0,0,0,0,0.125,12.65,0.0,0,0,0,0.125,12.65,0.0,0,0,0,0.125,12.65,0.0,0,0,0,0.125,12.65,0.0,4,0,0,0.0,12.65,0.0,0,0,0,0.125,12.75,0.0,0,0,0,kReverse,kOff,-87.13,2.16,2.62,0.038146973,-0.9816284,0.024658203,34.69,0.0,3.0,-8.114426,11.737381,
117.924607,true,true,true,0.125,12.65,0.0,0,0,0,0.125,12.65,0.0,0,0,0,0.125,12.65,0.0,0,0,0,0.125,12.65,0.0,0,0,0,0.125,12.65,0.0,4,0,0,0.0,12.65,0.0,0,0,0,0.125,12.75,0.0,0,0,0,kReverse,kOff,-87.14,2.16,2.62,0.038024902,-0.98114014,0.031982422,34.69,0.0,0.0,-8.114426,11.737381,
117.95317600000001,true,true,true,0.125,12.65,0.0,0,0,0,0.125,12.65,0.0,0,0,0,0.125,12.65,0.0,0,0,0,0.125,12.65,0.0,0,0,0,0.125,12.65,0.0,4,0,0,0.0,12.65,0.0,0,0,0,0.125,12.75,0.0,0,0,0,kReverse,kOff,-87.14,2.16,2.62,0.036132812,-0.9846802,0.032348633,34.66,0.0,-1.0,-8.114426,11.737381,
117.980902,true,true,true,0.125,12.65,0.0,0,0,0,0.125,12.65,0.0,0,0,0,0.125,12.65,0.0,0,0,0,0.125,12.65,0.0,0,0,0,0.125,12.65,0.0,4,0,0,0.0,12.65,0.0,0,0,0,0.125,12.75,0.0,0,0,0,kReverse,kOff,-87.13,2.16,2.62,0.035949707,-0.9815674,0.03375244,34.66,0.0,0.0,-8.114426,11.737381,
118.017916,true,true,true,0.125,12.65,0.0,0,0,0,0.125,12.65,0.0,0,0,0,0.125,12.65,0.0,0,0,0,0.125,12.65,0.0,0,0,0,0.125,12.65,0.0,4,0,0,0.0,12.65,0.0,0,0,0,0.125,12.75,0.0,0,0,0,kReverse,kOff,-87.13,2.16,2.62,0.036010742,-0.9819336,0.028381348,34.66,0.0,-1.0,-8.114426,11.737381,
118.04805499999999,true,true,true,0.125,12.65,0.0,0,0,0,0.125,12.65,0.0,0,0,0,0.125,12.65,0.0,0,0,0,0.125,12.65,0.0,0,0,0,0.125,12.65,0.0,4,0,0,0.0,12.65,0.0,0,0,0,0.125,12.75,0.0,0,0,0,kReverse,kOff,-87.13,2.16,2.62,0.03704834,-0.98339844,0.03125,34.66,0.0,0.0,-8.114426,11.737381,
118.077155,true,true,true,0.125,12.65,0.0,0,0,0,0.125,12.65,0.0,0,0,0,0.125,12.65,0.0,0,0,0,0.125,12.65,0.0,0,0,0,0.125,12.65,0.0,4,0,0,0.0,12.65,0.0,0,0,0,0.125,12.75,0.0,0,0,0,kReverse,kOff,-87.13,2.16,2.62,0.03753662,-0.98217773,0.036254883,34.66,0.0,1.0,-8.114426,11.737381,
118.10583100000001,true,true,true,0.125,12.65,0.0,0,0,0,0.125,12.65,0.0,0,0,0,0.125,12.65,0.0,0,0,0,0.125,12.65,0.0,0,0,0,0.125,12.65,0.0,4,0,0,0.0,12.65,0.0,0,0,0,0.125,12.75,0.0,0,0,0,kReverse,kOff,-87.12,2.17,2.63,0.036743164,-0.98461914,0.033691406,34.66,0.0,0.0,-8.114426,11.737381,
118.131804,true,true,true,0.125,12.65,0.0,0,0,0,0.125,12.65,0.0,0,0,0,0.125,12.65,0.0,0,0,0,0.125,12.65,0.0,0,0,0,0.125,12.65,0.0,4,0,0,0.0,12.65,0.0,0,0,0,0.125,12.75,0.0,0,0,0,kReverse,kOff,-87.12,2.17,2.63,0.033996582,-0.9854126,0.028869629,34.66,0.0,-4.0,-8.114426,11.737381,
118.16451800000002,true,true,true,0.125,12.65,0.0,0,0,0,0.125,12.65,0.0,0,0,0,0.125,12.65,0.0,0,0,0,0.125,12.65,0.0,0,0,0,0.0,12.65,0.0,4,0,0,0.0,12.65,0.0,0,0,0,0.125,12.75,0.0,0,0,0,kReverse,kOff,-87.12,2.16,2.63,0.037353516,-0.98291016,0.028320312,34.66,0.0,0.0,-8.114426,11.737381,
118.189449,true,true,true,0.125,12.65,0.0,0,0,0,0.125,12.65,0.0,0,0,0,0.125,12.65,0.0,0,0,0,0.125,12.65,0.0,0,0,0,0.0,12.65,0.0,4,0,0,0.0,12.65,0.0,0,0,0,0.125,12.75,0.0,0,0,0,kReverse,kOff,-87.12,2.16,2.63,0.03741455,-0.9819946,0.03466797,34.66,0.0,0.0,-8.114426,11.737381,
118.22411199999999,true,true,true,0.125,12.65,0.0,0,0,0,0.125,12.65,0.0,0,0,0,0.125,12.65,0.0,0,0,0,0.125,12.65,0.0,0,0,0,0.125,12.65,0.0,4,0,0,0.0,12.65,0.0,0,0,0,0.125,12.75,0.0,0,0,0,kReverse,kOff,-87.12,2.16,2.63,0.036376953,-0.9844971,0.031188965,34.66,0.0,-1.0,-8.114426,11.737381,
118.25194699999999,true,true,true,0.125,12.65,0.0,0,0,0,0.125,12.65,0.0,0,0,0,0.125,12.65,0.0,0,0,0,0.125,12.65,0.0,0,0,0,0.125,12.65,0.0,4,0,0,0.0,12.65,0.0,0,0,0,0.125,12.75,0.0,0,0,0,kReverse,kOff,-87.13,2.16,2.62,0.03717041,-0.98217773,0.03100586,34.66,0.0,0.0,-8.114426,11.737381,
118.29267999999999,true,true,true,0.125,12.65,0.0,0,0,0,0.125,12.65,0.0,0,0,0,0.125,12.65,0.0,0,0,0,0.125,12.65,0.0,0,0,0,0.125,12.65,0.0,4,0,0,0.0,12.65,0.0,0,0,0,0.125,12.75,0.0,0,0,0,kReverse,kOff,-87.12,2.16,2.63,0.03845215,-0.9827881,0.034423828,34.66,0.0,1.0,-8.114426,11.737381,
118.32551199999999,true,true,true,0.125,12.65,0.0,0,0,0,0.125,12.65,0.0,0,0,0,0.125,12.65,0.0,0,0,0,0.125,12.65,0.0,0,0,0,0.125,12.65,0.0,4,0,0,0.0,12.65,0.0,0,0,0,0.125,12.75,0.0,0,0,0,kReverse,kOff,-87.12,2.16,2.63,0.037109375,-0.98583984,0.029724121,34.66,0.0,0.0,-8.114426,11.737381,
118.34838200000002,true,true,true,0.125,12.65,0.0,0,0,0,0.125,12.65,0.0,0,0,0,0.125,12.65,0.0,0,0,0,0.125,12.65,0.0,0,0,0,0.125,12.65,0.0,4,0,0,0.0,12.65,0.0,0,0,0,0.125,12.75,0.0,0,0,0,kReverse,kOff,-87.13,2.16,2.63,0.036132812,-0.98498535,0.025390625,34.66,0.0,-2.0,-8.114426,11.737381,
118.38186799999998,true,true,true,0.125,12.65,0.0,0,0,0,0.125,12.65,0.0,0,0,0,0.125,12.65,0.0,0,0,0,0.125,12.65,0.0,0,0,0,0.125,12.65,0.0,4,0,0,0.0,12.65,0.0,0,0,0,0.125,12.75,0.0,0,0,0,kReverse,kOff,-87.13,2.16,2.63,0.038330078,-0.98339844,0.03277588,34.66,0.0,1.0,-8.114426,11.737381,
118.40425200000001,true,true,true,0.125,12.65,0.0,0,0,0,0.125,12.65,0.0,0,0,0,0.125,12.65,0.0,0,0,0,0.125,12.65,0.0,0,0,0,0.125,12.65,0.0,4,0,0,0.0,12.65,0.0,0,0,0,0.125,12.75,0.0,0,0,0,kReverse,kOff,-87.13,2.16,2.63,0.040283203,-0.9841919,0.02911377,34.66,0.0,2.0,-8.114426,11.737381,
118.43086199999999,true,true,true,0.125,12.65,0.0,0,0,0,0.125,12.65,0.0,0,0,0,0.125,12.65,0.0,0,0,0,0.125,12.65,0.0,0,0,0,0.0,12.65,0.0,4,0,0,0.0,12.65,0.0,0,0,0,0.125,12.75,0.0,0,0,0,kReverse,kOff,-87.13,2.16,2.63,0.03857422,-0.9833374,0.03503418,34.66,0.0,1.0,-8.114426,11.737381,
118.463728,true,true,true,0.125,12.65,0.0,0,0,0,0.125,12.65,0.0,0,0,0,0.125,12.65,0.0,0,0,0,0.125,12.65,0.0,0,0,0,0.0,12.65,0.0,4,0,0,0.0,12.65,0.0,0,0,0,0.125,12.75,0.0,0,0,0,kReverse,kOff,-87.13,2.16,2.63,0.036254883,-0.98254395,0.029968262,34.62,0.0,-1.0,-8.114426,11.737381,
118.48888099999999,true,true,true,0.125,12.65,0.0,0,0,0,0.125,12.65,0.0,0,0,0,0.125,12.65,0.0,0,0,0,0.125,12.65,0.0,0,0,0,0.0,12.65,0.0,4,0,0,0.0,12.65,0.0,0,0,0,0.125,12.75,0.0,0,0,0,kReverse,kOff,-87.13,2.16,2.63,0.037841797,-0.9836426,0.026489258,34.62,0.0,0.0,-8.114426,11.737381,
118.52059400000002,true,true,true,0.125,12.65,0.0,0,0,0,0.125,12.65,0.0,0,0,0,0.125,12.65,0.0,0,0,0,0.125,12.65,0.0,0,0,0,0.0,12.65,0.0,4,0,0,0.0,12.65,0.0,0,0,0,0.125,12.75,0.0,0,0,0,kReverse,kOff,-87.13,2.16,2.63,0.03729248,-0.98358154,0.036499023,34.62,0.0,1.0,-8.114426,11.737381,
118.549698,true,true,true,0.125,12.65,0.0,0,0,0,0.125,12.65,0.0,0,0,0,0.125,12.65,0.0,0,0,0,0.125,12.65,0.0,0,0,0,0.25,12.65,0.0,4,0,0,0.0,12.65,0.0,0,0,0,0.125,12.75,0.0,0,0,0,kReverse,kOff,-87.13,2.16,2.63,0.03540039,-0.9833374,0.036254883,34.62,0.0,0.0,-8.114426,11.737381,
118.580981,true,true,true,0.125,12.65,0.0,0,0,0,0.125,12.65,0.0,0,0,0,0.125,12.65,0.0,0,0,0,0.125,12.65,0.0,0,0,0,0.25,12.65,0.0,4,0,0,0.0,12.65,0.0,0,0,0,0.125,12.75,0.0,0,0,0,kReverse,kOff,-87.13,2.16,2.63,0.03564453,-0.9817505,0.030822754,34.62,0.0,-1.0,-8.114426,11.737381,
118.60878400000001,true,true,true,0.125,12.65,0.0,0,0,0,0.125,12.65,0.0,0,0,0,0.125,12.65,0.0,0,0,0,0.125,12.65,0.0,0,0,0,0.25,12.65,0.0,4,0,0,0.0,12.65,0.0,0,0,0,0.125,12.75,0.0,0,0,0,kReverse,kOff,-87.13,2.16,2.63,0.03845215,-0.9816284,0.03564453,34.62,0.0,-2.0,-8.114426,11.737381,
118.64733199999999,true,true,true,0.125,12.65,0.0,0,0,0,0.125,12.65,0.0,0,0,0,0.125,12.65,0.0,0,0,0,0.125,12.65,0.0,0,0,0,0.125,12.65,0.0,4,0,0,0.0,12.65,0.0,0,0,0,0.125,12.75,0.0,0,0,0,kReverse,kOff,-87.13,2.16,2.63,0.037231445,-0.98223877,0.026550293,34.62,0.0,-1.0,-8.114426,11.737381,
118.67522399999999,true,true,true,0.125,12.65,0.0,0,0,0,0.125,12.65,0.0,0,0,0,0.125,12.65,0.0,0,0,0,0.125,12.65,0.0,0,0,0,0.125,12.65,0.0,4,0,0,0.0,12.65,0.0,0,0,0,0.125,12.75,0.0,0,0,0,kReverse,kOff,-87.13,2.16,2.63,0.036865234,-0.9848633,0.03289795,34.62,0.0,0.0,-8.114426,11.737381,
118.704738,true,true,true,0.125,12.65,0.0,0,0,0,0.125,12.65,0.0,0,0,0,0.125,12.65,0.0,0,0,0,0.125,12.65,0.0,0,0,0,0.125,12.65,0.0,4,0,0,0.0,12.65,0.0,0,0,0,0.125,12.75,0.0,0,0,0,kReverse,kOff,-87.13,2.16,2.63,0.036987305,-0.9854126,0.035339355,34.62,0.0,0.0,-8.114426,11.737381,
118.740946,true,true,true,0.125,12.65,0.0,0,0,0,0.125,12.65,0.0,0,0,0,0.125,12.65,0.0,0,0,0,0.125,12.65,0.0,0,0,0,0.125,12.65,0.0,4,0,0,0.0,12.65,0.0,0,0,0,0.125,12.75,0.0,0,0,0,kReverse,kOff,-87.13,2.16,2.63,0.039367676,-0.98547363,0.037109375,34.62,0.0,3.0,-8.114426,11.737381,
118.76544399999999,true,true,true,0.125,12.65,0.0,0,0,0,0.125,12.65,0.0,0,0,0,0.125,12.65,0.0,0,0,0,0.125,12.65,0.0,0,0,0,0.25,12.65,0.0,4,0,0,0.0,12.65,0.0,0,0,0,0.125,12.75,0.0,0,0,0,kReverse,kOff,-87.13,2.16,2.63,0.040405273,-0.9842529,0.028869629,34.62,0.0,2.0,-8.114426,11.737381,
118.79508799999999,true,true,true,0.125,12.65,0.0,0,0,0,0.125,12.65,0.0,0,0,0,0.125,12.65,0.0,0,0,0,0.125,12.65,0.0,0,0,0,0.25,12.65,0.0,4,0,0,0.0,12.65,0.0,0,0,0,0.125,12.75,0.0,0,0,0,kReverse,kOff,-87.13,2.16,2.63,0.037963867,-0.9835205,0.03338623,34.62,0.0,0.0,-8.114426,11.737381,
118.82595699999999,true,true,true,0.125,12.65,0.0,0,0,0,0.125,12.65,0.0,0,0,0,0.125,12.65,0.0,0,0,0,0.125,12.65,0.0,0,0,0,0.25,12.65,0.0,4,0,0,0.0,12.65,0.0,0,0,0,0.125,12.75,0.0,0,0,0,kReverse,kOff,-87.13,2.16,2.63,0.039367676,-0.98443604,0.037109375,34.62,0.0,3.0,-8.114426,11.737381,
118.848464,true,true,true,0.125,12.65,0.0,0,0,0,0.125,12.65,0.0,0,0,0,0.125,12.65,0.0,0,0,0,0.125,12.65,0.0,0,0,0,0.25,12.65,0.0,4,0,0,0.0,12.65,0.0,0,0,0,0.125,12.75,0.0,0,0,0,kReverse,kOff,-87.13,2.16,2.63,0.03857422,-0.98809814,0.035217285,34.62,0.0,1.0,-8.114426,11.737381,
118.87571700000001,true,true,true,0.125,12.65,0.0,0,0,0,0.125,12.65,0.0,0,0,0,0.125,12.65,0.0,0,0,0,0.125,12.65,0.0,0,0,0,0.0,12.65,0.0,4,0,0,0.0,12.65,0.0,0,0,0,0.125,12.75,0.0,0,0,0,kReverse,kOff,-87.13,2.16,2.63,0.034240723,-0.9851074,0.034606934,34.62,0.0,-2.0,-8.114426,11.737381,
118.900133,true,true,true,0.125,12.65,0.0,0,0,0,0.125,12.65,0.0,0,0,0,0.125,12.65,0.0,0,0,0,0.125,12.65,0.0,0,0,0,0.0,12.65,0.0,4,0,0,0.0,12.65,0.0,0,0,0,0.125,12.75,0.0,0,0,0,kReverse,kOff,-87.13,2.16,2.63,0.036743164,-0.98553467,0.031982422,34.62,0.0,0.0,-8.114426,11.737381,
118.92544000000001,true,true,true,0.125,12.65,0.0,0,0,0,0.125,12.65,0.0,0,0,0,0.125,12.65,0.0,0,0,0,0.125,12.65,0.0,0,0,0,0.0,12.65,0.0,4,0,0,0.0,12.65,0.0,0,0,0,0.125,12.75,0.0,0,0,0,kReverse,kOff,-87.13,2.16,2.63,0.03692627,-0.9842529,0.029907227,34.62,0.0,0.0,-8.114426,11.737381,
118.946628,true,true,true,0.125,12.65,0.0,0,0,0,0.125,12.65,0.0,0,0,0,0.125,12.65,0.0,0,0,0,0.125,12.65,0.0,0,0,0,0.25,12.65,0.0,4,0,0,0.0,12.65,0.0,0,0,0,0.125,12.75,0.0,0,0,0,kReverse,kOff,-87.13,2.16,2.63,0.037231445,-0.9835205,0.034729004,34.62,0.0,0.0,-8.114426,11.737381,
118.969533,true,true,true,0.125,12.65,0.0,0,0,0,0.125,12.65,0.0,0,0,0,0.125,12.65,0.0,0,0,0,0.125,12.65,0.0,0,0,0,0.0,12.65,0.0,4,0,0,0.0,12.65,0.0,0,0,0,0.125,12.75,0.0,0,0,0,kReverse,kOff,-87.12,2.17,2.63,0.039001465,-0.9815674,0.03112793,34.65,0.0,1.0,-8.114426,11.737381,
118.99577,true,true,true,0.125,12.65,0.0,0,0,0,0.125,12.65,0.0,0,0,0,0.125,12.65,0.0,0,0,0,0.125,12.65,0.0,0,0,0,0.0,12.65,0.0,4,0,0,0.0,12.65,0.0,0,0,0,0.125,12.75,0.0,0,0,0,kReverse,kOff,-87.12,2.17,2.63,0.038757324,-0.98309326,0.026916504,34.65,0.0,0.0,-8.114426,11.737381,
119.023007,true,true,true,0.125,12.65,0.0,0,0,0,0.125,12.65,0.0,0,0,0,0.125,12.65,0.0,0,0,0,0.125,12.65,0.0,0,0,0,0.0,12.65,0.0,4,0,0,0.0,12.65,0.0,0,0,0,0.125,12.75,0.0,0,0,0,kReverse,kOff,-87.13,2.16,2.63,0.03753662,-0.98480225,0.026367188,34.65,0.0,-1.0,-8.114426,11.737381,
119.04680799999998,true,true,true,0.125,12.65,0.0,0,0,0,0.125,12.65,0.0,0,0,0,0.125,12.65,0.0,0,0,0,0.125,12.65,0.0,0,0,0,0.25,12.65,0.0,4,0,0,0.0,12.65,0.0,0,0,0,0.125,12.75,0.0,0,0,0,kReverse,kOff,-87.13,2.17,2.63,0.041748047,-0.98413086,0.030151367,34.65,0.0,3.0,-8.114426,11.737381,
119.07210999999998,true,true,true,0.125,12.65,0.0,0,0,0,0.125,12.65,0.0,0,0,0,0.125,12.65,0.0,0,0,0,0.125,12.65,0.0,0,0,0,0.25,12.65,0.0,4,0,0,0.0,12.65,0.0,0,0,0,0.125,12.75,0.0,0,0,0,kReverse,kOff,-87.13,2.17,2.63,0.037475586,-0.9818115,0.034851074,34.65,0.0,0.0,-8.114426,11.737381,
119.09741500000001,true,true,true,0.125,12.65,0.0,0,0,0,0.125,12.65,0.0,0,0,0,0.125,12.65,0.0,0,0,0,0.125,12.65,0.0,0,0,0,0.25,12.65,0.0,4,0,0,0.0,12.65,0.0,0,0,0,0.125,12.75,0.0,0,0,0,kReverse,kOff,-87.12,2.17,2.63,0.03668213,-0.98309326,0.03540039,34.65,0.0,0.0,-8.114426,11.737381,
119.12196100000001,true,true,true,0.125,12.65,0.0,0,0,0,0.125,12.65,0.0,0,0,0,0.125,12.65,0.0,0,0,0,0.125,12.65,0.0,0,0,0,0.25,12.65,0.0,4,0,0,0.0,12.65,0.0,0,0,0,0.125,12.75,0.0,0,0,0,kReverse,kOff,-87.12,2.17,2.63,0.038208008,-0.9852905,0.033813477,34.65,0.0,1.0,-8.114426,11.737381,
119.14499400000001,true,true,true,0.125,12.65,0.0,0,0,0,0.125,12.65,0.0,0,0,0,0.125,12.65,0.0,0,0,0,0.125,12.65,0.0,0,0,0,0.25,12.65,0.0,4,0,0,0.0,12.65,0.0,0,0,0,0.125,12.75,0.0,0,0,0,kReverse,kOff,-87.12,2.17,2.63,0.036621094,-0.98443604,0.03314209,34.65,0.0,0.0,-8.114426,11.737381,
119.16585,true,true,true,0.125,12.65,0.0,0,0,0,0.125,12.65,0.0,0,0,0,0.125,12.65,0.0,0,0,0,0.125,12.65,0.0,0,0,0,0.25,12.65,0.0,4,0,0,0.0,12.65,0.0,0,0,0,0.125,12.75,0.0,0,0,0,kReverse,kOff,-87.12,2.17,2.63,0.03692627,-0.9855957,0.03527832,34.65,0.0,0.0,-8.114426,11.737381,
119.187641,true,true,true,0.125,12.65,0.0,0,0,0,0.125,12.65,0.0,0,0,0,0.125,12.65,0.0,0,0,0,0.125,12.65,0.0,0,0,0,0.25,12.65,0.0,4,0,0,0.0,12.65,0.0,0,0,0,0.125,12.75,0.0,0,0,0,kReverse,kOff,-87.12,2.17,2.63,0.03668213,-0.98321533,0.02911377,34.65,0.0,0.0,-8.114426,11.737381,
119.21212700000001,true,true,true,0.125,12.65,0.0,0,0,0,0.125,12.65,0.0,0,0,0,0.125,12.65,0.0,0,0,0,0.125,12.65,0.0,0,0,0,0.25,12.65,0.0,4,0,0,0.0,12.65,0.0,0,0,0,0.125,12.75,0.0,0,0,0,kReverse,kOff,-87.13,2.16,2.63,0.038208008,-0.98272705,0.032226562,34.65,0.0,0.0,-8.114426,11.737381,
119.239304,true,true,true,0.125,12.65,0.0,0,0,0,0.125,12.65,0.0,0,0,0,0.125,12.65,0.0,0,0,0,0.125,12.65,0.0,0,0,0,0.25,12.65,0.0,4,0,0,0.0,12.65,0.0,0,0,0,0.125,12.75,0.0,0,0,0,kReverse,kOff,-87.13,2.16,2.63,0.03845215,-0.9833374,0.034423828,34.65,0.0,1.0,-8.114426,11.737381,
119.266313,true,true,true,0.125,12.65,0.0,0,0,0,0.125,12.65,0.0,0,0,0,0.125,12.65,0.0,0,0,0,0.125,12.65,0.0,0,0,0,0.0,12.65,0.0,4,0,0,0.0,12.65,0.0,0,0,0,0.125,12.75,0.0,0,0,0,kReverse,kOff,-87.12,2.17,2.63,0.037597656,-0.9837036,0.03363037,34.65,0.0,0.0,-8.114426,11.737381,
119.28828299999999,true,true,true,0.125,12.65,0.0,0,0,0,0.125,12.65,0.0,0,0,0,0.125,12.65,0.0,0,0,0,0.125,12.65,0.0,0,0,0,0.0,12.65,0.0,4,0,0,0.0,12.65,0.0,0,0,0,0.125,12.75,0.0,0,0,0,kReverse,kOff,-87.12,2.17,2.63,0.037902832,-0.9807129,0.0335083,34.65,0.0,0.0,-8.114426,11.737381,
119.316005,true,true,true,0.125,12.65,0.0,0,0,0,0.125,12.65,0.0,0,0,0,0.125,12.65,0.0,0,0,0,0.125,12.65,0.0,0,0,0,0.25,12.65,0.0,4,0,0,0.0,12.65,0.0,0,0,0,0.125,12.75,0.0,0,0,0,kReverse,kOff,-87.13,2.16,2.63,0.038757324,-0.98443604,0.031311035,34.65,0.0,1.0,-8.114426,11.737381,
119.343313,true,true,true,0.125,12.65,0.0,0,0,0,0.125,12.65,0.0,0,0,0,0.125,12.65,0.0,0,0,0,0.125,12.65,0.0,0,0,0,0.25,12.65,0.0,4,0,0,0.0,12.65,0.0,0,0,0,0.125,12.75,0.0,0,0,0,kReverse,kOff,-87.12,2.17,2.63,0.037719727,-0.9822998,0.035461426,34.65,0.0,1.0,-8.114426,11.737381,
119.36781899999998,true,true,true,0.125,12.65,0.0,0,0,0,0.125,12.65,0.0,0,0,0,0.125,12.65,0.0,0,0,0,0.125,12.65,0.0,0,0,0,0.125,12.65,0.0,4,0,0,0.0,12.65,0.0,0,0,0,0.125,12.75,0.0,0,0,0,kReverse,kOff,-87.12,2.17,2.64,0.03918457,-0.98321533,0.03503418,34.65,0.0,2.0,-8.114426,11.737381,
119.392065,true,true,true,0.125,12.65,0.0,0,0,0,0.125,12.65,0.0,0,0,0,0.125,12.65,0.0,0,0,0,0.125,12.65,0.0,0,0,0,0.125,12.65,0.0,4,0,0,0.0,12.65,0.0,0,0,0,0.125,12.75,0.0,0,0,0,kReverse,kOff,-87.12,2.17,2.64,0.036621094,-0.98358154,0.03265381,34.65,0.0,0.0,-8.114426,11.737381,
119.416174,true,true,true,0.125,12.65,0.0,0,0,0,0.125,12.65,0.0,0,0,0,0.125,12.65,0.0,0,0,0,0.125,12.65,0.0,0,0,0,0.125,12.65,0.0,4,0,0,0.0,12.65,0.0,0,0,0,0.125,12.75,0.0,0,0,0,kReverse,kOff,-87.12,2.17,2.63,0.036376953,-0.9829712,0.03302002,34.65,0.0,0.0,-8.114426,11.737381,
119.440789,true,true,true,0.125,12.65,0.0,0,0,0,0.125,12.65,0.0,0,0,0,0.125,12.65,0.0,0,0,0,0.125,12.65,0.0,0,0,0,0.125,12.65,0.0,4,0,0,0.0,12.65,0.0,0,0,0,0.125,12.75,0.0,0,0,0,kReverse,kOff,-87.12,2.17,2.63,0.034973145,-0.9812622,0.029174805,34.65,0.0,-2.0,-8.114426,11.737381,
119.463576,true,true,true,0.125,12.65,0.0,0,0,0,0.125,12.65,0.0,0,0,0,0.125,12.65,0.0,0,0,0,0.125,12.65,0.0,0,0,0,0.125,12.65,0.0,4,0,0,0.0,12.65,0.0,0,0,0,0.125,12.75,0.0,0,0,0,kReverse,kOff,-87.12,2.17,2.63,0.039489746,-0.9822998,0.029724121,34.65,0.0,1.0,-8.114426,11.737381,
119.487627,true,true,true,0.125,12.65,0.0,0,0,0,0.125,12.65,0.0,0,0,0,0.125,12.65,0.0,0,0,0,0.125,12.65,0.0,0,0,0,0.125,12.65,0.0,4,0,0,0.0,12.65,0.0,0,0,0,0.125,12.75,0.0,0,0,0,kReverse,kOff,-87.12,2.17,2.63,0.035949707,-0.9824219,0.034057617,34.66,0.0,0.0,-8.114426,11.737381,
119.509361,true,true,true,0.125,12.65,0.0,0,0,0,0.125,12.65,0.0,0,0,0,0.125,12.65,0.0,0,0,0,0.125,12.65,0.0,0,0,0,0.125,12.65,0.0,4,0,0,0.0,12.65,0.0,0,0,0,0.125,12.75,0.0,0,0,0,kReverse,kOff,-87.12,2.17,2.63,0.04119873,-0.98339844,0.036254883,34.66,0.0,4.0,-8.114426,11.737381,
119.533476,true,true,true,0.125,12.65,0.0,0,0,0,0.125,12.65,0.0,0,0,0,0.125,12.65,0.0,0,0,0,0.125,12.65,0.0,0,0,0,0.125,12.65,0.0,4,0,0,0.0,12.65,0.0,0,0,0,0.125,12.75,0.0,0,0,0,kReverse,kOff,-87.12,2.17,2.63,0.03552246,-0.98394775,0.033081055,34.66,0.0,-1.0,-8.114426,11.737381,
119.558266,true,true,true,0.125,12.65,0.0,0,0,0,0.125,12.65,0.0,0,0,0,0.125,12.65,0.0,0,0,0,0.125,12.65,0.0,0,0,0,0.125,12.65,0.0,4,0,0,0.0,12.65,0.0,0,0,0,0.125,12.75,0.0,0,0,0,kReverse,kOff,-87.12,2.17,2.64,0.03741455,-0.9854126,0.028869629,34.66,0.0,0.0,-8.114426,11.737381,
119.58196299999999,true,true,true,0.125,12.65,0.0,0,0,0,0.125,12.65,0.0,0,0,0,0.125,12.65,0.0,0,0,0,0.125,12.65,0.0,0,0,0,0.125,12.65,0.0,4,0,0,0.0,12.65,0.0,0,0,0,0.125,12.75,0.0,0,0,0,kReverse,kOff,-87.12,2.17,2.63,0.039733887,-0.98461914,0.032226562,34.66,0.0,2.0,-8.114426,11.737381,
119.607261,true,true,true,0.125,12.65,0.0,0,0,0,0.125,12.65,0.0,0,0,0,0.125,12.65,0.0,0,0,0,0.125,12.65,0.0,0,0,0,0.125,12.65,0.0,4,0,0,0.0,12.65,0.0,0,0,0,0.125,12.75,0.0,0,0,0,kReverse,kOff,-87.12,2.17,2.63,0.039123535,-0.98168945,0.0345459,34.66,0.0,2.0,-8.114426,11.737381,
119.63181,true,true,true,0.125,12.65,0.0,0,0,0,0.125,12.65,0.0,0,0,0,0.125,12.65,0.0,0,0,0,0.125,12.65,0.0,0,0,0,0.125,12.65,0.0,4,0,0,0.0,12.65,0.0,0,0,0,0.125,12.75,0.0,0,0,0,kReverse,kOff,-87.12,2.17,2.63,0.037231445,-0.9833374,0.034179688,34.66,0.0,0.0,-8.114426,11.737381,
119.66141200000001,true,true,true,0.125,12.65,0.0,0,0,0,0.125,12.65,0.0,0,0,0,0.125,12.65,0.0,0,0,0,0.125,12.65,0.0,0,0,0,0.125,12.65,0.0,4,0,0,0.0,12.65,0.0,0,0,0,0.125,12.75,0.0,0,0,0,kReverse,kOff,-87.12,2.17,2.63,0.039611816,-0.9848633,0.03100586,34.66,0.0,1.0,-8.114426,11.737381,
119.68520199999999,true,true,true,0.125,12.65,0.0,0,0,0,0.125,12.65,0.0,0,0,0,0.125,12.65,0.0,0,0,0,0.125,12.65,0.0,0,0,0,0.125,12.65,0.0,4,0,0,0.0,12.65,0.0,0,0,0,0.125,12.75,0.0,0,0,0,kReverse,kOff,-87.12,2.17,2.64,0.03869629,-0.98291016,0.036132812,34.66,0.0,2.0,-8.114426,11.737381,
119.70683600000001,true,true,true,0.125,12.65,0.0,0,0,0,0.125,12.65,0.0,0,0,0,0.125,12.65,0.0,0,0,0,0.125,12.65,0.0,0,0,0,0.125,12.65,0.0,4,0,0,0.0,12.65,0.0,0,0,0,0.125,12.75,0.0,0,0,0,kReverse,kOff,-87.12,2.17,2.64,0.037963867,-0.98431396,0.028015137,34.66,0.0,0.0,-8.114426,11.737381,
119.72934899999998,true,true,true,0.125,12.65,0.0,0,0,0,0.125,12.65,0.0,0,0,0,0.125,12.65,0.0,0,0,0,0.125,12.65,0.0,0,0,0,0.125,12.65,0.0,4,0,0,0.0,12.65,0.0,0,0,0,0.125,12.75,0.0,0,0,0,kReverse,kOff,-87.12,2.17,2.64,0.03741455,-0.9840088,0.029174805,34.66,0.0,0.0,-8.114426,11.737381,
119.74930799999998,true,true,true,0.125,12.65,0.0,0,0,0,0.125,12.65,0.0,0,0,0,0.125,12.65,0.0,0,0,0,0.125,12.65,0.0,0,0,0,0.125,12.65,0.0,4,0,0,0.0,12.65,0.0,0,0,0,0.125,12.75,0.0,0,0,0,kReverse,kOff,-87.12,2.17,2.64,0.037963867,-0.98565674,0.030212402,34.66,0.0,0.0,-8.114426,11.737381,
119.770437,true,true,true,0.125,12.65,0.0,0,0,0,0.125,12.65,0.0,0,0,0,0.125,12.65,0.0,0,0,0,0.125,12.65,0.0,0,0,0,0.125,12.65,0.0,4,0,0,0.0,12.65,0.0,0,0,0,0.125,12.75,0.0,0,0,0,kReverse,kOff,-87.12,2.17,2.64,0.040039062,-0.97943115,0.033935547,34.66,0.0,3.0,-8.114426,11.737381,
119.79574900000001,true,true,true,0.125,12.65,0.0,0,0,0,0.125,12.65,0.0,0,0,0,0.125,12.65,0.0,0,0,0,0.125,12.65,0.0,0,0,0,0.125,12.65,0.0,4,0,0,0.0,12.65,0.0,0,0,0,0.125,12.75,0.0,0,0,0,kReverse,kOff,-87.12,2.17,2.64,0.036987305,-0.9840088,0.03161621,34.66,0.0,0.0,-8.114426,11.737381,
119.825225,true,true,true,0.125,12.65,0.0,0,0,0,0.125,12.65,0.0,0,0,0,0.125,12.65,0.0,0,0,0,0.125,12.65,0.0,0,0,0,0.125,12.65,0.0,4,0,0,0.0,12.65,0.0,0,0,0,0.125,12.75,0.0,0,0,0,kReverse,kOff,-87.12,2.17,2.64,0.03778076,-0.9827881,0.031188965,34.66,0.0,0.0,-8.114426,11.737381,
119.848709,true,true,true,0.125,12.65,0.0,0,0,0,0.125,12.65,0.0,0,0,0,0.125,12.6,0.0,0,0,0,0.125,12.65,0.0,0,0,0,0.125,12.6,0.0,4,0,0,0.25,12.65,0.0,0,0,0,0.125,12.75,0.0,0,0,0,kReverse,kOff,-87.12,2.17,2.64,0.041931152,-0.99993896,0.036254883,34.66,0.0,4.0,-8.114426,11.737381,
119.87324900000002,true,true,true,0.125,12.65,0.0,0,0,0,0.125,12.65,0.0,0,0,0,0.125,12.6,0.0,0,0,0,0.125,12.65,0.0,0,0,0,0.125,12.6,0.0,4,0,0,9.25,12.200000000000001,0.0,0,0,0,0.125,12.5,0.0,0,0,0,kReverse,kOff,-87.12,2.17,2.64,0.020019531,-0.96520996,0.03491211,34.66,0.0,-15.0,-8.114426,11.737381,
119.897511,true,true,true,0.125,12.65,0.0,0,0,0,0.125,12.65,0.0,0,0,0,0.125,12.6,0.0,0,0,0,0.125,12.65,0.0,0,0,0,0.125,12.6,0.0,4,0,0,10.875,12.200000000000001,0.0,0,0,0,0.125,12.5,0.0,0,0,0,kReverse,kOff,-87.12,2.17,2.64,0.05529785,-0.99487305,0.056152344,34.66,0.0,22.0,-8.114426,11.737381,
119.92234099999999,true,true,true,0.125,12.65,0.0,0,0,0,0.125,12.65,0.0,0,0,0,0.125,12.6,0.0,0,0,0,0.125,12.65,0.0,0,0,0,0.125,12.6,0.0,4,0,0,10.875,12.200000000000001,0.0,0,0,0,0.125,12.5,0.0,0,0,0,kReverse,kOff,-87.13,2.17,2.63,0.014038086,-1.0032959,0.027832031,34.66,0.0,-24.0,-8.11441,11.737381,
119.94627299999999,true,true,true,0.125,12.65,0.0,0,0,0,0.125,12.65,0.0,0,0,0,0.125,12.6,0.0,0,0,0,0.125,12.65,0.0,0,0,0,0.125,12.6,0.0,4,0,0,10.5,12.200000000000001,0.0,0,0,0,0.125,12.5,0.0,0,0,0,kReverse,kOff,-87.14,2.15,2.61,0.066223145,-1.039856,0.057800293,34.66,0.0,31.0,-8.114395,11.737518,
119.969272,true,true,true,0.125,12.65,0.0,0,0,0,0.125,12.65,0.0,0,0,0,0.125,12.6,0.0,0,0,0,0.125,12.65,0.0,0,0,0,0.125,12.6,0.0,4,0,0,13.5,12.200000000000001,0.0,0,0,0,0.125,12.5,0.0,0,0,0,kReverse,kOff,-87.11,2.17,2.63,-0.08050537,-0.86486816,0.085876465,34.66,0.0,-96.0,-8.11441,11.737671,
119.99513200000001,true,true,true,0.125,12.65,0.0,0,0,0,0.125,12.65,0.0,0,0,0,0.125,12.6,0.0,0,0,0,0.125,12.65,0.0,0,0,0,0.125,12.6,0.0,4,0,0,22.125,12.200000000000001,0.0,0,0,0,0.125,12.5,0.0,0,0,0,kReverse,kOff,-87.06,2.16,2.65,0.04486084,-0.8997803,0.111083984,34.68,0.0,29.0,-8.114517,11.738647,
120.02334899999998,true,true,true,0.125,12.0,0.0,0,0,0,0.125,11.9,0.0,0,0,0,0.125,11.95,0.0,0,0,0,0.125,12.0,0.0,0,0,0,0.125,12.05,0.0,4,0,0,19.875,12.200000000000001,0.0,0,0,0,0.125,12.25,0.0,0,0,0,kReverse,kOff,-87.22,2.18,2.61,-0.119018555,-0.85357666,-0.51171875,34.68,0.0,-277.0,-8.11499,11.738937,
120.04834899999999,true,true,true,0.125,12.0,0.0,0,0,0,0.125,11.9,0.0,0,0,0,0.125,11.95,0.0,0,0,0,0.125,12.0,0.0,0,0,0,0.125,12.05,0.0,4,0,0,15.5,12.25,0.0,0,0,0,0.125,12.25,0.0,0,0,0,kReverse,kOff,-87.17,2.17,2.62,0.08117676,-1.2097168,0.34118652,34.68,0.0,107.0,-8.115494,11.738678,
120.06933900000001,true,true,true,0.125,12.0,0.0,0,0,0,0.125,11.9,0.0,0,0,0,0.125,11.95,0.0,0,0,0,0.125,12.0,0.0,0,0,0,0.125,12.05,0.0,4,0,0,8.5,12.25,0.0,0,0,0,0.125,12.25,0.0,0,0,0,kReverse,kOff,-87.14,2.09,2.56,-0.06500244,-1.1264648,-0.042236328,34.68,0.0,-122.0,-8.116745,11.738464,
120.09655799999999,true,true,true,0.125,12.0,0.0,0,0,0,0.125,11.9,0.0,0,0,0,0.125,11.95,0.0,0,0,0,0.125,12.0,0.0,0,0,0,0.125,12.05,0.0,4,0,0,3.5,12.25,0.0,0,0,0,0.125,12.25,0.0,0,0,0,kReverse,kOff,-87.1,2.16,2.63,0.15618896,-1.0309448,-0.19390869,34.68,0.0,60.0,-8.118164,11.737946,
120.12239699999999,true,true,true,0.125,12.0,0.0,0,0,0,0.125,11.9,0.0,0,0,0,0.125,11.95,0.0,0,0,0,0.125,12.0,0.0,0,0,0,0.125,12.05,0.0,4,0,0,0.625,12.25,0.0,0,0,0,0.125,12.25,0.0,0,0,0,kReverse,kOff,-87.02,2.13,2.64,0.008850098,-0.9555054,-0.06317139,34.68,0.0,-49.0,-8.119675,11.736389,
120.156282,true,true,true,0.125,12.0,0.0,0,0,0,0.125,12.6,0.0,0,0,0,0.125,11.95,0.0,0,0,0,0.125,12.0,0.0,0,0,0,0.125,12.05,0.0,4,0,0,0.125,12.25,0.0,0,0,0,0.125,12.25,0.0,0,0,0,kReverse,kOff,-87.1,2.06,2.57,0.031921387,-0.8935547,0.047424316,34.68,0.0,3.0,-8.120514,11.735458,
120.179826,true,true,true,0.125,12.6,0.0,0,0,0,0.125,12.6,0.0,0,0,0,0.125,12.6,0.0,0,0,0,0.125,12.65,0.0,0,0,0,0.125,12.6,0.0,4,0,0,0.0,12.25,0.0,0,0,0,0.125,12.65,0.0,0,0,0,kReverse,kOff,-87.04,2.15,2.65,-0.1105957,-0.9456177,-0.3250122,34.68,0.0,-228.0,-8.122101,11.733337,
120.206318,true,true,true,0.125,12.6,0.0,0,0,0,0.125,12.6,0.0,0,0,0,0.125,12.6,0.0,0,0,0,0.125,12.65,0.0,0,0,0,0.125,12.6,0.0,4,0,0,0.0,12.6,0.0,0,0,0,0.125,12.65,0.0,0,0,0,kReverse,kOff,-87.16,2.12,2.58,0.09429932,-1.0255127,0.2775879,34.68,0.0,112.0,-8.123962,11.730652,
120.23101199999999,true,true,true,0.125,12.6,0.0,0,0,0,0.125,12.6,0.0,0,0,0,0.125,12.6,0.0,0,0,0,0.125,12.65,0.0,0,0,0,0.125,12.6,0.0,4,0,0,0.0,12.6,0.0,0,0,0,0.125,12.65,0.0,0,0,0,kReverse,kOff,-87.07,2.16,2.65,0.08258057,-1.027771,-0.0814209,34.68,0.0,14.0,-8.12558,11.7283325,
120.257912,true,true,true,0.125,12.6,0.0,0,0,0,0.125,12.6,0.0,0,0,0,0.125,12.6,0.0,0,0,0,0.125,12.65,0.0,0,0,0,0.125,12.6,0.0,4,0,0,0.0,12.6,0.0,0,0,0,0.125,12.65,0.0,0,0,0,kReverse,kOff,-87.09,2.17,2.65,0.018676758,-0.98065186,0.049438477,34.68,0.0,-14.0,-8.12558,11.727066,
120.28221400000001,true,true,true,0.125,12.6,0.0,0,0,0,0.125,12.6,0.0,0,0,0,0.125,12.6,0.0,0,0,0,0.125,12.65,0.0,0,0,0,0.125,12.6,0.0,4,0,0,0.0,12.6,0.0,0,0,0,0.125,12.65,0.0,0,0,0,kReverse,kOff,-87.1,2.15,2.62,0.008911133,-0.96759033,0.012145996,34.68,0.0,-31.0,-8.12558,11.725815,
120.30707699999999,true,true,true,0.125,12.6,0.0,0,0,0,0.125,12.6,0.0,0,0,0,0.125,12.6,0.0,0,0,0,0.125,12.65,0.0,0,0,0,0.125,12.6,0.0,4,0,0,0.0,12.6,0.0,0,0,0,0.125,12.65,0.0,0,0,0,kReverse,kOff,-87.14,2.11,2.59,0.05041504,-0.9875488,0.050476074,34.68,0.0,17.0,-8.125656,11.725815,
120.334975,true,true,true,0.125,12.5,0.0,0,0,0,0.125,12.6,0.0,0,0,0,0.125,12.5,0.0,0,0,0,0.125,12.55,0.0,0,0,0,0.125,12.450000000000001,0.0,4,0,0,4.875,12.6,0.0,0,0,0,0.125,12.65,0.0,0,0,0,kReverse,kOff,-87.12,2.12,2.6,0.0413208,-0.9902954,0.06323242,34.68,0.0,11.0,-8.125687,11.725906,
120.362191,true,true,true,0.125,12.5,0.0,0,0,0,0.125,12.6,0.0,0,0,0,0.125,12.5,0.0,0,0,0,0.125,12.55,0.0,0,0,0,0.125,12.450000000000001,0.0,4,0,0,8.25,12.35,0.0,0,0,0,0.125,12.450000000000001,0.0,0,0,0,kReverse,kOff,-87.11,2.13,2.6,0.020019531,-1.0021973,-0.019470215,34.68,0.0,-29.0,-8.125702,11.726135,
120.38584,true,true,true,0.125,12.5,0.0,0,0,0,0.125,12.6,0.0,0,0,0,0.125,12.5,0.0,0,0,0,0.125,12.55,0.0,0,0,0,0.125,12.450000000000001,0.0,4,0,0,9.375,12.35,0.0,0,0,0,0.125,12.450000000000001,0.0,0,0,0,kReverse,kOff,-87.14,2.11,2.59,0.0078125,-0.98773193,0.005065918,34.68,0.0,-34.0,-8.125763,11.726196,
120.40962100000002,true,true,true,0.125,12.5,0.0,0,0,0,0.125,12.6,0.0,0,0,0,0.125,12.5,0.0,0,0,0,0.125,12.55,0.0,0,0,0,0.125,12.450000000000001,0.0,4,0,0,10.375,12.35,0.0,0,0,0,0.125,12.450000000000001,0.0,0,0,0,kReverse,kOff,-87.12,2.14,2.61,0.070495605,-0.9523926,0.018554688,34.68,0.0,30.0,-8.125809,11.726273,
120.446804,true,true,true,0.125,12.5,0.0,0,0,0,0.125,12.6,0.0,0,0,0,0.125,12.5,0.0,0,0,0,0.125,12.55,0.0,0,0,0,0.125,12.450000000000001,0.0,4,0,0,11.75,12.35,0.0,0,0,0,0.125,12.450000000000001,0.0,0,0,0,kReverse,kOff,-87.16,2.14,2.6,-0.10473633,-0.9916382,-0.17578125,34.68,0.0,-187.0,-8.125885,11.72583,
120.47459400000001,true,true,true,0.125,12.5,0.0,0,0,0,0.125,12.6,0.0,0,0,0,0.125,12.5,0.0,0,0,0,0.125,12.55,0.0,0,0,0,0.125,12.450000000000001,0.0,4,0,0,10.75,12.35,0.0,0,0,0,0.125,12.450000000000001,0.0,0,0,0,kReverse,kOff,-86.94,2.13,2.66,0.22601318,-0.9515381,0.4854126,34.68,0.0,291.0,-8.125214,11.726242,
120.49778099999999,true,true,true,0.125,12.450000000000001,0.0,0,0,0,0.125,12.35,0.0,0,0,0,0.125,12.4,0.0,0,0,0,0.125,12.450000000000001,0.0,0,0,0,0.125,12.450000000000001,0.0,4,0,0,5.75,12.35,0.0,0,0,0,0.125,12.6,0.0,0,0,0,kReverse,kOff,-87.25,2.09,2.53,0.060668945,-1.052185,-0.19110107,34.66,0.0,-32.0,-8.123886,11.727051,
120.526699,true,true,true,0.125,12.450000000000001,0.0,0,0,0,0.125,12.35,0.0,0,0,0,0.125,12.4,0.0,0,0,0,0.125,12.450000000000001,0.0,0,0,0,0.125,12.450000000000001,0.0,4,0,0,2.0,12.55,0.0,0,0,0,0.125,12.6,0.0,0,0,0,kReverse,kOff,-87.05,2.19,2.69,-0.06854248,-0.8604126,0.12121582,34.66,0.0,-75.0,-8.122452,11.7270355,
120.548809,true,true,true,0.125,12.450000000000001,0.0,0,0,0,0.125,12.35,0.0,0,0,0,0.125,12.4,0.0,0,0,0,0.125,12.450000000000001,0.0,0,0,0,0.125,12.450000000000001,0.0,4,0,0,0.375,12.55,0.0,0,0,0,0.125,12.6,0.0,0,0,0,kReverse,kOff,-87.13,2.11,2.59,-0.24621582,-1.2275391,0.08856201,34.66,0.0,-271.0,-8.121948,11.727173,
120.57692000000002,true,true,true,0.125,12.450000000000001,0.0,0,0,0,0.125,12.35,0.0,0,0,0,0.125,12.4,0.0,0,0,0,0.125,12.450000000000001,0.0,0,0,0,0.125,12.450000000000001,0.0,4,0,0,0.25,12.55,0.0,0,0,0,0.125,12.6,0.0,0,0,0,kReverse,kOff,-87.3,1.97,2.42,0.1350708,-1.1329346,-0.246521,34.66,0.0,26.0,-8.121719,11.727325,
120.601799,true,true,true,0.125,12.450000000000001,0.0,0,0,0,0.125,12.35,0.0,0,0,0,0.125,12.4,0.0,0,0,0,0.125,12.450000000000001,0.0,0,0,0,0.125,12.450000000000001,0.0,4,0,0,0.25,12.55,0.0,0,0,0,0.125,12.6,0.0,0,0,0,kReverse,kOff,-87.05,2.15,2.65,0.06738281,-0.9250488,0.27600098,34.66,0.0,89.0,-8.121246,11.727264,
120.63043900000001,true,true,true,0.125,12.450000000000001,0.0,0,0,0,0.125,12.35,0.0,0,0,0,0.125,12.4,0.0,0,0,0,0.125,12.450000000000001,0.0,0,0,0,0.125,12.450000000000001,0.0,4,0,0,0.25,12.55,0.0,0,0,0,0.125,12.6,0.0,0,0,0,kReverse,kOff,-87.17,2.08,2.55,0.05645752,-1.0205078,0.030456543,34.66,0.0,17.0,-8.120834,11.727478,
120.66125399999999,true,true,true,0.125,12.6,0.0,0,0,0,0.125,12.6,0.0,0,0,0,0.125,12.6,0.0,0,0,0,0.125,12.6,0.0,0,0,0,0.125,12.6,0.0,4,0,0,0.25,12.55,0.0,0,0,0,0.125,12.65,0.0,0,0,0,kReverse,kOff,-87.15,2.1,2.58,0.09588623,-0.9708252,0.15002441,34.66,0.0,86.0,-8.120621,11.727585,
120.68537899999998,true,true,true,0.125,12.6,0.0,0,0,0,0.125,12.6,0.0,0,0,0,0.125,12.6,0.0,0,0,0,0.125,12.6,0.0,0,0,0,0.125,12.6,0.0,4,0,0,0.25,12.6,0.0,0,0,0,0.125,12.65,0.0,0,0,0,kReverse,kOff,-87.15,2.13,2.6,-0.028686523,-1.0439453,-0.06604004,34.66,0.0,-89.0,-8.120148,11.727737,
120.70694099999999,true,true,true,0.125,12.6,0.0,0,0,0,0.125,12.6,0.0,0,0,0,0.125,12.6,0.0,0,0,0,0.125,12.6,0.0,0,0,0,0.125,12.6,0.0,4,0,0,0.25,12.6,0.0,0,0,0,0.125,12.65,0.0,0,0,0,kReverse,kOff,-87.07,2.17,2.65,0.047424316,-0.94329834,0.011657715,34.66,0.0,6.0,-8.119751,11.727798,
120.72881400000001,true,true,true,0.125,12.6,0.0,0,0,0,0.125,12.6,0.0,0,0,0,0.125,12.6,0.0,0,0,0,0.125,12.6,0.0,0,0,0,0.125,12.6,0.0,4,0,0,0.25,12.6,0.0,0,0,0,0.125,12.65,0.0,0,0,0,kReverse,kOff,-87.12,2.17,2.63,0.06060791,-0.99243164,0.087524414,34.66,0.0,35.0,-8.119507,11.7278595,
120.750611,true,true,true,0.125,12.6,0.0,0,0,0,0.125,12.6,0.0,0,0,0,0.125,12.6,0.0,0,0,0,0.125,12.6,0.0,0,0,0,0.125,12.6,0.0,4,0,0,0.25,12.6,0.0,0,0,0,0.125,12.65,0.0,0,0,0,kReverse,kOff,-87.13,2.14,2.61,0.028564453,-0.94714355,0.006958008,34.66,0.0,-12.0,-8.119003,11.728012,
120.781365,true,true,true,0.125,12.6,0.0,0,0,0,0.125,12.6,0.0,0,0,0,0.125,12.6,0.0,0,0,0,0.125,12.6,0.0,0,0,0,0.125,12.6,0.0,4,0,0,0.25,12.6,0.0,0,0,0,0.125,12.65,0.0,0,0,0,kReverse,kOff,-87.12,2.14,2.61,0.028747559,-0.98339844,0.091918945,34.66,0.0,6.0,-8.119003,11.728195,
120.808902,true,true,true,0.125,12.6,0.0,0,0,0,0.125,12.6,0.0,0,0,0,0.125,12.6,0.0,0,0,0,0.125,12.65,0.0,0,0,0,0.125,12.6,0.0,4,0,0,0.25,12.6,0.0,0,0,0,0.125,12.65,0.0,0,0,0,kReverse,kOff,-87.16,2.09,2.56,0.036376953,-0.9673462,0.07635498,34.66,0.0,11.0,-8.119064,11.728302,
120.834851,true,true,true,0.125,12.6,0.0,0,0,0,0.125,12.6,0.0,0,0,0,0.125,12.6,0.0,0,0,0,0.125,12.65,0.0,0,0,0,0.125,12.6,0.0,4,0,0,0.25,12.6,0.0,0,0,0,0.125,12.700000000000001,0.0,0,0,0,kReverse,kOff,-87.14,2.1,2.58,0.047912598,-0.9935303,0.05834961,34.66,0.0,16.0,-8.119202,11.728546,
120.860888,true,true,true,0.125,12.6,0.0,0,0,0,0.125,12.6,0.0,0,0,0,0.125,12.6,0.0,0,0,0,0.125,12.65,0.0,0,0,0,0.0,12.6,0.0,4,0,0,0.25,12.6,0.0,0,0,0,0.125,12.700000000000001,0.0,0,0,0,kReverse,kOff,-87.13,2.11,2.59,0.0063476562,-0.975647,0.036071777,34.66,0.0,-28.0,-8.119278,11.728683,
120.881027,true,true,true,0.125,12.6,0.0,0,0,0,0.125,12.6,0.0,0,0,0,0.125,12.6,0.0,0,0,0,0.125,12.65,0.0,0,0,0,0.0,12.6,0.0,4,0,0,0.25,12.6,0.0,0,0,0,0.125,12.700000000000001,0.0,0,0,0,kReverse,kOff,-87.13,2.13,2.6,0.060913086,-0.993042,0.049560547,34.66,0.0,27.0,-8.119431,11.728928,
120.91288399999999,true,true,true,0.125,12.6,0.0,0,0,0,0.125,12.6,0.0,0,0,0,0.125,12.6,0.0,0,0,0,0.125,12.65,0.0,0,0,0,0.125,12.6,0.0,4,0,0,0.0,12.6,0.0,0,0,0,0.125,12.700000000000001,0.0,0,0,0,kReverse,kOff,-87.11,2.15,2.63,0.04046631,-0.9849243,0.045532227,34.66,0.0,6.0,-8.119492,11.729202,
120.94442300000001,true,true,true,0.125,12.6,0.0,0,0,0,0.125,12.6,0.0,0,0,0,0.125,12.6,0.0,0,0,0,0.125,12.65,0.0,0,0,0,0.125,12.6,0.0,4,0,0,0.0,12.6,0.0,0,0,0,0.125,12.700000000000001,0.0,0,0,0,kReverse,kOff,-87.12,2.14,2.62,0.023620605,-0.97052,0.04095459,34.66,0.0,-10.0,-8.119492,11.729294,
120.96737899999998,true,true,true,0.125,12.6,0.0,0,0,0,0.125,12.65,0.0,0,0,0,0.125,12.6,0.0,0,0,0,0.125,12.65,0.0,0,0,0,0.125,12.6,0.0,4,0,0,0.0,12.6,0.0,0,0,0,0.125,12.700000000000001,0.0,0,0,0,kReverse,kOff,-87.12,2.13,2.61,0.029418945,-0.99176025,0.028381348,34.66,0.0,-8.0,-8.119492,11.729294,
120.99015599999998,true,true,true,0.125,12.65,0.0,0,0,0,0.125,12.65,0.0,0,0,0,0.125,12.6,0.0,0,0,0,0.125,12.65,0.0,0,0,0,0.0,12.6,0.0,4,0,0,0.25,12.6,0.0,0,0,0,0.125,12.700000000000001,0.0,0,0,0,kReverse,kOff,-87.13,2.12,2.6,0.02331543,-0.9803467,0.057495117,34.66,0.0,-6.0,-8.119492,11.729309,
121.015992,true,true,true,0.125,12.65,0.0,0,0,0,0.125,12.65,0.0,0,0,0,0.125,12.6,0.0,0,0,0,0.125,12.65,0.0,0,0,0,0.0,12.6,0.0,4,0,0,0.25,12.6,0.0,0,0,0,0.125,12.700000000000001,0.0,0,0,0,kReverse,kOff,-87.14,2.11,2.59,0.039001465,-0.9868164,0.03363037,34.66,0.0,2.0,-8.119492,11.729324,
121.03961799999999,true,true,true,0.125,12.65,0.0,0,0,0,0.125,12.65,0.0,0,0,0,0.125,12.6,0.0,0,0,0,0.125,12.65,0.0,0,0,0,0.0,12.6,0.0,4,0,0,0.25,12.6,0.0,0,0,0,0.125,12.700000000000001,0.0,0,0,0,kReverse,kOff,-87.14,2.11,2.58,0.04296875,-0.9834595,0.04699707,34.66,0.0,9.0,-8.119492,11.72937,
121.064049,true,true,true,0.125,12.65,0.0,0,0,0,0.125,12.65,0.0,0,0,0,0.125,12.6,0.0,0,0,0,0.125,12.65,0.0,0,0,0,0.125,12.6,0.0,4,0,0,0.25,12.6,0.0,0,0,0,0.125,12.700000000000001,0.0,0,0,0,kReverse,kOff,-87.12,2.13,2.6,0.04156494,-0.9868164,0.018371582,34.66,0.0,1.0,-8.119492,11.72937,
121.08993799999999,true,true,true,0.125,12.65,0.0,0,0,0,0.125,12.65,0.0,0,0,0,0.125,12.6,0.0,0,0,0,0.125,12.65,0.0,0,0,0,0.125,12.6,0.0,4,0,0,0.25,12.6,0.0,0,0,0,0.125,12.700000000000001,0.0,0,0,0,kReverse,kOff,-87.12,2.14,2.61,0.05316162,-0.9776001,0.029846191,34.66,0.0,15.0,-8.119492,11.72937,
121.11575099999999,true,true,true,0.125,12.65,0.0,0,0,0,0.125,12.65,0.0,0,0,0,0.125,12.6,0.0,0,0,0,0.125,12.65,0.0,0,0,0,0.125,12.6,0.0,4,0,0,0.25,12.6,0.0,0,0,0,0.125,12.700000000000001,0.0,0,0,0,kReverse,kOff,-87.12,2.15,2.62,0.046325684,-0.9869385,0.039794922,34.66,0.0,10.0,-8.119492,11.72937,
121.14282199999998,true,true,true,0.125,12.65,0.0,0,0,0,0.125,12.65,0.0,0,0,0,0.125,12.6,0.0,0,0,0,0.125,12.65,0.0,0,0,0,0.125,12.6,0.0,4,0,0,0.0,12.6,0.0,0,0,0,0.125,12.700000000000001,0.0,0,0,0,kReverse,kOff,-87.11,2.15,2.62,0.03692627,-0.98394775,0.044677734,34.66,0.0,2.0,-8.119492,11.72937,
121.16693,true,true,true,0.125,12.65,0.0,0,0,0,0.125,12.65,0.0,0,0,0,0.125,12.6,0.0,0,0,0,0.125,12.65,0.0,0,0,0,0.125,12.6,0.0,4,0,0,0.0,12.6,0.0,0,0,0,0.125,12.700000000000001,0.0,0,0,0,kReverse,kOff,-87.11,2.14,2.62,0.038024902,-0.984375,0.028930664,34.66,0.0,0.0,-8.119492,11.72937,
121.186785,true,true,true,0.125,12.65,0.0,0,0,0,0.125,12.65,0.0,0,0,0,0.125,12.6,0.0,0,0,0,0.125,12.65,0.0,0,0,0,0.125,12.6,0.0,4,0,0,0.0,12.6,0.0,0,0,0,0.125,12.700000000000001,0.0,0,0,0,kReverse,kOff,-87.12,2.13,2.6,0.022888184,-0.9898071,0.024230957,34.66,0.0,-15.0,-8.119492,11.72937,
121.207454,true,true,true,0.125,12.65,0.0,0,0,0,0.125,12.65,0.0,0,0,0,0.125,12.6,0.0,0,0,0,0.125,12.65,0.0,0,0,0,0.125,12.6,0.0,4,0,0,0.0,12.6,0.0,0,0,0,0.125,12.700000000000001,0.0,0,0,0,kReverse,kOff,-87.13,2.12,2.59,0.034851074,-0.9882202,0.034057617,34.66,0.0,-1.0,-8.119492,11.72937,
121.229701,true,true,true,0.125,12.65,0.0,0,0,0,0.125,12.65,0.0,0,0,0,0.125,12.6,0.0,0,0,0,0.125,12.65,0.0,0,0,0,0.125,12.6,0.0,4,0,0,0.0,12.6,0.0,0,0,0,0.125,12.700000000000001,0.0,0,0,0,kReverse,kOff,-87.13,2.12,2.59,0.036254883,-0.98272705,0.039245605,34.66,0.0,1.0,-8.119492,11.72937,
121.255759,true,true,true,0.125,12.65,0.0,0,0,0,0.125,12.65,0.0,0,0,0,0.125,12.6,0.0,0,0,0,0.125,12.65,0.0,0,0,0,0.125,12.6,0.0,4,0,0,0.25,12.6,0.0,0,0,0,0.125,12.700000000000001,0.0,0,0,0,kReverse,kOff,-87.13,2.12,2.6,0.038146973,-0.9818115,0.029541016,34.66,0.0,0.0,-8.119492,11.72937,
121.27764199999999,true,true,true,0.125,12.65,0.0,0,0,0,0.125,12.65,0.0,0,0,0,0.125,12.6,0.0,0,0,0,0.125,12.65,0.0,0,0,0,0.125,12.6,0.0,4,0,0,0.25,12.6,0.0,0,0,0,0.125,12.700000000000001,0.0,0,0,0,kReverse,kOff,-87.12,2.14,2.61,0.04510498,-0.9814453,0.023925781,34.66,0.0,5.0,-8.119492,11.72937,
121.30356700000002,true,true,true,0.125,12.65,0.0,0,0,0,0.125,12.65,0.0,0,0,0,0.125,12.6,0.0,0,0,0,0.125,12.65,0.0,0,0,0,0.125,12.65,0.0,4,0,0,0.25,12.6,0.0,0,0,0,0.125,12.700000000000001,0.0,0,0,0,kReverse,kOff,-87.11,2.15,2.63,0.04284668,-0.9814453,0.04071045,34.66,0.0,7.0,-8.119492,11.72937,
121.328168,true,true,true,0.125,12.65,0.0,0,0,0,0.125,12.65,0.0,0,0,0,0.125,12.6,0.0,0,0,0,0.125,12.65,0.0,0,0,0,0.125,12.65,0.0,4,0,0,0.25,12.6,0.0,0,0,0,0.125,12.700000000000001,0.0,0,0,0,kReverse,kOff,-87.11,2.15,2.63,0.04260254,-0.98132324,0.034118652,34.66,0.0,5.0,-8.119492,11.72937,
121.350182,true,true,true,0.125,12.65,0.0,0,0,0,0.125,12.65,0.0,0,0,0,0.125,12.6,0.0,0,0,0,0.125,12.65,0.0,0,0,0,0.125,12.65,0.0,4,0,0,0.25,12.6,0.0,0,0,0,0.125,12.700000000000001,0.0,0,0,0,kReverse,kOff,-87.11,2.14,2.62,0.029296875,-0.98864746,0.028015137,34.66,0.0,-8.0,-8.119492,11.72937,
121.37681500000001,true,true,true,0.125,12.65,0.0,0,0,0,0.125,12.65,0.0,0,0,0,0.125,12.6,0.0,0,0,0,0.125,12.65,0.0,0,0,0,0.125,12.65,0.0,4,0,0,0.25,12.6,0.0,0,0,0,0.125,12.700000000000001,0.0,0,0,0,kReverse,kOff,-87.12,2.13,2.61,0.03717041,-0.9831543,0.030029297,34.66,0.0,0.0,-8.119492,11.72937,
121.401451,true,true,true,0.125,12.65,0.0,0,0,0,0.125,12.65,0.0,0,0,0,0.125,12.6,0.0,0,0,0,0.125,12.65,0.0,0,0,0,0.125,12.65,0.0,4,0,0,0.25,12.6,0.0,0,0,0,0.125,12.700000000000001,0.0,0,0,0,kReverse,kOff,-87.13,2.12,2.6,0.029052734,-0.98602295,0.040649414,34.66,0.0,-5.0,-8.119492,11.72937,
121.427486,true,true,true,0.125,12.65,0.0,0,0,0,0.125,12.65,0.0,0,0,0,0.125,12.6,0.0,0,0,0,0.125,12.65,0.0,0,0,0,0.125,12.65,0.0,4,0,0,0.25,12.6,0.0,0,0,0,0.125,12.700000000000001,0.0,0,0,0,kReverse,kOff,-87.12,2.12,2.6,0.029785156,-0.9857788,0.030822754,34.66,0.0,-7.0,-8.119492,11.72937,
121.449568,true,true,true,0.125,12.65,0.0,0,0,0,0.125,12.65,0.0,0,0,0,0.125,12.6,0.0,0,0,0,0.125,12.65,0.0,0,0,0,0.125,12.65,0.0,4,0,0,0.25,12.6,0.0,0,0,0,0.125,12.700000000000001,0.0,0,0,0,kReverse,kOff,-87.12,2.13,2.6,0.039855957,-0.9859619,0.02758789,34.66,0.0,1.0,-8.119492,11.72937,
121.46339799999998,true,true,true,0.125,12.65,0.0,0,0,0,0.125,12.65,0.0,0,0,0,0.125,12.6,0.0,0,0,0,0.125,12.65,0.0,0,0,0,0.0,12.65,0.0,4,0,0,0.25,12.6,0.0,0,0,0,0.125,12.700000000000001,0.0,0,0,0,kReverse,kOff,-87.12,2.13,2.61,0.042541504,-0.98046875,0.03375244,34.66,0.0,5.0,-8.119492,11.72937,
121.477049,true,true,true,0.125,12.65,0.0,0,0,0,0.125,12.65,0.0,0,0,0,0.125,12.6,0.0,0,0,0,0.125,12.65,0.0,0,0,0,0.0,12.65,0.0,4,0,0,0.25,12.6,0.0,0,0,0,0.125,12.700000000000001,0.0,0,0,0,kReverse,kOff,-87.11,2.14,2.62,0.04449463,-0.9828491,0.036071777,34.66,0.0,8.0,-8.119492,11.72937,
121.49038,true,true,true,0.125,12.65,0.0,0,0,0,0.125,12.65,0.0,0,0,0,0.125,12.6,0.0,0,0,0,0.125,12.65,0.0,0,0,0,0.0,12.65,0.0,4,0,0,0.25,12.6,0.0,0,0,0,0.125,12.700000000000001,0.0,0,0,0,kReverse,kOff,-87.11,2.15,2.62,0.047790527,-0.9777832,0.031188965,34.66,0.0,10.0,-8.119492,11.72937,
121.50528400000002,true,true,true,0.125,12.65,0.0,0,0,0,0.125,12.65,0.0,0,0,0,0.125,12.6,0.0,0,0,0,0.125,12.65,0.0,0,0,0,0.0,12.65,0.0,4,0,0,0.25,12.6,0.0,0,0,0,0.125,12.700000000000001,0.0,0,0,0,kReverse,kOff,-87.1,2.15,2.63,0.046020508,-0.98339844,0.040527344,34.66,0.0,10.0,-8.119492,11.72937,
121.52790599999999,true,true,true,0.125,12.65,0.0,0,0,0,0.125,12.65,0.0,0,0,0,0.125,12.6,0.0,0,0,0,0.125,12.65,0.0,0,0,0,0.0,12.65,0.0,4,0,0,0.25,12.6,0.0,0,0,0,0.125,12.700000000000001,0.0,0,0,0,kReverse,kOff,-87.1,2.14,2.62,0.040771484,-0.9836426,0.025390625,34.68,0.0,1.0,-8.119492,11.72937,
121.55999100000001,true,true,true,0.125,12.65,0.0,0,0,0,0.125,12.65,0.0,0,0,0,0.125,12.6,0.0,0,0,0,0.125,12.65,0.0,0,0,0,0.125,12.65,0.0,4,0,0,0.0,12.6,0.0,0,0,0,0.125,12.700000000000001,0.0,0,0,0,kReverse,kOff,-87.11,2.14,2.61,0.032287598,-0.9850464,0.030212402,34.68,0.0,-5.0,-8.119492,11.72937,
121.583506,true,true,true,0.125,12.65,0.0,0,0,0,0.125,12.65,0.0,0,0,0,0.125,12.6,0.0,0,0,0,0.125,12.65,0.0,0,0,0,0.125,12.65,0.0,4,0,0,0.0,12.6,0.0,0,0,0,0.125,12.700000000000001,0.0,0,0,0,kReverse,kOff,-87.11,2.14,2.61,0.032287598,-0.9850464,0.030212402,34.68,0.0,-5.0,-8.119492,11.72937,
121.605529,true,true,true,0.125,12.65,0.0,0,0,0,0.125,12.65,0.0,0,0,0,0.125,12.6,0.0,0,0,0,0.125,12.65,0.0,0,0,0,0.125,12.65,0.0,4,0,0,0.0,12.6,0.0,0,0,0,0.125,12.700000000000001,0.0,0,0,0,kReverse,kOff,-87.12,2.12,2.6,0.034301758,-0.9837036,0.03704834,34.68,0.0,-1.0,-8.119492,11.72937,
121.626617,true,true,true,0.125,12.65,0.0,0,0,0,0.125,12.65,0.0,0,0,0,0.125,12.65,0.0,0,0,0,0.125,12.65,0.0,0,0,0,0.125,12.65,0.0,4,0,0,0.25,12.6,0.0,0,0,0,0.125,12.700000000000001,0.0,0,0,0,kReverse,kOff,-87.12,2.12,2.6,0.034301758,-0.9837036,0.03704834,34.68,0.0,-1.0,-8.119492,11.72937,
121.65678299999999,true,true,true,0.125,12.65,0.0,0,0,0,0.125,12.65,0.0,0,0,0,0.125,12.65,0.0,0,0,0,0.125,12.65,0.0,0,0,0,0.125,12.65,0.0,4,0,0,0.25,12.6,0.0,0,0,0,0.125,12.700000000000001,0.0,0,0,0,kReverse,kOff,-87.11,2.13,2.61,0.039245605,-0.98565674,0.037597656,34.68,0.0,3.0,-8.119492,11.72937,
121.680617,true,true,true,0.125,12.65,0.0,0,0,0,0.125,12.65,0.0,0,0,0,0.125,12.65,0.0,0,0,0,0.125,12.65,0.0,0,0,0,0.125,12.65,0.0,4,0,0,0.25,12.6,0.0,0,0,0,0.125,12.700000000000001,0.0,0,0,0,kReverse,kOff,-87.1,2.14,2.62,0.046081543,-0.98431396,0.03527832,34.68,0.0,9.0,-8.119492,11.72937,
121.704726,true,true,true,0.125,12.65,0.0,0,0,0,0.125,12.65,0.0,0,0,0,0.125,12.65,0.0,0,0,0,0.125,12.65,0.0,0,0,0,0.125,12.65,0.0,4,0,0,0.0,12.6,0.0,0,0,0,0.125,12.700000000000001,0.0,0,0,0,kReverse,kOff,-87.1,2.15,2.63,0.04284668,-0.9814453,0.02758789,34.68,0.0,4.0,-8.119492,11.72937,
121.726448,true,true,true,0.125,12.65,0.0,0,0,0,0.125,12.65,0.0,0,0,0,0.125,12.65,0.0,0,0,0,0.125,12.65,0.0,0,0,0,0.125,12.65,0.0,4,0,0,0.0,12.6,0.0,0,0,0,0.125,12.700000000000001,0.0,0,0,0,kReverse,kOff,-87.1,2.15,2.63,0.039978027,-0.9837036,0.0368042,34.68,0.0,3.0,-8.119492,11.72937,
121.75196100000001,true,true,true,0.125,12.65,0.0,0,0,0,0.125,12.65,0.0,0,0,0,0.125,12.65,0.0,0,0,0,0.125,12.65,0.0,0,0,0,0.125,12.65,0.0,4,0,0,0.25,12.6,0.0,0,0,0,0.125,12.700000000000001,0.0,0,0,0,kReverse,kOff,-87.1,2.14,2.62,0.034973145,-0.9819336,0.039367676,34.68,0.0,0.0,-8.119492,11.72937,
121.776139,true,true,true,0.125,12.65,0.0,0,0,0,0.125,12.65,0.0,0,0,0,0.125,12.6,0.0,0,0,0,0.125,12.65,0.0,0,0,0,0.125,12.65,0.0,4,0,0,0.25,12.6,0.0,0,0,0,0.125,12.700000000000001,0.0,0,0,0,kReverse,kOff,-87.11,2.13,2.61,0.033203125,-0.9847412,0.035827637,34.68,0.0,-2.0,-8.119492,11.72937,
121.796848,true,true,true,0.125,12.65,0.0,0,0,0,0.125,12.65,0.0,0,0,0,0.125,12.6,0.0,0,0,0,0.125,12.65,0.0,0,0,0,0.125,12.65,0.0,4,0,0,0.25,12.6,0.0,0,0,0,0.125,12.700000000000001,0.0,0,0,0,kReverse,kOff,-87.11,2.13,2.61,0.03112793,-0.9829712,0.033447266,34.68,0.0,-5.0,-8.119492,11.72937,
121.83057600000001,true,true,true,0.125,12.65,0.0,0,0,0,0.125,12.65,0.0,0,0,0,0.125,12.6,0.0,0,0,0,0.125,12.65,0.0,0,0,0,0.125,12.65,0.0,4,0,0,0.25,12.6,0.0,0,0,0,0.125,12.700000000000001,0.0,0,0,0,kReverse,kOff,-87.11,2.13,2.61,0.039733887,-0.9846802,0.035095215,34.68,0.0,3.0,-8.119492,11.72937,
121.859066,true,true,true,0.125,12.65,0.0,0,0,0,0.125,12.65,0.0,0,0,0,0.125,12.6,0.0,0,0,0,0.125,12.65,0.0,0,0,0,0.125,12.65,0.0,4,0,0,0.25,12.6,0.0,0,0,0,0.125,12.700000000000001,0.0,0,0,0,kReverse,kOff,-87.1,2.14,2.62,0.040527344,-0.9819336,0.030639648,34.68,0.0,3.0,-8.119492,11.72937,
121.885932,true,true,true,0.125,12.65,0.0,0,0,0,0.125,12.65,0.0,0,0,0,0.125,12.6,0.0,0,0,0,0.125,12.65,0.0,0,0,0,0.125,12.65,0.0,4,0,0,0.25,12.6,0.0,0,0,0,0.125,12.700000000000001,0.0,0,0,0,kReverse,kOff,-87.1,2.15,2.63,0.04168701,-0.97875977,0.03125,34.68,0.0,4.0,-8.119492,11.72937,
121.908782,true,true,true,0.125,12.65,0.0,0,0,0,0.125,12.65,0.0,0,0,0,0.125,12.6,0.0,0,0,0,0.125,12.65,0.0,0,0,0,0.125,12.65,0.0,4,0,0,0.25,12.6,0.0,0,0,0,0.125,12.700000000000001,0.0,0,0,0,kReverse,kOff,-87.1,2.15,2.63,0.03515625,-0.9830322,0.036987305,34.68,0.0,0.0,-8.119492,11.72937,
121.934832,true,true,true,0.125,12.65,0.0,0,0,0,0.125,12.65,0.0,0,0,0,0.125,12.6,0.0,0,0,0,0.125,12.65,0.0,0,0,0,0.125,12.65,0.0,4,0,0,0.25,12.6,0.0,0,0,0,0.125,12.700000000000001,0.0,0,0,0,kReverse,kOff,-87.1,2.14,2.62,0.034240723,-0.9841919,0.035705566,34.68,0.0,-2.0,-8.119492,11.72937,
121.96094599999999,true,true,true,0.125,12.65,0.0,0,0,0,0.125,12.65,0.0,0,0,0,0.125,12.6,0.0,0,0,0,0.125,12.65,0.0,0,0,0,0.125,12.65,0.0,4,0,0,0.25,12.6,0.0,0,0,0,0.125,12.700000000000001,0.0,0,0,0,kReverse,kOff,-87.1,2.14,2.62,0.033447266,-0.9859009,0.031188965,34.68,0.0,-3.0,-8.119492,11.72937,
121.98581700000001,true,true,true,0.125,12.65,0.0,0,0,0,0.125,12.65,0.0,0,0,0,0.125,12.6,0.0,0,0,0,0.125,12.65,0.0,0,0,0,0.0,12.65,0.0,4,0,0,0.25,12.6,0.0,0,0,0,0.125,12.700000000000001,0.0,0,0,0,kReverse,kOff,-87.11,2.13,2.61,0.031921387,-0.9852905,0.03479004,34.68,0.0,-4.0,-8.119492,11.72937,
122.00887599999999,true,true,true,0.125,12.65,0.0,0,0,0,0.125,12.65,0.0,0,0,0,0.125,12.6,0.0,0,0,0,0.125,12.65,0.0,0,0,0,0.0,12.65,0.0,4,0,0,0.25,12.6,0.0,0,0,0,0.125,12.700000000000001,0.0,0,0,0,kReverse,kOff,-87.11,2.13,2.61,0.034179688,-0.98706055,0.034729004,34.68,0.0,-2.0,-8.119492,11.72937,
122.03236600000001,true,true,true,0.125,12.65,0.0,0,0,0,0.125,12.65,0.0,0,0,0,0.125,12.6,0.0,0,0,0,0.125,12.65,0.0,0,0,0,0.125,12.65,0.0,4,0,0,0.25,12.6,0.0,0,0,0,0.125,12.700000000000001,0.0,0,0,0,kReverse,kOff,-87.1,2.14,2.62,0.038269043,-0.98187256,0.031982422,34.71,0.0,1.0,-8.119492,11.72937,
122.059992,true,true,true,0.125,12.65,0.0,0,0,0,0.125,12.65,0.0,0,0,0,0.125,12.6,0.0,0,0,0,0.125,12.65,0.0,0,0,0,0.125,12.65,0.0,4,0,0,0.25,12.6,0.0,0,0,0,0.125,12.700000000000001,0.0,0,0,0,kReverse,kOff,-87.1,2.14,2.62,0.0423584,-0.98046875,0.02734375,34.71,0.0,4.0,-8.119492,11.72937,
122.086136,true,true,true,0.125,12.65,0.0,0,0,0,0.125,12.65,0.0,0,0,0,0.125,12.6,0.0,0,0,0,0.125,12.65,0.0,0,0,0,0.125,12.65,0.0,4,0,0,0.25,12.6,0.0,0,0,0,0.125,12.700000000000001,0.0,0,0,0,kReverse,kOff,-87.09,2.15,2.63,0.03869629,-0.97979736,0.033996582,34.71,0.0,1.0,-8.119492,11.72937,
122.109747,true,true,true,0.125,12.65,0.0,0,0,0,0.125,12.65,0.0,0,0,0,0.125,12.65,0.0,0,0,0,0.125,12.65,0.0,0,0,0,0.125,12.65,0.0,4,0,0,0.25,12.6,0.0,0,0,0,0.125,12.700000000000001,0.0,0,0,0,kReverse,kOff,-87.09,2.15,2.63,0.034301758,-0.98114014,0.034057617,34.71,0.0,-2.0,-8.119492,11.72937,
