timer,lineLeft,lineCenter,lineRight,LeftFrontCurrent,LeftFrontVoltage,LeftFrontValue,LeftFrontPosition,LeftFrontVelocity,LeftFrontFaults,LeftRearCurrent,LeftRearVoltage,LeftRearValue,LeftRearPosition,LeftRearVelocity,LeftRearFaults,RightFrontCurrent,RightFrontVoltage,RightFrontValue,RightFrontPosition,RightFrontVelocity,RightFrontFaults,RightRearCurrent,RightRearVoltage,RightRearValue,RightRearPosition,RightRearVelocity,RightRearFaults,LiftCurrent,LiftVoltage,LiftValue,LiftPosition,LiftVelocity,LiftFaults,WristCurrent,WristVoltage,WristValue,WristPosition,WristVelocity,WristFaults,RollerCurrent,RollerVoltage,RollerValue,RollerPosition,RollerVelocity,RollerFaults,PushersState,PivotsState,navx_Pitch,navx_Roll,navx_Yaw,navx_XAcc,navx_YAcc,navx_ZAcc,navx_Temp,navx_Bar,navx_Alt,navx_XDis,navx_YDis,
470.271445,true,true,true,0.125,12.700000000000001,0.0,0,0,0,0.125,12.700000000000001,0.0,0,0,0,0.125,12.65,0.0,0,0,0,0.125,12.700000000000001,0.0,0,0,0,0.0,12.700000000000001,0.0,0,0,0,0.0,12.700000000000001,0.0,0,0,0,0.0,12.75,0.0,0,0,0,kReverse,kOff,-86.88,2.24,2.24,0.037902832,-0.9804077,0.04309082,31.81,0.0,0.0,-7.8651123,11.638947,
470.303013,true,true,true,0.125,12.700000000000001,0.0,0,0,0,0.125,12.700000000000001,0.0,0,0,0,0.125,12.65,0.0,0,0,0,0.125,12.700000000000001,0.0,0,0,0,0.0,12.700000000000001,0.0,0,0,0,0.0,12.700000000000001,0.0,0,0,0,0.125,12.75,0.0,0,0,0,kReverse,kOff,-86.88,2.24,2.24,0.036621094,-0.98547363,0.034179688,31.81,0.0,-2.0,-7.8651123,11.638947,
470.33409,true,true,true,0.125,12.700000000000001,0.0,0,0,0,0.125,12.700000000000001,0.0,0,0,0,0.125,12.65,0.0,0,0,0,0.125,12.700000000000001,0.0,0,0,0,0.0,12.700000000000001,0.0,0,0,0,0.0,12.700000000000001,0.0,0,0,0,0.125,12.75,0.0,0,0,0,kReverse,kOff,-86.88,2.24,2.24,0.04034424,-0.9834595,0.03918457,31.81,0.0,1.0,-7.8651123,11.638947,
470.36093800000003,true,true,true,0.125,12.700000000000001,0.0,0,0,0,0.125,12.700000000000001,0.0,0,0,0,0.125,12.65,0.0,0,0,0,0.125,12.700000000000001,0.0,0,0,0,0.0,12.700000000000001,0.0,0,0,0,0.0,12.700000000000001,0.0,0,0,0,0.125,12.75,0.0,0,0,0,kReverse,kOff,-86.89,2.24,2.23,0.03967285,-0.98339844,0.037719727,31.81,0.0,1.0,-7.8651123,11.638947,
470.384087,true,true,true,0.125,12.700000000000001,0.0,0,0,0,0.125,12.700000000000001,0.0,0,0,0,0.125,12.65,0.0,0,0,0,0.125,12.700000000000001,0.0,0,0,0,0.0,12.700000000000001,0.0,0,0,0,0.0,12.700000000000001,0.0,0,0,0,0.125,12.75,0.0,0,0,0,kReverse,kOff,-86.89,2.23,2.23,0.03845215,-0.9862671,0.032226562,31.81,0.0,0.0,-7.8651123,11.638947,
470.40790100000004,true,true,true,0.125,12.700000000000001,0.0,0,0,0,0.125,12.700000000000001,0.0,0,0,0,0.125,12.65,0.0,0,0,0,0.125,12.700000000000001,0.0,0,0,0,0.0,12.700000000000001,0.0,0,0,0,0.0,12.700000000000001,0.0,0,0,0,0.125,12.75,0.0,0,0,0,kReverse,kOff,-86.89,2.23,2.23,0.037353516,-0.982605,0.034423828,31.81,0.0,-1.0,-7.8651123,11.638947,
470.432118,true,true,true,0.125,12.700000000000001,0.0,0,0,0,0.125,12.700000000000001,0.0,0,0,0,0.125,12.65,0.0,0,0,0,0.125,12.700000000000001,0.0,0,0,0,0.0,12.700000000000001,0.0,0,0,0,0.0,12.700000000000001,0.0,0,0,0,0.125,12.75,0.0,0,0,0,kReverse,kOff,-86.89,2.24,2.23,0.037353516,-0.9831543,0.03643799,31.81,0.0,-1.0,-7.8651123,11.638947,
470.455125,true,true,true,0.125,12.700000000000001,0.0,0,0,0,0.125,12.700000000000001,0.0,0,0,0,0.125,12.65,0.0,0,0,0,0.125,12.700000000000001,0.0,0,0,0,0.0,12.700000000000001,0.0,0,0,0,0.0,12.700000000000001,0.0,0,0,0,0.125,12.75,0.0,0,0,0,kReverse,kOff,-86.89,2.24,2.23,0.041809082,-0.9847412,0.034301758,31.81,0.0,3.0,-7.8651123,11.638947,
470.479153,true,true,true,0.125,12.700000000000001,0.0,0,0,0,0.125,12.700000000000001,0.0,0,0,0,0.125,12.65,0.0,0,0,0,0.125,12.700000000000001,0.0,0,0,0,0.0,12.700000000000001,0.0,0,0,0,0.0,12.700000000000001,0.0,0,0,0,0.0,12.75,0.0,0,0,0,kReverse,kOff,-86.89,2.23,2.23,0.041992188,-0.9818115,0.036193848,31.81,0.0,3.0,-7.8651123,11.638947,
470.500421,true,true,true,0.125,12.700000000000001,0.0,0,0,0,0.125,12.700000000000001,0.0,0,0,0,0.125,12.65,0.0,0,0,0,0.125,12.700000000000001,0.0,0,0,0,0.0,12.700000000000001,0.0,0,0,0,0.0,12.700000000000001,0.0,0,0,0,0.0,12.75,0.0,0,0,0,kReverse,kOff,-86.89,2.24,2.24,0.036621094,-0.98461914,0.0368042,31.81,0.0,-2.0,-7.8651123,11.638947,
470.52228400000007,true,true,true,0.125,12.700000000000001,0.0,0,0,0,0.125,12.700000000000001,0.0,0,0,0,0.125,12.65,0.0,0,0,0,0.125,12.700000000000001,0.0,0,0,0,0.0,12.700000000000001,0.0,0,0,0,0.0,12.700000000000001,0.0,0,0,0,0.125,12.75,0.0,0,0,0,kReverse,kOff,-86.89,2.24,2.24,0.035949707,-0.98339844,0.037841797,31.81,0.0,-2.0,-7.8651123,11.638947,
470.54371100000003,true,true,true,0.125,12.700000000000001,0.0,0,0,0,0.125,12.700000000000001,0.0,0,0,0,0.125,12.65,0.0,0,0,0,0.125,12.700000000000001,0.0,0,0,0,0.0,12.700000000000001,0.0,0,0,0,0.0,12.700000000000001,0.0,0,0,0,0.125,12.75,0.0,0,0,0,kReverse,kOff,-86.89,2.24,2.24,0.03869629,-0.98516846,0.036499023,31.83,0.0,0.0,-7.8651123,11.638947,
470.565418,true,true,true,0.125,12.700000000000001,0.0,0,0,0,0.125,12.700000000000001,0.0,0,0,0,0.125,12.65,0.0,0,0,0,0.125,12.700000000000001,0.0,0,0,0,0.0,12.700000000000001,0.0,0,0,0,0.0,12.700000000000001,0.0,0,0,0,0.125,12.75,0.0,0,0,0,kReverse,kOff,-86.89,2.24,2.24,0.037902832,-0.98254395,0.030822754,31.83,0.0,0.0,-7.8651123,11.638947,
470.58782,true,true,true,0.125,12.700000000000001,0.0,0,0,0,0.125,12.700000000000001,0.0,0,0,0,0.125,12.65,0.0,0,0,0,0.125,12.700000000000001,0.0,0,0,0,0.0,12.700000000000001,0.0,0,0,0,0.0,12.700000000000001,0.0,0,0,0,0.125,12.75,0.0,0,0,0,kReverse,kOff,-86.89,2.24,2.23,0.03942871,-0.98046875,0.035705566,31.83,0.0,1.0,-7.8651123,11.638947,
470.605776,true,true,true,0.125,12.700000000000001,0.0,0,0,0,0.125,12.700000000000001,0.0,0,0,0,0.125,12.65,0.0,0,0,0,0.125,12.700000000000001,0.0,0,0,0,0.0,12.700000000000001,0.0,0,0,0,0.0,12.700000000000001,0.0,0,0,0,0.125,12.75,0.0,0,0,0,kReverse,kOff,-86.89,2.24,2.23,0.03894043,-0.9816284,0.041625977,31.83,0.0,0.0,-7.8651123,11.638947,
470.632147,true,true,true,0.125,12.700000000000001,0.0,0,0,0,0.125,12.700000000000001,0.0,0,0,0,0.125,12.65,0.0,0,0,0,0.125,12.700000000000001,0.0,0,0,0,0.0,12.700000000000001,0.0,0,0,0,0.0,12.700000000000001,0.0,0,0,0,0.125,12.75,0.0,0,0,0,kReverse,kOff,-86.89,2.24,2.23,0.0357666,-0.98254395,0.03717041,31.83,0.0,-2.0,-7.8651123,11.638947,
470.652174,true,true,true,0.125,12.700000000000001,0.0,0,0,0,0.125,12.700000000000001,0.0,0,0,0,0.125,12.700000000000001,0.0,0,0,0,0.125,12.700000000000001,0.0,0,0,0,0.0,12.700000000000001,0.0,0,0,0,0.0,12.700000000000001,0.0,0,0,0,0.125,12.75,0.0,0,0,0,kReverse,kOff,-86.89,2.24,2.23,0.035888672,-0.98358154,0.03955078,31.83,0.0,-2.0,-7.8651123,11.638947,
470.676832,true,true,true,0.125,12.700000000000001,0.0,0,0,0,0.125,12.700000000000001,0.0,0,0,0,0.125,12.700000000000001,0.0,0,0,0,0.125,12.700000000000001,0.0,0,0,0,0.0,12.700000000000001,0.0,0,0,0,0.0,12.700000000000001,0.0,0,0,0,0.125,12.75,0.0,0,0,0,kReverse,kOff,-86.89,2.24,2.23,0.040649414,-0.98431396,0.042297363,31.83,0.0,2.0,-7.8651123,11.638947,
470.700171,true,true,true,0.125,12.700000000000001,0.0,0,0,0,0.125,12.700000000000001,0.0,0,0,0,0.125,12.700000000000001,0.0,0,0,0,0.125,12.700000000000001,0.0,0,0,0,0.0,12.700000000000001,0.0,0,0,0,0.0,12.700000000000001,0.0,0,0,0,0.125,12.75,0.0,0,0,0,kReverse,kOff,-86.89,2.24,2.23,0.03881836,-0.9842529,0.03552246,31.83,0.0,0.0,-7.8651123,11.638947,
470.720519,true,true,true,0.125,12.700000000000001,0.0,0,0,0,0.125,12.700000000000001,0.0,0,0,0,0.125,12.700000000000001,0.0,0,0,0,0.125,12.700000000000001,0.0,0,0,0,0.0,12.700000000000001,0.0,0,0,0,0.0,12.700000000000001,0.0,0,0,0,0.125,12.75,0.0,0,0,0,kReverse,kOff,-86.89,2.24,2.23,0.036621094,-0.9824219,0.036254883,31.83,0.0,-1.0,-7.8651123,11.638947,
470.74455700000004,true,true,true,0.125,12.700000000000001,0.0,0,0,0,0.125,12.700000000000001,0.0,0,0,0,0.125,12.700000000000001,0.0,0,0,0,0.125,12.700000000000001,0.0,0,0,0,0.0,12.700000000000001,0.0,0,0,0,0.0,12.700000000000001,0.0,0,0,0,0.125,12.75,0.0,0,0,0,kReverse,kOff,-86.89,2.24,2.23,0.041503906,-0.98565674,0.0345459,31.83,0.0,2.0,-7.8651123,11.638947,
470.764024,true,true,true,0.125,12.700000000000001,0.0,0,0,0,0.125,12.700000000000001,0.0,0,0,0,0.125,12.700000000000001,0.0,0,0,0,0.125,12.700000000000001,0.0,0,0,0,0.0,12.700000000000001,0.0,0,0,0,0.0,12.700000000000001,0.0,0,0,0,0.125,12.75,0.0,0,0,0,kReverse,kOff,-86.89,2.24,2.23,0.03869629,-0.9805298,0.038391113,31.83,0.0,0.0,-7.8651123,11.638947,
470.78465900000003,true,true,true,0.125,12.700000000000001,0.0,0,0,0,0.125,12.700000000000001,0.0,0,0,0,0.125,12.700000000000001,0.0,0,0,0,0.125,12.700000000000001,0.0,0,0,0,0.0,12.700000000000001,0.0,0,0,0,0.0,12.700000000000001,0.0,0,0,0,0.125,12.75,0.0,0,0,0,kReverse,kOff,-86.89,2.25,2.24,0.038513184,-0.98309326,0.03741455,31.83,0.0,0.0,-7.8651123,11.638947,
470.805384,true,true,true,0.125,12.700000000000001,0.0,0,0,0,0.125,12.700000000000001,0.0,0,0,0,0.125,12.65,0.0,0,0,0,0.125,12.75,0.0,0,0,0,0.0,12.700000000000001,0.0,0,0,0,0.0,12.700000000000001,0.0,0,0,0,0.125,12.75,0.0,0,0,0,kReverse,kOff,-86.89,2.24,2.24,0.037597656,-0.9836426,0.032409668,31.83,0.0,-1.0,-7.8651123,11.638947,
470.828775,true,true,true,0.125,12.700000000000001,0.0,0,0,0,0.125,12.700000000000001,0.0,0,0,0,0.125,12.65,0.0,0,0,0,0.125,12.75,0.0,0,0,0,0.0,12.700000000000001,0.0,0,0,0,0.0,12.700000000000001,0.0,0,0,0,0.125,12.75,0.0,0,0,0,kReverse,kOff,-86.89,2.24,2.24,0.039794922,-0.9859009,0.04309082,31.83,0.0,1.0,-7.8651123,11.638947,
470.84641899999997,true,true,true,0.125,12.700000000000001,0.0,0,0,0,0.125,12.700000000000001,0.0,0,0,0,0.125,12.65,0.0,0,0,0,0.125,12.75,0.0,0,0,0,0.0,12.700000000000001,0.0,0,0,0,0.0,12.700000000000001,0.0,0,0,0,0.125,12.75,0.0,0,0,0,kReverse,kOff,-86.89,2.24,2.24,0.040100098,-0.9818115,0.036621094,31.83,0.0,1.0,-7.8651123,11.638947,
470.867124,true,true,true,0.125,12.700000000000001,0.0,0,0,0,0.125,12.700000000000001,0.0,0,0,0,0.125,12.65,0.0,0,0,0,0.125,12.75,0.0,0,0,0,0.0,12.700000000000001,0.0,0,0,0,0.0,12.700000000000001,0.0,0,0,0,0.125,12.75,0.0,0,0,0,kReverse,kOff,-86.89,2.24,2.24,0.039733887,-0.98132324,0.03729248,31.83,0.0,1.0,-7.8651123,11.638947,
470.88707800000003,true,true,true,0.125,12.700000000000001,0.0,0,0,0,0.125,12.700000000000001,0.0,0,0,0,0.125,12.65,0.0,0,0,0,0.125,12.75,0.0,0,0,0,0.0,12.700000000000001,0.0,0,0,0,0.0,12.700000000000001,0.0,0,0,0,0.125,12.75,0.0,0,0,0,kReverse,kOff,-86.89,2.24,2.24,0.039733887,-0.98132324,0.03729248,31.83,0.0,1.0,-7.8651123,11.638947,
470.909717,true,true,true,0.125,12.700000000000001,0.0,0,0,0,0.125,12.700000000000001,0.0,0,0,0,0.125,12.65,0.0,0,0,0,0.125,12.75,0.0,0,0,0,0.0,12.700000000000001,0.0,0,0,0,0.0,12.700000000000001,0.0,0,0,0,0.125,12.75,0.0,0,0,0,kReverse,kOff,-86.89,2.24,2.24,0.038391113,-0.9840088,0.036132812,31.83,0.0,0.0,-7.8651123,11.638947,
470.93212200000005,true,true,true,0.125,12.700000000000001,0.0,0,0,0,0.125,12.700000000000001,0.0,0,0,0,0.125,12.65,0.0,0,0,0,0.125,12.75,0.0,0,0,0,0.0,12.700000000000001,0.0,0,0,0,0.0,12.700000000000001,0.0,0,0,0,0.125,12.75,0.0,0,0,0,kReverse,kOff,-86.89,2.25,2.24,0.03955078,-0.98431396,0.03918457,31.83,0.0,0.0,-7.8651123,11.638947,
470.95275,true,true,true,0.125,12.700000000000001,0.0,0,0,0,0.125,12.700000000000001,0.0,0,0,0,0.125,12.65,0.0,0,0,0,0.125,12.75,0.0,0,0,0,0.0,12.700000000000001,0.0,0,0,0,0.0,12.700000000000001,0.0,0,0,0,0.125,12.75,0.0,0,0,0,kReverse,kOff,-86.89,2.25,2.24,0.039611816,-0.98394775,0.036132812,31.83,0.0,0.0,-7.8651123,11.638947,
470.974794,true,true,true,0.125,12.700000000000001,0.0,0,0,0,0.125,12.700000000000001,0.0,0,0,0,0.125,12.65,0.0,0,0,0,0.125,12.75,0.0,0,0,0,0.0,12.700000000000001,0.0,0,0,0,0.0,12.700000000000001,0.0,0,0,0,0.0,12.75,0.0,0,0,0,kReverse,kOff,-86.88,2.25,2.25,0.038024902,-0.9827881,0.038635254,31.83,0.0,0.0,-7.8651123,11.638947,
471.00023500000003,true,true,true,0.125,12.700000000000001,0.0,0,0,0,0.125,12.700000000000001,0.0,0,0,0,0.125,12.65,0.0,0,0,0,0.125,12.75,0.0,0,0,0,0.0,12.700000000000001,0.0,0,0,0,0.0,12.700000000000001,0.0,0,0,0,0.0,12.75,0.0,0,0,0,kReverse,kOff,-86.88,2.25,2.25,0.04083252,-0.9802246,0.035095215,31.83,0.0,2.0,-7.8651123,11.638947,
471.023031,true,true,true,0.125,12.700000000000001,0.0,0,0,0,0.125,12.700000000000001,0.0,0,0,0,0.125,12.65,0.0,0,0,0,0.125,12.75,0.0,0,0,0,0.0,12.700000000000001,0.0,0,0,0,0.0,12.700000000000001,0.0,0,0,0,0.125,12.75,0.0,0,0,0,kReverse,kOff,-86.88,2.25,2.25,0.038208008,-0.9857178,0.039489746,31.83,0.0,0.0,-7.8651123,11.638947,
471.04396900000006,true,true,true,0.125,12.700000000000001,0.0,0,0,0,0.125,12.700000000000001,0.0,0,0,0,0.125,12.65,0.0,0,0,0,0.125,12.75,0.0,0,0,0,0.0,12.700000000000001,0.0,0,0,0,0.0,12.700000000000001,0.0,0,0,0,0.125,12.75,0.0,0,0,0,kReverse,kOff,-86.89,2.25,2.25,0.03955078,-0.98602295,0.03564453,31.83,0.0,0.0,-7.8651123,11.638947,
471.064082,true,true,true,0.125,12.700000000000001,0.0,0,0,0,0.125,12.700000000000001,0.0,0,0,0,0.125,12.65,0.0,0,0,0,0.125,12.75,0.0,0,0,0,0.0,12.700000000000001,0.0,0,0,0,0.0,12.700000000000001,0.0,0,0,0,0.125,12.75,0.0,0,0,0,kReverse,kOff,-86.89,2.25,2.25,0.036315918,-0.9835205,0.03930664,31.8,0.0,-2.0,-7.8651123,11.638947,
471.08546,true,true,true,0.125,12.700000000000001,0.0,0,0,0,0.125,12.700000000000001,0.0,0,0,0,0.125,12.65,0.0,0,0,0,0.125,12.75,0.0,0,0,0,0.0,12.700000000000001,0.0,0,0,0,0.0,12.700000000000001,0.0,0,0,0,0.0,12.75,0.0,0,0,0,kReverse,kOff,-86.89,2.25,2.24,0.040649414,-0.9849243,0.036071777,31.8,0.0,1.0,-7.8651123,11.638947,
471.109303,true,true,true,0.125,12.700000000000001,0.0,0,0,0,0.125,12.700000000000001,0.0,0,0,0,0.125,12.65,0.0,0,0,0,0.125,12.75,0.0,0,0,0,0.0,12.700000000000001,0.0,0,0,0,0.0,12.700000000000001,0.0,0,0,0,0.0,12.75,0.0,0,0,0,kReverse,kOff,-86.89,2.25,2.24,0.040100098,-0.9819946,0.03466797,31.8,0.0,1.0,-7.8651123,11.638947,
471.13068200000004,true,true,true,0.125,12.700000000000001,0.0,0,0,0,0.125,12.700000000000001,0.0,0,0,0,0.125,12.65,0.0,0,0,0,0.125,12.700000000000001,0.0,0,0,0,0.0,12.700000000000001,0.0,0,0,0,0.0,12.700000000000001,0.0,0,0,0,0.0,12.75,0.0,0,0,0,kReverse,kOff,-86.89,2.25,2.24,0.041259766,-0.9838867,0.041137695,31.8,0.0,2.0,-7.8651123,11.638947,
471.157316,true,true,true,0.125,12.700000000000001,0.0,0,0,0,0.125,12.700000000000001,0.0,0,0,0,0.125,12.65,0.0,0,0,0,0.125,12.700000000000001,0.0,0,0,0,0.0,12.700000000000001,0.0,0,0,0,0.0,12.700000000000001,0.0,0,0,0,0.125,12.75,0.0,0,0,0,kReverse,kOff,-86.89,2.25,2.24,0.03955078,-0.9827881,0.038635254,31.8,0.0,0.0,-7.8651123,11.638947,
471.18150700000007,true,true,true,0.125,12.700000000000001,0.0,0,0,0,0.125,12.700000000000001,0.0,0,0,0,0.125,12.65,0.0,0,0,0,0.125,12.700000000000001,0.0,0,0,0,0.0,12.700000000000001,0.0,0,0,0,0.0,12.700000000000001,0.0,0,0,0,0.125,12.75,0.0,0,0,0,kReverse,kOff,-86.88,2.26,2.25,0.03967285,-0.98565674,0.038208008,31.8,0.0,0.0,-7.8651123,11.638947,
471.203917,true,true,true,0.125,12.700000000000001,0.0,0,0,0,0.125,12.700000000000001,0.0,0,0,0,0.125,12.65,0.0,0,0,0,0.125,12.700000000000001,0.0,0,0,0,0.0,12.700000000000001,0.0,0,0,0,0.0,12.700000000000001,0.0,0,0,0,0.125,12.75,0.0,0,0,0,kReverse,kOff,-86.88,2.26,2.25,0.037475586,-0.98431396,0.032226562,31.8,0.0,-1.0,-7.8651123,11.638947,
471.227255,true,true,true,0.125,12.700000000000001,0.0,0,0,0,0.125,12.700000000000001,0.0,0,0,0,0.125,12.65,0.0,0,0,0,0.125,12.700000000000001,0.0,0,0,0,0.0,12.700000000000001,0.0,0,0,0,0.0,12.700000000000001,0.0,0,0,0,0.125,12.75,0.0,0,0,0,kReverse,kOff,-86.88,2.26,2.25,0.03918457,-0.9854126,0.038269043,31.8,0.0,0.0,-7.8651123,11.638947,
471.25224,true,true,true,0.125,12.700000000000001,0.0,0,0,0,0.125,12.700000000000001,0.0,0,0,0,0.125,12.65,0.0,0,0,0,0.125,12.700000000000001,0.0,0,0,0,0.0,12.700000000000001,0.0,0,0,0,0.0,12.700000000000001,0.0,0,0,0,0.125,12.75,0.0,0,0,0,kReverse,kOff,-86.88,2.26,2.25,0.03857422,-0.9833374,0.036621094,31.8,0.0,0.0,-7.8651123,11.638947,
471.275495,true,true,true,0.125,12.700000000000001,0.0,0,0,0,0.125,12.700000000000001,0.0,0,0,0,0.125,12.65,0.0,0,0,0,0.125,12.700000000000001,0.0,0,0,0,0.0,12.700000000000001,0.0,0,0,0,0.0,12.700000000000001,0.0,0,0,0,0.125,12.75,0.0,0,0,0,kReverse,kOff,-86.88,2.26,2.25,0.03881836,-0.98394775,0.03930664,31.8,0.0,0.0,-7.8651123,11.638947,
471.30834899999996,true,true,true,0.125,12.700000000000001,0.0,0,0,0,0.125,12.700000000000001,0.0,0,0,0,0.125,12.65,0.0,0,0,0,0.125,12.75,0.0,0,0,0,0.0,12.700000000000001,0.0,0,0,0,0.0,12.700000000000001,0.0,0,0,0,0.125,12.75,0.0,0,0,0,kReverse,kOff,-86.88,2.26,2.25,0.03942871,-0.9807129,0.0390625,31.8,0.0,0.0,-7.8651123,11.638947,
471.340288,true,true,true,0.125,12.700000000000001,0.0,0,0,0,0.125,12.700000000000001,0.0,0,0,0,0.125,12.65,0.0,0,0,0,0.125,12.75,0.0,0,0,0,0.0,12.700000000000001,0.0,0,0,0,0.0,12.700000000000001,0.0,0,0,0,0.0,12.75,0.0,0,0,0,kReverse,kOff,-86.88,2.26,2.25,0.041503906,-0.98101807,0.03265381,31.8,0.0,2.0,-7.8651123,11.638947,
471.361331,true,true,true,0.125,12.700000000000001,0.0,0,0,0,0.125,12.700000000000001,0.0,0,0,0,0.125,12.65,0.0,0,0,0,0.125,12.75,0.0,0,0,0,0.0,12.700000000000001,0.0,0,0,0,0.0,12.700000000000001,0.0,0,0,0,0.0,12.75,0.0,0,0,0,kReverse,kOff,-86.88,2.26,2.25,0.039489746,-0.98443604,0.042907715,31.8,0.0,0.0,-7.8651123,11.638947,
471.383099,true,true,true,0.125,12.700000000000001,0.0,0,0,0,0.125,12.700000000000001,0.0,0,0,0,0.125,12.65,0.0,0,0,0,0.125,12.75,0.0,0,0,0,0.0,12.700000000000001,0.0,0,0,0,0.0,12.700000000000001,0.0,0,0,0,0.0,12.75,0.0,0,0,0,kReverse,kOff,-86.88,2.26,2.25,0.038330078,-0.9838257,0.03387451,31.8,0.0,0.0,-7.8651123,11.638947,
471.40751,true,true,true,0.125,12.700000000000001,0.0,0,0,0,0.125,12.700000000000001,0.0,0,0,0,0.125,12.65,0.0,0,0,0,0.125,12.75,0.0,0,0,0,0.0,12.700000000000001,0.0,0,0,0,0.0,12.700000000000001,0.0,0,0,0,0.125,12.75,0.0,0,0,0,kReverse,kOff,-86.88,2.26,2.25,0.039855957,-0.98376465,0.032836914,31.8,0.0,0.0,-7.8651123,11.638947,
471.43144,true,true,true,0.125,12.700000000000001,0.0,0,0,0,0.125,12.700000000000001,0.0,0,0,0,0.125,12.65,0.0,0,0,0,0.125,12.75,0.0,0,0,0,0.0,12.700000000000001,0.0,0,0,0,0.0,12.700000000000001,0.0,0,0,0,0.125,12.75,0.0,0,0,0,kReverse,kOff,-86.88,2.26,2.25,0.038391113,-0.9840088,0.037841797,31.8,0.0,0.0,-7.8651123,11.638947,
471.455456,true,true,true,0.125,12.700000000000001,0.0,0,0,0,0.125,12.700000000000001,0.0,0,0,0,0.125,12.65,0.0,0,0,0,0.125,12.75,0.0,0,0,0,0.0,12.700000000000001,0.0,0,0,0,0.0,12.700000000000001,0.0,0,0,0,0.125,12.75,0.0,0,0,0,kReverse,kOff,-86.88,2.26,2.26,0.03741455,-0.9818115,0.035705566,31.8,0.0,-1.0,-7.8651123,11.638947,
471.480281,true,true,true,0.125,12.700000000000001,0.0,0,0,0,0.125,12.700000000000001,0.0,0,0,0,0.125,12.65,0.0,0,0,0,0.125,12.75,0.0,0,0,0,0.0,12.700000000000001,0.0,0,0,0,0.0,12.700000000000001,0.0,0,0,0,0.125,12.75,0.0,0,0,0,kReverse,kOff,-86.88,2.26,2.26,0.038208008,-0.9857788,0.036743164,31.8,0.0,0.0,-7.8651123,11.638947,
471.50106900000003,true,true,true,0.125,12.700000000000001,0.0,0,0,0,0.125,12.700000000000001,0.0,0,0,0,0.125,12.65,0.0,0,0,0,0.125,12.75,0.0,0,0,0,0.0,12.700000000000001,0.0,0,0,0,0.0,12.700000000000001,0.0,0,0,0,0.125,12.75,0.0,0,0,0,kReverse,kOff,-86.88,2.26,2.26,0.03881836,-0.9846802,0.035217285,31.8,0.0,0.0,-7.8651123,11.638947,
471.52267000000006,true,true,true,0.125,12.700000000000001,0.0,0,0,0,0.125,12.700000000000001,0.0,0,0,0,0.125,12.65,0.0,0,0,0,0.125,12.75,0.0,0,0,0,0.0,12.700000000000001,0.0,0,0,0,0.0,12.700000000000001,0.0,0,0,0,0.125,12.75,0.0,0,0,0,kReverse,kOff,-86.88,2.26,2.25,0.037597656,-0.9824219,0.03387451,31.8,0.0,-1.0,-7.8651123,11.638947,
471.54411600000003,true,true,true,0.125,12.700000000000001,0.0,0,0,0,0.125,12.700000000000001,0.0,0,0,0,0.125,12.65,0.0,0,0,0,0.125,12.75,0.0,0,0,0,0.0,12.700000000000001,0.0,0,0,0,0.0,12.700000000000001,0.0,0,0,0,0.125,12.75,0.0,0,0,0,kReverse,kOff,-86.89,2.25,2.25,0.036621094,-0.98443604,0.042297363,31.8,0.0,-2.0,-7.8651123,11.638947,
471.565564,true,true,true,0.125,12.700000000000001,0.0,0,0,0,0.125,12.700000000000001,0.0,0,0,0,0.125,12.65,0.0,0,0,0,0.125,12.75,0.0,0,0,0,0.0,12.700000000000001,0.0,0,0,0,0.0,12.700000000000001,0.0,0,0,0,0.125,12.75,0.0,0,0,0,kReverse,kOff,-86.89,2.25,2.25,0.038330078,-0.9827881,0.039916992,31.76,0.0,0.0,-7.8651123,11.638947,
471.58744,true,true,true,0.125,12.700000000000001,0.0,0,0,0,0.125,12.700000000000001,0.0,0,0,0,0.125,12.65,0.0,0,0,0,0.125,12.75,0.0,0,0,0,0.0,12.700000000000001,0.0,0,0,0,0.0,12.700000000000001,0.0,0,0,0,0.125,12.75,0.0,0,0,0,kReverse,kOff,-86.89,2.25,2.25,0.041625977,-0.9819946,0.03643799,31.76,0.0,2.0,-7.8651123,11.638947,
471.60933,true,true,true,0.125,12.700000000000001,0.0,0,0,0,0.125,12.700000000000001,0.0,0,0,0,0.125,12.700000000000001,0.0,0,0,0,0.125,12.75,0.0,0,0,0,0.0,12.700000000000001,0.0,0,0,0,0.0,12.700000000000001,0.0,0,0,0,0.125,12.75,0.0,0,0,0,kReverse,kOff,-86.88,2.25,2.25,0.039611816,-0.98583984,0.030883789,31.76,0.0,0.0,-7.8651123,11.638947,
471.63286800000003,true,true,true,0.125,12.700000000000001,0.0,0,0,0,0.125,12.700000000000001,0.0,0,0,0,0.125,12.700000000000001,0.0,0,0,0,0.125,12.75,0.0,0,0,0,0.0,12.700000000000001,0.0,0,0,0,0.0,12.700000000000001,0.0,0,0,0,0.125,12.75,0.0,0,0,0,kReverse,kOff,-86.89,2.25,2.25,0.03753662,-0.9833374,0.036315918,31.76,0.0,-1.0,-7.8651123,11.638947,
471.657506,true,true,true,0.125,12.700000000000001,0.0,0,0,0,0.125,12.700000000000001,0.0,0,0,0,0.125,12.700000000000001,0.0,0,0,0,0.125,12.75,0.0,0,0,0,0.0,12.700000000000001,0.0,0,0,0,0.0,12.700000000000001,0.0,0,0,0,0.125,12.75,0.0,0,0,0,kReverse,kOff,-86.88,2.26,2.25,0.037475586,-0.9838257,0.03930664,31.76,0.0,-1.0,-7.8651123,11.638947,
471.675012,true,true,true,0.125,12.700000000000001,0.0,0,0,0,0.125,12.700000000000001,0.0,0,0,0,0.125,12.700000000000001,0.0,0,0,0,0.125,12.75,0.0,0,0,0,0.0,12.700000000000001,0.0,0,0,0,0.0,12.700000000000001,0.0,0,0,0,0.125,12.75,0.0,0,0,0,kReverse,kOff,-86.88,2.25,2.25,0.039489746,-0.98376465,0.038024902,31.76,0.0,0.0,-7.8651123,11.638947,
471.695872,true,true,true,0.125,12.700000000000001,0.0,0,0,0,0.125,12.700000000000001,0.0,0,0,0,0.125,12.700000000000001,0.0,0,0,0,0.125,12.75,0.0,0,0,0,0.0,12.700000000000001,0.0,0,0,0,0.0,12.700000000000001,0.0,0,0,0,0.125,12.75,0.0,0,0,0,kReverse,kOff,-86.88,2.25,2.25,0.03955078,-0.98327637,0.036865234,31.76,0.0,0.0,-7.8651123,11.638947,
471.71782200000007,true,true,true,0.125,12.700000000000001,0.0,0,0,0,0.125,12.700000000000001,0.0,0,0,0,0.125,12.700000000000001,0.0,0,0,0,0.125,12.75,0.0,0,0,0,0.0,12.700000000000001,0.0,0,0,0,0.0,12.700000000000001,0.0,0,0,0,0.125,12.75,0.0,0,0,0,kReverse,kOff,-86.88,2.26,2.25,0.03869629,-0.9833374,0.036254883,31.76,0.0,0.0,-7.8651123,11.638947,
471.739324,true,true,true,0.125,12.700000000000001,0.0,0,0,0,0.125,12.700000000000001,0.0,0,0,0,0.125,12.700000000000001,0.0,0,0,0,0.125,12.75,0.0,0,0,0,0.0,12.700000000000001,0.0,0,0,0,0.0,12.700000000000001,0.0,0,0,0,0.125,12.75,0.0,0,0,0,kReverse,kForward,-86.88,2.26,2.25,0.040527344,-0.9840698,0.03479004,31.76,0.0,1.0,-7.8651123,11.638947,
471.75955100000004,true,true,true,0.125,12.700000000000001,0.0,0,0,0,0.125,12.700000000000001,0.0,0,0,0,0.125,12.700000000000001,0.0,0,0,0,0.125,12.75,0.0,0,0,0,0.0,12.700000000000001,0.0,0,0,0,0.0,12.700000000000001,0.0,0,0,0,0.125,12.75,0.0,0,0,0,kReverse,kForward,-86.88,2.26,2.25,0.039367676,-0.9694214,0.035949707,31.76,0.0,1.0,-7.8651123,11.638947,
471.778599,true,true,true,0.125,12.700000000000001,0.0,0,0,0,0.125,12.700000000000001,0.0,0,0,0,0.125,12.65,0.0,0,0,0,0.125,12.75,0.0,0,0,0,0.0,12.700000000000001,0.0,0,0,0,0.0,12.700000000000001,0.0,0,0,0,0.125,12.75,0.0,0,0,0,kReverse,kForward,-86.88,2.26,2.25,0.041137695,-0.9883423,0.04107666,31.76,0.0,2.0,-7.8651123,11.638947,
471.801782,true,true,true,0.125,12.700000000000001,0.0,0,0,0,0.125,12.700000000000001,0.0,0,0,0,0.125,12.65,0.0,0,0,0,0.125,12.75,0.0,0,0,0,0.0,12.700000000000001,0.0,0,0,0,0.0,12.700000000000001,0.0,0,0,0,0.125,12.75,0.0,0,0,0,kReverse,kForward,-86.88,2.25,2.25,0.0435791,-0.99664307,0.024658203,31.76,0.0,4.0,-7.8651123,11.638947,
471.82339900000005,true,true,true,0.125,12.700000000000001,0.0,0,0,0,0.125,12.700000000000001,0.0,0,0,0,0.125,12.65,0.0,0,0,0,0.125,12.75,0.0,0,0,0,0.0,12.700000000000001,0.0,0,0,0,0.0,12.700000000000001,0.0,0,0,0,0.125,12.75,0.0,0,0,0,kReverse,kForward,-86.88,2.26,2.25,0.033203125,-1.0264282,0.0115356445,31.76,0.0,-7.0,-7.8651123,11.638916,
471.844357,true,true,true,0.125,12.700000000000001,0.0,0,0,0,0.125,12.700000000000001,0.0,0,0,0,0.125,12.65,0.0,0,0,0,0.125,12.75,0.0,0,0,0,0.0,12.700000000000001,0.0,0,0,0,0.0,12.700000000000001,0.0,0,0,0,0.125,12.75,0.0,0,0,0,kReverse,kForward,-86.88,2.26,2.26,0.0017700195,-0.95043945,0.022583008,31.76,0.0,-35.0,-7.8651276,11.638824,
471.863772,true,true,true,0.125,12.700000000000001,0.0,0,0,0,0.125,12.700000000000001,0.0,0,0,0,0.125,12.65,0.0,0,0,0,0.125,12.75,0.0,0,0,0,0.0,12.700000000000001,0.0,0,0,0,0.0,12.700000000000001,0.0,0,0,0,0.125,12.75,0.0,0,0,0,kReverse,kForward,-86.89,2.25,2.25,0.038208008,-1.0514526,0.055603027,31.76,0.0,-3.0,-7.8651733,11.638824,
471.88561300000003,true,true,true,0.125,12.700000000000001,0.0,0,0,0,0.125,12.700000000000001,0.0,0,0,0,0.125,12.65,0.0,0,0,0,0.125,12.75,0.0,0,0,0,0.0,12.700000000000001,0.0,0,0,0,0.0,12.700000000000001,0.0,0,0,0,0.125,12.75,0.0,0,0,0,kReverse,kForward,-86.87,2.26,2.25,0.019958496,-1.0142822,-0.0026855469,31.76,0.0,-20.0,-7.8652954,11.638794,
471.905974,true,true,true,0.125,12.700000000000001,0.0,0,0,0,0.125,12.700000000000001,0.0,0,0,0,0.125,12.65,0.0,0,0,0,0.125,12.75,0.0,0,0,0,0.0,12.700000000000001,0.0,0,0,0,0.0,12.700000000000001,0.0,0,0,0,0.125,12.75,0.0,0,0,0,kReverse,kForward,-86.89,2.25,2.24,0.040161133,-0.986084,0.019836426,31.76,0.0,1.0,-7.8653717,11.638718,
471.92557400000004,true,true,true,0.125,12.700000000000001,0.0,0,0,0,0.125,12.700000000000001,0.0,0,0,0,0.125,12.65,0.0,0,0,0,0.125,12.75,0.0,0,0,0,0.0,12.700000000000001,0.0,0,0,0,0.0,12.700000000000001,0.0,0,0,0,0.125,12.75,0.0,0,0,0,kReverse,kForward,-86.88,2.25,2.25,0.047973633,-0.99298096,0.06781006,31.76,0.0,8.0,-7.865448,11.638641,
471.94932400000005,true,true,true,0.125,12.700000000000001,0.0,0,0,0,0.125,12.700000000000001,0.0,0,0,0,0.125,12.65,0.0,0,0,0,0.125,12.75,0.0,0,0,0,0.0,12.700000000000001,0.0,0,0,0,0.0,12.700000000000001,0.0,0,0,0,0.125,12.75,0.0,0,0,0,kReverse,kForward,-86.89,2.25,2.24,0.051208496,-1.001831,0.0592041,31.76,0.0,11.0,-7.865448,11.638641,
471.967587,true,true,true,0.125,12.700000000000001,0.0,0,0,0,0.125,12.700000000000001,0.0,0,0,0,0.125,12.65,0.0,0,0,0,0.125,12.75,0.0,0,0,0,0.0,12.700000000000001,0.0,0,0,0,0.0,12.700000000000001,0.0,0,0,0,0.125,12.75,0.0,0,0,0,kReverse,kForward,-86.89,2.25,2.24,0.03515625,-0.9649048,0.02734375,31.76,0.0,-2.0,-7.865448,11.638657,
471.989795,true,true,true,0.125,12.700000000000001,0.0,0,0,0,0.125,12.700000000000001,0.0,0,0,0,0.125,12.65,0.0,0,0,0,0.125,12.75,0.0,0,0,0,0.0,12.700000000000001,0.0,0,0,0,0.0,12.700000000000001,0.0,0,0,0,0.125,12.75,0.0,0,0,0,kReverse,kForward,-86.88,2.25,2.25,0.0059814453,-1.0036621,-0.033569336,31.76,0.0,-33.0,-7.8654327,11.638687,
472.01605800000004,true,true,true,0.125,12.700000000000001,0.0,0,0,0,0.125,12.700000000000001,0.0,0,0,0,0.125,12.65,0.0,0,0,0,0.125,12.75,0.0,0,0,0,0.0,12.700000000000001,0.0,0,0,0,0.0,12.700000000000001,0.0,0,0,0,0.125,12.75,0.0,0,0,0,kReverse,kForward,-86.9,2.25,2.24,0.04638672,-0.98669434,0.09124756,31.76,0.0,7.0,-7.865448,11.638672,
472.03774200000004,true,true,true,0.125,12.700000000000001,0.0,0,0,0,0.125,12.700000000000001,0.0,0,0,0,0.125,12.65,0.0,0,0,0,0.125,12.75,0.0,0,0,0,0.0,12.700000000000001,0.0,0,0,0,0.0,12.700000000000001,0.0,0,0,0,0.125,12.75,0.0,0,0,0,kReverse,kForward,-86.89,2.25,2.24,0.02545166,-0.9735718,0.058654785,31.76,0.0,-12.0,-7.865448,11.638641,
472.060929,true,true,true,0.125,12.700000000000001,0.0,0,0,0,0.125,12.700000000000001,0.0,0,0,0,0.125,12.65,0.0,0,0,0,0.125,12.75,0.0,0,0,0,0.0,12.700000000000001,0.0,0,0,0,0.0,12.700000000000001,0.0,0,0,0,0.125,12.75,0.0,0,0,0,kReverse,kForward,-86.89,2.25,2.24,0.055603027,-0.99993896,0.023254395,31.76,0.0,16.0,-7.865448,11.638641,
472.081963,true,true,true,0.125,12.700000000000001,0.0,0,0,0,0.125,12.700000000000001,0.0,0,0,0,0.125,12.65,0.0,0,0,0,0.125,12.75,0.0,0,0,0,0.0,12.700000000000001,0.0,0,0,0,0.0,12.700000000000001,0.0,0,0,0,0.125,12.75,0.0,0,0,0,kReverse,kForward,-86.88,2.25,2.25,0.03338623,-0.9859619,0.026000977,31.76,0.0,-5.0,-7.865448,11.638641,
472.103715,true,true,true,0.125,12.700000000000001,0.0,0,0,0,0.125,12.700000000000001,0.0,0,0,0,0.125,12.65,0.0,0,0,0,0.125,12.75,0.0,0,0,0,0.0,12.700000000000001,0.0,0,0,0,0.0,12.700000000000001,0.0,0,0,0,0.125,12.75,0.0,0,0,0,kReverse,kForward,-86.89,2.25,2.25,0.04345703,-0.979187,0.051879883,31.76,0.0,4.0,-7.865448,11.638641,
472.124499,true,true,true,0.125,12.700000000000001,0.0,0,0,0,0.125,12.700000000000001,0.0,0,0,0,0.125,12.65,0.0,0,0,0,0.125,12.75,0.0,0,0,0,0.0,12.700000000000001,0.0,0,0,0,0.0,12.700000000000001,0.0,0,0,0,0.125,12.75,0.0,0,0,0,kReverse,kForward,-86.88,2.26,2.25,0.02520752,-0.9805298,0.020446777,31.76,0.0,-13.0,-7.865448,11.638641,
472.145075,true,true,true,0.125,12.700000000000001,0.0,0,0,0,0.125,12.700000000000001,0.0,0,0,0,0.125,12.65,0.0,0,0,0,0.125,12.75,0.0,0,0,0,0.0,12.700000000000001,0.0,0,0,0,0.0,12.700000000000001,0.0,0,0,0,0.125,12.75,0.0,0,0,0,kReverse,kForward,-86.88,2.25,2.25,0.042419434,-0.9780884,0.036621094,31.76,0.0,3.0,-7.865448,11.638641,
472.16946,true,true,true,0.125,12.700000000000001,0.0,0,0,0,0.125,12.700000000000001,0.0,0,0,0,0.125,12.65,0.0,0,0,0,0.125,12.75,0.0,0,0,0,0.0,12.700000000000001,0.0,0,0,0,0.0,12.700000000000001,0.0,0,0,0,0.125,12.75,0.0,0,0,0,kReverse,kForward,-86.88,2.26,2.25,0.03253174,-0.982605,0.018005371,31.76,0.0,-6.0,-7.865448,11.638641,
472.193463,true,true,true,0.125,12.700000000000001,0.0,0,0,0,0.125,12.700000000000001,0.0,0,0,0,0.125,12.65,0.0,0,0,0,0.125,12.75,0.0,0,0,0,0.0,12.700000000000001,0.0,0,0,0,0.0,12.700000000000001,0.0,0,0,0,0.125,12.75,0.0,0,0,0,kReverse,kForward,-86.88,2.25,2.25,0.03100586,-0.9871216,0.029907227,31.76,0.0,-7.0,-7.865448,11.638641,
472.21587200000005,true,true,true,0.125,12.700000000000001,0.0,0,0,0,0.125,12.700000000000001,0.0,0,0,0,0.125,12.65,0.0,0,0,0,0.125,12.75,0.0,0,0,0,0.0,12.700000000000001,0.0,0,0,0,0.0,12.700000000000001,0.0,0,0,0,0.125,12.75,0.0,0,0,0,kReverse,kForward,-86.87,2.25,2.25,0.047729492,-0.9833374,0.059326172,31.76,0.0,8.0,-7.865448,11.638657,
472.23990100000003,true,true,true,0.125,12.700000000000001,0.0,0,0,0,0.125,12.700000000000001,0.0,0,0,0,0.125,12.65,0.0,0,0,0,0.125,12.75,0.0,0,0,0,0.0,12.700000000000001,0.0,0,0,0,0.0,12.700000000000001,0.0,0,0,0,0.125,12.75,0.0,0,0,0,kReverse,kForward,-86.88,2.25,2.25,0.026855469,-0.99139404,0.010620117,31.76,0.0,-12.0,-7.865448,11.638657,
472.262674,true,true,true,0.125,12.700000000000001,0.0,0,0,0,0.125,12.700000000000001,0.0,0,0,0,0.125,12.700000000000001,0.0,0,0,0,0.125,12.75,0.0,0,0,0,0.0,12.700000000000001,0.0,0,0,0,0.0,12.700000000000001,0.0,0,0,0,0.125,12.75,0.0,0,0,0,kReverse,kForward,-86.88,2.25,2.24,0.034301758,-0.9873657,0.037353516,31.76,0.0,-4.0,-7.865448,11.638657,
472.28404500000005,true,true,true,0.125,12.700000000000001,0.0,0,0,0,0.125,12.700000000000001,0.0,0,0,0,0.125,12.700000000000001,0.0,0,0,0,0.125,12.75,0.0,0,0,0,0.0,12.700000000000001,0.0,0,0,0,0.0,12.700000000000001,0.0,0,0,0,0.125,12.75,0.0,0,0,0,kReverse,kForward,-86.87,2.25,2.25,0.044921875,-0.98602295,0.038269043,31.76,0.0,6.0,-7.865448,11.638657,
472.30489400000005,true,true,true,0.125,12.700000000000001,0.0,0,0,0,0.125,12.700000000000001,0.0,0,0,0,0.125,12.700000000000001,0.0,0,0,0,0.125,12.75,0.0,0,0,0,0.0,12.700000000000001,0.0,0,0,0,0.0,12.700000000000001,0.0,0,0,0,0.0,12.75,0.0,0,0,0,kReverse,kForward,-86.88,2.25,2.24,0.044311523,-0.98431396,0.04437256,31.76,0.0,5.0,-7.865448,11.638657,
472.32622399999997,true,true,true,0.125,12.700000000000001,0.0,0,0,0,0.125,12.700000000000001,0.0,0,0,0,0.125,12.700000000000001,0.0,0,0,0,0.125,12.75,0.0,0,0,0,0.0,12.700000000000001,0.0,0,0,0,0.0,12.700000000000001,0.0,0,0,0,0.0,12.75,0.0,0,0,0,kReverse,kForward,-86.88,2.25,2.24,0.030578613,-0.9836426,0.017456055,31.76,0.0,-8.0,-7.865448,11.638657,
472.35053000000005,true,true,true,0.125,12.700000000000001,0.0,0,0,0,0.125,12.700000000000001,0.0,0,0,0,0.125,12.700000000000001,0.0,0,0,0,0.125,12.75,0.0,0,0,0,0.0,12.700000000000001,0.0,0,0,0,0.0,12.700000000000001,0.0,0,0,0,0.0,12.75,0.0,0,0,0,kReverse,kForward,-86.88,2.25,2.25,0.036865234,-0.9765625,0.032409668,31.76,0.0,-1.0,-7.865448,11.638657,
472.373787,true,true,true,0.125,12.700000000000001,0.0,0,0,0,0.125,12.700000000000001,0.0,0,0,0,0.125,12.700000000000001,0.0,0,0,0,0.125,12.75,0.0,0,0,0,0.125,12.700000000000001,0.0,0,0,0,0.0,12.700000000000001,0.0,0,0,0,0.0,12.75,0.0,0,0,0,kReverse,kForward,-86.88,2.25,2.24,0.042114258,-0.98687744,0.031433105,31.76,0.0,3.0,-7.865448,11.638657,
472.39641500000005,true,true,true,0.125,12.700000000000001,0.0,0,0,0,0.125,12.700000000000001,0.0,0,0,0,0.125,12.700000000000001,0.0,0,0,0,0.125,12.75,0.0,0,0,0,0.125,12.700000000000001,0.0,0,0,0,0.0,12.700000000000001,0.0,0,0,0,0.125,12.75,0.0,0,0,0,kReverse,kForward,-86.89,2.25,2.24,0.043884277,-0.98272705,0.032958984,31.76,0.0,5.0,-7.865448,11.638657,
472.423043,true,true,true,0.125,12.700000000000001,0.0,0,0,0,0.125,12.700000000000001,0.0,0,0,0,0.125,12.65,0.0,0,0,0,0.125,12.75,0.0,0,0,0,0.0,12.700000000000001,0.0,0,0,0,0.0,12.700000000000001,0.0,0,0,0,0.125,12.75,0.0,0,0,0,kReverse,kForward,-86.89,2.25,2.24,0.03717041,-0.982605,0.041015625,31.76,0.0,-1.0,-7.865448,11.638657,
472.443243,true,true,true,0.125,12.700000000000001,0.0,0,0,0,0.125,12.700000000000001,0.0,0,0,0,0.125,12.65,0.0,0,0,0,0.125,12.75,0.0,0,0,0,0.0,12.700000000000001,0.0,0,0,0,0.0,12.700000000000001,0.0,0,0,0,0.125,12.75,0.0,0,0,0,kReverse,kForward,-86.88,2.25,2.25,0.04058838,-0.98431396,0.03692627,31.76,0.0,1.0,-7.865448,11.638657,
472.46310800000003,true,true,true,0.125,12.700000000000001,0.0,0,0,0,0.125,12.700000000000001,0.0,0,0,0,0.125,12.65,0.0,0,0,0,0.125,12.75,0.0,0,0,0,0.0,12.700000000000001,0.0,0,0,0,0.0,12.700000000000001,0.0,0,0,0,0.125,12.75,0.0,0,0,0,kReverse,kForward,-86.89,2.25,2.24,0.03515625,-0.98083496,0.03173828,31.76,0.0,-3.0,-7.865448,11.638657,
472.483621,true,true,true,0.125,12.700000000000001,0.0,0,0,0,0.125,12.700000000000001,0.0,0,0,0,0.125,12.65,0.0,0,0,0,0.125,12.75,0.0,0,0,0,0.0,12.700000000000001,0.0,0,0,0,0.0,12.700000000000001,0.0,0,0,0,0.125,12.75,0.0,0,0,0,kReverse,kForward,-86.89,2.25,2.24,0.039611816,-0.9850464,0.027038574,31.76,0.0,0.0,-7.865448,11.638657,
472.50245900000004,true,true,true,0.125,12.700000000000001,0.0,0,0,0,0.125,12.700000000000001,0.0,0,0,0,0.125,12.65,0.0,0,0,0,0.125,12.75,0.0,0,0,0,0.0,12.700000000000001,0.0,0,0,0,0.0,12.700000000000001,0.0,0,0,0,0.125,12.75,0.0,0,0,0,kReverse,kForward,-86.88,2.25,2.25,0.039916992,-0.98114014,0.042907715,31.76,0.0,1.0,-7.865448,11.638657,
472.524036,true,true,true,0.125,12.700000000000001,0.0,0,0,0,0.125,12.700000000000001,0.0,0,0,0,0.125,12.65,0.0,0,0,0,0.125,12.75,0.0,0,0,0,0.0,12.700000000000001,0.0,0,0,0,0.0,12.700000000000001,0.0,0,0,0,0.125,12.75,0.0,0,0,0,kReverse,kForward,-86.88,2.26,2.25,0.0423584,-0.9859619,0.037902832,31.76,0.0,3.0,-7.865448,11.638657,
472.545198,true,true,true,0.125,12.700000000000001,0.0,0,0,0,0.125,12.700000000000001,0.0,0,0,0,0.125,12.65,0.0,0,0,0,0.125,12.75,0.0,0,0,0,0.0,12.700000000000001,0.0,0,0,0,0.0,12.700000000000001,0.0,0,0,0,0.125,12.75,0.0,0,0,0,kReverse,kForward,-86.88,2.26,2.25,0.03741455,-0.98065186,0.02935791,31.76,0.0,-1.0,-7.865448,11.638657,
472.56962599999997,true,true,true,0.125,12.700000000000001,0.0,0,0,0,0.125,12.700000000000001,0.0,0,0,0,0.125,12.700000000000001,0.0,0,0,0,0.125,12.75,0.0,0,0,0,0.0,12.700000000000001,0.0,0,0,0,0.0,12.700000000000001,0.0,0,0,0,0.125,12.75,0.0,0,0,0,kReverse,kForward,-86.88,2.26,2.25,0.038330078,-0.9831543,0.03540039,31.76,0.0,0.0,-7.865448,11.638657,
472.59453400000007,true,true,true,0.125,12.700000000000001,0.0,0,0,0,0.125,12.700000000000001,0.0,0,0,0,0.125,12.700000000000001,0.0,0,0,0,0.125,12.75,0.0,0,0,0,0.0,12.700000000000001,0.0,0,0,0,0.0,12.700000000000001,0.0,0,0,0,0.125,12.75,0.0,0,0,0,kReverse,kForward,-86.88,2.26,2.25,0.04107666,-0.9817505,0.042297363,31.76,0.0,2.0,-7.865448,11.638657,
472.617157,true,true,true,0.125,12.700000000000001,0.0,0,0,0,0.125,12.700000000000001,0.0,0,0,0,0.125,12.700000000000001,0.0,0,0,0,0.125,12.75,0.0,0,0,0,0.0,12.700000000000001,0.0,0,0,0,0.0,12.700000000000001,0.0,0,0,0,0.125,12.75,0.0,0,0,0,kReverse,kForward,-86.88,2.25,2.25,0.036193848,-0.9834595,0.034118652,31.76,0.0,-2.0,-7.865448,11.638657,
472.639224,true,true,true,0.125,12.700000000000001,0.0,0,0,0,0.125,12.700000000000001,0.0,0,0,0,0.125,12.700000000000001,0.0,0,0,0,0.125,12.75,0.0,0,0,0,0.0,12.700000000000001,0.0,0,0,0,0.0,12.700000000000001,0.0,0,0,0,0.125,12.75,0.0,0,0,0,kReverse,kForward,-86.89,2.25,2.24,0.03717041,-0.9851074,0.038024902,31.76,0.0,-1.0,-7.865448,11.638657,
472.66123500000003,true,true,true,0.125,12.700000000000001,0.0,0,0,0,0.125,12.700000000000001,0.0,0,0,0,0.125,12.700000000000001,0.0,0,0,0,0.125,12.75,0.0,0,0,0,0.0,12.700000000000001,0.0,0,0,0,0.0,12.700000000000001,0.0,0,0,0,0.125,12.75,0.0,0,0,0,kReverse,kForward,-86.88,2.25,2.25,0.036865234,-0.98480225,0.035583496,31.76,0.0,-1.0,-7.865448,11.638657,
472.68227,true,true,true,0.125,12.700000000000001,0.0,0,0,0,0.125,12.700000000000001,0.0,0,0,0,0.125,12.700000000000001,0.0,0,0,0,0.125,12.75,0.0,0,0,0,0.0,12.700000000000001,0.0,0,0,0,0.0,12.700000000000001,0.0,0,0,0,0.125,12.75,0.0,0,0,0,kReverse,kForward,-86.88,2.25,2.25,0.037109375,-0.98272705,0.035583496,31.76,0.0,-1.0,-7.865448,11.638657,
472.704106,true,true,true,0.125,12.700000000000001,0.0,0,0,0,0.125,12.700000000000001,0.0,0,0,0,0.125,12.700000000000001,0.0,0,0,0,0.125,12.75,0.0,0,0,0,0.0,12.700000000000001,0.0,0,0,0,0.0,12.700000000000001,0.0,0,0,0,0.125,12.75,0.0,0,0,0,kReverse,kForward,-86.88,2.26,2.25,0.03778076,-0.9802246,0.03881836,31.76,0.0,0.0,-7.865448,11.638657,
472.725402,true,true,true,0.125,12.700000000000001,0.0,0,0,0,0.125,12.700000000000001,0.0,0,0,0,0.125,12.65,0.0,0,0,0,0.125,12.75,0.0,0,0,0,0.0,12.700000000000001,0.0,0,0,0,0.0,12.700000000000001,0.0,0,0,0,0.125,12.75,0.0,0,0,0,kReverse,kForward,-86.88,2.26,2.25,0.038146973,-0.98431396,0.032104492,31.76,0.0,0.0,-7.865448,11.638657,
472.745917,true,true,true,0.125,12.700000000000001,0.0,0,0,0,0.125,12.700000000000001,0.0,0,0,0,0.125,12.65,0.0,0,0,0,0.125,12.75,0.0,0,0,0,0.0,12.700000000000001,0.0,0,0,0,0.0,12.700000000000001,0.0,0,0,0,0.125,12.75,0.0,0,0,0,kReverse,kForward,-86.88,2.26,2.25,0.03552246,-0.98565674,0.030883789,31.76,0.0,-3.0,-7.865448,11.638657,
472.764163,true,true,true,0.125,12.700000000000001,0.0,0,0,0,0.125,12.700000000000001,0.0,0,0,0,0.125,12.65,0.0,0,0,0,0.125,12.75,0.0,0,0,0,0.0,12.700000000000001,0.0,0,0,0,0.0,12.700000000000001,0.0,0,0,0,0.125,12.75,0.0,0,0,0,kReverse,kForward,-86.89,2.26,2.25,0.04058838,-0.98217773,0.03527832,31.76,0.0,1.0,-7.865448,11.638657,
472.784266,true,true,true,0.125,12.700000000000001,0.0,0,0,0,0.125,12.700000000000001,0.0,0,0,0,0.125,12.65,0.0,0,0,0,0.125,12.75,0.0,0,0,0,0.0,12.700000000000001,0.0,0,0,0,0.0,12.700000000000001,0.0,0,0,0,0.125,12.75,0.0,0,0,0,kReverse,kForward,-86.89,2.26,2.25,0.039489746,-0.98669434,0.0390625,31.76,0.0,0.0,-7.865448,11.638657,
472.805099,true,true,true,0.125,12.700000000000001,0.0,0,0,0,0.125,12.700000000000001,0.0,0,0,0,0.125,12.65,0.0,0,0,0,0.125,12.75,0.0,0,0,0,0.0,12.700000000000001,0.0,0,0,0,0.0,12.700000000000001,0.0,0,0,0,0.125,12.75,0.0,0,0,0,kReverse,kForward,-86.89,2.26,2.25,0.040039062,-0.9846802,0.04058838,31.76,0.0,1.0,-7.865448,11.638657,
472.82480499999997,true,true,true,0.125,12.700000000000001,0.0,0,0,0,0.125,12.700000000000001,0.0,0,0,0,0.125,12.65,0.0,0,0,0,0.125,12.75,0.0,0,0,0,0.0,12.700000000000001,0.0,0,0,0,0.0,12.700000000000001,0.0,0,0,0,0.125,12.75,0.0,0,0,0,kReverse,kForward,-86.88,2.26,2.25,0.03717041,-0.9829712,0.030761719,31.76,0.0,-1.0,-7.865448,11.638657,
472.845754,true,true,true,0.125,12.700000000000001,0.0,0,0,0,0.125,12.700000000000001,0.0,0,0,0,0.125,12.65,0.0,0,0,0,0.125,12.75,0.0,0,0,0,0.0,12.700000000000001,0.0,0,0,0,0.0,12.700000000000001,0.0,0,0,0,0.125,12.75,0.0,0,0,0,kReverse,kForward,-86.88,2.26,2.26,0.041259766,-0.9850464,0.036254883,31.76,0.0,2.0,-7.865448,11.638657,
472.869432,true,true,true,0.125,12.700000000000001,0.0,0,0,0,0.125,12.700000000000001,0.0,0,0,0,0.125,12.65,0.0,0,0,0,0.125,12.75,0.0,0,0,0,0.125,12.700000000000001,0.0,0,0,0,0.0,12.700000000000001,0.0,0,0,0,0.125,12.75,0.0,0,0,0,kReverse,kForward,-86.88,2.26,2.26,0.037353516,-0.9859009,0.035095215,31.76,0.0,-1.0,-7.865448,11.638657,
472.894245,true,true,true,0.125,12.700000000000001,0.0,0,0,0,0.125,12.700000000000001,0.0,0,0,0,0.125,12.65,0.0,0,0,0,0.125,12.75,0.0,0,0,0,0.0,12.700000000000001,0.0,0,0,0,0.0,12.700000000000001,0.0,0,0,0,0.125,12.75,0.0,0,0,0,kReverse,kForward,-86.89,2.26,2.25,0.039489746,-0.9847412,0.041870117,31.76,0.0,0.0,-7.865448,11.638657,
472.918612,true,true,true,0.125,12.700000000000001,0.0,0,0,0,0.125,12.700000000000001,0.0,0,0,0,0.125,12.65,0.0,0,0,0,0.125,12.75,0.0,0,0,0,0.0,12.700000000000001,0.0,0,0,0,0.0,12.700000000000001,0.0,0,0,0,0.125,12.75,0.0,0,0,0,kReverse,kForward,-86.89,2.26,2.25,0.038146973,-0.98254395,0.03692627,31.76,0.0,0.0,-7.865448,11.638657,
472.939477,true,true,true,0.125,12.700000000000001,0.0,0,0,0,0.125,12.700000000000001,0.0,0,0,0,0.125,12.65,0.0,0,0,0,0.125,12.75,0.0,0,0,0,0.0,12.700000000000001,0.0,0,0,0,0.0,12.700000000000001,0.0,0,0,0,0.125,12.75,0.0,0,0,0,kReverse,kForward,-86.89,2.26,2.25,0.037475586,-0.98583984,0.031982422,31.76,0.0,-1.0,-7.865448,11.638657,
472.96062700000004,true,true,true,0.125,12.700000000000001,0.0,0,0,0,0.125,12.700000000000001,0.0,0,0,0,0.125,12.65,0.0,0,0,0,0.125,12.75,0.0,0,0,0,0.0,12.700000000000001,0.0,0,0,0,0.0,12.700000000000001,0.0,0,0,0,0.125,12.75,0.0,0,0,0,kReverse,kForward,-86.89,2.26,2.25,0.039794922,-0.9815674,0.034851074,31.76,0.0,0.0,-7.865448,11.638657,
472.980755,true,true,true,0.125,12.700000000000001,0.0,0,0,0,0.125,12.700000000000001,0.0,0,0,0,0.125,12.65,0.0,0,0,0,0.125,12.75,0.0,0,0,0,0.0,12.700000000000001,0.0,0,0,0,0.0,12.700000000000001,0.0,0,0,0,0.125,12.75,0.0,0,0,0,kReverse,kForward,-86.89,2.26,2.25,0.038879395,-0.9802246,0.041381836,31.76,0.0,0.0,-7.865448,11.638657,
473.002447,true,true,true,0.125,12.700000000000001,0.0,0,0,0,0.125,12.700000000000001,0.0,0,0,0,0.125,12.65,0.0,0,0,0,0.125,12.75,0.0,0,0,0,0.0,12.700000000000001,0.0,0,0,0,0.0,12.700000000000001,0.0,0,0,0,0.125,12.75,0.0,0,0,0,kReverse,kForward,-86.89,2.26,2.26,0.03692627,-0.98376465,0.03552246,31.76,0.0,-2.0,-7.865448,11.638657,
473.022277,true,true,true,0.125,12.700000000000001,0.0,0,0,0,0.125,12.700000000000001,0.0,0,0,0,0.125,12.65,0.0,0,0,0,0.125,12.75,0.0,0,0,0,0.0,12.700000000000001,0.0,0,0,0,0.0,12.700000000000001,0.0,0,0,0,0.125,12.75,0.0,0,0,0,kReverse,kForward,-86.89,2.26,2.26,0.04321289,-0.98669434,0.03845215,31.76,0.0,4.0,-7.865448,11.638657,
473.04258600000003,true,true,true,0.125,12.700000000000001,0.0,0,0,0,0.125,12.700000000000001,0.0,0,0,0,0.125,12.65,0.0,0,0,0,0.125,12.75,0.0,0,0,0,0.0,12.700000000000001,0.0,0,0,0,0.0,12.700000000000001,0.0,0,0,0,0.125,12.75,0.0,0,0,0,kReverse,kForward,-86.89,2.26,2.26,0.036865234,-0.9866333,0.034484863,31.76,0.0,-2.0,-7.865448,11.638657,
473.062588,true,true,true,0.125,12.700000000000001,0.0,0,0,0,0.125,12.700000000000001,0.0,0,0,0,0.125,12.700000000000001,0.0,0,0,0,0.125,12.75,0.0,0,0,0,0.0,12.700000000000001,0.0,0,0,0,0.0,12.700000000000001,0.0,0,0,0,0.125,12.75,0.0,0,0,0,kReverse,kForward,-86.89,2.26,2.26,0.037109375,-0.9838867,0.03387451,31.76,0.0,-1.0,-7.865448,11.638657,
473.08120800000006,true,true,true,0.125,12.700000000000001,0.0,0,0,0,0.125,12.700000000000001,0.0,0,0,0,0.125,12.700000000000001,0.0,0,0,0,0.125,12.75,0.0,0,0,0,0.0,12.700000000000001,0.0,0,0,0,0.0,12.700000000000001,0.0,0,0,0,0.125,12.75,0.0,0,0,0,kReverse,kForward,-86.89,2.26,2.26,0.038330078,-0.9850464,0.03881836,31.76,0.0,0.0,-7.865448,11.638657,
473.101456,true,true,true,0.125,12.700000000000001,0.0,0,0,0,0.125,12.700000000000001,0.0,0,0,0,0.125,12.700000000000001,0.0,0,0,0,0.125,12.75,0.0,0,0,0,0.0,12.700000000000001,0.0,0,0,0,0.0,12.700000000000001,0.0,0,0,0,0.125,12.75,0.0,0,0,0,kReverse,kForward,-86.89,2.26,2.26,0.037719727,-0.9821167,0.037109375,31.77,0.0,-1.0,-7.865448,11.638657,
473.12224,true,true,true,0.125,12.700000000000001,0.0,0,0,0,0.125,12.700000000000001,0.0,0,0,0,0.125,12.700000000000001,0.0,0,0,0,0.125,12.75,0.0,0,0,0,0.0,12.700000000000001,0.0,0,0,0,0.0,12.700000000000001,0.0,0,0,0,0.125,12.75,0.0,0,0,0,kReverse,kForward,-86.89,2.26,2.25,0.04034424,-0.9852905,0.0357666,31.77,0.0,1.0,-7.865448,11.638657,
473.15715900000004,true,true,true,0.125,12.700000000000001,0.0,0,0,0,0.125,12.700000000000001,0.0,0,0,0,0.125,12.700000000000001,0.0,0,0,0,0.125,12.75,0.0,0,0,0,0.0,12.700000000000001,0.0,0,0,0,0.0,12.700000000000001,0.0,0,0,0,0.125,12.75,0.0,0,0,0,kReverse,kForward,-86.89,2.26,2.25,0.036193848,-0.9838867,0.034484863,31.77,0.0,-2.0,-7.865448,11.638657,
473.18242499999997,true,true,true,0.125,12.700000000000001,0.0,0,0,0,0.125,12.700000000000001,0.0,0,0,0,0.125,12.700000000000001,0.0,0,0,0,0.125,12.75,0.0,0,0,0,0.0,12.700000000000001,0.0,0,0,0,0.0,12.700000000000001,0.0,0,0,0,0.125,12.75,0.0,0,0,0,kReverse,kForward,-86.89,2.26,2.25,0.036621094,-0.9831543,0.03704834,31.77,0.0,-2.0,-7.865448,11.638657,
473.204559,true,true,true,0.125,12.700000000000001,0.0,0,0,0,0.125,12.700000000000001,0.0,0,0,0,0.125,12.700000000000001,0.0,0,0,0,0.125,12.75,0.0,0,0,0,0.0,12.700000000000001,0.0,0,0,0,0.0,12.700000000000001,0.0,0,0,0,0.125,12.75,0.0,0,0,0,kReverse,kForward,-86.89,2.26,2.25,0.03845215,-0.9810791,0.032043457,31.77,0.0,0.0,-7.865448,11.638657,
473.226047,true,true,true,0.125,12.700000000000001,0.0,0,0,0,0.125,12.700000000000001,0.0,0,0,0,0.125,12.700000000000001,0.0,0,0,0,0.125,12.75,0.0,0,0,0,0.0,12.700000000000001,0.0,0,0,0,0.0,12.700000000000001,0.0,0,0,0,0.125,12.75,0.0,0,0,0,kReverse,kForward,-86.89,2.26,2.25,0.03881836,-0.9812622,0.03149414,31.77,0.0,0.0,-7.865448,11.638657,
473.249868,true,true,true,0.125,12.700000000000001,0.0,0,0,0,0.125,12.700000000000001,0.0,0,0,0,0.125,12.700000000000001,0.0,0,0,0,0.125,12.75,0.0,0,0,0,0.0,12.700000000000001,0.0,0,0,0,0.0,12.700000000000001,0.0,0,0,0,0.125,12.75,0.0,0,0,0,kReverse,kForward,-86.89,2.26,2.25,0.035888672,-0.9852295,0.033813477,31.77,0.0,-3.0,-7.865448,11.638657,
473.272358,true,true,true,0.125,12.700000000000001,0.0,0,0,0,0.125,12.700000000000001,0.0,0,0,0,0.125,12.700000000000001,0.0,0,0,0,0.125,12.75,0.0,0,0,0,0.0,12.700000000000001,0.0,0,0,0,0.0,12.700000000000001,0.0,0,0,0,0.0,12.75,0.0,0,0,0,kReverse,kForward,-86.89,2.26,2.25,0.037231445,-0.98187256,0.040649414,31.77,0.0,-1.0,-7.865448,11.638657,
473.295588,true,true,true,0.125,12.700000000000001,0.0,0,0,0,0.125,12.700000000000001,0.0,0,0,0,0.125,12.700000000000001,0.0,0,0,0,0.125,12.75,0.0,0,0,0,0.0,12.700000000000001,0.0,0,0,0,0.0,12.700000000000001,0.0,0,0,0,0.0,12.75,0.0,0,0,0,kReverse,kForward,-86.9,2.26,2.25,0.03656006,-0.98168945,0.03741455,31.77,0.0,-2.0,-7.865448,11.638657,
473.320733,true,true,true,0.125,12.700000000000001,0.0,0,0,0,0.125,12.700000000000001,0.0,0,0,0,0.125,12.700000000000001,0.0,0,0,0,0.125,12.75,0.0,0,0,0,0.0,12.700000000000001,0.0,0,0,0,0.0,12.700000000000001,0.0,0,0,0,0.0,12.75,0.0,0,0,0,kReverse,kForward,-86.9,2.26,2.25,0.03955078,-0.98376465,0.035827637,31.77,0.0,0.0,-7.865448,11.638657,
473.349505,true,true,true,0.125,12.700000000000001,0.0,0,0,0,0.125,12.700000000000001,0.0,0,0,0,0.125,12.700000000000001,0.0,0,0,0,0.125,12.75,0.0,0,0,0,0.0,12.700000000000001,0.0,0,0,0,0.0,12.700000000000001,0.0,0,0,0,0.125,12.75,0.0,0,0,0,kReverse,kForward,-86.9,2.25,2.25,0.038635254,-0.98553467,0.04058838,31.77,0.0,0.0,-7.865448,11.638657,
473.373216,true,true,true,0.125,12.700000000000001,0.0,0,0,0,0.125,12.700000000000001,0.0,0,0,0,0.125,12.700000000000001,0.0,0,0,0,0.125,12.75,0.0,0,0,0,0.0,12.700000000000001,0.0,0,0,0,0.0,12.700000000000001,0.0,0,0,0,0.0,12.75,0.0,0,0,0,kReverse,kForward,-86.9,2.25,2.25,0.036376953,-0.98339844,0.029663086,31.77,0.0,-2.0,-7.865448,11.638657,
473.395331,true,true,true,0.125,12.700000000000001,0.0,0,0,0,0.125,12.700000000000001,0.0,0,0,0,0.125,12.700000000000001,0.0,0,0,0,0.125,12.75,0.0,0,0,0,0.0,12.700000000000001,0.0,0,0,0,0.0,12.700000000000001,0.0,0,0,0,0.0,12.75,0.0,0,0,0,kReverse,kForward,-86.9,2.25,2.25,0.04083252,-0.98327637,0.03314209,31.77,0.0,2.0,-7.865448,11.638657,
473.418244,true,true,true,0.125,12.700000000000001,0.0,0,0,0,0.125,12.700000000000001,0.0,0,0,0,0.125,12.700000000000001,0.0,0,0,0,0.125,12.75,0.0,0,0,0,0.0,12.700000000000001,0.0,0,0,0,0.0,12.700000000000001,0.0,0,0,0,0.0,12.75,0.0,0,0,0,kReverse,kForward,-86.9,2.26,2.25,0.041137695,-0.9819946,0.031677246,31.77,0.0,2.0,-7.865448,11.638657,
473.44086300000004,true,true,true,0.125,12.700000000000001,0.0,0,0,0,0.125,12.700000000000001,0.0,0,0,0,0.125,12.700000000000001,0.0,0,0,0,0.125,12.75,0.0,0,0,0,0.0,12.700000000000001,0.0,0,0,0,0.0,12.700000000000001,0.0,0,0,0,0.0,12.75,0.0,0,0,0,kReverse,kForward,-86.9,2.26,2.25,0.037353516,-0.98309326,0.032165527,31.77,0.0,-1.0,-7.865448,11.638657,
473.461973,true,true,true,0.125,12.700000000000001,0.0,0,0,0,0.125,12.700000000000001,0.0,0,0,0,0.125,12.700000000000001,0.0,0,0,0,0.125,12.75,0.0,0,0,0,0.0,12.700000000000001,0.0,0,0,0,0.0,12.700000000000001,0.0,0,0,0,0.0,12.75,0.0,0,0,0,kReverse,kForward,-86.9,2.26,2.25,0.037231445,-0.9847412,0.03692627,31.77,0.0,-1.0,-7.865448,11.638657,
473.484126,true,true,true,0.125,12.700000000000001,0.0,0,0,0,0.125,12.700000000000001,0.0,0,0,0,0.125,12.700000000000001,0.0,0,0,0,0.125,12.75,0.0,0,0,0,0.0,12.700000000000001,0.0,0,0,0,0.0,12.700000000000001,0.0,0,0,0,0.125,12.75,0.0,0,0,0,kReverse,kForward,-86.9,2.26,2.25,0.04144287,-0.98461914,0.035949707,31.77,0.0,2.0,-7.865448,11.638657,
473.506217,true,true,true,0.125,12.700000000000001,0.0,0,0,0,0.125,12.700000000000001,0.0,0,0,0,0.125,12.700000000000001,0.0,0,0,0,0.125,12.75,0.0,0,0,0,0.0,12.700000000000001,0.0,0,0,0,0.0,12.700000000000001,0.0,0,0,0,0.125,12.75,0.0,0,0,0,kReverse,kForward,-86.9,2.26,2.25,0.036193848,-0.98358154,0.033691406,31.77,0.0,-2.0,-7.865448,11.638657,
473.525995,true,true,true,0.125,12.700000000000001,0.0,0,0,0,0.125,12.700000000000001,0.0,0,0,0,0.125,12.65,0.0,0,0,0,0.125,12.75,0.0,0,0,0,0.0,12.700000000000001,0.0,0,0,0,0.0,12.700000000000001,0.0,0,0,0,0.125,12.75,0.0,0,0,0,kReverse,kForward,-86.9,2.26,2.25,0.036743164,-0.98638916,0.032104492,31.77,0.0,-2.0,-7.865448,11.638657,
473.552145,true,true,true,0.125,12.700000000000001,0.0,0,0,0,0.125,12.700000000000001,0.0,0,0,0,0.125,12.65,0.0,0,0,0,0.125,12.75,0.0,0,0,0,0.0,12.700000000000001,0.0,0,0,0,0.0,12.700000000000001,0.0,0,0,0,0.125,12.75,0.0,0,0,0,kReverse,kForward,-86.9,2.26,2.25,0.036743164,-0.9849243,0.037597656,31.77,0.0,-2.0,-7.865448,11.638657,
473.576742,true,true,true,0.125,12.700000000000001,0.0,0,0,0,0.125,12.700000000000001,0.0,0,0,0,0.125,12.65,0.0,0,0,0,0.125,12.75,0.0,0,0,0,0.0,12.700000000000001,0.0,0,0,0,0.0,12.700000000000001,0.0,0,0,0,0.125,12.75,0.0,0,0,0,kReverse,kForward,-86.9,2.25,2.25,0.03967285,-0.98498535,0.030944824,31.77,0.0,0.0,-7.865448,11.638657,
473.59530100000006,true,true,true,0.125,12.700000000000001,0.0,0,0,0,0.125,12.700000000000001,0.0,0,0,0,0.125,12.65,0.0,0,0,0,0.125,12.75,0.0,0,0,0,0.0,12.700000000000001,0.0,0,0,0,0.0,12.700000000000001,0.0,0,0,0,0.125,12.75,0.0,0,0,0,kReverse,kForward,-86.9,2.26,2.25,0.037902832,-0.9844971,0.036315918,31.77,0.0,-1.0,-7.865448,11.638657,
473.621297,true,true,true,0.125,12.700000000000001,0.0,0,0,0,0.125,12.700000000000001,0.0,0,0,0,0.125,12.65,0.0,0,0,0,0.125,12.75,0.0,0,0,0,0.0,12.700000000000001,0.0,0,0,0,0.0,12.700000000000001,0.0,0,0,0,0.125,12.75,0.0,0,0,0,kReverse,kForward,-86.9,2.25,2.25,0.035949707,-0.98272705,0.035888672,31.77,0.0,-2.0,-7.865448,11.638657,
473.642084,true,true,true,0.125,12.700000000000001,0.0,0,0,0,0.125,12.700000000000001,0.0,0,0,0,0.125,12.65,0.0,0,0,0,0.125,12.75,0.0,0,0,0,0.0,12.700000000000001,0.0,0,0,0,0.0,12.700000000000001,0.0,0,0,0,0.125,12.75,0.0,0,0,0,kReverse,kForward,-86.9,2.25,2.25,0.038208008,-0.98413086,0.0390625,31.77,0.0,0.0,-7.865448,11.638657,
473.66348100000005,true,true,true,0.125,12.700000000000001,0.0,0,0,0,0.125,12.700000000000001,0.0,0,0,0,0.125,12.65,0.0,0,0,0,0.125,12.75,0.0,0,0,0,0.0,12.700000000000001,0.0,0,0,0,0.0,12.700000000000001,0.0,0,0,0,0.125,12.75,0.0,0,0,0,kReverse,kForward,-86.9,2.25,2.25,0.03942871,-0.9819946,0.03503418,31.77,0.0,0.0,-7.865448,11.638657,
473.684892,true,true,true,0.125,12.700000000000001,0.0,0,0,0,0.125,12.700000000000001,0.0,0,0,0,0.125,12.700000000000001,0.0,0,0,0,0.125,12.75,0.0,0,0,0,0.0,12.700000000000001,0.0,0,0,0,0.0,12.700000000000001,0.0,0,0,0,0.125,12.75,0.0,0,0,0,kReverse,kForward,-86.9,2.25,2.25,0.041015625,-0.98327637,0.034729004,31.77,0.0,2.0,-7.865448,11.638657,
473.70518100000004,true,true,true,0.125,12.700000000000001,0.0,0,0,0,0.125,12.700000000000001,0.0,0,0,0,0.125,12.700000000000001,0.0,0,0,0,0.125,12.75,0.0,0,0,0,0.0,12.700000000000001,0.0,0,0,0,0.0,12.700000000000001,0.0,0,0,0,0.125,12.75,0.0,0,0,0,kReverse,kForward,-86.9,2.25,2.25,0.03845215,-0.98413086,0.037475586,31.77,0.0,0.0,-7.865448,11.638657,
473.725318,true,true,true,0.125,12.700000000000001,0.0,0,0,0,0.125,12.700000000000001,0.0,0,0,0,0.125,12.700000000000001,0.0,0,0,0,0.125,12.75,0.0,0,0,0,0.0,12.700000000000001,0.0,0,0,0,0.0,12.700000000000001,0.0,0,0,0,0.125,12.75,0.0,0,0,0,kReverse,kForward,-86.9,2.26,2.25,0.039123535,-0.9817505,0.036315918,31.77,0.0,0.0,-7.865448,11.638657,
473.745591,true,true,true,0.125,12.700000000000001,0.0,0,0,0,0.125,12.700000000000001,0.0,0,0,0,0.125,12.700000000000001,0.0,0,0,0,0.125,12.75,0.0,0,0,0,0.0,12.700000000000001,0.0,0,0,0,0.0,12.700000000000001,0.0,0,0,0,0.125,12.75,0.0,0,0,0,kReverse,kForward,-86.9,2.26,2.25,0.038085938,-0.9827881,0.040161133,31.77,0.0,0.0,-7.865448,11.638657,
473.76862900000003,true,true,true,0.125,12.700000000000001,0.0,0,0,0,0.125,12.700000000000001,0.0,0,0,0,0.125,12.700000000000001,0.0,0,0,0,0.125,12.75,0.0,0,0,0,0.0,12.700000000000001,0.0,0,0,0,0.0,12.700000000000001,0.0,0,0,0,0.125,12.75,0.0,0,0,0,kReverse,kForward,-86.9,2.26,2.25,0.03845215,-0.9814453,0.03930664,31.77,0.0,0.0,-7.865448,11.638657,
473.78782200000006,true,true,true,0.125,12.700000000000001,0.0,0,0,0,0.125,12.700000000000001,0.0,0,0,0,0.125,12.700000000000001,0.0,0,0,0,0.125,12.75,0.0,0,0,0,0.0,12.700000000000001,0.0,0,0,0,0.0,12.700000000000001,0.0,0,0,0,0.125,12.75,0.0,0,0,0,kReverse,kForward,-86.9,2.26,2.25,0.04034424,-0.98254395,0.036254883,31.77,0.0,1.0,-7.865448,11.638657,
473.811066,true,true,true,0.125,12.700000000000001,0.0,0,0,0,0.125,12.700000000000001,0.0,0,0,0,0.125,12.700000000000001,0.0,0,0,0,0.125,12.75,0.0,0,0,0,0.0,12.700000000000001,0.0,0,0,0,0.0,12.700000000000001,0.0,0,0,0,0.125,12.75,0.0,0,0,0,kReverse,kForward,-86.9,2.25,2.25,0.040405273,-0.9817505,0.036132812,31.77,0.0,1.0,-7.865448,11.638657,
473.834986,true,true,true,0.125,12.700000000000001,0.0,0,0,0,0.125,12.700000000000001,0.0,0,0,0,0.125,12.700000000000001,0.0,0,0,0,0.125,12.75,0.0,0,0,0,0.0,12.700000000000001,0.0,0,0,0,0.0,12.700000000000001,0.0,0,0,0,0.0,12.75,0.0,0,0,0,kReverse,kForward,-86.89,2.26,2.26,0.03955078,-0.98339844,0.036376953,31.77,0.0,0.0,-7.865448,11.638657,
473.853627,true,true,true,0.125,12.700000000000001,0.0,0,0,0,0.125,12.700000000000001,0.0,0,0,0,0.125,12.700000000000001,0.0,0,0,0,0.125,12.75,0.0,0,0,0,0.0,12.700000000000001,0.0,0,0,0,0.0,12.700000000000001,0.0,0,0,0,0.0,12.75,0.0,0,0,0,kReverse,kForward,-86.89,2.26,2.26,0.036743164,-0.98095703,0.03265381,31.77,0.0,-2.0,-7.865448,11.638657,
473.875142,true,true,true,0.125,12.700000000000001,0.0,0,0,0,0.125,12.700000000000001,0.0,0,0,0,0.125,12.700000000000001,0.0,0,0,0,0.125,12.75,0.0,0,0,0,0.0,12.700000000000001,0.0,0,0,0,0.0,12.700000000000001,0.0,0,0,0,0.0,12.75,0.0,0,0,0,kReverse,kForward,-86.9,2.26,2.25,0.039123535,-0.982605,0.03540039,31.77,0.0,0.0,-7.865448,11.638657,
473.89732300000003,true,true,true,0.125,12.700000000000001,0.0,0,0,0,0.125,12.700000000000001,0.0,0,0,0,0.125,12.700000000000001,0.0,0,0,0,0.125,12.75,0.0,0,0,0,0.0,12.700000000000001,0.0,0,0,0,0.0,12.700000000000001,0.0,0,0,0,0.0,12.75,0.0,0,0,0,kReverse,kForward,-86.89,2.26,2.26,0.03967285,-0.98272705,0.0368042,31.77,0.0,0.0,-7.865448,11.638657,
473.921776,true,true,true,0.125,12.700000000000001,0.0,0,0,0,0.125,12.700000000000001,0.0,0,0,0,0.125,12.700000000000001,0.0,0,0,0,0.125,12.75,0.0,0,0,0,0.0,12.700000000000001,0.0,0,0,0,0.0,12.700000000000001,0.0,0,0,0,0.0,12.75,0.0,0,0,0,kReverse,kForward,-86.9,2.26,2.25,0.04046631,-0.9846802,0.038085938,31.77,0.0,1.0,-7.865448,11.638657,
473.943417,true,true,true,0.125,12.700000000000001,0.0,0,0,0,0.125,12.700000000000001,0.0,0,0,0,0.125,12.700000000000001,0.0,0,0,0,0.125,12.75,0.0,0,0,0,0.0,12.700000000000001,0.0,0,0,0,0.0,12.700000000000001,0.0,0,0,0,0.0,12.75,0.0,0,0,0,kReverse,kForward,-86.9,2.26,2.25,0.037597656,-0.9840088,0.037597656,31.77,0.0,-1.0,-7.865448,11.638657,
473.964093,true,true,true,0.125,12.700000000000001,0.0,0,0,0,0.125,12.700000000000001,0.0,0,0,0,0.125,12.700000000000001,0.0,0,0,0,0.125,12.75,0.0,0,0,0,0.0,12.700000000000001,0.0,0,0,0,0.0,12.700000000000001,0.0,0,0,0,0.125,12.75,0.0,0,0,0,kReverse,kForward,-86.9,2.26,2.25,0.03942871,-0.98321533,0.036621094,31.77,0.0,0.0,-7.865448,11.638657,
473.98654999999997,true,true,true,0.125,12.700000000000001,0.0,0,0,0,0.125,12.700000000000001,0.0,0,0,0,0.125,12.700000000000001,0.0,0,0,0,0.125,12.75,0.0,0,0,0,0.0,12.700000000000001,0.0,0,0,0,0.0,12.700000000000001,0.0,0,0,0,0.125,12.75,0.0,0,0,0,kReverse,kForward,-86.9,2.26,2.25,0.0390625,-0.98413086,0.034606934,31.77,0.0,0.0,-7.865448,11.638657,
474.011153,true,true,true,0.125,12.700000000000001,0.0,0,0,0,0.125,12.700000000000001,0.0,0,0,0,0.125,12.700000000000001,0.0,0,0,0,0.125,12.75,0.0,0,0,0,0.0,12.700000000000001,0.0,0,0,0,0.0,12.700000000000001,0.0,0,0,0,0.0,12.75,0.0,0,0,0,kReverse,kForward,-86.9,2.26,2.25,0.03753662,-0.9830322,0.037719727,31.77,0.0,-1.0,-7.865448,11.638657,
474.036872,true,true,true,0.125,12.700000000000001,0.0,0,0,0,0.125,12.700000000000001,0.0,0,0,0,0.125,12.700000000000001,0.0,0,0,0,0.125,12.75,0.0,0,0,0,0.0,12.700000000000001,0.0,0,0,0,0.0,12.700000000000001,0.0,0,0,0,0.0,12.75,0.0,0,0,0,kReverse,kForward,-86.9,2.25,2.25,0.039916992,-0.9876709,0.036987305,31.77,0.0,0.0,-7.865448,11.638657,
474.062283,true,true,true,0.125,12.700000000000001,0.0,0,0,0,0.125,12.700000000000001,0.0,0,0,0,0.125,12.700000000000001,0.0,0,0,0,0.125,12.75,0.0,0,0,0,0.0,12.700000000000001,0.0,0,0,0,0.0,12.700000000000001,0.0,0,0,0,0.0,12.75,0.0,0,0,0,kReverse,kForward,-86.9,2.25,2.25,0.035583496,-0.98309326,0.041137695,31.77,0.0,-3.0,-7.865448,11.638657,
474.084469,true,true,true,0.125,12.700000000000001,0.0,0,0,0,0.125,12.700000000000001,0.0,0,0,0,0.125,12.700000000000001,0.0,0,0,0,0.125,12.75,0.0,0,0,0,0.0,12.700000000000001,0.0,0,0,0,0.0,12.700000000000001,0.0,0,0,0,0.0,12.75,0.0,0,0,0,kReverse,kReverse,-86.9,2.25,2.25,0.038757324,-0.9851074,0.037109375,31.77,0.0,0.0,-7.865448,11.638657,
474.106555,true,true,true,0.125,12.700000000000001,0.0,0,0,0,0.125,12.700000000000001,0.0,0,0,0,0.125,12.700000000000001,0.0,0,0,0,0.125,12.75,0.0,0,0,0,0.0,12.700000000000001,0.0,0,0,0,0.0,12.700000000000001,0.0,0,0,0,0.0,12.75,0.0,0,0,0,kReverse,kReverse,-86.9,2.25,2.25,0.03881836,-0.9829712,0.036621094,31.77,0.0,0.0,-7.865448,11.638657,
474.130789,true,true,true,0.125,12.700000000000001,0.0,0,0,0,0.125,12.700000000000001,0.0,0,0,0,0.125,12.700000000000001,0.0,0,0,0,0.125,12.75,0.0,0,0,0,0.0,12.700000000000001,0.0,0,0,0,0.0,12.700000000000001,0.0,0,0,0,0.125,12.75,0.0,0,0,0,kReverse,kReverse,-86.89,2.26,2.25,0.045898438,-0.9784546,0.061706543,31.78,0.0,7.0,-7.865448,11.638672,
