timer,lineLeft,lineCenter,lineRight,LeftFrontCurrent,LeftFrontVoltage,LeftFrontValue,LeftFrontPosition,LeftFrontVelocity,LeftFrontFaults,LeftRearCurrent,LeftRearVoltage,LeftRearValue,LeftRearPosition,LeftRearVelocity,LeftRearFaults,RightFrontCurrent,RightFrontVoltage,RightFrontValue,RightFrontPosition,RightFrontVelocity,RightFrontFaults,RightRearCurrent,RightRearVoltage,RightRearValue,RightRearPosition,RightRearVelocity,RightRearFaults,LiftCurrent,LiftVoltage,LiftValue,LiftPosition,LiftVelocity,LiftFaults,WristCurrent,WristVoltage,WristValue,WristPosition,WristVelocity,WristFaults,RollerCurrent,RollerVoltage,RollerValue,RollerPosition,RollerVelocity,RollerFaults,PushersState,PivotsState,navx_Pitch,navx_Roll,navx_Yaw,navx_XAcc,navx_YAcc,navx_ZAcc,navx_Temp,navx_Bar,navx_Alt,navx_XDis,navx_YDis,
2572.260849,true,true,true,0.125,12.65,0.0,0,0,0,0.125,12.65,0.0,0,0,0,0.125,12.65,0.0,0,0,0,0.125,12.700000000000001,0.0,0,0,0,0.125,12.65,0.0,4,0,0,0.0,12.65,0.0,0,0,0,0.125,12.75,0.0,0,0,0,kOff,kOff,-87.06,2.14,2.54,0.032958984,-0.9805298,0.029907227,34.35,0.0,-4.0,-8.139481,11.792236,
2572.2802520000005,true,true,true,0.125,12.65,0.0,0,0,0,0.125,12.65,0.0,0,0,0,0.125,12.65,0.0,0,0,0,0.125,12.700000000000001,0.0,0,0,0,0.125,12.65,0.0,4,0,0,0.0,12.65,0.0,0,0,0,0.125,12.75,0.0,0,0,0,kReverse,kReverse,-87.06,2.14,2.54,0.039794922,-0.9848633,0.037902832,34.35,0.0,3.0,-8.139481,11.792236,
2572.2994540000004,true,true,true,0.125,12.65,0.0,0,0,0,0.125,12.65,0.0,0,0,0,0.125,12.65,0.0,0,0,0,0.125,12.700000000000001,0.0,0,0,0,0.125,12.65,0.0,4,0,0,0.0,12.65,0.0,0,0,0,0.125,12.75,0.0,0,0,0,kReverse,kReverse,-87.06,2.14,2.54,0.036193848,-0.98461914,0.03930664,34.35,0.0,0.0,-8.139481,11.792236,
2572.320572,true,true,true,0.125,12.65,0.0,0,0,0,0.125,12.65,0.0,0,0,0,0.125,12.65,0.0,0,0,0,0.125,12.700000000000001,0.0,0,0,0,0.125,12.65,0.0,4,0,0,0.0,12.65,0.0,0,0,0,0.125,12.75,0.0,0,0,0,kReverse,kReverse,-87.06,2.13,2.54,0.03515625,-0.98168945,0.03265381,34.35,0.0,-1.0,-8.139481,11.792236,
2572.3435040000004,true,true,true,0.125,12.65,0.0,0,0,0,0.125,12.65,0.0,0,0,0,0.125,12.65,0.0,0,0,0,0.125,12.65,0.0,0,0,0,0.125,12.65,0.0,4,0,0,0.0,12.65,0.0,0,0,0,0.125,12.75,0.0,0,0,0,kReverse,kReverse,-87.06,2.13,2.54,0.035827637,-0.98327637,0.032165527,34.35,0.0,-1.0,-8.139481,11.792236,
2572.3663540000002,true,true,true,0.125,12.65,0.0,0,0,0,0.125,12.65,0.0,0,0,0,0.125,12.65,0.0,0,0,0,0.125,12.65,0.0,0,0,0,0.125,12.65,0.0,4,0,0,0.0,12.65,0.0,0,0,0,0.125,12.75,0.0,0,0,0,kReverse,kReverse,-87.06,2.13,2.54,0.038757324,-0.9831543,0.03955078,34.35,0.0,3.0,-8.139481,11.792236,
2572.387898,true,true,true,0.125,12.65,0.0,0,0,0,0.125,12.65,0.0,0,0,0,0.125,12.65,0.0,0,0,0,0.125,12.65,0.0,0,0,0,0.125,12.65,0.0,4,0,0,0.0,12.65,0.0,0,0,0,0.125,12.75,0.0,0,0,0,kReverse,kReverse,-87.06,2.13,2.54,0.037231445,-0.9842529,0.036132812,34.4,0.0,0.0,-8.139481,11.792236,
2572.4107430000004,true,true,true,0.125,12.65,0.0,0,0,0,0.125,12.65,0.0,0,0,0,0.125,12.65,0.0,0,0,0,0.125,12.65,0.0,0,0,0,0.125,12.65,0.0,4,0,0,0.0,12.65,0.0,0,0,0,0.125,12.75,0.0,0,0,0,kReverse,kReverse,-87.06,2.14,2.54,0.03765869,-0.98339844,0.034851074,34.4,0.0,0.0,-8.139481,11.792236,
2572.4341950000003,true,true,true,0.125,12.65,0.0,0,0,0,0.125,12.65,0.0,0,0,0,0.125,12.65,0.0,0,0,0,0.125,12.65,0.0,0,0,0,0.125,12.65,0.0,4,0,0,0.0,12.65,0.0,0,0,0,0.125,12.75,0.0,0,0,0,kReverse,kReverse,-87.06,2.14,2.54,0.03387451,-0.9828491,0.03753662,34.4,0.0,-2.0,-8.139481,11.792236,
2572.4682460000004,true,true,true,0.125,12.65,0.0,0,0,0,0.125,12.65,0.0,0,0,0,0.125,12.65,0.0,0,0,0,0.125,12.65,0.0,0,0,0,0.125,12.65,0.0,4,0,0,0.0,12.65,0.0,0,0,0,0.125,12.75,0.0,0,0,0,kReverse,kReverse,-87.06,2.14,2.54,0.038757324,-0.9854126,0.032836914,34.4,0.0,1.0,-8.139481,11.792236,
2572.4957660000005,true,true,true,0.125,12.65,0.0,0,0,0,0.125,12.65,0.0,0,0,0,0.125,12.65,0.0,0,0,0,0.125,12.700000000000001,0.0,0,0,0,0.125,12.65,0.0,4,0,0,0.0,12.65,0.0,0,0,0,0.125,12.75,0.0,0,0,0,kReverse,kReverse,-87.06,2.14,2.54,0.03765869,-0.98535156,0.03503418,34.4,0.0,0.0,-8.139481,11.792236,
2572.5224450000005,true,true,true,0.125,12.65,0.0,0,0,0,0.125,12.65,0.0,0,0,0,0.125,12.65,0.0,0,0,0,0.125,12.700000000000001,0.0,0,0,0,0.125,12.65,0.0,4,0,0,0.0,12.65,0.0,0,0,0,0.125,12.75,0.0,0,0,0,kReverse,kReverse,-87.06,2.14,2.54,0.033996582,-0.9844971,0.034423828,34.4,0.0,-2.0,-8.139481,11.792236,
2572.543599,true,true,true,0.125,12.65,0.0,0,0,0,0.125,12.65,0.0,0,0,0,0.125,12.65,0.0,0,0,0,0.125,12.700000000000001,0.0,0,0,0,0.125,12.65,0.0,4,0,0,0.0,12.65,0.0,0,0,0,0.125,12.75,0.0,0,0,0,kReverse,kReverse,-87.06,2.14,2.54,0.033996582,-0.9844971,0.034423828,34.4,0.0,-2.0,-8.139481,11.792236,
2572.5652040000004,true,true,true,0.125,12.65,0.0,0,0,0,0.125,12.65,0.0,0,0,0,0.125,12.65,0.0,0,0,0,0.125,12.700000000000001,0.0,0,0,0,0.125,12.65,0.0,4,0,0,0.0,12.65,0.0,0,0,0,0.125,12.75,0.0,0,0,0,kReverse,kReverse,-87.06,2.14,2.54,0.033996582,-0.9844971,0.034423828,34.4,0.0,-2.0,-8.139481,11.792236,
2572.586016,true,true,true,0.125,12.65,0.0,0,0,0,0.125,12.65,0.0,0,0,0,0.125,12.65,0.0,0,0,0,0.125,12.700000000000001,0.0,0,0,0,0.125,12.65,0.0,4,0,0,0.0,12.65,0.0,0,0,0,0.125,12.75,0.0,0,0,0,kReverse,kReverse,-87.06,2.14,2.54,0.03778076,-0.9818115,0.03668213,34.4,0.0,1.0,-8.139481,11.792236,
2572.6113090000003,true,true,true,0.125,12.65,0.0,0,0,0,0.125,12.65,0.0,0,0,0,0.125,12.65,0.0,0,0,0,0.125,12.700000000000001,0.0,0,0,0,0.125,12.65,0.0,4,0,0,0.0,12.65,0.0,0,0,0,0.125,12.75,0.0,0,0,0,kReverse,kReverse,-87.06,2.14,2.54,0.03643799,-0.98321533,0.03253174,34.4,0.0,0.0,-8.139481,11.792236,
2572.6310980000003,true,true,true,0.125,12.65,0.0,0,0,0,0.125,12.65,0.0,0,0,0,0.125,12.65,0.0,0,0,0,0.125,12.700000000000001,0.0,0,0,0,0.125,12.65,0.0,4,0,0,0.0,12.65,0.0,0,0,0,0.125,12.75,0.0,0,0,0,kReverse,kReverse,-87.06,2.14,2.54,0.037841797,-0.98205566,0.03955078,34.4,0.0,2.0,-8.139481,11.792236,
2572.6582430000003,true,true,true,0.125,12.65,0.0,0,0,0,0.125,12.65,0.0,0,0,0,0.125,12.65,0.0,0,0,0,0.125,12.700000000000001,0.0,0,0,0,0.125,12.65,0.0,4,0,0,0.0,12.65,0.0,0,0,0,0.125,12.75,0.0,0,0,0,kReverse,kReverse,-87.06,2.14,2.54,0.039001465,-0.9816284,0.03466797,34.4,0.0,2.0,-8.139481,11.792236,
2572.6808910000004,true,true,true,0.125,12.65,0.0,0,0,0,0.125,12.65,0.0,0,0,0,0.125,12.65,0.0,0,0,0,0.125,12.700000000000001,0.0,0,0,0,0.125,12.65,0.0,4,0,0,0.0,12.65,0.0,0,0,0,0.125,12.75,0.0,0,0,0,kReverse,kReverse,-87.06,2.14,2.54,0.03717041,-0.9854126,0.029418945,34.4,0.0,0.0,-8.139481,11.792236,
2572.701828,true,true,true,0.125,12.65,0.0,0,0,0,0.125,12.65,0.0,0,0,0,0.125,12.65,0.0,0,0,0,0.125,12.700000000000001,0.0,0,0,0,0.125,12.65,0.0,4,0,0,0.0,12.65,0.0,0,0,0,0.125,12.75,0.0,0,0,0,kReverse,kReverse,-87.06,2.14,2.54,0.038879395,-0.9838867,0.03137207,34.4,0.0,1.0,-8.139481,11.792236,
2572.722274,true,true,true,0.125,12.65,0.0,0,0,0,0.125,12.65,0.0,0,0,0,0.125,12.65,0.0,0,0,0,0.125,12.700000000000001,0.0,0,0,0,0.125,12.65,0.0,4,0,0,0.0,12.65,0.0,0,0,0,0.125,12.75,0.0,0,0,0,kReverse,kReverse,-87.06,2.14,2.54,0.034729004,-0.98046875,0.031921387,34.4,0.0,-2.0,-8.139481,11.792236,
2572.7434510000003,true,true,true,0.125,12.65,0.0,0,0,0,0.125,12.65,0.0,0,0,0,0.125,12.65,0.0,0,0,0,0.125,12.700000000000001,0.0,0,0,0,0.125,12.65,0.0,4,0,0,0.0,12.65,0.0,0,0,0,0.125,12.75,0.0,0,0,0,kReverse,kReverse,-87.06,2.14,2.54,0.03527832,-0.9852295,0.03515625,34.4,0.0,-1.0,-8.139481,11.792236,
2572.7659540000004,true,true,true,0.125,12.65,0.0,0,0,0,0.125,12.65,0.0,0,0,0,0.125,12.65,0.0,0,0,0,0.125,12.700000000000001,0.0,0,0,0,0.125,12.65,0.0,4,0,0,0.0,12.65,0.0,0,0,0,0.125,12.75,0.0,0,0,0,kReverse,kReverse,-87.06,2.14,2.54,0.03869629,-0.9838867,0.03173828,34.4,0.0,1.0,-8.139481,11.792236,
2572.789808,true,true,true,0.125,12.65,0.0,0,0,0,0.125,12.65,0.0,0,0,0,0.125,12.65,0.0,0,0,0,0.125,12.700000000000001,0.0,0,0,0,0.125,12.65,0.0,4,0,0,0.0,12.65,0.0,0,0,0,0.125,12.75,0.0,0,0,0,kReverse,kReverse,-87.06,2.14,2.54,0.03765869,-0.9803467,0.038391113,34.4,0.0,1.0,-8.139481,11.792236,
2572.8158340000005,true,true,true,0.125,12.65,0.0,0,0,0,0.125,12.65,0.0,0,0,0,0.125,12.65,0.0,0,0,0,0.125,12.700000000000001,0.0,0,0,0,0.125,12.65,0.0,4,0,0,0.0,12.65,0.0,0,0,0,0.125,12.75,0.0,0,0,0,kReverse,kReverse,-87.06,2.14,2.54,0.037963867,-0.98565674,0.034301758,34.4,0.0,0.0,-8.139481,11.792236,
2572.84279,true,true,true,0.125,12.65,0.0,0,0,0,0.125,12.65,0.0,0,0,0,0.125,12.65,0.0,0,0,0,0.125,12.700000000000001,0.0,0,0,0,0.125,12.65,0.0,4,0,0,0.0,12.65,0.0,0,0,0,0.125,12.75,0.0,0,0,0,kReverse,kReverse,-87.06,2.14,2.54,0.03894043,-0.9838257,0.031188965,34.4,0.0,1.0,-8.139481,11.792236,
2572.862372,true,true,true,0.125,12.65,0.0,0,0,0,0.125,12.65,0.0,0,0,0,0.125,12.65,0.0,0,0,0,0.125,12.700000000000001,0.0,0,0,0,0.125,12.65,0.0,4,0,0,0.0,12.65,0.0,0,0,0,0.125,12.75,0.0,0,0,0,kReverse,kReverse,-87.06,2.14,2.54,0.039245605,-0.9859009,0.038269043,34.4,0.0,3.0,-8.139481,11.792236,
2572.8846500000004,true,true,true,0.125,12.65,0.0,0,0,0,0.125,12.65,0.0,0,0,0,0.125,12.65,0.0,0,0,0,0.125,12.700000000000001,0.0,0,0,0,0.125,12.65,0.0,4,0,0,0.0,12.65,0.0,0,0,0,0.125,12.75,0.0,0,0,0,kReverse,kReverse,-87.06,2.14,2.54,0.036621094,-0.9848633,0.033691406,34.36,0.0,0.0,-8.139481,11.792236,
2572.906486,true,true,true,0.125,12.65,0.0,0,0,0,0.125,12.65,0.0,0,0,0,0.125,12.65,0.0,0,0,0,0.125,12.700000000000001,0.0,0,0,0,0.125,12.65,0.0,4,0,0,0.0,12.65,0.0,0,0,0,0.125,12.75,0.0,0,0,0,kReverse,kReverse,-87.06,2.14,2.54,0.03643799,-0.98516846,0.032470703,34.36,0.0,0.0,-8.139481,11.792236,
2572.929723,true,true,true,0.125,12.65,0.0,0,0,0,0.125,12.65,0.0,0,0,0,0.125,12.65,0.0,0,0,0,0.125,12.700000000000001,0.0,0,0,0,0.125,12.65,0.0,4,0,0,0.0,12.65,0.0,0,0,0,0.125,12.75,0.0,0,0,0,kReverse,kReverse,-87.06,2.14,2.54,0.035888672,-0.9819336,0.034423828,34.36,0.0,0.0,-8.139481,11.792236,
2572.9552230000004,true,true,true,0.125,12.65,0.0,0,0,0,0.125,12.65,0.0,0,0,0,0.125,12.65,0.0,0,0,0,0.125,12.700000000000001,0.0,0,0,0,0.125,12.65,0.0,4,0,0,0.0,12.65,0.0,0,0,0,0.125,12.75,0.0,0,0,0,kReverse,kReverse,-87.06,2.14,2.54,0.036865234,-0.98236084,0.02758789,34.36,0.0,-1.0,-8.139481,11.792236,
2572.982156,true,true,true,0.125,12.65,0.0,0,0,0,0.125,12.65,0.0,0,0,0,0.125,12.65,0.0,0,0,0,0.125,12.700000000000001,0.0,0,0,0,0.125,12.65,0.0,4,0,0,0.0,12.65,0.0,0,0,0,0.125,12.75,0.0,0,0,0,kReverse,kReverse,-87.06,2.13,2.54,0.03656006,-0.98620605,0.04107666,34.36,0.0,1.0,-8.139481,11.792236,
2573.0053190000003,true,true,true,0.125,12.65,0.0,0,0,0,0.125,12.65,0.0,0,0,0,0.125,12.65,0.0,0,0,0,0.125,12.700000000000001,0.0,0,0,0,0.125,12.65,0.0,4,0,0,0.0,12.65,0.0,0,0,0,0.125,12.75,0.0,0,0,0,kReverse,kReverse,-87.06,2.14,2.54,0.038330078,-0.9824219,0.036499023,34.36,0.0,1.0,-8.139481,11.792236,
2573.026582,true,true,true,0.125,12.65,0.0,0,0,0,0.125,12.65,0.0,0,0,0,0.125,12.65,0.0,0,0,0,0.125,12.700000000000001,0.0,0,0,0,0.125,12.65,0.0,4,0,0,0.0,12.65,0.0,0,0,0,0.125,12.75,0.0,0,0,0,kReverse,kReverse,-87.06,2.14,2.54,0.03845215,-0.98431396,0.037902832,34.36,0.0,2.0,-8.139481,11.792236,
2573.048212,true,true,true,0.125,12.65,0.0,0,0,0,0.125,12.65,0.0,0,0,0,0.125,12.65,0.0,0,0,0,0.125,12.700000000000001,0.0,0,0,0,0.125,12.65,0.0,4,0,0,0.0,12.65,0.0,0,0,0,0.125,12.75,0.0,0,0,0,kReverse,kReverse,-87.06,2.14,2.54,0.038024902,-0.9827881,0.030883789,34.36,0.0,0.0,-8.139481,11.792236,
2573.0746,true,true,true,0.125,12.65,0.0,0,0,0,0.125,12.65,0.0,0,0,0,0.125,12.65,0.0,0,0,0,0.125,12.700000000000001,0.0,0,0,0,0.125,12.65,0.0,4,0,0,0.0,12.65,0.0,0,0,0,0.125,12.75,0.0,0,0,0,kReverse,kReverse,-87.06,2.14,2.54,0.03314209,-0.98309326,0.035461426,34.36,0.0,-3.0,-8.139481,11.792236,
2573.096879,true,true,true,0.125,12.65,0.0,0,0,0,0.125,12.65,0.0,0,0,0,0.125,12.65,0.0,0,0,0,0.125,12.700000000000001,0.0,0,0,0,0.125,12.65,0.0,4,0,0,0.0,12.65,0.0,0,0,0,0.125,12.75,0.0,0,0,0,kReverse,kReverse,-87.06,2.13,2.54,0.030334473,-0.98223877,0.03552246,34.36,0.0,-6.0,-8.139481,11.792236,
2573.118932,true,true,true,0.125,12.65,0.0,0,0,0,0.125,12.65,0.0,0,0,0,0.125,12.65,0.0,0,0,0,0.125,12.700000000000001,0.0,0,0,0,0.125,12.65,0.0,4,0,0,0.0,12.65,0.0,0,0,0,0.125,12.75,0.0,0,0,0,kReverse,kReverse,-87.07,2.13,2.53,0.038513184,-0.98443604,0.031982422,34.36,0.0,1.0,-8.139481,11.792236,
2573.1433090000005,true,true,true,0.125,12.65,0.0,0,0,0,0.125,12.65,0.0,0,0,0,0.125,12.65,0.0,0,0,0,0.125,12.700000000000001,0.0,0,0,0,0.0,12.65,0.0,4,0,0,0.0,12.65,0.0,0,0,0,0.125,12.75,0.0,0,0,0,kReverse,kReverse,-87.07,2.12,2.53,0.03149414,-0.9838257,0.035888672,34.36,0.0,-4.0,-8.139481,11.792236,
2573.166657,true,true,true,0.125,12.65,0.0,0,0,0,0.125,12.65,0.0,0,0,0,0.125,12.65,0.0,0,0,0,0.125,12.700000000000001,0.0,0,0,0,0.0,12.65,0.0,4,0,0,0.0,12.65,0.0,0,0,0,0.125,12.75,0.0,0,0,0,kReverse,kReverse,-87.07,2.12,2.53,0.03656006,-0.98620605,0.033691406,34.36,0.0,0.0,-8.139481,11.792236,
2573.1927630000005,true,true,true,0.125,12.65,0.0,0,0,0,0.125,12.65,0.0,0,0,0,0.125,12.65,0.0,0,0,0,0.125,12.700000000000001,0.0,0,0,0,0.125,12.65,0.0,4,0,0,0.0,12.65,0.0,0,0,0,0.125,12.75,0.0,0,0,0,kReverse,kReverse,-87.07,2.13,2.53,0.034301758,-0.982666,0.035339355,34.36,0.0,-2.0,-8.139481,11.792236,
2573.2147170000003,true,true,true,0.125,12.65,0.0,0,0,0,0.125,12.65,0.0,0,0,0,0.125,12.65,0.0,0,0,0,0.125,12.700000000000001,0.0,0,0,0,0.125,12.65,0.0,4,0,0,0.0,12.65,0.0,0,0,0,0.125,12.75,0.0,0,0,0,kReverse,kReverse,-87.07,2.13,2.54,0.035888672,-0.98272705,0.032409668,34.36,0.0,-1.0,-8.139481,11.792236,
2573.2378390000003,true,true,true,0.125,12.65,0.0,0,0,0,0.125,12.65,0.0,0,0,0,0.125,12.65,0.0,0,0,0,0.125,12.700000000000001,0.0,0,0,0,0.125,12.65,0.0,4,0,0,0.0,12.65,0.0,0,0,0,0.125,12.75,0.0,0,0,0,kReverse,kReverse,-87.07,2.13,2.54,0.03704834,-0.9845581,0.0335083,34.36,0.0,0.0,-8.139481,11.792236,
2573.261355,true,true,true,0.125,12.65,0.0,0,0,0,0.125,12.65,0.0,0,0,0,0.125,12.65,0.0,0,0,0,0.125,12.700000000000001,0.0,0,0,0,0.125,12.65,0.0,4,0,0,0.0,12.65,0.0,0,0,0,0.125,12.75,0.0,0,0,0,kReverse,kReverse,-87.07,2.13,2.54,0.034423828,-0.98132324,0.03161621,34.36,0.0,-2.0,-8.139481,11.792236,
2573.2843820000003,true,true,true,0.125,12.65,0.0,0,0,0,0.125,12.65,0.0,0,0,0,0.125,12.65,0.0,0,0,0,0.125,12.700000000000001,0.0,0,0,0,0.125,12.65,0.0,4,0,0,0.0,12.65,0.0,0,0,0,0.125,12.75,0.0,0,0,0,kReverse,kReverse,-87.07,2.13,2.54,0.03692627,-0.9859619,0.034729004,34.36,0.0,0.0,-8.139481,11.792236,
2573.3106350000003,true,true,true,0.125,12.65,0.0,0,0,0,0.125,12.65,0.0,0,0,0,0.125,12.65,0.0,0,0,0,0.125,12.700000000000001,0.0,0,0,0,0.125,12.65,0.0,4,0,0,0.0,12.65,0.0,0,0,0,0.125,12.75,0.0,0,0,0,kReverse,kReverse,-87.07,2.13,2.54,0.036621094,-0.97998047,0.031188965,34.36,0.0,0.0,-8.139481,11.792236,
2573.3354470000004,true,true,true,0.125,12.65,0.0,0,0,0,0.125,12.65,0.0,0,0,0,0.125,12.65,0.0,0,0,0,0.125,12.700000000000001,0.0,0,0,0,0.125,12.65,0.0,4,0,0,0.0,12.65,0.0,0,0,0,0.125,12.75,0.0,0,0,0,kReverse,kReverse,-87.07,2.13,2.54,0.035095215,-0.9845581,0.034729004,34.36,0.0,-1.0,-8.139481,11.792236,
2573.3564880000004,true,true,true,0.125,12.65,0.0,0,0,0,0.125,12.65,0.0,0,0,0,0.125,12.65,0.0,0,0,0,0.125,12.700000000000001,0.0,0,0,0,0.125,12.65,0.0,4,0,0,0.0,12.65,0.0,0,0,0,0.125,12.75,0.0,0,0,0,kReverse,kReverse,-87.07,2.13,2.53,0.03753662,-0.98291016,0.03387451,34.36,0.0,0.0,-8.139481,11.792236,
2573.3833130000003,true,true,true,0.125,12.65,0.0,0,0,0,0.125,12.65,0.0,0,0,0,0.125,12.65,0.0,0,0,0,0.125,12.700000000000001,0.0,0,0,0,0.125,12.65,0.0,4,0,0,0.0,12.65,0.0,0,0,0,0.125,12.75,0.0,0,0,0,kReverse,kReverse,-87.07,2.13,2.53,0.0368042,-0.98236084,0.034240723,34.36,0.0,0.0,-8.139481,11.792236,
2573.404527,true,true,true,0.125,12.65,0.0,0,0,0,0.125,12.65,0.0,0,0,0,0.125,12.65,0.0,0,0,0,0.125,12.700000000000001,0.0,0,0,0,0.125,12.65,0.0,4,0,0,0.0,12.65,0.0,0,0,0,0.125,12.75,0.0,0,0,0,kReverse,kReverse,-87.07,2.13,2.53,0.038208008,-0.9812622,0.032836914,34.37,0.0,1.0,-8.139481,11.792236,
2573.4249250000003,true,true,true,0.125,12.65,0.0,0,0,0,0.125,12.65,0.0,0,0,0,0.125,12.65,0.0,0,0,0,0.125,12.700000000000001,0.0,0,0,0,0.125,12.65,0.0,4,0,0,0.0,12.65,0.0,0,0,0,0.125,12.75,0.0,0,0,0,kReverse,kReverse,-87.07,2.13,2.53,0.03643799,-0.98443604,0.033691406,34.37,0.0,0.0,-8.139481,11.792236,
2573.445117,true,true,true,0.125,12.65,0.0,0,0,0,0.125,12.65,0.0,0,0,0,0.125,12.65,0.0,0,0,0,0.125,12.65,0.0,0,0,0,0.125,12.65,0.0,4,0,0,0.0,12.65,0.0,0,0,0,0.125,12.75,0.0,0,0,0,kReverse,kReverse,-87.07,2.13,2.53,0.037109375,-0.986084,0.030822754,34.37,0.0,0.0,-8.139481,11.792236,
2573.467957,true,true,true,0.125,12.65,0.0,0,0,0,0.125,12.65,0.0,0,0,0,0.125,12.65,0.0,0,0,0,0.125,12.65,0.0,0,0,0,0.125,12.65,0.0,4,0,0,0.0,12.65,0.0,0,0,0,0.125,12.75,0.0,0,0,0,kReverse,kReverse,-87.08,2.12,2.53,0.03753662,-0.98272705,0.0335083,34.37,0.0,0.0,-8.139481,11.792236,
2573.488805,true,true,true,0.125,12.65,0.0,0,0,0,0.125,12.65,0.0,0,0,0,0.125,12.65,0.0,0,0,0,0.125,12.65,0.0,0,0,0,0.125,12.65,0.0,4,0,0,0.0,12.65,0.0,0,0,0,0.125,12.75,0.0,0,0,0,kReverse,kReverse,-87.08,2.12,2.53,0.039611816,-0.9829712,0.039489746,34.37,0.0,4.0,-8.139481,11.792236,
2573.5105,true,true,true,0.125,12.65,0.0,0,0,0,0.125,12.65,0.0,0,0,0,0.125,12.65,0.0,0,0,0,0.125,12.65,0.0,0,0,0,0.125,12.65,0.0,4,0,0,0.0,12.65,0.0,0,0,0,0.125,12.75,0.0,0,0,0,kReverse,kReverse,-87.08,2.12,2.53,0.038391113,-0.9835205,0.0345459,34.37,0.0,1.0,-8.139481,11.792236,
2573.544832,true,true,true,0.125,12.65,0.0,0,0,0,0.125,12.65,0.0,0,0,0,0.125,12.65,0.0,0,0,0,0.125,12.65,0.0,0,0,0,0.125,12.65,0.0,4,0,0,0.0,12.65,0.0,0,0,0,0.125,12.75,0.0,0,0,0,kReverse,kReverse,-87.08,2.13,2.53,0.034851074,-0.9824219,0.03729248,34.37,0.0,-1.0,-8.139481,11.792236,
2573.570896,true,true,true,0.125,12.65,0.0,0,0,0,0.125,12.65,0.0,0,0,0,0.125,12.65,0.0,0,0,0,0.125,12.65,0.0,0,0,0,0.125,12.65,0.0,4,0,0,0.0,12.65,0.0,0,0,0,0.125,12.75,0.0,0,0,0,kReverse,kReverse,-87.08,2.12,2.53,0.036010742,-0.97998047,0.031433105,34.37,0.0,0.0,-8.139481,11.792236,
2573.599086,true,true,true,0.125,12.65,0.0,0,0,0,0.125,12.65,0.0,0,0,0,0.125,12.65,0.0,0,0,0,0.125,12.65,0.0,0,0,0,0.125,12.65,0.0,4,0,0,0.0,12.65,0.0,0,0,0,0.125,12.75,0.0,0,0,0,kReverse,kReverse,-87.08,2.12,2.52,0.034301758,-0.9859009,0.0357666,34.37,0.0,-1.0,-8.139481,11.792236,
2573.624588,true,true,true,0.125,12.65,0.0,0,0,0,0.125,12.65,0.0,0,0,0,0.125,12.65,0.0,0,0,0,0.125,12.700000000000001,0.0,0,0,0,0.125,12.65,0.0,4,0,0,0.0,12.65,0.0,0,0,0,0.125,12.75,0.0,0,0,0,kReverse,kReverse,-87.08,2.12,2.52,0.03527832,-0.9786377,0.038513184,34.37,0.0,0.0,-8.139481,11.792236,
2573.6464020000003,true,true,true,0.125,12.65,0.0,0,0,0,0.125,12.65,0.0,0,0,0,0.125,12.65,0.0,0,0,0,0.125,12.700000000000001,0.0,0,0,0,0.125,12.65,0.0,4,0,0,0.0,12.65,0.0,0,0,0,0.125,12.75,0.0,0,0,0,kReverse,kReverse,-87.08,2.12,2.52,0.03918457,-0.98339844,0.03845215,34.37,0.0,3.0,-8.139481,11.792236,
2573.6683590000002,true,true,true,0.125,12.65,0.0,0,0,0,0.125,12.65,0.0,0,0,0,0.125,12.65,0.0,0,0,0,0.125,12.700000000000001,0.0,0,0,0,0.125,12.65,0.0,4,0,0,0.0,12.65,0.0,0,0,0,0.125,12.75,0.0,0,0,0,kReverse,kReverse,-87.08,2.12,2.52,0.03564453,-0.98309326,0.036621094,34.37,0.0,0.0,-8.139481,11.792236,
2573.691779,true,true,true,0.125,12.65,0.0,0,0,0,0.125,12.65,0.0,0,0,0,0.125,12.65,0.0,0,0,0,0.125,12.700000000000001,0.0,0,0,0,0.125,12.65,0.0,4,0,0,0.0,12.65,0.0,0,0,0,0.125,12.75,0.0,0,0,0,kReverse,kReverse,-87.08,2.12,2.53,0.0390625,-0.98535156,0.036865234,34.37,0.0,2.0,-8.139481,11.792236,
2573.717156,true,true,true,0.125,12.65,0.0,0,0,0,0.125,12.65,0.0,0,0,0,0.125,12.65,0.0,0,0,0,0.125,12.700000000000001,0.0,0,0,0,0.125,12.65,0.0,4,0,0,0.0,12.65,0.0,0,0,0,0.125,12.75,0.0,0,0,0,kReverse,kReverse,-87.08,2.12,2.53,0.03778076,-0.9847412,0.03363037,34.37,0.0,0.0,-8.139481,11.792236,
2573.743745,true,true,true,0.125,12.65,0.0,0,0,0,0.125,12.65,0.0,0,0,0,0.125,12.65,0.0,0,0,0,0.125,12.700000000000001,0.0,0,0,0,0.125,12.65,0.0,4,0,0,0.0,12.65,0.0,0,0,0,0.125,12.75,0.0,0,0,0,kReverse,kReverse,-87.08,2.12,2.53,0.038635254,-0.98321533,0.028381348,34.37,0.0,0.0,-8.139481,11.792236,
2573.767717,true,true,true,0.125,12.65,0.0,0,0,0,0.125,12.65,0.0,0,0,0,0.125,12.65,0.0,0,0,0,0.125,12.700000000000001,0.0,0,0,0,0.125,12.65,0.0,4,0,0,0.0,12.65,0.0,0,0,0,0.125,12.75,0.0,0,0,0,kReverse,kReverse,-87.08,2.13,2.53,0.0335083,-0.9866333,0.03149414,34.37,0.0,-3.0,-8.139481,11.792236,
2573.7913200000003,true,true,true,0.125,12.65,0.0,0,0,0,0.125,12.65,0.0,0,0,0,0.125,12.65,0.0,0,0,0,0.125,12.700000000000001,0.0,0,0,0,0.125,12.65,0.0,4,0,0,0.0,12.65,0.0,0,0,0,0.125,12.75,0.0,0,0,0,kReverse,kReverse,-87.07,2.13,2.53,0.039611816,-0.9859619,0.035461426,34.37,0.0,3.0,-8.139481,11.792236,
2573.816016,true,true,true,0.125,12.65,0.0,0,0,0,0.125,12.65,0.0,0,0,0,0.125,12.65,0.0,0,0,0,0.125,12.700000000000001,0.0,0,0,0,0.125,12.65,0.0,4,0,0,0.0,12.65,0.0,0,0,0,0.125,12.75,0.0,0,0,0,kReverse,kReverse,-87.07,2.13,2.53,0.036621094,-0.98187256,0.032714844,34.37,0.0,0.0,-8.139481,11.792236,
2573.839745,true,true,true,0.125,12.65,0.0,0,0,0,0.125,12.65,0.0,0,0,0,0.125,12.65,0.0,0,0,0,0.125,12.700000000000001,0.0,0,0,0,0.125,12.65,0.0,4,0,0,0.0,12.65,0.0,0,0,0,0.125,12.75,0.0,0,0,0,kReverse,kReverse,-87.08,2.12,2.52,0.037902832,-0.9817505,0.033203125,34.37,0.0,1.0,-8.139481,11.792236,
2573.860567,true,true,true,0.125,12.65,0.0,0,0,0,0.125,12.65,0.0,0,0,0,0.125,12.65,0.0,0,0,0,0.125,12.700000000000001,0.0,0,0,0,0.125,12.65,0.0,4,0,0,0.0,12.65,0.0,0,0,0,0.125,12.75,0.0,0,0,0,kReverse,kReverse,-87.08,2.12,2.52,0.037231445,-0.98236084,0.03491211,34.37,0.0,0.0,-8.139481,11.792236,
2573.883487,true,true,true,0.125,12.65,0.0,0,0,0,0.125,12.65,0.0,0,0,0,0.125,12.65,0.0,0,0,0,0.125,12.700000000000001,0.0,0,0,0,0.125,12.65,0.0,4,0,0,0.0,12.65,0.0,0,0,0,0.125,12.75,0.0,0,0,0,kReverse,kReverse,-87.08,2.12,2.52,0.032104492,-0.98327637,0.037475586,34.37,0.0,-3.0,-8.139481,11.792236,
2573.9065130000004,true,true,true,0.125,12.65,0.0,0,0,0,0.125,12.65,0.0,0,0,0,0.125,12.65,0.0,0,0,0,0.125,12.700000000000001,0.0,0,0,0,0.0,12.65,0.0,4,0,0,0.0,12.65,0.0,0,0,0,0.125,12.75,0.0,0,0,0,kReverse,kReverse,-87.08,2.12,2.52,0.036193848,-0.98321533,0.031555176,34.38,0.0,0.0,-8.139481,11.792236,
2573.929004,true,true,true,0.125,12.65,0.0,0,0,0,0.125,12.65,0.0,0,0,0,0.125,12.65,0.0,0,0,0,0.125,12.700000000000001,0.0,0,0,0,0.0,12.65,0.0,4,0,0,0.0,12.65,0.0,0,0,0,0.125,12.75,0.0,0,0,0,kReverse,kReverse,-87.08,2.12,2.52,0.03552246,-0.98791504,0.03125,34.38,0.0,-1.0,-8.139481,11.792236,
2573.9547920000005,true,true,true,0.125,12.65,0.0,0,0,0,0.125,12.65,0.0,0,0,0,0.125,12.65,0.0,0,0,0,0.125,12.700000000000001,0.0,0,0,0,0.0,12.65,0.0,4,0,0,0.0,12.65,0.0,0,0,0,0.125,12.75,0.0,0,0,0,kReverse,kReverse,-87.08,2.12,2.52,0.03704834,-0.9838867,0.036193848,34.38,0.0,0.0,-8.139481,11.792236,
2573.9831400000003,true,true,true,0.125,12.65,0.0,0,0,0,0.125,12.65,0.0,0,0,0,0.125,12.65,0.0,0,0,0,0.125,12.700000000000001,0.0,0,0,0,0.0,12.65,0.0,4,0,0,0.0,12.65,0.0,0,0,0,0.125,12.75,0.0,0,0,0,kReverse,kReverse,-87.07,2.13,2.53,0.038146973,-0.98028564,0.032592773,34.38,0.0,1.0,-8.139481,11.792236,
2574.005753,true,true,true,0.125,12.65,0.0,0,0,0,0.125,12.65,0.0,0,0,0,0.125,12.65,0.0,0,0,0,0.125,12.700000000000001,0.0,0,0,0,0.125,12.65,0.0,4,0,0,0.0,12.65,0.0,0,0,0,0.125,12.75,0.0,0,0,0,kReverse,kReverse,-87.07,2.13,2.53,0.035583496,-0.9831543,0.030822754,34.38,0.0,-1.0,-8.139481,11.792236,
2574.026011,true,true,true,0.125,12.65,0.0,0,0,0,0.125,12.65,0.0,0,0,0,0.125,12.65,0.0,0,0,0,0.125,12.700000000000001,0.0,0,0,0,0.125,12.65,0.0,4,0,0,0.0,12.65,0.0,0,0,0,0.125,12.75,0.0,0,0,0,kReverse,kReverse,-87.08,2.13,2.53,0.03692627,-0.9835205,0.029846191,34.38,0.0,0.0,-8.139481,11.792236,
2574.049718,true,true,true,0.125,12.65,0.0,0,0,0,0.125,12.65,0.0,0,0,0,0.125,12.65,0.0,0,0,0,0.125,12.700000000000001,0.0,0,0,0,0.125,12.65,0.0,4,0,0,0.0,12.65,0.0,0,0,0,0.125,12.75,0.0,0,0,0,kReverse,kReverse,-87.08,2.13,2.53,0.03466797,-0.982605,0.038269043,34.38,0.0,-1.0,-8.139481,11.792236,
2574.0748060000005,true,true,true,0.125,12.65,0.0,0,0,0,0.125,12.65,0.0,0,0,0,0.125,12.65,0.0,0,0,0,0.125,12.700000000000001,0.0,0,0,0,0.125,12.65,0.0,4,0,0,0.0,12.65,0.0,0,0,0,0.125,12.75,0.0,0,0,0,kReverse,kReverse,-87.08,2.12,2.53,0.035339355,-0.9871826,0.03527832,34.38,0.0,-1.0,-8.139481,11.792236,
2574.098672,true,true,true,0.125,12.65,0.0,0,0,0,0.125,12.65,0.0,0,0,0,0.125,12.65,0.0,0,0,0,0.125,12.700000000000001,0.0,0,0,0,0.125,12.65,0.0,4,0,0,0.0,12.65,0.0,0,0,0,0.125,12.75,0.0,0,0,0,kReverse,kReverse,-87.08,2.12,2.53,0.030883789,-0.9863281,0.035888672,34.38,0.0,-5.0,-8.139481,11.792236,
2574.120974,true,true,true,0.125,12.65,0.0,0,0,0,0.125,12.65,0.0,0,0,0,0.125,12.65,0.0,0,0,0,0.125,12.700000000000001,0.0,0,0,0,0.125,12.65,0.0,4,0,0,0.0,12.65,0.0,0,0,0,0.125,12.75,0.0,0,0,0,kReverse,kReverse,-87.08,2.12,2.52,0.03729248,-0.98291016,0.03503418,34.38,0.0,0.0,-8.139481,11.792236,
2574.141787,true,true,true,0.125,12.65,0.0,0,0,0,0.125,12.65,0.0,0,0,0,0.125,12.65,0.0,0,0,0,0.125,12.700000000000001,0.0,0,0,0,0.125,12.65,0.0,4,0,0,0.0,12.65,0.0,0,0,0,0.125,12.75,0.0,0,0,0,kReverse,kReverse,-87.08,2.12,2.53,0.039245605,-0.98516846,0.039123535,34.38,0.0,3.0,-8.139481,11.792236,
2574.1633850000003,true,true,true,0.125,12.65,0.0,0,0,0,0.125,12.65,0.0,0,0,0,0.125,12.65,0.0,0,0,0,0.125,12.700000000000001,0.0,0,0,0,0.125,12.65,0.0,4,0,0,0.0,12.65,0.0,0,0,0,0.125,12.75,0.0,0,0,0,kReverse,kReverse,-87.07,2.13,2.53,0.041503906,-0.98431396,0.031433105,34.38,0.0,4.0,-8.139481,11.792236,
2574.186174,true,true,true,0.125,12.65,0.0,0,0,0,0.125,12.65,0.0,0,0,0,0.125,12.65,0.0,0,0,0,0.125,12.700000000000001,0.0,0,0,0,0.125,12.65,0.0,4,0,0,0.0,12.65,0.0,0,0,0,0.125,12.75,0.0,0,0,0,kReverse,kReverse,-87.07,2.13,2.53,0.036376953,-0.9798584,0.028625488,34.38,0.0,-1.0,-8.139481,11.792236,
2574.2104670000003,true,true,true,0.125,12.65,0.0,0,0,0,0.125,12.65,0.0,0,0,0,0.125,12.65,0.0,0,0,0,0.125,12.700000000000001,0.0,0,0,0,0.125,12.65,0.0,4,0,0,0.0,12.65,0.0,0,0,0,0.125,12.75,0.0,0,0,0,kReverse,kReverse,-87.08,2.13,2.53,0.03894043,-0.98657227,0.030456543,34.38,0.0,1.0,-8.139481,11.792236,
2574.236933,true,true,true,0.125,12.65,0.0,0,0,0,0.125,12.65,0.0,0,0,0,0.125,12.65,0.0,0,0,0,0.125,12.700000000000001,0.0,0,0,0,0.125,12.65,0.0,4,0,0,0.0,12.65,0.0,0,0,0,0.125,12.75,0.0,0,0,0,kReverse,kReverse,-87.08,2.12,2.53,0.03881836,-0.98205566,0.033691406,34.38,0.0,2.0,-8.139481,11.792236,
2574.258005,true,true,true,0.125,12.65,0.0,0,0,0,0.125,12.65,0.0,0,0,0,0.125,12.65,0.0,0,0,0,0.125,12.700000000000001,0.0,0,0,0,0.125,12.65,0.0,4,0,0,0.0,12.65,0.0,0,0,0,0.125,12.75,0.0,0,0,0,kReverse,kReverse,-87.08,2.12,2.53,0.03668213,-0.98394775,0.036743164,34.38,0.0,0.0,-8.139481,11.792236,
2574.2824640000003,true,true,true,0.125,12.65,0.0,0,0,0,0.125,12.65,0.0,0,0,0,0.125,12.65,0.0,0,0,0,0.125,12.700000000000001,0.0,0,0,0,0.125,12.65,0.0,4,0,0,0.0,12.65,0.0,0,0,0,0.125,12.75,0.0,0,0,0,kReverse,kReverse,-87.09,2.11,2.52,0.03527832,-0.98254395,0.031066895,34.38,0.0,-1.0,-8.139481,11.792236,
2574.303423,true,true,true,0.125,12.65,0.0,0,0,0,0.125,12.65,0.0,0,0,0,0.125,12.65,0.0,0,0,0,0.125,12.700000000000001,0.0,0,0,0,0.0,12.65,0.0,4,0,0,0.0,12.65,0.0,0,0,0,0.125,12.75,0.0,0,0,0,kReverse,kReverse,-87.09,2.11,2.52,0.02960205,-0.98553467,0.037353516,34.38,0.0,-6.0,-8.139481,11.792236,
2574.3256610000003,true,true,true,0.125,12.65,0.0,0,0,0,0.125,12.65,0.0,0,0,0,0.125,12.65,0.0,0,0,0,0.125,12.700000000000001,0.0,0,0,0,0.0,12.65,0.0,4,0,0,0.0,12.65,0.0,0,0,0,0.125,12.75,0.0,0,0,0,kReverse,kReverse,-87.09,2.11,2.52,0.034240723,-0.98187256,0.03540039,34.38,0.0,-1.0,-8.139481,11.792236,
2574.3468570000005,true,true,true,0.125,12.65,0.0,0,0,0,0.125,12.65,0.0,0,0,0,0.125,12.65,0.0,0,0,0,0.125,12.700000000000001,0.0,0,0,0,0.0,12.65,0.0,4,0,0,0.0,12.65,0.0,0,0,0,0.125,12.75,0.0,0,0,0,kReverse,kReverse,-87.09,2.11,2.52,0.034240723,-0.98187256,0.03540039,34.38,0.0,-1.0,-8.139481,11.792236,
2574.3599900000004,true,true,true,0.125,12.65,0.0,0,0,0,0.125,12.65,0.0,0,0,0,0.125,12.65,0.0,0,0,0,0.125,12.700000000000001,0.0,0,0,0,0.125,12.65,0.0,4,0,0,0.0,12.65,0.0,0,0,0,0.125,12.75,0.0,0,0,0,kReverse,kReverse,-87.08,2.12,2.52,0.038635254,-0.98742676,0.036254883,34.38,0.0,2.0,-8.139481,11.792236,
2574.3730410000003,true,true,true,0.125,12.65,0.0,0,0,0,0.125,12.65,0.0,0,0,0,0.125,12.65,0.0,0,0,0,0.125,12.700000000000001,0.0,0,0,0,0.125,12.65,0.0,4,0,0,0.0,12.65,0.0,0,0,0,0.125,12.75,0.0,0,0,0,kReverse,kReverse,-87.08,2.12,2.52,0.038635254,-0.98742676,0.036254883,34.38,0.0,2.0,-8.139481,11.792236,
2574.386003,true,true,true,0.125,12.65,0.0,0,0,0,0.125,12.65,0.0,0,0,0,0.125,12.65,0.0,0,0,0,0.125,12.700000000000001,0.0,0,0,0,0.125,12.65,0.0,4,0,0,0.0,12.65,0.0,0,0,0,0.125,12.75,0.0,0,0,0,kReverse,kReverse,-87.08,2.12,2.53,0.041381836,-0.98236084,0.036865234,34.38,0.0,5.0,-8.139481,11.792236,
2574.40067,true,true,true,0.125,12.65,0.0,0,0,0,0.125,12.65,0.0,0,0,0,0.125,12.65,0.0,0,0,0,0.125,12.700000000000001,0.0,0,0,0,0.125,12.65,0.0,4,0,0,0.0,12.65,0.0,0,0,0,0.125,12.75,0.0,0,0,0,kReverse,kReverse,-87.08,2.13,2.53,0.043823242,-0.98236084,0.034973145,34.38,0.0,7.0,-8.139481,11.792236,
2574.413392,true,true,true,0.125,12.65,0.0,0,0,0,0.125,12.65,0.0,0,0,0,0.125,12.65,0.0,0,0,0,0.125,12.700000000000001,0.0,0,0,0,0.125,12.65,0.0,4,0,0,0.0,12.65,0.0,0,0,0,0.125,12.75,0.0,0,0,0,kReverse,kReverse,-87.07,2.13,2.54,0.04437256,-0.98150635,0.030456543,34.38,0.0,6.0,-8.139481,11.792236,
2574.434457,true,true,true,0.125,12.65,0.0,0,0,0,0.125,12.65,0.0,0,0,0,0.125,12.65,0.0,0,0,0,0.125,12.700000000000001,0.0,0,0,0,0.125,12.65,0.0,4,0,0,0.0,12.65,0.0,0,0,0,0.125,12.75,0.0,0,0,0,kReverse,kReverse,-87.07,2.14,2.55,0.041137695,-0.9812622,0.034729004,34.41,0.0,4.0,-8.139481,11.792236,
2574.4658590000004,true,true,true,0.125,12.65,0.0,0,0,0,0.125,12.65,0.0,0,0,0,0.125,12.65,0.0,0,0,0,0.125,12.700000000000001,0.0,0,0,0,0.0,12.65,0.0,4,0,0,0.0,12.65,0.0,0,0,0,0.125,12.75,0.0,0,0,0,kReverse,kReverse,-87.07,2.13,2.54,0.03753662,-0.9851074,0.034118652,34.41,0.0,0.0,-8.139481,11.792236,
2574.488145,true,true,true,0.125,12.65,0.0,0,0,0,0.125,12.65,0.0,0,0,0,0.125,12.65,0.0,0,0,0,0.125,12.700000000000001,0.0,0,0,0,0.0,12.65,0.0,4,0,0,0.0,12.65,0.0,0,0,0,0.125,12.75,0.0,0,0,0,kReverse,kReverse,-87.08,2.12,2.53,0.031799316,-0.9833374,0.03930664,34.41,0.0,-3.0,-8.139481,11.792236,
2574.5127340000004,true,true,true,0.125,12.65,0.0,0,0,0,0.125,12.65,0.0,0,0,0,0.125,12.65,0.0,0,0,0,0.125,12.700000000000001,0.0,0,0,0,0.125,12.65,0.0,4,0,0,0.0,12.65,0.0,0,0,0,0.125,12.75,0.0,0,0,0,kReverse,kReverse,-87.08,2.11,2.52,0.029663086,-0.9867554,0.028381348,34.41,0.0,-7.0,-8.139481,11.792236,
2574.548505,true,true,true,0.125,12.65,0.0,0,0,0,0.125,12.65,0.0,0,0,0,0.125,12.65,0.0,0,0,0,0.125,12.700000000000001,0.0,0,0,0,0.125,12.65,0.0,4,0,0,0.0,12.65,0.0,0,0,0,0.125,12.75,0.0,0,0,0,kReverse,kReverse,-87.09,2.11,2.51,0.032836914,-0.98291016,0.039001465,34.41,0.0,-2.0,-8.139481,11.792236,
2574.580301,true,true,true,0.125,12.65,0.0,0,0,0,0.125,12.65,0.0,0,0,0,0.125,12.65,0.0,0,0,0,0.125,12.700000000000001,0.0,0,0,0,0.125,12.65,0.0,4,0,0,0.0,12.65,0.0,0,0,0,0.125,12.75,0.0,0,0,0,kReverse,kReverse,-87.08,2.12,2.52,0.040893555,-0.9814453,0.028808594,34.41,0.0,3.0,-8.139481,11.792236,
2574.601832,true,true,true,0.125,12.65,0.0,0,0,0,0.125,12.65,0.0,0,0,0,0.125,12.65,0.0,0,0,0,0.125,12.700000000000001,0.0,0,0,0,0.125,12.65,0.0,4,0,0,0.0,12.65,0.0,0,0,0,0.125,12.75,0.0,0,0,0,kReverse,kReverse,-87.08,2.12,2.53,0.043884277,-0.9821167,0.03338623,34.41,0.0,7.0,-8.139481,11.792236,
2574.6216910000003,true,true,true,0.125,12.65,0.0,0,0,0,0.125,12.65,0.0,0,0,0,0.125,12.65,0.0,0,0,0,0.125,12.700000000000001,0.0,0,0,0,0.125,12.65,0.0,4,0,0,0.0,12.65,0.0,0,0,0,0.125,12.75,0.0,0,0,0,kReverse,kReverse,-87.07,2.13,2.54,0.045166016,-0.98309326,0.026855469,34.41,0.0,6.0,-8.139481,11.792236,
2574.641129,true,true,true,0.125,12.65,0.0,0,0,0,0.125,12.65,0.0,0,0,0,0.125,12.65,0.0,0,0,0,0.125,12.700000000000001,0.0,0,0,0,0.125,12.65,0.0,4,0,0,0.0,12.65,0.0,0,0,0,0.125,12.75,0.0,0,0,0,kReverse,kReverse,-87.07,2.14,2.55,0.043395996,-0.97698975,0.030334473,34.41,0.0,5.0,-8.139481,11.792236,
2574.664444,true,true,true,0.125,12.65,0.0,0,0,0,0.125,12.65,0.0,0,0,0,0.125,12.65,0.0,0,0,0,0.125,12.700000000000001,0.0,0,0,0,0.125,12.65,0.0,4,0,0,0.0,12.65,0.0,0,0,0,0.125,12.75,0.0,0,0,0,kReverse,kReverse,-87.07,2.13,2.54,0.0345459,-0.9821167,0.03894043,34.41,0.0,-1.0,-8.139481,11.792236,
2574.68592,true,true,true,0.125,12.65,0.0,0,0,0,0.125,12.65,0.0,0,0,0,0.125,12.65,0.0,0,0,0,0.125,12.700000000000001,0.0,0,0,0,0.125,12.65,0.0,4,0,0,0.0,12.65,0.0,0,0,0,0.125,12.75,0.0,0,0,0,kReverse,kReverse,-87.08,2.12,2.53,0.031188965,-0.98461914,0.03692627,34.41,0.0,-4.0,-8.139481,11.792236,
2574.710048,true,true,true,0.125,12.65,0.0,0,0,0,0.125,12.65,0.0,0,0,0,0.125,12.65,0.0,0,0,0,0.125,12.700000000000001,0.0,0,0,0,0.125,12.65,0.0,4,0,0,0.0,12.65,0.0,0,0,0,0.125,12.75,0.0,0,0,0,kReverse,kReverse,-87.1,2.1,2.51,0.021972656,-0.99072266,0.033569336,34.41,0.0,-14.0,-8.139481,11.792236,
2574.736573,true,true,true,0.125,12.65,0.0,0,0,0,0.125,12.65,0.0,0,0,0,0.125,12.65,0.0,0,0,0,0.125,12.65,0.0,0,0,0,0.125,12.65,0.0,4,0,0,0.0,12.65,0.0,0,0,0,0.125,12.75,0.0,0,0,0,kReverse,kReverse,-87.1,2.1,2.5,0.024414062,-0.98461914,0.039489746,34.41,0.0,-10.0,-8.139481,11.792236,
2574.761524,true,true,true,0.125,12.65,0.0,0,0,0,0.125,12.65,0.0,0,0,0,0.125,12.65,0.0,0,0,0,0.125,12.65,0.0,0,0,0,0.125,12.65,0.0,4,0,0,0.0,12.65,0.0,0,0,0,0.125,12.75,0.0,0,0,0,kReverse,kReverse,-87.1,2.1,2.5,0.030883789,-0.9863281,0.036010742,34.41,0.0,-4.0,-8.139481,11.792236,
2574.781503,true,true,true,0.125,12.65,0.0,0,0,0,0.125,12.65,0.0,0,0,0,0.125,12.65,0.0,0,0,0,0.125,12.65,0.0,0,0,0,0.125,12.65,0.0,4,0,0,0.0,12.65,0.0,0,0,0,0.125,12.75,0.0,0,0,0,kReverse,kReverse,-87.09,2.11,2.51,0.0357666,-0.98291016,0.02923584,34.41,0.0,-1.0,-8.139481,11.792236,
2574.8031180000003,true,true,true,0.125,12.65,0.0,0,0,0,0.125,12.65,0.0,0,0,0,0.125,12.65,0.0,0,0,0,0.125,12.65,0.0,0,0,0,0.125,12.65,0.0,4,0,0,0.0,12.65,0.0,0,0,0,0.125,12.75,0.0,0,0,0,kReverse,kReverse,-87.08,2.13,2.53,0.048217773,-0.98291016,0.035461426,34.41,0.0,11.0,-8.139481,11.792236,
2574.8223980000002,true,true,true,0.125,12.65,0.0,0,0,0,0.125,12.65,0.0,0,0,0,0.125,12.65,0.0,0,0,0,0.125,12.65,0.0,0,0,0,0.125,12.65,0.0,4,0,0,0.0,12.65,0.0,0,0,0,0.125,12.75,0.0,0,0,0,kReverse,kReverse,-87.08,2.14,2.54,0.049560547,-0.9793091,0.028869629,34.41,0.0,11.0,-8.139481,11.792236,
2574.8430980000003,true,true,true,0.125,12.65,0.0,0,0,0,0.125,12.65,0.0,0,0,0,0.125,12.65,0.0,0,0,0,0.125,12.65,0.0,0,0,0,0.125,12.65,0.0,4,0,0,0.0,12.65,0.0,0,0,0,0.125,12.75,0.0,0,0,0,kReverse,kReverse,-87.07,2.14,2.55,0.043151855,-0.98516846,0.038635254,34.41,0.0,6.0,-8.139481,11.792236,
2574.864144,true,true,true,0.125,12.65,0.0,0,0,0,0.125,12.65,0.0,0,0,0,0.125,12.65,0.0,0,0,0,0.125,12.65,0.0,0,0,0,0.0,12.65,0.0,4,0,0,0.0,12.65,0.0,0,0,0,0.125,12.75,0.0,0,0,0,kReverse,kReverse,-87.07,2.14,2.55,0.03894043,-0.9812622,0.036193848,34.41,0.0,2.0,-8.139481,11.792236,
2574.88475,true,true,true,0.125,12.65,0.0,0,0,0,0.125,12.65,0.0,0,0,0,0.125,12.65,0.0,0,0,0,0.125,12.700000000000001,0.0,0,0,0,0.0,12.65,0.0,4,0,0,0.0,12.65,0.0,0,0,0,0.125,12.75,0.0,0,0,0,kReverse,kReverse,-87.08,2.13,2.53,0.03363037,-0.9850464,0.037719727,34.41,0.0,-2.0,-8.139481,11.792236,
2574.909284,true,true,true,0.125,12.65,0.0,0,0,0,0.125,12.65,0.0,0,0,0,0.125,12.65,0.0,0,0,0,0.125,12.700000000000001,0.0,0,0,0,0.0,12.65,0.0,4,0,0,0.0,12.65,0.0,0,0,0,0.125,12.75,0.0,0,0,0,kReverse,kReverse,-87.08,2.12,2.53,0.029541016,-0.9869995,0.03302002,34.41,0.0,-7.0,-8.139481,11.792236,
2574.9337680000003,true,true,true,0.125,12.65,0.0,0,0,0,0.125,12.65,0.0,0,0,0,0.125,12.65,0.0,0,0,0,0.125,12.700000000000001,0.0,0,0,0,0.125,12.65,0.0,4,0,0,0.0,12.65,0.0,0,0,0,0.125,12.75,0.0,0,0,0,kReverse,kReverse,-87.09,2.12,2.52,0.032409668,-0.9841919,0.03765869,34.36,0.0,-3.0,-8.139481,11.792236,
2574.9550590000003,true,true,true,0.125,12.65,0.0,0,0,0,0.125,12.65,0.0,0,0,0,0.125,12.65,0.0,0,0,0,0.125,12.700000000000001,0.0,0,0,0,0.125,12.65,0.0,4,0,0,0.0,12.65,0.0,0,0,0,0.125,12.75,0.0,0,0,0,kReverse,kReverse,-87.09,2.11,2.51,0.03314209,-0.9849243,0.028625488,34.36,0.0,-4.0,-8.139481,11.792236,
2574.9797750000002,true,true,true,0.125,12.65,0.0,0,0,0,0.125,12.65,0.0,0,0,0,0.125,12.65,0.0,0,0,0,0.125,12.700000000000001,0.0,0,0,0,0.125,12.65,0.0,4,0,0,0.0,12.65,0.0,0,0,0,0.125,12.75,0.0,0,0,0,kReverse,kReverse,-87.09,2.11,2.51,0.034240723,-0.9855957,0.03137207,34.36,0.0,-2.0,-8.139481,11.792236,
2575.001584,true,true,true,0.125,12.65,0.0,0,0,0,0.125,12.65,0.0,0,0,0,0.125,12.65,0.0,0,0,0,0.125,12.700000000000001,0.0,0,0,0,0.125,12.65,0.0,4,0,0,0.0,12.65,0.0,0,0,0,0.125,12.75,0.0,0,0,0,kReverse,kReverse,-87.09,2.11,2.52,0.033935547,-0.98669434,0.030456543,34.36,0.0,-3.0,-8.139481,11.792236,
2575.022639,true,true,true,0.125,12.65,0.0,0,0,0,0.125,12.65,0.0,0,0,0,0.125,12.65,0.0,0,0,0,0.125,12.700000000000001,0.0,0,0,0,0.125,12.65,0.0,4,0,0,0.0,12.65,0.0,0,0,0,0.125,12.75,0.0,0,0,0,kReverse,kReverse,-87.09,2.11,2.52,0.039916992,-0.9834595,0.032958984,34.36,0.0,3.0,-8.139481,11.792236,
2575.0445190000005,true,true,true,0.125,12.65,0.0,0,0,0,0.125,12.65,0.0,0,0,0,0.125,12.65,0.0,0,0,0,0.125,12.700000000000001,0.0,0,0,0,0.125,12.65,0.0,4,0,0,0.0,12.65,0.0,0,0,0,0.125,12.75,0.0,0,0,0,kReverse,kReverse,-87.08,2.12,2.53,0.039489746,-0.97961426,0.03363037,34.36,0.0,2.0,-8.139481,11.792236,
2575.067116,true,true,true,0.125,12.65,0.0,0,0,0,0.125,12.65,0.0,0,0,0,0.125,12.65,0.0,0,0,0,0.125,12.700000000000001,0.0,0,0,0,0.125,12.65,0.0,4,0,0,0.0,12.65,0.0,0,0,0,0.125,12.75,0.0,0,0,0,kReverse,kReverse,-87.07,2.13,2.54,0.04559326,-0.9812012,0.03479004,34.36,0.0,8.0,-8.139481,11.792236,
2575.085766,true,true,true,0.125,12.65,0.0,0,0,0,0.125,12.65,0.0,0,0,0,0.125,12.65,0.0,0,0,0,0.125,12.700000000000001,0.0,0,0,0,0.125,12.65,0.0,4,0,0,0.0,12.65,0.0,0,0,0,0.125,12.75,0.0,0,0,0,kReverse,kReverse,-87.07,2.14,2.55,0.043762207,-0.9807129,0.027893066,34.36,0.0,5.0,-8.139481,11.792236,
2575.105478,true,true,true,0.125,12.65,0.0,0,0,0,0.125,12.65,0.0,0,0,0,0.125,12.65,0.0,0,0,0,0.125,12.700000000000001,0.0,0,0,0,0.125,12.65,0.0,4,0,0,0.0,12.65,0.0,0,0,0,0.125,12.75,0.0,0,0,0,kReverse,kReverse,-87.07,2.14,2.54,0.04296875,-0.98205566,0.030761719,34.36,0.0,5.0,-8.139481,11.792236,
2575.131311,true,true,true,0.125,12.65,0.0,0,0,0,0.125,12.65,0.0,0,0,0,0.125,12.65,0.0,0,0,0,0.125,12.700000000000001,0.0,0,0,0,0.125,12.65,0.0,4,0,0,0.0,12.65,0.0,0,0,0,0.125,12.75,0.0,0,0,0,kReverse,kReverse,-87.07,2.13,2.54,0.034423828,-0.9848633,0.034179688,34.36,0.0,-2.0,-8.139481,11.792236,
2575.1512110000003,true,true,true,0.125,12.65,0.0,0,0,0,0.125,12.65,0.0,0,0,0,0.125,12.65,0.0,0,0,0,0.125,12.700000000000001,0.0,0,0,0,0.125,12.65,0.0,4,0,0,0.0,12.65,0.0,0,0,0,0.125,12.75,0.0,0,0,0,kReverse,kReverse,-87.08,2.12,2.53,0.031982422,-0.98651123,0.037841797,34.36,0.0,-3.0,-8.139481,11.792236,
2575.178283,true,true,true,0.125,12.65,0.0,0,0,0,0.125,12.65,0.0,0,0,0,0.125,12.65,0.0,0,0,0,0.125,12.700000000000001,0.0,0,0,0,0.125,12.65,0.0,4,0,0,0.0,12.65,0.0,0,0,0,0.125,12.75,0.0,0,0,0,kReverse,kReverse,-87.09,2.11,2.52,0.026672363,-0.9884033,0.03186035,34.36,0.0,-10.0,-8.139481,11.792236,
2575.2010530000002,true,true,true,0.125,12.65,0.0,0,0,0,0.125,12.65,0.0,0,0,0,0.125,12.65,0.0,0,0,0,0.125,12.700000000000001,0.0,0,0,0,0.125,12.65,0.0,4,0,0,0.0,12.65,0.0,0,0,0,0.125,12.75,0.0,0,0,0,kReverse,kReverse,-87.1,2.1,2.51,0.032470703,-0.9852905,0.04534912,34.36,0.0,-1.0,-8.139481,11.792236,
2575.222146,true,true,true,0.125,12.65,0.0,0,0,0,0.125,12.65,0.0,0,0,0,0.125,12.65,0.0,0,0,0,0.125,12.700000000000001,0.0,0,0,0,0.125,12.65,0.0,4,0,0,0.0,12.65,0.0,0,0,0,0.125,12.75,0.0,0,0,0,kReverse,kReverse,-87.09,2.1,2.51,0.028015137,-0.9848633,0.031921387,34.36,0.0,-8.0,-8.139481,11.792236,
2575.244185,true,true,true,0.125,12.65,0.0,0,0,0,0.125,12.65,0.0,0,0,0,0.125,12.65,0.0,0,0,0,0.125,12.700000000000001,0.0,0,0,0,0.125,12.65,0.0,4,0,0,0.0,12.65,0.0,0,0,0,0.125,12.75,0.0,0,0,0,kReverse,kReverse,-87.09,2.11,2.52,0.039245605,-0.97991943,0.03161621,34.36,0.0,2.0,-8.139481,11.792236,
2575.264313,true,true,true,0.125,12.65,0.0,0,0,0,0.125,12.65,0.0,0,0,0,0.125,12.65,0.0,0,0,0,0.125,12.700000000000001,0.0,0,0,0,0.125,12.65,0.0,4,0,0,0.0,12.65,0.0,0,0,0,0.125,12.75,0.0,0,0,0,kReverse,kReverse,-87.09,2.13,2.53,0.04119873,-0.97943115,0.023620605,34.36,0.0,2.0,-8.139481,11.792236,
2575.285979,true,true,true,0.125,12.65,0.0,0,0,0,0.125,12.65,0.0,0,0,0,0.125,12.65,0.0,0,0,0,0.125,12.700000000000001,0.0,0,0,0,0.125,12.65,0.0,4,0,0,0.0,12.65,0.0,0,0,0,0.125,12.75,0.0,0,0,0,kReverse,kReverse,-87.08,2.13,2.54,0.049072266,-0.98083496,0.04071045,34.36,0.0,13.0,-8.139481,11.792236,
2575.308901,true,true,true,0.125,12.65,0.0,0,0,0,0.125,12.65,0.0,0,0,0,0.125,12.65,0.0,0,0,0,0.125,12.700000000000001,0.0,0,0,0,0.125,12.65,0.0,4,0,0,0.0,12.65,0.0,0,0,0,0.125,12.75,0.0,0,0,0,kReverse,kReverse,-87.07,2.14,2.55,0.0413208,-0.980896,0.021057129,34.36,0.0,1.0,-8.139481,11.792236,
2575.339364,true,true,true,0.125,12.65,0.0,0,0,0,0.125,12.65,0.0,0,0,0,0.125,12.65,0.0,0,0,0,0.125,12.700000000000001,0.0,0,0,0,0.125,12.65,0.0,4,0,0,0.0,12.65,0.0,0,0,0,0.125,12.75,0.0,0,0,0,kReverse,kReverse,-87.07,2.14,2.54,0.03918457,-0.98480225,0.035949707,34.36,0.0,2.0,-8.139481,11.792236,
2575.3628970000004,true,true,true,0.125,12.65,0.0,0,0,0,0.125,12.65,0.0,0,0,0,0.125,12.65,0.0,0,0,0,0.125,12.700000000000001,0.0,0,0,0,0.125,12.65,0.0,4,0,0,0.0,12.65,0.0,0,0,0,0.125,12.75,0.0,0,0,0,kReverse,kReverse,-87.08,2.13,2.53,0.03527832,-0.9863281,0.040039062,34.36,0.0,0.0,-8.139481,11.792236,
2575.383836,true,true,true,0.125,12.65,0.0,0,0,0,0.125,12.65,0.0,0,0,0,0.125,12.65,0.0,0,0,0,0.125,12.65,0.0,0,0,0,0.125,12.65,0.0,4,0,0,0.0,12.65,0.0,0,0,0,0.125,12.75,0.0,0,0,0,kReverse,kReverse,-87.09,2.13,2.53,0.034118652,-0.98516846,0.04119873,34.36,0.0,-1.0,-8.139481,11.792236,
2575.41118,true,true,true,0.125,12.65,0.0,0,0,0,0.125,12.65,0.0,0,0,0,0.125,12.65,0.0,0,0,0,0.125,12.65,0.0,0,0,0,0.125,12.65,0.0,4,0,0,0.0,12.65,0.0,0,0,0,0.125,12.75,0.0,0,0,0,kReverse,kReverse,-87.09,2.12,2.52,0.036315918,-0.98443604,0.03869629,34.36,0.0,0.0,-8.139481,11.792236,
2575.429763,true,true,true,0.125,12.65,0.0,0,0,0,0.125,12.65,0.0,0,0,0,0.125,12.65,0.0,0,0,0,0.125,12.65,0.0,0,0,0,0.125,12.65,0.0,4,0,0,0.0,12.65,0.0,0,0,0,0.125,12.75,0.0,0,0,0,kReverse,kReverse,-87.09,2.11,2.52,0.029968262,-0.9834595,0.02960205,34.33,0.0,-7.0,-8.139481,11.792236,
2575.450534,true,true,true,0.125,12.65,0.0,0,0,0,0.125,12.65,0.0,0,0,0,0.125,12.65,0.0,0,0,0,0.125,12.65,0.0,0,0,0,0.125,12.65,0.0,4,0,0,0.0,12.65,0.0,0,0,0,0.125,12.75,0.0,0,0,0,kReverse,kReverse,-87.09,2.12,2.52,0.03363037,-0.98443604,0.034118652,34.33,0.0,-2.0,-8.139481,11.792236,
2575.471349,true,true,true,0.125,12.65,0.0,0,0,0,0.125,12.65,0.0,0,0,0,0.125,12.65,0.0,0,0,0,0.125,12.65,0.0,0,0,0,0.125,12.65,0.0,4,0,0,0.0,12.65,0.0,0,0,0,0.125,12.75,0.0,0,0,0,kReverse,kReverse,-87.09,2.12,2.52,0.03387451,-0.98187256,0.038146973,34.33,0.0,-1.0,-8.139481,11.792236,
2575.493318,true,true,true,0.125,12.65,0.0,0,0,0,0.125,12.65,0.0,0,0,0,0.125,12.65,0.0,0,0,0,0.125,12.65,0.0,0,0,0,0.125,12.65,0.0,4,0,0,0.0,12.65,0.0,0,0,0,0.125,12.75,0.0,0,0,0,kReverse,kReverse,-87.09,2.13,2.53,0.036743164,-0.9857788,0.034057617,34.33,0.0,0.0,-8.139481,11.792236,
2575.5175780000004,true,true,true,0.125,12.65,0.0,0,0,0,0.125,12.65,0.0,0,0,0,0.125,12.65,0.0,0,0,0,0.125,12.65,0.0,0,0,0,0.125,12.65,0.0,4,0,0,0.0,12.65,0.0,0,0,0,0.125,12.75,0.0,0,0,0,kReverse,kReverse,-87.09,2.13,2.53,0.036865234,-0.9840088,0.03704834,34.33,0.0,0.0,-8.139481,11.792236,
2575.5391350000004,true,true,true,0.125,12.65,0.0,0,0,0,0.125,12.65,0.0,0,0,0,0.125,12.65,0.0,0,0,0,0.125,12.700000000000001,0.0,0,0,0,0.125,12.65,0.0,4,0,0,0.0,12.65,0.0,0,0,0,0.125,12.75,0.0,0,0,0,kReverse,kReverse,-87.08,2.13,2.54,0.03845215,-0.9824219,0.025939941,34.33,0.0,0.0,-8.139481,11.792236,
2575.562847,true,true,true,0.125,12.65,0.0,0,0,0,0.125,12.65,0.0,0,0,0,0.125,12.65,0.0,0,0,0,0.125,12.700000000000001,0.0,0,0,0,0.125,12.65,0.0,4,0,0,0.0,12.65,0.0,0,0,0,0.125,12.75,0.0,0,0,0,kReverse,kReverse,-87.07,2.14,2.55,0.041809082,-0.98114014,0.034362793,34.33,0.0,4.0,-8.139481,11.792236,
2575.585274,true,true,true,0.125,12.65,0.0,0,0,0,0.125,12.65,0.0,0,0,0,0.125,12.65,0.0,0,0,0,0.125,12.700000000000001,0.0,0,0,0,0.125,12.65,0.0,4,0,0,0.0,12.65,0.0,0,0,0,0.125,12.75,0.0,0,0,0,kReverse,kReverse,-87.07,2.14,2.55,0.034057617,-0.9807129,0.030517578,34.33,0.0,-3.0,-8.139481,11.792236,
2575.6075330000003,true,true,true,0.125,12.65,0.0,0,0,0,0.125,12.65,0.0,0,0,0,0.125,12.65,0.0,0,0,0,0.125,12.700000000000001,0.0,0,0,0,0.125,12.65,0.0,4,0,0,0.0,12.65,0.0,0,0,0,0.125,12.75,0.0,0,0,0,kReverse,kReverse,-87.07,2.14,2.54,0.037353516,-0.9845581,0.030578613,34.33,0.0,0.0,-8.139481,11.792236,
2575.6323140000004,true,true,true,0.125,12.65,0.0,0,0,0,0.125,12.65,0.0,0,0,0,0.125,12.65,0.0,0,0,0,0.125,12.700000000000001,0.0,0,0,0,0.125,12.65,0.0,4,0,0,0.0,12.65,0.0,0,0,0,0.125,12.75,0.0,0,0,0,kReverse,kReverse,-87.08,2.13,2.54,0.03540039,-0.9838257,0.023620605,34.33,0.0,-3.0,-8.139481,11.792236,
2575.6543149999998,true,true,true,0.125,12.65,0.0,0,0,0,0.125,12.65,0.0,0,0,0,0.125,12.65,0.0,0,0,0,0.125,12.700000000000001,0.0,0,0,0,0.125,12.65,0.0,4,0,0,0.0,12.65,0.0,0,0,0,0.125,12.75,0.0,0,0,0,kReverse,kReverse,-87.08,2.13,2.54,0.038208008,-0.9822998,0.038513184,34.33,0.0,2.0,-8.139481,11.792236,
2575.677154,true,true,true,0.125,12.65,0.0,0,0,0,0.125,12.65,0.0,0,0,0,0.125,12.65,0.0,0,0,0,0.125,12.700000000000001,0.0,0,0,0,0.0,12.65,0.0,4,0,0,0.0,12.65,0.0,0,0,0,0.125,12.75,0.0,0,0,0,kReverse,kReverse,-87.09,2.13,2.53,0.032409668,-0.98583984,0.039489746,34.33,0.0,-3.0,-8.139481,11.792236,
2575.7020050000006,true,true,true,0.125,12.65,0.0,0,0,0,0.125,12.65,0.0,0,0,0,0.125,12.65,0.0,0,0,0,0.125,12.700000000000001,0.0,0,0,0,0.0,12.65,0.0,4,0,0,0.0,12.65,0.0,0,0,0,0.125,12.75,0.0,0,0,0,kReverse,kReverse,-87.09,2.13,2.53,0.034179688,-0.9852905,0.032287598,34.33,0.0,-2.0,-8.139481,11.792236,
2575.7220250000005,true,true,true,0.125,12.65,0.0,0,0,0,0.125,12.65,0.0,0,0,0,0.125,12.65,0.0,0,0,0,0.125,12.700000000000001,0.0,0,0,0,0.0,12.65,0.0,4,0,0,0.0,12.65,0.0,0,0,0,0.125,12.75,0.0,0,0,0,kReverse,kReverse,-87.09,2.13,2.53,0.03265381,-0.9852295,0.035949707,34.33,0.0,-3.0,-8.139481,11.792236,
2575.741912,true,true,true,0.125,12.65,0.0,0,0,0,0.125,12.65,0.0,0,0,0,0.125,12.65,0.0,0,0,0,0.125,12.700000000000001,0.0,0,0,0,0.0,12.65,0.0,4,0,0,0.0,12.65,0.0,0,0,0,0.125,12.75,0.0,0,0,0,kReverse,kReverse,-87.09,2.13,2.53,0.03918457,-0.9836426,0.036743164,34.33,0.0,3.0,-8.139481,11.792236,
2575.7628710000004,true,true,true,0.125,12.65,0.0,0,0,0,0.125,12.65,0.0,0,0,0,0.125,12.65,0.0,0,0,0,0.125,12.700000000000001,0.0,0,0,0,0.0,12.65,0.0,4,0,0,0.0,12.65,0.0,0,0,0,0.125,12.75,0.0,0,0,0,kReverse,kReverse,-87.09,2.13,2.53,0.038208008,-0.98376465,0.03479004,34.33,0.0,1.0,-8.139481,11.792236,
2575.7844250000003,true,true,true,0.125,12.65,0.0,0,0,0,0.125,12.65,0.0,0,0,0,0.125,12.65,0.0,0,0,0,0.125,12.700000000000001,0.0,0,0,0,0.125,12.65,0.0,4,0,0,0.0,12.65,0.0,0,0,0,0.125,12.75,0.0,0,0,0,kReverse,kReverse,-87.08,2.13,2.54,0.03375244,-0.9822998,0.02758789,34.33,0.0,-4.0,-8.139481,11.792236,
2575.805833,true,true,true,0.125,12.65,0.0,0,0,0,0.125,12.65,0.0,0,0,0,0.125,12.65,0.0,0,0,0,0.125,12.700000000000001,0.0,0,0,0,0.125,12.65,0.0,4,0,0,0.0,12.65,0.0,0,0,0,0.125,12.75,0.0,0,0,0,kReverse,kReverse,-87.08,2.13,2.54,0.040405273,-0.98565674,0.033691406,34.33,0.0,3.0,-8.139481,11.792236,
2575.841262,true,true,true,0.125,12.65,0.0,0,0,0,0.125,12.65,0.0,0,0,0,0.125,12.65,0.0,0,0,0,0.125,12.700000000000001,0.0,0,0,0,0.125,12.65,0.0,4,0,0,0.0,12.65,0.0,0,0,0,0.125,12.75,0.0,0,0,0,kReverse,kReverse,-87.08,2.14,2.53,0.04058838,-0.98327637,0.03253174,34.33,0.0,3.0,-8.139481,11.792236,
2575.862532,true,true,true,0.125,12.65,0.0,0,0,0,0.125,12.65,0.0,0,0,0,0.125,12.65,0.0,0,0,0,0.125,12.700000000000001,0.0,0,0,0,0.125,12.65,0.0,4,0,0,0.0,12.65,0.0,0,0,0,0.125,12.75,0.0,0,0,0,kReverse,kReverse,-87.08,2.13,2.54,0.036987305,-0.98254395,0.037963867,34.33,0.0,1.0,-8.139481,11.792236,
2575.8849370000003,true,true,true,0.125,12.65,0.0,0,0,0,0.125,12.65,0.0,0,0,0,0.125,12.65,0.0,0,0,0,0.125,12.700000000000001,0.0,0,0,0,0.125,12.65,0.0,4,0,0,0.0,12.65,0.0,0,0,0,0.125,12.75,0.0,0,0,0,kReverse,kReverse,-87.09,2.13,2.53,0.038024902,-0.9824829,0.035217285,34.33,0.0,1.0,-8.139481,11.792236,
2575.9058120000004,true,true,true,0.125,12.65,0.0,0,0,0,0.125,12.65,0.0,0,0,0,0.125,12.65,0.0,0,0,0,0.125,12.700000000000001,0.0,0,0,0,0.125,12.65,0.0,4,0,0,0.0,12.65,0.0,0,0,0,0.125,12.75,0.0,0,0,0,kReverse,kReverse,-87.09,2.13,2.53,0.0345459,-0.9852905,0.03704834,34.33,0.0,-1.0,-8.139481,11.792236,
2575.928506,true,true,true,0.125,12.65,0.0,0,0,0,0.125,12.65,0.0,0,0,0,0.125,12.65,0.0,0,0,0,0.125,12.700000000000001,0.0,0,0,0,0.125,12.65,0.0,4,0,0,0.0,12.65,0.0,0,0,0,0.125,12.75,0.0,0,0,0,kReverse,kReverse,-87.08,2.12,2.53,0.035888672,-0.9879761,0.039855957,34.33,0.0,0.0,-8.139481,11.792236,
2575.949195,true,true,true,0.125,12.65,0.0,0,0,0,0.125,12.65,0.0,0,0,0,0.125,12.65,0.0,0,0,0,0.125,12.700000000000001,0.0,0,0,0,0.125,12.65,0.0,4,0,0,0.0,12.65,0.0,0,0,0,0.125,12.75,0.0,0,0,0,kReverse,kReverse,-87.08,2.12,2.52,0.034973145,-0.984375,0.034851074,34.3,0.0,-1.0,-8.139481,11.792236,
2575.9787069999998,true,true,true,0.125,12.65,0.0,0,0,0,0.125,12.65,0.0,0,0,0,0.125,12.65,0.0,0,0,0,0.125,12.700000000000001,0.0,0,0,0,0.125,12.65,0.0,4,0,0,0.0,12.65,0.0,0,0,0,0.125,12.75,0.0,0,0,0,kReverse,kReverse,-87.09,2.12,2.52,0.0368042,-0.9881592,0.032836914,34.3,0.0,0.0,-8.139481,11.792236,
2576.0018990000003,true,true,true,0.125,12.65,0.0,0,0,0,0.125,12.65,0.0,0,0,0,0.125,12.65,0.0,0,0,0,0.125,12.700000000000001,0.0,0,0,0,0.125,12.65,0.0,4,0,0,0.0,12.65,0.0,0,0,0,0.125,12.75,0.0,0,0,0,kReverse,kReverse,-87.08,2.13,2.53,0.04034424,-0.98443604,0.032836914,34.3,0.0,3.0,-8.139481,11.792236,
2576.023078,true,true,true,0.125,12.65,0.0,0,0,0,0.125,12.65,0.0,0,0,0,0.125,12.65,0.0,0,0,0,0.125,12.700000000000001,0.0,0,0,0,0.125,12.65,0.0,4,0,0,0.0,12.65,0.0,0,0,0,0.125,12.75,0.0,0,0,0,kReverse,kReverse,-87.08,2.13,2.53,0.038391113,-0.9835205,0.032592773,34.3,0.0,1.0,-8.139481,11.792236,
2576.0445040000004,true,true,true,0.125,12.65,0.0,0,0,0,0.125,12.65,0.0,0,0,0,0.125,12.65,0.0,0,0,0,0.125,12.700000000000001,0.0,0,0,0,0.125,12.65,0.0,4,0,0,0.0,12.65,0.0,0,0,0,0.125,12.75,0.0,0,0,0,kReverse,kReverse,-87.08,2.13,2.53,0.037475586,-0.98327637,0.037841797,34.3,0.0,1.0,-8.139481,11.792236,
2576.064676,true,true,true,0.125,12.65,0.0,0,0,0,0.125,12.65,0.0,0,0,0,0.125,12.65,0.0,0,0,0,0.125,12.700000000000001,0.0,0,0,0,0.125,12.65,0.0,4,0,0,0.0,12.65,0.0,0,0,0,0.125,12.75,0.0,0,0,0,kReverse,kReverse,-87.08,2.13,2.53,0.038635254,-0.9817505,0.038879395,34.3,0.0,2.0,-8.139481,11.792236,
2576.087746,true,true,true,0.125,12.65,0.0,0,0,0,0.125,12.65,0.0,0,0,0,0.125,12.65,0.0,0,0,0,0.125,12.700000000000001,0.0,0,0,0,0.125,12.65,0.0,4,0,0,0.0,12.65,0.0,0,0,0,0.125,12.75,0.0,0,0,0,kReverse,kReverse,-87.08,2.13,2.53,0.037963867,-0.98480225,0.03692627,34.3,0.0,1.0,-8.139481,11.792236,
2576.112625,true,true,true,0.125,12.65,0.0,0,0,0,0.125,12.65,0.0,0,0,0,0.125,12.65,0.0,0,0,0,0.125,12.700000000000001,0.0,0,0,0,0.125,12.65,0.0,4,0,0,0.0,12.65,0.0,0,0,0,0.125,12.75,0.0,0,0,0,kReverse,kReverse,-87.08,2.13,2.53,0.032165527,-0.98516846,0.03643799,34.3,0.0,-4.0,-8.139481,11.792236,
2576.1368740000003,true,true,true,0.125,12.65,0.0,0,0,0,0.125,12.65,0.0,0,0,0,0.125,12.65,0.0,0,0,0,0.125,12.700000000000001,0.0,0,0,0,0.125,12.65,0.0,4,0,0,0.0,12.65,0.0,0,0,0,0.125,12.75,0.0,0,0,0,kReverse,kReverse,-87.08,2.12,2.53,0.032104492,-0.98706055,0.03552246,34.3,0.0,-4.0,-8.139481,11.792236,
2576.158213,true,true,true,0.125,12.65,0.0,0,0,0,0.125,12.65,0.0,0,0,0,0.125,12.65,0.0,0,0,0,0.125,12.700000000000001,0.0,0,0,0,0.125,12.65,0.0,4,0,0,0.0,12.65,0.0,0,0,0,0.125,12.75,0.0,0,0,0,kReverse,kReverse,-87.08,2.12,2.52,0.034973145,-0.9847412,0.03527832,34.3,0.0,-1.0,-8.139481,11.792236,
2576.180886,true,true,true,0.125,12.65,0.0,0,0,0,0.125,12.65,0.0,0,0,0,0.125,12.65,0.0,0,0,0,0.125,12.700000000000001,0.0,0,0,0,0.125,12.65,0.0,4,0,0,0.0,12.65,0.0,0,0,0,0.125,12.75,0.0,0,0,0,kReverse,kReverse,-87.08,2.12,2.52,0.035827637,-0.9829712,0.0345459,34.3,0.0,0.0,-8.139481,11.792236,
2576.2012250000002,true,true,true,0.125,12.65,0.0,0,0,0,0.125,12.65,0.0,0,0,0,0.125,12.65,0.0,0,0,0,0.125,12.700000000000001,0.0,0,0,0,0.125,12.65,0.0,4,0,0,0.0,12.65,0.0,0,0,0,0.125,12.75,0.0,0,0,0,kReverse,kReverse,-87.08,2.12,2.52,0.039001465,-0.9819946,0.034057617,34.3,0.0,2.0,-8.139481,11.792236,
2576.221506,true,true,true,0.125,12.65,0.0,0,0,0,0.125,12.65,0.0,0,0,0,0.125,12.65,0.0,0,0,0,0.125,12.700000000000001,0.0,0,0,0,0.125,12.65,0.0,4,0,0,0.0,12.65,0.0,0,0,0,0.125,12.75,0.0,0,0,0,kReverse,kReverse,-87.08,2.12,2.53,0.04058838,-0.9822998,0.030151367,34.3,0.0,3.0,-8.139481,11.792236,
2576.2458680000004,true,true,true,0.125,12.65,0.0,0,0,0,0.125,12.65,0.0,0,0,0,0.125,12.65,0.0,0,0,0,0.125,12.700000000000001,0.0,0,0,0,0.125,12.65,0.0,4,0,0,0.0,12.65,0.0,0,0,0,0.125,12.75,0.0,0,0,0,kReverse,kReverse,-87.09,2.12,2.53,0.041381836,-0.98223877,0.031555176,34.3,0.0,4.0,-8.139481,11.792236,
2576.2668519999997,true,true,true,0.125,12.65,0.0,0,0,0,0.125,12.65,0.0,0,0,0,0.125,12.65,0.0,0,0,0,0.125,12.700000000000001,0.0,0,0,0,0.125,12.65,0.0,4,0,0,0.0,12.65,0.0,0,0,0,0.125,12.75,0.0,0,0,0,kReverse,kReverse,-87.08,2.13,2.53,0.03881836,-0.9831543,0.03265381,34.3,0.0,1.0,-8.139481,11.792236,
2576.2903630000005,true,true,true,0.125,12.65,0.0,0,0,0,0.125,12.65,0.0,0,0,0,0.125,12.65,0.0,0,0,0,0.125,12.700000000000001,0.0,0,0,0,0.0,12.65,0.0,4,0,0,0.0,12.65,0.0,0,0,0,0.125,12.75,0.0,0,0,0,kReverse,kReverse,-87.08,2.13,2.53,0.03515625,-0.980896,0.033447266,34.3,0.0,-1.0,-8.139481,11.792236,
2576.317353,true,true,true,0.125,12.65,0.0,0,0,0,0.125,12.65,0.0,0,0,0,0.125,12.65,0.0,0,0,0,0.125,12.700000000000001,0.0,0,0,0,0.0,12.65,0.0,4,0,0,0.0,12.65,0.0,0,0,0,0.125,12.75,0.0,0,0,0,kReverse,kReverse,-87.08,2.12,2.53,0.033447266,-0.98358154,0.03161621,34.3,0.0,-3.0,-8.139481,11.792236,
2576.337316,true,true,true,0.125,12.65,0.0,0,0,0,0.125,12.65,0.0,0,0,0,0.125,12.65,0.0,0,0,0,0.125,12.700000000000001,0.0,0,0,0,0.0,12.65,0.0,4,0,0,0.0,12.65,0.0,0,0,0,0.125,12.75,0.0,0,0,0,kReverse,kReverse,-87.08,2.12,2.53,0.036743164,-0.9819336,0.032226562,34.3,0.0,0.0,-8.139481,11.792236,
2576.361248,true,true,true,0.125,12.65,0.0,0,0,0,0.125,12.65,0.0,0,0,0,0.125,12.65,0.0,0,0,0,0.125,12.700000000000001,0.0,0,0,0,0.125,12.65,0.0,4,0,0,0.0,12.65,0.0,0,0,0,0.125,12.75,0.0,0,0,0,kReverse,kReverse,-87.08,2.12,2.52,0.034851074,-0.9812012,0.030761719,34.3,0.0,-2.0,-8.139481,11.792236,
2576.3833630000004,true,true,true,0.125,12.65,0.0,0,0,0,0.125,12.65,0.0,0,0,0,0.125,12.65,0.0,0,0,0,0.125,12.700000000000001,0.0,0,0,0,0.125,12.65,0.0,4,0,0,0.0,12.65,0.0,0,0,0,0.125,12.75,0.0,0,0,0,kReverse,kReverse,-87.08,2.12,2.52,0.03515625,-0.98321533,0.03967285,34.3,0.0,0.0,-8.139481,11.792236,
2576.405466,true,true,true,0.125,12.65,0.0,0,0,0,0.125,12.65,0.0,0,0,0,0.125,12.65,0.0,0,0,0,0.125,12.700000000000001,0.0,0,0,0,0.125,12.65,0.0,4,0,0,0.0,12.65,0.0,0,0,0,0.125,12.75,0.0,0,0,0,kReverse,kReverse,-87.08,2.12,2.53,0.037475586,-0.98583984,0.034851074,34.3,0.0,0.0,-8.139481,11.792236,
2576.4299480000004,true,true,true,0.125,12.65,0.0,0,0,0,0.125,12.65,0.0,0,0,0,0.125,12.65,0.0,0,0,0,0.125,12.700000000000001,0.0,0,0,0,0.125,12.65,0.0,4,0,0,0.0,12.65,0.0,0,0,0,0.125,12.75,0.0,0,0,0,kReverse,kReverse,-87.08,2.12,2.53,0.034606934,-0.9822998,0.035705566,34.3,0.0,-1.0,-8.139481,11.792236,
2576.453496,true,true,true,0.125,12.65,0.0,0,0,0,0.125,12.65,0.0,0,0,0,0.125,12.65,0.0,0,0,0,0.125,12.700000000000001,0.0,0,0,0,0.125,12.65,0.0,4,0,0,0.0,12.65,0.0,0,0,0,0.125,12.75,0.0,0,0,0,kReverse,kReverse,-87.08,2.12,2.53,0.036315918,-0.9814453,0.040771484,34.25,0.0,1.0,-8.139481,11.792236,
2576.4811320000003,true,true,true,0.125,12.65,0.0,0,0,0,0.125,12.65,0.0,0,0,0,0.125,12.65,0.0,0,0,0,0.125,12.700000000000001,0.0,0,0,0,0.125,12.65,0.0,4,0,0,0.0,12.65,0.0,0,0,0,0.125,12.75,0.0,0,0,0,kReverse,kReverse,-87.08,2.12,2.53,0.03845215,-0.9835205,0.036743164,34.25,0.0,2.0,-8.139481,11.792236,
2576.502143,true,true,true,0.125,12.65,0.0,0,0,0,0.125,12.65,0.0,0,0,0,0.125,12.65,0.0,0,0,0,0.125,12.700000000000001,0.0,0,0,0,0.125,12.65,0.0,4,0,0,0.0,12.65,0.0,0,0,0,0.125,12.75,0.0,0,0,0,kReverse,kReverse,-87.08,2.13,2.53,0.036193848,-0.9852295,0.028259277,34.25,0.0,-1.0,-8.139481,11.792236,
2576.522713,true,true,true,0.125,12.65,0.0,0,0,0,0.125,12.65,0.0,0,0,0,0.125,12.65,0.0,0,0,0,0.125,12.700000000000001,0.0,0,0,0,0.125,12.65,0.0,4,0,0,0.0,12.65,0.0,0,0,0,0.125,12.75,0.0,0,0,0,kReverse,kReverse,-87.08,2.13,2.53,0.038635254,-0.9814453,0.031982422,34.25,0.0,1.0,-8.139481,11.792236,
2576.543485,true,true,true,0.125,12.65,0.0,0,0,0,0.125,12.65,0.0,0,0,0,0.125,12.65,0.0,0,0,0,0.125,12.700000000000001,0.0,0,0,0,0.125,12.65,0.0,4,0,0,0.0,12.65,0.0,0,0,0,0.125,12.75,0.0,0,0,0,kReverse,kReverse,-87.08,2.13,2.53,0.032714844,-0.98065186,0.03552246,34.25,0.0,-3.0,-8.139481,11.792236,
2576.5665870000003,true,true,true,0.125,12.65,0.0,0,0,0,0.125,12.65,0.0,0,0,0,0.125,12.65,0.0,0,0,0,0.125,12.700000000000001,0.0,0,0,0,0.125,12.65,0.0,4,0,0,0.0,12.65,0.0,0,0,0,0.125,12.75,0.0,0,0,0,kReverse,kReverse,-87.08,2.12,2.53,0.036315918,-0.9834595,0.03375244,34.25,0.0,0.0,-8.139481,11.792236,
2576.590959,true,true,true,0.125,12.65,0.0,0,0,0,0.125,12.65,0.0,0,0,0,0.125,12.65,0.0,0,0,0,0.125,12.700000000000001,0.0,0,0,0,0.125,12.65,0.0,4,0,0,0.0,12.65,0.0,0,0,0,0.125,12.75,0.0,0,0,0,kReverse,kReverse,-87.08,2.12,2.53,0.036376953,-0.9816284,0.03314209,34.25,0.0,0.0,-8.139481,11.792236,
2576.616756,true,true,true,0.125,12.65,0.0,0,0,0,0.125,12.65,0.0,0,0,0,0.125,12.65,0.0,0,0,0,0.125,12.700000000000001,0.0,0,0,0,0.125,12.65,0.0,4,0,0,0.0,12.65,0.0,0,0,0,0.125,12.75,0.0,0,0,0,kReverse,kReverse,-87.08,2.12,2.53,0.03643799,-0.98083496,0.030944824,34.25,0.0,0.0,-8.139481,11.792236,
2576.6415230000002,true,true,true,0.125,12.65,0.0,0,0,0,0.125,12.65,0.0,0,0,0,0.125,12.65,0.0,0,0,0,0.125,12.700000000000001,0.0,0,0,0,0.125,12.65,0.0,4,0,0,0.0,12.65,0.0,0,0,0,0.125,12.75,0.0,0,0,0,kReverse,kReverse,-87.08,2.12,2.52,0.03527832,-0.98535156,0.03503418,34.25,0.0,-1.0,-8.139481,11.792236,
2576.6635360000005,true,true,true,0.125,12.65,0.0,0,0,0,0.125,12.65,0.0,0,0,0,0.125,12.65,0.0,0,0,0,0.125,12.700000000000001,0.0,0,0,0,0.125,12.65,0.0,4,0,0,0.0,12.65,0.0,0,0,0,0.125,12.75,0.0,0,0,0,kReverse,kReverse,-87.08,2.12,2.52,0.036987305,-0.9844971,0.0335083,34.25,0.0,0.0,-8.139481,11.792236,
2576.685456,true,true,true,0.125,12.65,0.0,0,0,0,0.125,12.65,0.0,0,0,0,0.125,12.65,0.0,0,0,0,0.125,12.700000000000001,0.0,0,0,0,0.0,12.65,0.0,4,0,0,0.0,12.65,0.0,0,0,0,0.125,12.75,0.0,0,0,0,kReverse,kReverse,-87.08,2.12,2.52,0.040039062,-0.982605,0.033569336,34.25,0.0,3.0,-8.139481,11.792236,
2576.707631,true,true,true,0.125,12.65,0.0,0,0,0,0.125,12.65,0.0,0,0,0,0.125,12.65,0.0,0,0,0,0.125,12.700000000000001,0.0,0,0,0,0.0,12.65,0.0,4,0,0,0.0,12.65,0.0,0,0,0,0.125,12.75,0.0,0,0,0,kReverse,kReverse,-87.08,2.12,2.53,0.03515625,-0.9857178,0.03668213,34.25,0.0,-1.0,-8.139481,11.792236,
2576.731174,true,true,true,0.125,12.65,0.0,0,0,0,0.125,12.65,0.0,0,0,0,0.125,12.65,0.0,0,0,0,0.125,12.700000000000001,0.0,0,0,0,0.0,12.65,0.0,4,0,0,0.0,12.65,0.0,0,0,0,0.125,12.75,0.0,0,0,0,kReverse,kReverse,-87.08,2.12,2.53,0.0357666,-0.9840088,0.031921387,34.25,0.0,-1.0,-8.139481,11.792236,
2576.751393,true,true,true,0.125,12.65,0.0,0,0,0,0.125,12.65,0.0,0,0,0,0.125,12.65,0.0,0,0,0,0.125,12.700000000000001,0.0,0,0,0,0.125,12.65,0.0,4,0,0,0.0,12.65,0.0,0,0,0,0.125,12.75,0.0,0,0,0,kReverse,kReverse,-87.08,2.12,2.53,0.034851074,-0.98828125,0.02911377,34.25,0.0,-2.0,-8.139481,11.792236,
2576.777418,true,true,true,0.125,12.65,0.0,0,0,0,0.125,12.65,0.0,0,0,0,0.125,12.65,0.0,0,0,0,0.125,12.700000000000001,0.0,0,0,0,0.0,12.65,0.0,4,0,0,0.0,12.65,0.0,0,0,0,0.125,12.75,0.0,0,0,0,kReverse,kReverse,-87.08,2.12,2.53,0.03692627,-0.9707031,0.035461426,34.25,0.0,1.0,-8.139481,11.792236,
