timer,lineLeft,lineCenter,lineRight,LeftFrontCurrent,LeftFrontVoltage,LeftFrontValue,LeftFrontPosition,LeftFrontVelocity,LeftFrontFaults,LeftRearCurrent,LeftRearVoltage,LeftRearValue,LeftRearPosition,LeftRearVelocity,LeftRearFaults,RightFrontCurrent,RightFrontVoltage,RightFrontValue,RightFrontPosition,RightFrontVelocity,RightFrontFaults,RightRearCurrent,RightRearVoltage,RightRearValue,RightRearPosition,RightRearVelocity,RightRearFaults,LiftCurrent,LiftVoltage,LiftValue,LiftPosition,LiftVelocity,LiftFaults,WristCurrent,WristVoltage,WristValue,WristPosition,WristVelocity,WristFaults,RollerCurrent,RollerVoltage,RollerValue,RollerPosition,RollerVelocity,RollerFaults,PushersState,PivotsState,navx_Pitch,navx_Roll,navx_Yaw,navx_XAcc,navx_YAcc,navx_ZAcc,navx_Temp,navx_Bar,navx_Alt,navx_XDis,navx_YDis,
1034.922363,true,true,true,0.125,12.55,0.0,-123673,0,0,0.125,12.55,0.0,0,0,0,0.125,12.55,0.0,-142814,0,0,0.125,12.6,0.0,0,0,0,0.0,12.55,0.0,20,0,0,0.0,12.55,0.0,0,0,0,0.125,12.6,0.0,0,0,0,kOff,kOff,-85.0,1.54,-177.73,0.0256958,-0.980896,0.08355713,33.16,0.0,0.0,-2.4251556,-3.135437,
1034.951397,true,true,true,0.125,12.55,0.0,-123673,0,0,0.125,12.55,0.0,0,0,0,0.125,12.55,0.0,-142814,0,0,0.125,12.6,0.0,0,0,0,0.0,12.55,0.0,20,0,0,0.0,12.55,0.0,0,0,0,0.125,12.6,0.0,0,0,0,kReverse,kOff,-85.0,1.54,-177.73,0.026916504,-0.9797363,0.07897949,33.16,0.0,0.0,-2.4251556,-3.135437,
1034.9786589999999,true,true,true,0.125,12.55,0.0,-123673,0,0,0.125,12.55,0.0,0,0,0,0.125,12.55,0.0,-142814,0,0,0.125,12.6,0.0,0,0,0,0.0,12.55,0.0,20,0,0,0.0,12.55,0.0,0,0,0,0.125,12.6,0.0,0,0,0,kReverse,kOff,-85.0,1.54,-177.73,0.02709961,-0.9829712,0.085754395,33.12,0.0,-1.0,-2.4251556,-3.135437,
1034.998292,true,true,true,0.125,12.55,0.0,-123673,0,0,0.125,12.55,0.0,0,0,0,0.125,12.55,0.0,-142814,0,0,0.125,12.6,0.0,0,0,0,0.125,12.55,0.0,20,0,0,0.0,12.55,0.0,0,0,0,0.125,12.6,0.0,0,0,0,kReverse,kOff,-85.0,1.54,-177.73,0.026550293,-0.98339844,0.08746338,33.12,0.0,0.0,-2.4251556,-3.135437,
1035.020119,true,true,true,0.125,12.55,0.0,-123673,0,0,0.125,12.55,0.0,0,0,0,0.125,12.55,0.0,-142814,0,0,0.125,12.6,0.0,0,0,0,0.125,12.55,0.0,20,0,0,0.0,12.55,0.0,0,0,0,0.125,12.6,0.0,0,0,0,kReverse,kOff,-85.0,1.54,-177.73,0.024841309,-0.9800415,0.084350586,33.12,0.0,1.0,-2.4251556,-3.135437,
1035.040581,true,true,true,0.125,12.55,0.0,-123673,0,0,0.125,12.55,0.0,0,0,0,0.125,12.55,0.0,-142814,0,0,0.125,12.6,0.0,0,0,0,0.125,12.55,0.0,20,0,0,0.0,12.55,0.0,0,0,0,0.125,12.6,0.0,0,0,0,kReverse,kOff,-85.0,1.54,-177.73,0.028137207,-0.9852295,0.0769043,33.12,0.0,0.0,-2.4251556,-3.135437,
1035.061133,true,true,true,0.125,12.55,0.0,-123673,0,0,0.125,12.55,0.0,0,0,0,0.125,12.55,0.0,-142814,0,0,0.125,12.6,0.0,0,0,0,0.125,12.55,0.0,20,0,0,0.0,12.55,0.0,0,0,0,0.125,12.6,0.0,0,0,0,kReverse,kOff,-85.0,1.54,-177.74,0.02758789,-0.98254395,0.07714844,33.12,0.0,0.0,-2.4251556,-3.135437,
1035.08899,true,true,true,0.125,12.55,0.0,-123673,0,0,0.125,12.55,0.0,0,0,0,0.125,12.55,0.0,-142814,0,0,0.125,12.6,0.0,0,0,0,0.0,12.55,0.0,20,0,0,0.0,12.55,0.0,0,0,0,0.125,12.6,0.0,0,0,0,kReverse,kOff,-85.0,1.54,-177.74,0.02709961,-0.98046875,0.08404541,33.12,0.0,0.0,-2.4251556,-3.135437,
1035.1112429999998,true,true,true,0.125,12.55,0.0,-123673,0,0,0.125,12.55,0.0,0,0,0,0.125,12.55,0.0,-142814,0,0,0.125,12.6,0.0,0,0,0,0.0,12.55,0.0,20,0,0,0.0,12.55,0.0,0,0,0,0.125,12.6,0.0,0,0,0,kReverse,kOff,-85.0,1.54,-177.73,0.02508545,-0.9819946,0.081848145,33.12,0.0,1.0,-2.4251556,-3.135437,
1035.132343,true,true,true,0.125,12.55,0.0,-123673,0,0,0.125,12.55,0.0,0,0,0,0.125,12.55,0.0,-142814,0,0,0.125,12.6,0.0,0,0,0,0.0,12.55,0.0,20,0,0,0.0,12.55,0.0,0,0,0,0.125,12.6,0.0,0,0,0,kReverse,kOff,-84.99,1.54,-177.73,0.027526855,-0.9840088,0.08544922,33.12,0.0,-1.0,-2.4251556,-3.135437,
1035.155265,true,true,true,0.125,12.55,0.0,-123673,0,0,0.125,12.55,0.0,0,0,0,0.125,12.55,0.0,-142814,0,0,0.125,12.6,0.0,0,0,0,0.125,12.55,0.0,20,0,0,0.0,12.55,0.0,0,0,0,0.125,12.6,0.0,0,0,0,kReverse,kOff,-84.99,1.54,-177.73,0.026489258,-0.9805298,0.07965088,33.12,0.0,0.0,-2.4251556,-3.135437,
1035.175711,true,true,true,0.125,12.55,0.0,-123673,0,0,0.125,12.55,0.0,0,0,0,0.125,12.55,0.0,-142814,0,0,0.125,12.6,0.0,0,0,0,0.125,12.55,0.0,20,0,0,0.0,12.55,0.0,0,0,0,0.125,12.6,0.0,0,0,0,kReverse,kOff,-84.99,1.54,-177.73,0.02746582,-0.9797363,0.087402344,33.12,0.0,-1.0,-2.4251556,-3.135437,
1035.19841,true,true,true,0.125,12.55,0.0,-123673,0,0,0.125,12.55,0.0,0,0,0,0.125,12.55,0.0,-142814,0,0,0.125,12.6,0.0,0,0,0,0.125,12.6,0.0,20,0,0,0.0,12.55,0.0,0,0,0,0.125,12.6,0.0,0,0,0,kReverse,kOff,-84.99,1.54,-177.73,0.03161621,-0.98217773,0.082092285,33.12,0.0,-4.0,-2.4251556,-3.135437,
1035.219046,true,true,true,0.125,12.55,0.0,-123673,0,0,0.125,12.55,0.0,0,0,0,0.125,12.55,0.0,-142814,0,0,0.125,12.6,0.0,0,0,0,0.0,12.6,0.0,20,0,0,0.0,12.55,0.0,0,0,0,0.125,12.6,0.0,0,0,0,kReverse,kOff,-84.99,1.54,-177.73,0.028137207,-0.97924805,0.080322266,33.12,0.0,-1.0,-2.4251556,-3.135437,
1035.2401579999998,true,true,true,0.125,12.55,0.0,-123673,0,0,0.125,12.55,0.0,0,0,0,0.125,12.55,0.0,-142814,0,0,0.125,12.6,0.0,0,0,0,0.0,12.6,0.0,20,0,0,0.0,12.55,0.0,0,0,0,0.125,12.6,0.0,0,0,0,kReverse,kOff,-84.99,1.54,-177.73,0.02911377,-0.9805908,0.08306885,33.12,0.0,-2.0,-2.4251556,-3.135437,
1035.25919,true,true,true,0.125,12.55,0.0,-123673,0,0,0.125,12.55,0.0,0,0,0,0.125,12.55,0.0,-142814,0,0,0.125,12.6,0.0,0,0,0,0.0,12.6,0.0,20,0,0,0.0,12.55,0.0,0,0,0,0.125,12.6,0.0,0,0,0,kReverse,kOff,-84.99,1.54,-177.73,0.025878906,-0.9833374,0.07745361,33.12,0.0,1.0,-2.4251556,-3.135437,
1035.282187,true,true,true,0.125,12.55,0.0,-123673,0,0,0.125,12.55,0.0,0,0,0,0.125,12.55,0.0,-142814,0,0,0.125,12.6,0.0,0,0,0,0.0,12.6,0.0,20,0,0,0.0,12.55,0.0,0,0,0,0.125,12.6,0.0,0,0,0,kReverse,kOff,-84.99,1.54,-177.73,0.024230957,-0.9796753,0.07989502,33.12,0.0,2.0,-2.4251556,-3.135437,
1035.294024,true,true,true,0.125,12.55,0.0,-123673,0,0,0.125,12.55,0.0,0,0,0,0.125,12.55,0.0,-142814,0,0,0.125,12.6,0.0,0,0,0,0.125,12.6,0.0,20,0,0,0.0,12.55,0.0,0,0,0,0.125,12.6,0.0,0,0,0,kReverse,kOff,-84.99,1.54,-177.74,0.02911377,-0.98168945,0.07745361,33.12,0.0,-1.0,-2.4251556,-3.135437,
1035.3243009999999,true,true,true,0.125,12.55,0.0,-123673,0,0,0.125,12.55,0.0,0,0,0,0.125,12.55,0.0,-142814,0,0,0.125,12.6,0.0,0,0,0,0.125,12.6,0.0,20,0,0,0.0,12.55,0.0,0,0,0,0.125,12.6,0.0,0,0,0,kReverse,kOff,-84.99,1.54,-177.74,0.027709961,-0.97943115,0.081726074,33.12,0.0,-1.0,-2.4251556,-3.135437,
1035.351954,true,true,true,0.125,12.55,0.0,-123673,0,0,0.125,12.55,0.0,0,0,0,0.125,12.55,0.0,-142814,0,0,0.125,12.6,0.0,0,0,0,0.125,12.6,0.0,20,0,0,0.0,12.55,0.0,0,0,0,0.125,12.6,0.0,0,0,0,kReverse,kOff,-84.99,1.54,-177.74,0.026123047,-0.98553467,0.08135986,33.12,0.0,0.0,-2.4251556,-3.135437,
1035.374385,true,true,true,0.125,12.55,0.0,-123673,0,0,0.125,12.55,0.0,0,0,0,0.125,12.55,0.0,-142814,0,0,0.125,12.6,0.0,0,0,0,0.125,12.55,0.0,20,0,0,0.0,12.55,0.0,0,0,0,0.125,12.6,0.0,0,0,0,kReverse,kOff,-84.99,1.54,-177.74,0.027648926,-0.98236084,0.08343506,33.12,0.0,-1.0,-2.4251556,-3.135437,
1035.400441,true,true,true,0.125,12.55,0.0,-123673,0,0,0.125,12.55,0.0,0,0,0,0.125,12.55,0.0,-142814,0,0,0.125,12.6,0.0,0,0,0,0.125,12.55,0.0,20,0,0,0.0,12.55,0.0,0,0,0,0.125,12.6,0.0,0,0,0,kReverse,kOff,-84.99,1.54,-177.74,0.029968262,-0.98291016,0.07525635,33.12,0.0,-2.0,-2.4251556,-3.135437,
1035.421991,true,true,true,0.125,12.55,0.0,-123673,0,0,0.125,12.55,0.0,0,0,0,0.125,12.55,0.0,-142814,0,0,0.125,12.6,0.0,0,0,0,0.125,12.55,0.0,20,0,0,0.0,12.55,0.0,0,0,0,0.125,12.6,0.0,0,0,0,kReverse,kOff,-85.0,1.54,-177.74,0.027038574,-0.9817505,0.07873535,33.12,0.0,0.0,-2.4251556,-3.135437,
1035.443293,true,true,true,0.125,12.55,0.0,-123673,0,0,0.125,12.55,0.0,0,0,0,0.125,12.55,0.0,-142814,0,0,0.125,12.6,0.0,0,0,0,0.125,12.55,0.0,20,0,0,0.0,12.55,0.0,0,0,0,0.125,12.6,0.0,0,0,0,kReverse,kOff,-84.99,1.54,-177.73,0.0289917,-0.98083496,0.0769043,33.12,0.0,-1.0,-2.4251556,-3.135437,
1035.46388,true,true,true,0.125,12.55,0.0,-123673,0,0,0.125,12.55,0.0,0,0,0,0.125,12.55,0.0,-142814,0,0,0.125,12.6,0.0,0,0,0,0.125,12.55,0.0,20,0,0,0.0,12.55,0.0,0,0,0,0.125,12.6,0.0,0,0,0,kReverse,kOff,-84.99,1.54,-177.73,0.027832031,-0.9859619,0.07873535,33.12,0.0,0.0,-2.4251556,-3.135437,
1035.486103,true,true,true,0.125,12.55,0.0,-123673,0,0,0.125,12.55,0.0,0,0,0,0.125,12.55,0.0,-142814,0,0,0.125,12.6,0.0,0,0,0,0.125,12.55,0.0,20,0,0,0.0,12.55,0.0,0,0,0,0.125,12.6,0.0,0,0,0,kReverse,kOff,-84.99,1.54,-177.73,0.028442383,-0.98132324,0.07623291,33.13,0.0,-1.0,-2.4251556,-3.135437,
1035.507939,true,true,true,0.125,12.55,0.0,-123673,0,0,0.125,12.55,0.0,0,0,0,0.125,12.55,0.0,-142814,0,0,0.125,12.6,0.0,0,0,0,0.125,12.55,0.0,20,0,0,0.0,12.55,0.0,0,0,0,0.125,12.6,0.0,0,0,0,kReverse,kOff,-84.99,1.54,-177.73,0.03100586,-0.98376465,0.08428955,33.13,0.0,-4.0,-2.4251556,-3.135437,
1035.527922,true,true,true,0.125,12.55,0.0,-123673,0,0,0.125,12.55,0.0,0,0,0,0.125,12.55,0.0,-142814,0,0,0.125,12.6,0.0,0,0,0,0.125,12.55,0.0,20,0,0,0.0,12.55,0.0,0,0,0,0.125,12.6,0.0,0,0,0,kReverse,kOff,-84.99,1.54,-177.73,0.02758789,-0.98321533,0.08270264,33.13,0.0,-1.0,-2.4251556,-3.135437,
1035.546071,true,true,true,0.125,12.55,0.0,-123673,0,0,0.125,12.55,0.0,0,0,0,0.125,12.55,0.0,-142814,0,0,0.125,12.6,0.0,0,0,0,0.125,12.55,0.0,20,0,0,0.0,12.55,0.0,0,0,0,0.125,12.6,0.0,0,0,0,kReverse,kOff,-84.99,1.54,-177.73,0.026428223,-0.98187256,0.08081055,33.13,0.0,0.0,-2.4251556,-3.135437,
1035.564029,true,true,true,0.125,12.55,0.0,-123673,0,0,0.125,12.55,0.0,0,0,0,0.125,12.55,0.0,-142814,0,0,0.125,12.6,0.0,0,0,0,0.125,12.55,0.0,20,0,0,0.0,12.55,0.0,0,0,0,0.125,12.6,0.0,0,0,0,kReverse,kOff,-84.99,1.54,-177.73,0.025756836,-0.98205566,0.08062744,33.13,0.0,1.0,-2.4251556,-3.135437,
1035.588859,true,true,true,0.125,12.55,0.0,-123673,0,0,0.125,12.55,0.0,0,0,0,0.125,12.55,0.0,-142814,0,0,0.125,12.6,0.0,0,0,0,0.125,12.55,0.0,20,0,0,0.0,12.55,0.0,0,0,0,0.125,12.6,0.0,0,0,0,kReverse,kOff,-84.99,1.54,-177.73,0.02746582,-0.9812012,0.08477783,33.13,0.0,-1.0,-2.4251556,-3.135437,
1035.612506,true,true,true,0.125,12.55,0.0,-123673,0,0,0.125,12.55,0.0,0,0,0,0.125,12.55,0.0,-142814,0,0,0.125,12.6,0.0,0,0,0,0.125,12.55,0.0,20,0,0,0.0,12.55,0.0,0,0,0,0.125,12.6,0.0,0,0,0,kReverse,kOff,-84.99,1.54,-177.73,0.026733398,-0.980896,0.08239746,33.13,0.0,0.0,-2.4251556,-3.135437,
1035.634503,true,true,true,0.125,12.55,0.0,-123673,0,0,0.125,12.55,0.0,0,0,0,0.125,12.55,0.0,-142814,0,0,0.125,12.6,0.0,0,0,0,0.125,12.55,0.0,20,0,0,0.0,12.55,0.0,0,0,0,0.125,12.6,0.0,0,0,0,kReverse,kOff,-84.99,1.55,-177.73,0.026123047,-0.9824219,0.079589844,33.13,0.0,0.0,-2.4251556,-3.135437,
1035.656329,true,true,true,0.125,12.55,0.0,-123673,0,0,0.125,12.55,0.0,0,0,0,0.125,12.55,0.0,-142814,0,0,0.125,12.6,0.0,0,0,0,0.125,12.55,0.0,20,0,0,0.0,12.55,0.0,0,0,0,0.125,12.6,0.0,0,0,0,kReverse,kOff,-84.99,1.55,-177.73,0.024963379,-0.9833374,0.08270264,33.13,0.0,1.0,-2.4251556,-3.135437,
1035.675871,true,true,true,0.125,12.55,0.0,-123673,0,0,0.125,12.55,0.0,0,0,0,0.125,12.55,0.0,-142814,0,0,0.125,12.6,0.0,0,0,0,0.125,12.55,0.0,20,0,0,0.0,12.55,0.0,0,0,0,0.125,12.6,0.0,0,0,0,kReverse,kOff,-84.99,1.55,-177.73,0.02746582,-0.98101807,0.086120605,33.13,0.0,-1.0,-2.4251556,-3.135437,
1035.696728,true,true,true,0.125,12.55,0.0,-123673,0,0,0.125,12.55,0.0,0,0,0,0.125,12.55,0.0,-142814,0,0,0.125,12.6,0.0,0,0,0,0.125,12.55,0.0,20,0,0,0.0,12.55,0.0,0,0,0,0.125,12.6,0.0,0,0,0,kReverse,kOff,-84.99,1.55,-177.73,0.027282715,-0.98339844,0.079956055,33.13,0.0,0.0,-2.4251556,-3.135437,
1035.7197529999999,true,true,true,0.125,12.55,0.0,-123673,0,0,0.125,12.55,0.0,0,0,0,0.125,12.55,0.0,-142814,0,0,0.125,12.6,0.0,0,0,0,0.125,12.55,0.0,20,0,0,0.0,12.55,0.0,0,0,0,0.125,12.6,0.0,0,0,0,kReverse,kOff,-84.99,1.54,-177.73,0.024475098,-0.9801636,0.08557129,33.13,0.0,1.0,-2.4251556,-3.135437,
1035.740973,true,true,true,0.125,12.55,0.0,-123673,0,0,0.125,12.55,0.0,0,0,0,0.125,12.55,0.0,-142814,0,0,0.125,12.6,0.0,0,0,0,0.125,12.55,0.0,20,0,0,0.0,12.55,0.0,0,0,0,0.125,12.6,0.0,0,0,0,kReverse,kOff,-84.99,1.54,-177.73,0.022583008,-0.9828491,0.0814209,33.13,0.0,4.0,-2.4251556,-3.135437,
1035.763552,true,true,true,0.125,12.55,0.0,-123673,0,0,0.125,12.55,0.0,0,0,0,0.125,12.55,0.0,-142814,0,0,0.125,12.6,0.0,0,0,0,0.125,12.55,0.0,20,0,0,0.0,12.55,0.0,0,0,0,0.125,12.6,0.0,0,0,0,kReverse,kOff,-84.99,1.54,-177.74,0.02935791,-0.9824829,0.07788086,33.13,0.0,-2.0,-2.4251556,-3.135437,
1035.784557,true,true,true,0.125,12.55,0.0,-123673,0,0,0.125,12.55,0.0,0,0,0,0.125,12.55,0.0,-142814,0,0,0.125,12.6,0.0,0,0,0,0.125,12.55,0.0,20,0,0,0.0,12.55,0.0,0,0,0,0.125,12.6,0.0,0,0,0,kReverse,kOff,-84.99,1.54,-177.74,0.024841309,-0.9873047,0.08538818,33.13,0.0,1.0,-2.4251556,-3.135437,
1035.8068369999999,true,true,true,0.125,12.55,0.0,-123673,0,0,0.125,12.55,0.0,0,0,0,0.125,12.55,0.0,-142814,0,0,0.125,12.6,0.0,0,0,0,0.125,12.55,0.0,20,0,0,0.0,12.55,0.0,0,0,0,0.125,12.6,0.0,0,0,0,kReverse,kOff,-84.99,1.54,-177.74,0.02557373,-0.98101807,0.079711914,33.13,0.0,1.0,-2.4251556,-3.135437,
1035.828677,true,true,true,0.125,12.55,0.0,-123673,0,0,0.125,12.55,0.0,0,0,0,0.125,12.55,0.0,-142814,0,0,0.125,12.6,0.0,0,0,0,0.125,12.55,0.0,20,0,0,0.0,12.55,0.0,0,0,0,0.125,12.6,0.0,0,0,0,kReverse,kOff,-84.99,1.54,-177.74,0.024658203,-0.982605,0.08782959,33.13,0.0,1.0,-2.4251556,-3.135437,
1035.8491139999999,true,true,true,0.125,12.55,0.0,-123673,0,0,0.125,12.55,0.0,0,0,0,0.125,12.55,0.0,-142814,0,0,0.125,12.6,0.0,0,0,0,0.125,12.55,0.0,20,0,0,0.0,12.55,0.0,0,0,0,0.125,12.6,0.0,0,0,0,kReverse,kOff,-84.99,1.53,-177.74,0.026916504,-0.9807739,0.08166504,33.13,0.0,0.0,-2.4251556,-3.135437,
1035.869788,true,true,true,0.125,12.55,0.0,-123673,0,0,0.125,12.55,0.0,0,0,0,0.125,12.55,0.0,-142814,0,0,0.125,12.6,0.0,0,0,0,0.125,12.55,0.0,20,0,0,0.0,12.55,0.0,0,0,0,0.125,12.6,0.0,0,0,0,kReverse,kOff,-84.99,1.53,-177.74,0.030639648,-0.9834595,0.08673096,33.13,0.0,-4.0,-2.4251556,-3.135437,
1035.893499,true,true,true,0.125,12.55,0.0,-123673,0,0,0.125,12.55,0.0,0,0,0,0.125,12.55,0.0,-142814,0,0,0.125,12.6,0.0,0,0,0,0.125,12.55,0.0,20,0,0,0.0,12.55,0.0,0,0,0,0.125,12.6,0.0,0,0,0,kReverse,kOff,-84.99,1.54,-177.74,0.02734375,-0.9800415,0.08215332,33.13,0.0,0.0,-2.4251556,-3.135437,
1035.918005,true,true,true,0.125,12.55,0.0,-123673,0,0,0.125,12.55,0.0,0,0,0,0.375,12.55,0.0,-142814,0,0,0.125,12.6,0.0,0,0,0,0.125,12.55,0.0,20,0,0,0.0,12.55,0.0,0,0,0,0.125,12.6,0.0,0,0,0,kReverse,kOff,-84.99,1.53,-177.74,0.026611328,-0.98687744,0.08227539,33.13,0.0,0.0,-2.4251556,-3.135437,
1035.930135,true,true,true,0.125,12.55,0.0,-123673,0,0,0.125,12.55,0.0,0,0,0,0.375,12.55,0.0,-142814,0,0,0.125,12.6,0.0,0,0,0,0.125,12.55,0.0,20,0,0,0.0,12.55,0.0,0,0,0,0.125,12.6,0.0,0,0,0,kReverse,kOff,-84.99,1.54,-177.73,0.026672363,-0.982666,0.08380127,33.13,0.0,0.0,-2.4251556,-3.135437,
1035.958289,true,true,true,1.25,12.55,0.0,-123656,3,0,1.875,12.55,0.0,0,0,0,1.875,12.55,0.0,-142800,2,0,1.875,12.6,0.0,0,0,0,0.125,12.55,0.0,20,0,0,0.0,12.55,0.0,0,0,0,0.125,12.6,0.0,0,0,0,kReverse,kOff,-84.93,1.56,-177.7,-0.06903076,-1.1131592,-0.22125244,33.13,0.0,144.0,-2.425003,-3.135254,
1035.997548,true,true,true,2.375,12.55,0.0,-123638,11,0,4.25,12.05,0.0,0,0,0,5.25,11.850000000000001,0.0,-142769,23,0,4.25,11.9,0.0,0,0,0,0.125,11.850000000000001,0.0,20,0,0,0.0,12.55,0.0,0,0,0,0.125,11.8,0.0,0,0,0,kReverse,kOff,-84.83,1.44,-177.82,0.07196045,-0.46923828,1.2371826,33.14,0.0,-231.0,-2.424652,-3.1358337,
1036.021276,true,true,true,10.0,11.75,0.0,-123617,37,0,7.375,12.05,0.0,0,0,0,13.5,11.850000000000001,0.0,-142752,37,0,11.875,11.9,0.0,0,0,0,0.125,11.850000000000001,0.0,20,0,0,0.0,11.5,0.0,0,0,0,0.125,11.8,0.0,0,0,0,kReverse,kOff,-84.07,1.49,-177.68,-0.06121826,-1.0973511,0.52734375,33.14,0.0,30.0,-2.4246826,-3.13768,
1036.039733,true,true,true,18.875,11.75,0.0,-123591,50,0,15.5,12.05,0.0,0,0,0,22.25,11.850000000000001,0.0,-142732,53,0,20.125,11.9,0.0,0,0,0,0.0,11.850000000000001,0.0,20,0,0,0.0,11.5,0.0,0,0,0,0.125,11.8,0.0,0,0,0,kReverse,kOff,-83.64,1.63,-177.49,0.062194824,-0.42456055,1.0335693,33.14,0.0,-186.0,-2.424591,-3.1421509,
1036.062635,true,true,true,26.125,11.75,0.0,-123564,65,0,24.125,12.05,0.0,0,0,0,31.25,11.850000000000001,0.0,-142705,69,0,28.5,11.9,0.0,0,0,0,0.0,11.850000000000001,0.0,20,0,0,0.0,11.5,0.0,0,0,0,0.125,11.8,0.0,0,0,0,kReverse,kOff,-82.68,1.69,-177.26,0.009399414,-0.7739868,1.473999,33.14,0.0,-180.0,-2.42482,-3.1462097,
1036.0839589999998,true,true,true,31.375,11.75,0.0,-123533,81,0,32.875,12.05,0.0,0,0,0,33.875,11.850000000000001,0.0,-142675,85,0,32.375,11.9,0.0,0,0,0,0.0,11.850000000000001,0.0,20,0,0,0.0,11.5,0.0,0,0,0,0.125,11.8,0.0,0,0,0,kReverse,kOff,-80.57,1.77,-176.88,-0.01586914,-0.800354,1.1552734,33.14,0.0,-102.0,-2.4263153,-3.1588593,
1036.108602,true,true,true,32.625,11.75,0.0,-123500,99,0,36.125,12.05,0.0,0,0,0,36.0,11.850000000000001,0.0,-142643,99,0,34.875,11.9,0.0,0,0,0,0.125,11.850000000000001,0.0,20,0,0,0.0,11.5,0.0,0,0,0,0.125,11.8,0.0,0,0,0,kReverse,kOff,-79.91,1.71,-176.86,-0.11340332,-0.8128662,1.2893677,33.14,0.0,-21.0,-2.4272919,-3.167328,
1036.133844,true,true,true,32.125,11.75,0.0,-123468,117,0,35.125,12.05,0.0,0,0,0,32.375,11.850000000000001,0.0,-142574,131,0,32.875,11.9,0.0,0,0,0,0.125,11.850000000000001,0.0,20,0,0,0.0,11.5,0.0,0,0,0,0.125,11.8,0.0,0,0,0,kReverse,kOff,-79.26,1.64,-176.85,0.17102051,-0.7575073,0.59350586,33.14,0.0,-208.0,-2.4296417,-3.1876678,
1036.1612539999999,true,true,true,25.625,9.600000000000001,0.0,-123393,152,0,31.625,9.45,0.0,0,0,0,27.375,9.65,0.0,-142534,149,0,29.625,9.7,0.0,0,0,0,0.125,9.850000000000001,0.0,20,0,0,0.0,9.95,0.0,0,0,0,0.125,9.9,0.0,0,0,0,kReverse,kOff,-79.13,1.6,-176.86,-0.07696533,-0.7216797,0.29406738,33.14,0.0,74.0,-2.4325256,-3.2102814,
1036.181828,true,true,true,20.125,9.600000000000001,0.0,-123351,165,0,26.625,9.45,0.0,0,0,0,22.5,9.65,0.0,-142494,163,0,25.625,9.7,0.0,0,0,0,0.125,9.850000000000001,0.0,20,0,0,0.0,9.95,0.0,0,0,0,0.125,9.9,0.0,0,0,0,kReverse,kOff,-79.19,1.52,-176.93,-0.25439453,-0.63720703,0.2868042,33.14,0.0,245.0,-2.4337616,-3.2220154,
1036.202083,true,true,true,17.5,9.600000000000001,0.0,-123310,175,0,22.125,9.45,0.0,0,0,0,19.125,9.65,0.0,-142455,174,0,20.75,9.7,0.0,0,0,0,0.0,9.850000000000001,0.0,20,0,0,0.0,9.95,0.0,0,0,0,0.125,9.9,0.0,0,0,0,kReverse,kOff,-79.53,1.36,-177.13,-0.029907227,-1.6825562,0.18048096,33.14,0.0,87.0,-2.4358673,-3.2458801,
1036.2238949999999,true,true,true,15.0,9.600000000000001,0.0,-123267,184,0,18.625,9.45,0.0,0,0,0,17.0,9.65,0.0,-142412,183,0,18.0,9.7,0.0,0,0,0,0.0,9.850000000000001,0.0,20,0,0,0.0,9.95,0.0,0,0,0,0.125,9.9,0.0,0,0,0,kReverse,kOff,-79.82,1.35,-177.21,0.21704102,-1.288269,0.34710693,33.14,0.0,-200.0,-2.4369812,-3.2577972,
1036.24614,true,true,true,13.375,9.600000000000001,0.0,-123220,194,0,16.5,9.45,0.0,0,0,0,15.125,9.65,0.0,-142366,192,0,16.0,9.7,0.0,0,0,0,0.0,9.850000000000001,0.0,20,0,0,0.0,9.95,0.0,0,0,0,0.125,9.9,0.0,0,0,0,kReverse,kOff,-80.04,1.42,-177.2,0.079711914,-1.6617432,-0.16290283,33.14,0.0,23.0,-2.439804,-3.2811584,
1036.2705689999998,true,true,true,12.125,9.600000000000001,0.0,-123167,205,0,14.875,9.45,0.0,0,0,0,13.75,9.65,0.0,-142317,201,0,13.25,9.7,0.0,0,0,0,0.125,9.850000000000001,0.0,20,0,0,0.0,9.95,0.0,0,0,0,0.125,9.9,0.0,0,0,0,kReverse,kOff,-79.84,1.43,-177.16,-0.07183838,-1.3417969,-0.26983643,33.14,0.0,173.0,-2.4411316,-3.2920074,
1036.293103,true,true,true,11.0,9.600000000000001,0.0,-123114,217,0,12.375,9.45,0.0,0,0,0,12.5,9.65,0.0,-142267,210,0,12.5,9.7,0.0,0,0,0,0.125,9.850000000000001,0.0,20,0,0,0.0,9.95,0.0,0,0,0,0.125,9.9,0.0,0,0,0,kReverse,kOff,-79.33,1.41,-177.08,-0.10510254,-0.38787842,0.3100586,33.14,0.0,81.0,-2.4427643,-3.3129578,
1036.319747,true,true,true,9.625,9.600000000000001,0.0,-123004,242,0,11.625,11.05,0.0,0,0,0,11.0,11.100000000000001,0.0,-142157,235,0,11.75,11.0,0.0,0,0,0,0.125,11.15,0.0,20,0,0,0.0,11.15,0.0,0,0,0,0.125,11.2,0.0,0,0,0,kReverse,kOff,-78.95,1.4,-177.03,-0.036315918,-0.69311523,0.1572876,33.14,0.0,49.0,-2.4445343,-3.3347473,
1036.3412999999998,true,true,true,9.25,11.05,0.0,-122951,253,0,11.25,11.05,0.0,0,0,0,10.75,11.100000000000001,0.0,-142106,246,0,11.25,11.0,0.0,0,0,0,0.125,11.15,0.0,20,0,0,0.0,11.15,0.0,0,0,0,0.125,11.2,0.0,0,0,0,kReverse,kOff,-79.03,1.44,-177.02,-0.057495117,-0.6484375,0.23876953,33.14,0.0,57.0,-2.4454193,-3.34581,
1036.3603019999998,true,true,true,9.125,11.05,0.0,-122893,264,0,11.125,11.05,0.0,0,0,0,10.375,11.100000000000001,0.0,-142048,257,0,11.125,11.0,0.0,0,0,0,0.125,11.15,0.0,20,0,0,0.0,11.15,0.0,0,0,0,0.125,11.2,0.0,0,0,0,kReverse,kOff,-79.05,1.42,-177.05,0.14587402,-1.2852173,0.33544922,33.14,0.0,-124.0,-2.4463654,-3.35701,
1036.379894,true,true,true,9.125,11.05,0.0,-122840,270,0,11.125,11.05,0.0,0,0,0,10.125,11.100000000000001,0.0,-141991,264,0,10.75,11.0,0.0,0,0,0,0.125,11.15,0.0,20,0,0,0.0,11.15,0.0,0,0,0,0.125,11.2,0.0,0,0,0,kReverse,kOff,-79.21,1.47,-177.01,0.06506348,-1.0502319,0.4371338,33.14,0.0,-69.0,-2.4485016,-3.3802338,
1036.400582,true,true,true,9.0,11.05,0.0,-122778,275,0,11.25,11.05,0.0,0,0,0,9.75,11.100000000000001,0.0,-141933,270,0,10.5,11.0,0.0,0,0,0,0.125,11.15,0.0,20,0,0,0.0,11.15,0.0,0,0,0,0.125,11.2,0.0,0,0,0,kReverse,kOff,-79.19,1.41,-177.05,0.12579346,-1.347168,0.12762451,33.14,0.0,-73.0,-2.4496918,-3.3920746,
1036.421744,true,true,true,8.5,11.05,0.0,-122717,279,0,10.75,11.05,0.0,0,0,0,9.375,11.100000000000001,0.0,-141872,275,0,10.25,11.0,0.0,0,0,0,0.125,11.15,0.0,20,0,0,0.0,11.15,0.0,0,0,0,0.125,11.2,0.0,0,0,0,kReverse,kOff,-79.03,1.38,-177.03,0.14245605,-0.83306885,0.079956055,33.14,0.0,-109.0,-2.4518738,-3.415619,
1036.4434549999999,true,true,true,7.875,11.05,0.0,-122658,283,0,10.25,11.05,0.0,0,0,0,8.875,11.100000000000001,0.0,-141810,281,0,9.75,11.0,0.0,0,0,0,0.125,11.15,0.0,20,0,0,0.0,11.15,0.0,0,0,0,0.125,11.2,0.0,0,0,0,kReverse,kOff,-79.03,1.38,-177.03,0.14245605,-0.83306885,0.079956055,33.14,0.0,-109.0,-2.4518738,-3.415619,
1036.46591,true,true,true,7.5,11.05,0.0,-122592,289,0,9.75,11.05,0.0,0,0,0,8.5,11.100000000000001,0.0,-141747,288,0,9.5,11.0,0.0,0,0,0,0.125,11.15,0.0,20,0,0,0.0,11.15,0.0,0,0,0,0.125,11.2,0.0,0,0,0,kReverse,kOff,-78.94,1.45,-176.94,0.101135254,-1.1053467,0.43359375,33.14,0.0,-102.0,-2.4530792,-3.4274445,
1036.489639,true,true,true,7.125,11.350000000000001,0.0,-122528,296,0,9.5,11.350000000000001,0.0,0,0,0,8.125,11.3,0.0,-141684,295,0,9.25,11.350000000000001,0.0,0,0,0,0.125,11.4,0.0,20,0,0,0.0,11.350000000000001,0.0,0,0,0,0.125,11.4,0.0,0,0,0,kReverse,kOff,-78.63,1.48,-176.88,0.12451172,-1.1121826,0.31860352,33.14,0.0,-107.0,-2.4557648,-3.4519196,
1036.507588,true,true,true,6.875,11.350000000000001,0.0,-122463,304,0,9.25,11.350000000000001,0.0,0,0,0,8.0,11.3,0.0,-141624,302,0,9.125,11.350000000000001,0.0,0,0,0,0.125,11.4,0.0,20,0,0,0.0,11.350000000000001,0.0,0,0,0,0.125,11.4,0.0,0,0,0,kReverse,kOff,-78.72,1.53,-176.86,-0.028930664,-1.0792847,0.31469727,33.07,0.0,43.0,-2.457199,-3.464386,
1036.527658,true,true,true,6.625,11.350000000000001,0.0,-122397,311,0,9.0,11.350000000000001,0.0,0,0,0,8.0,11.3,0.0,-141560,308,0,9.125,11.350000000000001,0.0,0,0,0,0.125,11.4,0.0,20,0,0,0.0,11.350000000000001,0.0,0,0,0,0.125,11.4,0.0,0,0,0,kReverse,kOff,-78.81,1.54,-176.87,0.07232666,-0.99176025,0.1385498,33.07,0.0,-36.0,-2.4586334,-3.4768982,
1036.551583,true,true,true,6.375,11.350000000000001,0.0,-122334,316,0,8.375,11.350000000000001,0.0,0,0,0,7.375,11.3,0.0,-141427,317,0,8.625,11.350000000000001,0.0,0,0,0,0.125,11.4,0.0,20,0,0,0.0,11.350000000000001,0.0,0,0,0,0.125,11.4,0.0,0,0,0,kReverse,kOff,-78.97,1.44,-176.99,-0.09539795,-0.69433594,0.30212402,33.07,0.0,89.0,-2.4613495,-3.502304,
1036.56694,true,true,true,6.125,11.350000000000001,0.0,-122264,321,0,8.375,11.350000000000001,0.0,0,0,0,7.375,11.3,0.0,-141427,317,0,8.625,11.350000000000001,0.0,0,0,0,0.125,11.4,0.0,20,0,0,0.0,11.350000000000001,0.0,0,0,0,0.125,11.4,0.0,0,0,0,kReverse,kOff,-78.98,1.42,-177.02,0.11138916,-0.92962646,0.1361084,33.07,0.0,-80.0,-2.4626465,-3.5152283,
1036.5858249999999,true,true,true,5.875,11.350000000000001,0.0,-122196,325,0,8.0,11.350000000000001,0.0,0,0,0,7.0,11.3,0.0,-141355,322,0,8.375,11.350000000000001,0.0,0,0,0,0.125,11.4,0.0,20,0,0,0.0,11.350000000000001,0.0,0,0,0,0.125,11.4,0.0,0,0,0,kReverse,kOff,-79.25,1.49,-177.01,0.036193848,-1.1589966,0.1965332,33.07,0.0,-2.0,-2.4654083,-3.5404816,
1036.616399,true,true,true,5.5,11.350000000000001,0.0,-122125,329,0,7.125,11.350000000000001,0.0,0,0,0,6.375,11.3,0.0,-141217,331,0,7.625,11.350000000000001,0.0,0,0,0,0.125,11.4,0.0,20,0,0,0.0,11.350000000000001,0.0,0,0,0,0.125,11.4,0.0,0,0,0,kReverse,kOff,-79.25,1.52,-176.97,-0.04272461,-1.079956,0.082336426,33.07,0.0,87.0,-2.4653473,-3.5651245,
1036.6415259999999,true,true,true,5.0,11.55,0.0,-121987,338,0,6.875,11.55,0.0,0,0,0,6.0,11.55,0.0,-141148,335,0,7.25,11.600000000000001,0.0,0,0,0,0.125,11.600000000000001,0.0,20,0,0,0.0,11.600000000000001,0.0,0,0,0,0.125,11.7,0.0,0,0,0,kReverse,kOff,-79.18,1.5,-176.99,-0.16516113,-0.6911011,0.17907715,33.07,0.0,175.0,-2.4651031,-3.5773315,
1036.661572,true,true,true,4.75,11.55,0.0,-121917,342,0,6.5,11.55,0.0,0,0,0,5.625,11.55,0.0,-141079,339,0,6.875,11.600000000000001,0.0,0,0,0,0.0,11.600000000000001,0.0,20,0,0,0.0,11.600000000000001,0.0,0,0,0,0.125,11.7,0.0,0,0,0,kReverse,kOff,-79.04,1.45,-177.02,0.14251709,-0.76312256,0.23614502,33.07,0.0,-133.0,-2.4648438,-3.5896454,
1036.681249,true,true,true,4.5,11.55,0.0,-121851,344,0,6.375,11.55,0.0,0,0,0,5.5,11.55,0.0,-141010,342,0,6.5,11.600000000000001,0.0,0,0,0,0.0,11.600000000000001,0.0,20,0,0,0.0,11.600000000000001,0.0,0,0,0,0.125,11.7,0.0,0,0,0,kReverse,kOff,-79.12,1.5,-176.98,0.05432129,-1.5346069,0.26708984,33.07,0.0,-9.0,-2.464325,-3.6144104,
1036.7023729999999,true,true,true,4.125,11.55,0.0,-121782,346,0,5.875,11.55,0.0,0,0,0,5.375,11.55,0.0,-140944,344,0,6.25,11.600000000000001,0.0,0,0,0,0.0,11.600000000000001,0.0,20,0,0,0.0,11.600000000000001,0.0,0,0,0,0.125,11.7,0.0,0,0,0,kReverse,kOff,-79.12,1.51,-176.96,0.1541748,-1.5944214,0.17816162,33.07,0.0,-93.0,-2.4641113,-3.638916,
1036.7293889999999,true,true,true,4.0,11.55,0.0,-121713,346,0,5.75,11.55,0.0,0,0,0,5.125,11.55,0.0,-140870,345,0,6.125,11.600000000000001,0.0,0,0,0,0.0,11.600000000000001,0.0,20,0,0,0.0,11.600000000000001,0.0,0,0,0,0.0,11.7,0.0,0,0,0,kReverse,kOff,-79.38,1.6,-176.92,0.0657959,-1.2706299,0.19378662,33.07,0.0,-23.0,-2.463852,-3.6511078,
1036.749357,true,true,true,3.75,11.55,0.0,-121642,347,0,5.625,11.55,0.0,0,0,0,4.75,11.55,0.0,-140799,346,0,6.0,11.600000000000001,0.0,0,0,0,0.125,11.600000000000001,0.0,20,0,0,0.0,11.600000000000001,0.0,0,0,0,0.0,11.7,0.0,0,0,0,kReverse,kOff,-79.61,1.61,-176.95,0.20922852,-1.5415039,0.21502686,33.07,0.0,-154.0,-2.4638672,-3.6632385,
1036.772863,true,true,true,3.0,11.55,0.0,-121571,347,0,4.0,11.55,0.0,0,0,0,2.875,11.55,0.0,-140663,349,0,4.25,11.600000000000001,0.0,0,0,0,0.125,11.600000000000001,0.0,20,0,0,0.0,11.600000000000001,0.0,0,0,0,0.125,11.7,0.0,0,0,0,kReverse,kOff,-80.02,1.62,-176.99,-0.039489746,-1.2492065,0.16351318,33.07,0.0,81.0,-2.4638977,-3.6871185,
1036.792991,true,true,true,1.875,11.55,0.0,-121502,348,0,2.25,12.200000000000001,0.0,0,0,0,1.375,12.200000000000001,0.0,-140594,349,0,3.25,12.200000000000001,0.0,0,0,0,0.125,12.25,0.0,20,0,0,0.0,11.600000000000001,0.0,0,0,0,0.125,12.35,0.0,0,0,0,kReverse,kOff,-80.1,1.62,-177.01,0.1395874,-1.2106934,0.11352539,33.07,0.0,-90.0,-2.463852,-3.6988983,
1036.818159,true,true,true,0.125,12.200000000000001,0.0,-121381,345,0,0.875,12.200000000000001,0.0,0,0,0,0.625,12.200000000000001,0.0,-140534,347,0,1.875,12.200000000000001,0.0,0,0,0,0.0,12.25,0.0,20,0,0,0.0,12.3,0.0,0,0,0,0.125,12.35,0.0,0,0,0,kReverse,kOff,-80.42,1.69,-176.97,0.097717285,-1.302063,-0.104003906,33.07,0.0,-14.0,-2.464035,-3.7219086,
1036.839461,true,true,true,0.0,12.200000000000001,0.0,-121324,337,0,0.125,12.200000000000001,0.0,0,0,0,0.375,12.200000000000001,0.0,-140477,342,0,0.75,12.200000000000001,0.0,0,0,0,0.0,12.25,0.0,20,0,0,0.0,12.3,0.0,0,0,0,0.125,12.35,0.0,0,0,0,kReverse,kOff,-80.69,1.73,-176.96,0.09863281,-1.121521,0.1538086,33.07,0.0,-59.0,-2.464447,-3.7437897,
1036.861926,true,true,true,0.0,12.200000000000001,0.0,-121265,326,0,0.0,12.200000000000001,0.0,0,0,0,0.125,12.200000000000001,0.0,-140418,332,0,0.375,12.200000000000001,0.0,0,0,0,0.0,12.25,0.0,20,0,0,0.0,12.3,0.0,0,0,0,0.125,12.35,0.0,0,0,0,kReverse,kOff,-80.84,1.79,-176.9,-0.015625,-1.0098877,-0.7429199,33.07,0.0,173.0,-2.4645996,-3.7540283,
1036.884323,true,true,true,0.0,12.200000000000001,0.0,-121212,312,0,0.0,12.200000000000001,0.0,0,0,0,0.0,12.200000000000001,0.0,-140360,321,0,0.25,12.200000000000001,0.0,0,0,0,0.125,12.25,0.0,20,0,0,0.0,12.3,0.0,0,0,0,0.125,12.35,0.0,0,0,0,kReverse,kOff,-81.34,1.81,-176.87,-0.21032715,-1.1539917,-0.4072876,33.07,0.0,330.0,-2.464676,-3.7719421,
1036.908707,true,true,true,0.125,12.200000000000001,0.0,-121162,299,0,0.125,12.200000000000001,0.0,0,0,0,0.0,12.200000000000001,0.0,-140309,308,0,0.25,12.200000000000001,0.0,0,0,0,0.125,12.25,0.0,20,0,0,0.0,12.3,0.0,0,0,0,0.125,12.35,0.0,0,0,0,kReverse,kOff,-81.49,1.78,-176.89,0.08502197,-0.56591797,-0.69714355,33.07,0.0,53.0,-2.4643707,-3.779663,
1036.92742,true,true,true,0.125,12.200000000000001,0.0,-121114,285,0,0.125,12.200000000000001,0.0,0,0,0,0.0,12.200000000000001,0.0,-140259,296,0,0.25,12.200000000000001,0.0,0,0,0,0.125,12.25,0.0,20,0,0,0.0,12.3,0.0,0,0,0,0.125,12.35,0.0,0,0,0,kReverse,kOff,-82.04,1.68,-177.05,0.1730957,-0.8453369,-0.92370605,33.07,0.0,17.0,-2.4640198,-3.786148,
1036.9469219999999,true,true,true,0.25,12.200000000000001,0.0,-121068,273,0,0.125,12.200000000000001,0.0,0,0,0,0.0,12.200000000000001,0.0,-140210,283,0,0.25,12.200000000000001,0.0,0,0,0,0.125,12.25,0.0,20,0,0,0.0,12.3,0.0,0,0,0,0.125,12.35,0.0,0,0,0,kReverse,kOff,-82.93,1.86,-177.01,-0.031188965,-1.1958008,-0.97558594,33.07,0.0,247.0,-2.462387,-3.7947388,
1036.970049,true,true,true,0.25,12.55,0.0,-121022,261,0,0.125,12.6,0.0,0,0,0,0.125,12.55,0.0,-140162,272,0,0.25,12.6,0.0,0,0,0,0.0,12.55,0.0,20,0,0,0.0,12.55,0.0,0,0,0,0.125,12.6,0.0,0,0,0,kReverse,kOff,-83.4,1.83,-177.13,0.07946777,-1.1989746,-0.2107544,33.07,0.0,14.0,-2.4611816,-3.7973328,
1036.985688,true,true,true,0.25,12.55,0.0,-120978,250,0,0.125,12.6,0.0,0,0,0,0.125,12.55,0.0,-140116,261,0,0.25,12.6,0.0,0,0,0,0.0,12.55,0.0,20,0,0,0.0,12.55,0.0,0,0,0,0.125,12.6,0.0,0,0,0,kReverse,kOff,-83.8,1.86,-177.19,0.30822754,-0.95861816,0.21398926,33.07,0.0,-291.0,-2.4601593,-3.7997131,
1037.006494,true,true,true,0.125,12.55,0.0,-120937,239,0,0.125,12.6,0.0,0,0,0,0.125,12.55,0.0,-140074,250,0,0.25,12.6,0.0,0,0,0,0.0,12.55,0.0,20,0,0,0.0,12.55,0.0,0,0,0,0.125,12.6,0.0,0,0,0,kReverse,kOff,-83.99,1.96,-177.11,-0.052124023,-0.98480225,-0.04840088,32.99,0.0,107.0,-2.458786,-3.804596,
1037.028018,true,true,true,0.25,12.55,0.0,-120899,229,0,0.125,12.6,0.0,0,0,0,0.125,12.55,0.0,-140032,240,0,0.25,12.6,0.0,0,0,0,0.0,12.55,0.0,20,0,0,0.0,12.55,0.0,0,0,0,0.125,12.6,0.0,0,0,0,kReverse,kOff,-84.24,1.92,-177.19,0.0904541,-1.1288452,-0.19976807,32.99,0.0,-2.0,-2.4580383,-3.8067017,
1037.046669,true,true,true,0.25,12.55,0.0,-120863,220,0,0.125,12.6,0.0,0,0,0,0.125,12.55,0.0,-139994,231,0,0.25,12.6,0.0,0,0,0,0.125,12.55,0.0,20,0,0,0.0,12.55,0.0,0,0,0,0.125,12.6,0.0,0,0,0,kReverse,kOff,-84.64,1.94,-177.23,0.109069824,-1.0089722,-0.30810547,32.99,0.0,-9.0,-2.4562988,-3.809616,
1037.069477,true,true,true,0.125,12.55,0.0,-120829,210,0,0.125,12.6,0.0,0,0,0,0.125,12.55,0.0,-139958,221,0,0.25,12.6,0.0,0,0,0,0.125,12.55,0.0,20,0,0,0.0,12.55,0.0,0,0,0,0.125,12.6,0.0,0,0,0,kReverse,kOff,-84.84,1.96,-177.24,-0.056274414,-0.8045044,-0.17474365,32.99,0.0,122.0,-2.455307,-3.8104248,
1037.093597,true,true,true,0.125,12.55,0.0,-120796,199,0,0.125,12.6,0.0,0,0,0,0.125,12.55,0.0,-139892,199,0,0.25,12.6,0.0,0,0,0,0.125,12.55,0.0,20,0,0,0.0,12.55,0.0,0,0,0,0.125,12.6,0.0,0,0,0,kReverse,kOff,-85.3,2.0,-177.28,-0.02368164,-1.1801758,-0.016113281,32.99,0.0,81.0,-2.4531708,-3.8104706,
1037.1149209999999,true,true,true,0.125,12.55,0.0,-120765,188,0,0.125,12.5,0.0,0,0,0,0.125,12.450000000000001,0.0,-139861,187,0,0.375,12.5,0.0,0,0,0,0.0,12.5,0.0,20,0,0,0.0,12.55,0.0,0,0,0,0.125,12.6,0.0,0,0,0,kReverse,kOff,-85.36,2.0,-177.28,0.1194458,-1.0741577,-0.22564697,32.99,0.0,-30.0,-2.452057,-3.8099976,
1037.137586,true,true,true,0.125,12.450000000000001,0.0,-120706,169,0,0.125,12.5,0.0,0,0,0,0.125,12.450000000000001,0.0,-139831,177,0,0.375,12.5,0.0,0,0,0,0.0,12.5,0.0,20,0,0,0.0,12.5,0.0,0,0,0,0.125,12.55,0.0,0,0,0,kReverse,kOff,-85.46,2.05,-177.25,0.17053223,-1.013855,-0.15631104,32.99,0.0,-94.0,-2.4510193,-3.809143,
1037.157332,true,true,true,0.125,12.450000000000001,0.0,-120681,160,0,0.125,12.5,0.0,0,0,0,0.125,12.450000000000001,0.0,-139803,168,0,0.375,12.5,0.0,0,0,0,0.0,12.5,0.0,20,0,0,0.0,12.5,0.0,0,0,0,0.125,12.55,0.0,0,0,0,kReverse,kOff,-85.62,2.07,-177.26,-0.033325195,-1.0661621,-0.21960449,32.99,0.0,119.0,-2.4487915,-3.8062134,
1037.1763509999998,true,true,true,0.125,12.450000000000001,0.0,-120656,152,0,0.125,12.5,0.0,0,0,0,0.125,12.450000000000001,0.0,-139776,159,0,0.375,12.5,0.0,0,0,0,0.0,12.5,0.0,20,0,0,0.0,12.5,0.0,0,0,0,0.125,12.55,0.0,0,0,0,kReverse,kOff,-85.71,2.12,-177.23,0.13476562,-0.9828491,-0.016723633,32.99,0.0,-83.0,-2.4460907,-3.8022003,
1037.2086199999999,true,true,true,0.125,12.450000000000001,0.0,-120633,144,0,0.125,12.5,0.0,0,0,0,0.375,12.450000000000001,0.0,-139751,152,0,0.375,12.5,0.0,0,0,0,0.0,12.5,0.0,20,0,0,0.0,12.5,0.0,0,0,0,0.125,12.55,0.0,0,0,0,kReverse,kOff,-85.91,2.1,-177.29,0.015075684,-0.9656372,-0.10638428,32.99,0.0,47.0,-2.4431458,-3.797699,
1037.234502,true,true,true,0.125,12.450000000000001,0.0,-120610,136,0,0.125,12.5,0.0,0,0,0,0.375,12.450000000000001,0.0,-139705,138,0,0.375,12.5,0.0,0,0,0,0.0,12.5,0.0,20,0,0,0.0,12.5,0.0,0,0,0,0.125,12.55,0.0,0,0,0,kReverse,kOff,-86.0,2.1,-177.31,0.07928467,-1.0170288,0.046447754,32.99,0.0,-38.0,-2.4416046,-3.7952576,
1037.261698,true,true,true,0.125,12.450000000000001,0.0,-120568,121,0,0.125,12.5,0.0,0,0,0,0.375,12.450000000000001,0.0,-139684,130,0,0.375,12.5,0.0,0,0,0,0.0,12.5,0.0,20,0,0,0.0,12.5,0.0,0,0,0,0.125,12.55,0.0,0,0,0,kReverse,kOff,-86.14,2.14,-177.3,0.037841797,-1.0089111,-0.09954834,32.99,0.0,26.0,-2.4386444,-3.7900238,
1037.287136,true,true,true,0.125,12.4,0.0,-120548,115,0,0.125,12.450000000000001,0.0,0,0,0,0.375,12.4,0.0,-139664,123,0,0.375,12.450000000000001,0.0,0,0,0,0.125,12.450000000000001,0.0,20,0,0,0.0,12.4,0.0,0,0,0,0.125,12.5,0.0,0,0,0,kReverse,kOff,-86.31,2.1,-177.37,0.064941406,-1.0759888,-0.026245117,32.99,0.0,-10.0,-2.4355469,-3.783844,
1037.311824,true,true,true,0.25,12.4,0.0,-120527,110,0,0.75,12.450000000000001,0.0,0,0,0,0.75,12.4,0.0,-139642,116,0,0.75,12.450000000000001,0.0,0,0,0,0.125,12.450000000000001,0.0,20,0,0,0.0,12.4,0.0,0,0,0,0.125,12.5,0.0,0,0,0,kReverse,kOff,-86.32,2.09,-177.37,0.06726074,-1.0106201,0.042236328,32.99,0.0,-27.0,-2.4340057,-3.7805939,
1037.333751,true,true,true,1.0,12.4,0.0,-120502,107,0,2.25,12.450000000000001,0.0,0,0,0,2.25,12.4,0.0,-139581,113,0,2.25,12.450000000000001,0.0,0,0,0,0.125,12.450000000000001,0.0,20,0,0,0.0,12.4,0.0,0,0,0,0.125,12.5,0.0,0,0,0,kReverse,kOff,-86.35,2.12,-177.36,0.06567383,-0.98602295,0.105529785,32.99,0.0,-37.0,-2.4310303,-3.7806244,
1037.353921,true,true,true,2.0,12.4,0.0,-120468,108,0,3.75,12.450000000000001,0.0,0,0,0,3.875,12.4,0.0,-139547,120,0,3.75,12.450000000000001,0.0,0,0,0,0.125,12.450000000000001,0.0,20,0,0,0.0,12.4,0.0,0,0,0,0.125,12.5,0.0,0,0,0,kReverse,kOff,-86.39,2.11,-177.37,0.16864014,-1.1884766,0.0357666,32.99,0.0,-118.0,-2.429657,-3.780655,
1037.378088,true,true,true,6.25,12.4,0.0,-120407,125,0,6.5,12.450000000000001,0.0,0,0,0,6.375,12.4,0.0,-139523,128,0,5.75,12.450000000000001,0.0,0,0,0,0.125,12.450000000000001,0.0,20,0,0,0.0,12.4,0.0,0,0,0,0.125,12.5,0.0,0,0,0,kReverse,kOff,-86.28,2.02,-177.44,0.06347656,-0.5697632,1.617981,32.99,0.0,-310.0,-2.4267578,-3.7815247,
1037.400108,true,true,true,8.375,12.4,0.0,-120375,137,0,8.875,12.450000000000001,0.0,0,0,0,8.375,12.4,0.0,-139492,137,0,8.125,12.450000000000001,0.0,0,0,0,0.125,12.450000000000001,0.0,20,0,0,0.0,12.4,0.0,0,0,0,0.125,12.5,0.0,0,0,0,kReverse,kOff,-85.67,2.03,-177.32,0.058776855,-1.024292,1.1532593,32.99,0.0,-201.0,-2.4256744,-3.7842255,
1037.421973,true,true,true,10.0,12.4,0.0,-120344,145,0,11.125,12.450000000000001,0.0,0,0,0,9.75,12.4,0.0,-139459,145,0,9.875,12.450000000000001,0.0,0,0,0,0.125,12.450000000000001,0.0,20,0,0,0.0,12.4,0.0,0,0,0,0.125,12.5,0.0,0,0,0,kReverse,kOff,-85.21,2.11,-177.19,-0.028503418,-1.1533813,0.63653564,32.99,0.0,-15.0,-2.4241486,-3.7916412,
1037.442921,true,true,true,10.0,11.100000000000001,0.0,-120314,151,0,12.125,11.05,0.0,0,0,0,10.25,11.100000000000001,0.0,-139429,150,0,11.0,11.0,0.0,0,0,0,0.125,11.15,0.0,20,0,0,0.0,11.15,0.0,0,0,0,0.125,11.2,0.0,0,0,0,kReverse,kOff,-84.63,2.09,-177.11,-0.038391113,-0.96325684,0.3345337,32.99,0.0,33.0,-2.4228516,-3.8014832,
1037.464427,true,true,true,10.125,11.100000000000001,0.0,-120279,154,0,12.125,11.05,0.0,0,0,0,10.5,11.100000000000001,0.0,-139396,152,0,11.375,11.0,0.0,0,0,0,0.125,11.15,0.0,20,0,0,0.0,11.15,0.0,0,0,0,0.125,11.2,0.0,0,0,0,kReverse,kOff,-84.38,2.07,-177.06,0.05987549,-0.8566284,0.43688965,32.99,0.0,-85.0,-2.4222412,-3.8070831,
1037.4844489999998,true,true,true,9.875,11.100000000000001,0.0,-120247,155,0,12.125,11.05,0.0,0,0,0,10.625,11.100000000000001,0.0,-139364,152,0,11.375,11.0,0.0,0,0,0,0.125,11.15,0.0,20,0,0,0.0,11.15,0.0,0,0,0,0.125,11.2,0.0,0,0,0,kReverse,kOff,-84.27,2.1,-177.02,0.1239624,-1.1420898,0.3347168,32.99,0.0,-116.0,-2.4217682,-3.8130646,
1037.511726,true,true,true,9.5,11.100000000000001,0.0,-120208,157,0,11.125,11.05,0.0,0,0,0,10.25,11.100000000000001,0.0,-139329,155,0,11.125,11.0,0.0,0,0,0,0.125,11.15,0.0,20,0,0,0.0,11.15,0.0,0,0,0,0.125,11.2,0.0,0,0,0,kReverse,kOff,-84.31,2.05,-177.08,-0.12475586,-1.0332642,-0.054382324,32.95,0.0,183.0,-2.4206238,-3.8248444,
1037.536357,true,true,true,8.875,11.100000000000001,0.0,-120169,163,0,10.375,11.05,0.0,0,0,0,9.25,11.100000000000001,0.0,-139250,166,0,10.125,11.0,0.0,0,0,0,0.125,11.15,0.0,20,0,0,0.0,11.15,0.0,0,0,0,0.125,11.2,0.0,0,0,0,kReverse,kOff,-84.31,2.05,-177.08,-0.12475586,-1.0332642,-0.054382324,32.95,0.0,183.0,-2.4206238,-3.8248444,
1037.5536849999999,true,true,true,8.375,11.100000000000001,0.0,-120129,170,0,9.875,11.05,0.0,0,0,0,8.75,11.100000000000001,0.0,-139210,172,0,9.625,11.0,0.0,0,0,0,0.125,11.15,0.0,20,0,0,0.0,11.15,0.0,0,0,0,0.125,11.2,0.0,0,0,0,kReverse,kOff,-84.16,1.92,-177.18,4.272461E-4,-0.9779663,0.117126465,32.95,0.0,28.0,-2.418869,-3.8363495,
1037.5753049999998,true,true,true,7.875,11.100000000000001,0.0,-120087,179,0,9.625,11.05,0.0,0,0,0,8.375,11.100000000000001,0.0,-139165,181,0,9.125,11.0,0.0,0,0,0,0.0,11.15,0.0,20,0,0,0.0,11.15,0.0,0,0,0,0.125,11.2,0.0,0,0,0,kReverse,kOff,-84.0,1.93,-177.16,0.03857422,-1.0061035,0.48828125,32.95,0.0,-64.0,-2.4179993,-3.8424225,
1037.5962459999998,true,true,true,7.5,11.100000000000001,0.0,-120041,189,0,9.375,11.350000000000001,0.0,0,0,0,8.125,11.100000000000001,0.0,-139121,191,0,8.75,11.3,0.0,0,0,0,0.0,11.4,0.0,20,0,0,0.0,11.15,0.0,0,0,0,0.125,11.45,0.0,0,0,0,kReverse,kOff,-83.6,1.99,-177.05,0.06958008,-0.83776855,0.32403564,32.95,0.0,-75.0,-2.416565,-3.8560486,
1037.61799,true,true,true,7.125,11.3,0.0,-119955,205,0,9.25,11.350000000000001,0.0,0,0,0,8.0,11.3,0.0,-139077,200,0,8.625,11.3,0.0,0,0,0,0.0,11.4,0.0,20,0,0,0.0,11.4,0.0,0,0,0,0.125,11.45,0.0,0,0,0,kReverse,kOff,-83.5,1.98,-177.05,0.056152344,-1.0198975,0.32159424,32.95,0.0,-52.0,-2.4160004,-3.8633728,
1037.64199,true,true,true,6.875,11.3,0.0,-119908,212,0,8.875,11.350000000000001,0.0,0,0,0,7.625,11.3,0.0,-139034,207,0,8.375,11.3,0.0,0,0,0,0.0,11.4,0.0,20,0,0,0.0,11.4,0.0,0,0,0,0.125,11.45,0.0,0,0,0,kReverse,kOff,-83.4,1.99,-177.03,0.06201172,-0.8529053,0.122558594,32.95,0.0,-35.0,-2.414917,-3.8782043,
1037.661692,true,true,true,6.5,11.3,0.0,-119859,218,0,8.5,11.350000000000001,0.0,0,0,0,7.375,11.3,0.0,-138986,214,0,8.0,11.3,0.0,0,0,0,0.0,11.4,0.0,20,0,0,0.0,11.4,0.0,0,0,0,0.125,11.45,0.0,0,0,0,kReverse,kOff,-83.44,1.99,-177.04,0.15466309,-1.2243652,0.49487305,32.95,0.0,-116.0,-2.4142303,-3.8934631,
1037.690785,true,true,true,6.125,11.3,0.0,-119808,224,0,8.125,11.350000000000001,0.0,0,0,0,7.0,11.3,0.0,-138935,220,0,7.75,11.3,0.0,0,0,0,0.0,11.4,0.0,20,0,0,0.0,11.4,0.0,0,0,0,0.125,11.45,0.0,0,0,0,kReverse,kOff,-83.42,1.89,-177.14,-0.010864258,-1.451477,0.27954102,32.95,0.0,40.0,-2.414032,-3.901535,
1037.716559,true,true,true,5.75,11.3,0.0,-119757,230,0,7.75,11.350000000000001,0.0,0,0,0,6.375,11.3,0.0,-138835,232,0,7.5,11.3,0.0,0,0,0,0.0,11.4,0.0,20,0,0,0.0,11.4,0.0,0,0,0,0.125,11.45,0.0,0,0,0,kReverse,kOff,-83.39,1.9,-177.14,-0.08068848,-0.5621948,0.052246094,32.95,0.0,99.0,-2.4131775,-3.9176636,
1037.738666,true,true,true,5.5,11.3,0.0,-119654,241,0,7.625,11.350000000000001,0.0,0,0,0,6.25,11.3,0.0,-138784,238,0,7.375,11.3,0.0,0,0,0,0.0,11.4,0.0,20,0,0,0.0,11.4,0.0,0,0,0,0.125,11.45,0.0,0,0,0,kReverse,kOff,-83.4,1.9,-177.15,-0.02734375,-0.7631836,0.07348633,32.95,0.0,53.0,-2.4125671,-3.9256897,
1037.758369,true,true,true,5.125,11.3,0.0,-119599,248,0,7.0,11.55,0.0,0,0,0,6.0,11.55,0.0,-138731,244,0,7.0,11.600000000000001,0.0,0,0,0,0.0,11.65,0.0,20,0,0,0.0,11.4,0.0,0,0,0,0.125,11.7,0.0,0,0,0,kReverse,kOff,-83.29,1.81,-177.21,-0.0043945312,-1.1737671,0.46295166,32.95,0.0,-6.0,-2.4117737,-3.9425201,
1037.7770150000001,true,true,true,5.125,11.600000000000001,0.0,-119599,253,0,6.5,11.55,0.0,0,0,0,5.75,11.55,0.0,-138677,249,0,6.625,11.600000000000001,0.0,0,0,0,0.0,11.65,0.0,20,0,0,0.0,11.65,0.0,0,0,0,0.125,11.7,0.0,0,0,0,kReverse,kOff,-83.08,1.79,-177.21,-6.1035156E-4,-0.9798584,0.103149414,32.95,0.0,32.0,-2.4114685,-3.9513702,
1037.795878,true,true,true,4.875,11.600000000000001,0.0,-119547,253,0,6.25,11.55,0.0,0,0,0,5.625,11.55,0.0,-138627,254,0,6.5,11.600000000000001,0.0,0,0,0,0.0,11.65,0.0,20,0,0,0.0,11.65,0.0,0,0,0,0.125,11.7,0.0,0,0,0,kReverse,kOff,-83.02,1.75,-177.24,0.054138184,-1.1080933,0.12347412,32.95,0.0,-18.0,-2.4111328,-3.9601898,
1037.816732,true,true,true,4.625,11.600000000000001,0.0,-119491,259,0,6.125,11.55,0.0,0,0,0,5.5,11.55,0.0,-138569,259,0,6.375,11.600000000000001,0.0,0,0,0,0.0,11.65,0.0,20,0,0,0.0,11.65,0.0,0,0,0,0.125,11.7,0.0,0,0,0,kReverse,kOff,-82.8,1.75,-177.23,-0.0390625,-0.8577881,0.20367432,32.95,0.0,50.0,-2.410202,-3.9781036,
1037.839659,true,true,true,4.5,11.600000000000001,0.0,-119377,270,0,6.0,11.55,0.0,0,0,0,5.375,11.55,0.0,-138515,263,0,6.375,11.600000000000001,0.0,0,0,0,0.0,11.65,0.0,20,0,0,0.0,11.65,0.0,0,0,0,0.125,11.7,0.0,0,0,0,kReverse,kOff,-82.68,1.77,-177.2,-0.016357422,-0.39788818,0.13653564,32.95,0.0,16.0,-2.4096222,-3.987259,
1037.8517319999999,true,true,true,4.5,11.600000000000001,0.0,-119377,270,0,6.0,11.55,0.0,0,0,0,5.375,11.55,0.0,-138515,263,0,6.375,11.600000000000001,0.0,0,0,0,0.0,11.65,0.0,20,0,0,0.0,11.65,0.0,0,0,0,0.125,11.7,0.0,0,0,0,kReverse,kOff,-82.67,1.8,-177.18,0.1296997,-0.942749,0.10247803,32.95,0.0,-96.0,-2.4091034,-3.99646,
1037.878352,true,true,true,4.375,11.600000000000001,0.0,-119320,274,0,5.75,11.55,0.0,0,0,0,5.25,11.55,0.0,-138407,269,0,6.125,11.600000000000001,0.0,0,0,0,0.125,11.65,0.0,20,0,0,0.0,11.65,0.0,0,0,0,0.125,11.7,0.0,0,0,0,kReverse,kOff,-82.65,1.67,-177.32,-0.21716309,-0.48962402,0.18518066,32.95,0.0,212.0,-2.4081726,-4.015106,
1037.904978,true,true,true,3.875,11.600000000000001,0.0,-119206,280,0,5.5,11.55,0.0,0,0,0,5.125,11.55,0.0,-138347,271,0,6.0,11.600000000000001,0.0,0,0,0,0.125,11.65,0.0,20,0,0,0.0,11.65,0.0,0,0,0,0.125,11.7,0.0,0,0,0,kReverse,kOff,-82.76,1.56,-177.46,-0.010314941,-0.6386719,0.083618164,32.95,0.0,26.0,-2.4065857,-4.0335693,
1037.926293,true,true,true,3.75,11.75,0.0,-119147,283,0,5.125,11.75,0.0,0,0,0,5.0,11.7,0.0,-138290,274,0,5.875,11.75,0.0,0,0,0,0.125,11.75,0.0,20,0,0,0.0,11.75,0.0,0,0,0,0.125,11.850000000000001,0.0,0,0,0,kReverse,kOff,-82.71,1.5,-177.52,-0.026977539,-1.0285645,0.16381836,32.95,0.0,48.0,-2.4057007,-4.04274,
1037.9507749999998,true,true,true,3.5,11.75,0.0,-119087,287,0,5.0,11.75,0.0,0,0,0,4.75,11.7,0.0,-138232,277,0,5.75,11.75,0.0,0,0,0,0.125,11.75,0.0,20,0,0,0.0,11.75,0.0,0,0,0,0.125,11.850000000000001,0.0,0,0,0,kReverse,kOff,-82.6,1.44,-177.57,-0.0770874,-1.0140381,0.12536621,32.95,0.0,102.0,-2.4047089,-4.051956,
1037.971356,true,true,true,3.25,11.75,0.0,-119026,290,0,4.875,11.75,0.0,0,0,0,4.5,11.7,0.0,-138174,281,0,5.625,11.75,0.0,0,0,0,0.125,11.75,0.0,20,0,0,0.0,11.75,0.0,0,0,0,0.125,11.850000000000001,0.0,0,0,0,kReverse,kOff,-82.68,1.48,-177.57,-0.09051514,-0.94677734,0.1864624,32.95,0.0,105.0,-2.4026794,-4.070282,
1038.000125,true,true,true,1.25,11.75,0.0,-118914,295,0,2.75,11.75,0.0,0,0,0,2.5,11.7,0.0,-138067,285,0,3.125,11.75,0.0,0,0,0,0.125,11.75,0.0,20,0,0,0.0,11.75,0.0,0,0,0,0.125,11.850000000000001,0.0,0,0,0,kReverse,kOff,-82.69,1.47,-177.59,0.017944336,-1.8551025,-0.10119629,32.95,0.0,72.0,-2.4004364,-4.088501,
1038.0219519999998,true,true,true,0.375,11.75,0.0,-118869,292,0,1.125,11.75,0.0,0,0,0,1.0,11.7,0.0,-138019,283,0,1.375,11.75,0.0,0,0,0,0.125,11.75,0.0,20,0,0,0.0,11.75,0.0,0,0,0,0.125,11.850000000000001,0.0,0,0,0,kReverse,kOff,-82.52,1.52,-177.52,-0.20343018,-0.9215698,-0.0146484375,32.96,0.0,242.0,-2.3977814,-4.1056976,
1038.042634,true,true,true,0.0,11.75,0.0,-118830,282,0,0.125,11.75,0.0,0,0,0,0.25,11.7,0.0,-137984,275,0,0.25,11.75,0.0,0,0,0,0.0,11.75,0.0,20,0,0,0.0,11.75,0.0,0,0,0,0.125,11.850000000000001,0.0,0,0,0,kReverse,kOff,-82.31,1.37,-177.64,0.08654785,-0.53796387,0.29504395,32.96,0.0,-101.0,-2.3962402,-4.114273,
1038.063185,true,true,true,0.125,11.75,0.0,-118775,269,0,0.125,11.75,0.0,0,0,0,0.125,11.7,0.0,-137938,261,0,0.125,11.75,0.0,0,0,0,0.0,11.75,0.0,20,0,0,0.0,11.75,0.0,0,0,0,0.125,11.850000000000001,0.0,0,0,0,kReverse,kOff,-82.31,1.43,-177.58,0.2705078,-0.77770996,-0.4038086,32.96,0.0,-184.0,-2.3949127,-4.122635,
1038.08441,true,true,true,0.125,12.35,0.0,-118718,257,0,0.125,12.35,0.0,0,0,0,0.125,12.35,0.0,-137892,247,0,0.0,12.35,0.0,0,0,0,0.0,12.35,0.0,20,0,0,0.0,12.35,0.0,0,0,0,0.125,12.4,0.0,0,0,0,kReverse,kOff,-82.35,1.42,-177.58,0.060913086,-1.0839844,-0.32977295,32.96,0.0,27.0,-2.3920288,-4.137375,
1038.105633,true,true,true,0.125,12.35,0.0,-118663,251,0,0.125,12.35,0.0,0,0,0,0.125,12.35,0.0,-137848,234,0,0.0,12.35,0.0,0,0,0,0.0,12.35,0.0,20,0,0,0.0,12.35,0.0,0,0,0,0.125,12.4,0.0,0,0,0,kReverse,kOff,-82.48,1.32,-177.72,-0.03363037,-1.1794434,-0.06896973,32.96,0.0,88.0,-2.3904266,-4.1439667,
1038.125887,true,true,true,0.125,12.35,0.0,-118611,251,0,0.125,12.35,0.0,0,0,0,0.125,12.35,0.0,-137803,225,0,0.0,12.35,0.0,0,0,0,0.125,12.35,0.0,20,0,0,0.0,12.35,0.0,0,0,0,0.125,12.4,0.0,0,0,0,kReverse,kOff,-83.15,1.24,-177.96,0.12512207,-0.90057373,0.28253174,32.96,0.0,-124.0,-2.3870087,-4.157425,
1038.147898,true,true,true,0.125,12.35,0.0,-118562,255,0,0.125,12.35,0.0,0,0,0,1.75,12.35,0.0,-137763,221,0,0.0,12.35,0.0,0,0,0,0.125,12.35,0.0,20,0,0,0.0,12.35,0.0,0,0,0,0.125,12.4,0.0,0,0,0,kReverse,kOff,-83.3,1.28,-177.96,-0.1743164,-1.0309448,-0.03173828,32.96,0.0,213.0,-2.3852692,-4.1643066,
1038.17625,true,true,true,0.125,12.35,0.0,-118520,259,0,0.125,12.35,0.0,0,0,0,7.0,12.35,0.0,-137703,210,0,4.875,12.35,0.0,0,0,0,0.125,12.35,0.0,20,0,0,0.0,12.35,0.0,0,0,0,0.125,12.4,0.0,0,0,0,kReverse,kOff,-84.04,1.3,-178.07,0.12884521,-0.91186523,-0.21105957,32.96,0.0,-75.0,-2.3815613,-4.17688,
1038.199891,true,true,true,1.0,12.35,0.0,-118441,246,0,0.375,12.35,0.0,0,0,0,13.0,12.35,0.0,-137688,195,0,12.0,12.35,0.0,0,0,0,0.125,12.35,0.0,20,0,0,0.0,12.35,0.0,0,0,0,0.125,12.4,0.0,0,0,0,kReverse,kOff,-84.07,1.67,-177.78,0.10559082,-1.1610718,-1.350708,32.96,0.0,66.0,-2.3779755,-4.186371,
1038.234346,true,true,true,3.875,12.35,0.0,-118388,232,0,6.375,9.8,0.0,0,0,0,33.625,9.5,0.0,-137687,137,0,29.75,9.75,0.0,0,0,0,0.125,9.600000000000001,0.0,20,0,0,0.0,12.35,0.0,0,0,0,0.125,9.55,0.0,0,0,0,kReverse,kOff,-84.66,1.9,-177.72,0.13787842,-0.6425171,-0.2810669,32.96,0.0,-91.0,-2.3744202,-4.191742,
1038.261276,true,true,true,10.625,9.65,0.0,-118280,229,0,9.875,9.8,0.0,0,0,0,47.75,9.5,0.0,-137690,99,0,44.625,9.75,0.0,0,0,0,0.125,9.600000000000001,0.0,20,0,0,0.0,9.3,0.0,0,0,0,0.125,9.55,0.0,0,0,0,kReverse,kOff,-85.25,1.3,-178.58,0.02508545,-1.0836792,0.6921387,32.96,0.0,-15.0,-2.370346,-4.1970673,
1038.281559,true,true,true,15.125,9.65,0.0,-118223,238,0,16.125,9.8,0.0,0,0,0,57.25,9.5,0.0,-137703,62,0,55.0,9.75,0.0,0,0,0,0.125,9.600000000000001,0.0,20,0,0,0.0,9.3,0.0,0,0,0,0.125,9.55,0.0,0,0,0,kReverse,kOff,-85.25,1.29,-178.73,-0.3345337,-0.73413086,-0.29943848,32.96,0.0,348.0,-2.3679657,-4.200165,
1038.3025229999998,true,true,true,18.875,9.65,0.0,-118166,249,0,20.0,9.8,0.0,0,0,0,60.75,9.5,0.0,-137718,25,0,60.0,9.75,0.0,0,0,0,0.125,9.600000000000001,0.0,20,0,0,0.0,9.3,0.0,0,0,0,0.125,9.55,0.0,0,0,0,kReverse,kOff,-85.94,1.58,-178.71,0.074401855,-1.1818237,-0.33813477,32.96,0.0,-74.0,-2.363617,-4.2055206,
1038.3229529999999,true,true,true,20.75,9.65,0.0,-118111,261,0,23.75,9.8,0.0,0,0,0,59.625,9.5,0.0,-137738,-8,0,57.25,9.75,0.0,0,0,0,0.125,9.600000000000001,0.0,20,0,0,0.0,9.3,0.0,0,0,0,0.125,9.55,0.0,0,0,0,kReverse,kOff,-85.95,1.63,-178.79,-0.1461792,-1.338501,0.22009277,32.96,0.0,198.0,-2.3615265,-4.20784,
1038.345404,true,true,true,20.5,9.65,0.0,-118053,270,0,23.75,9.8,0.0,0,0,0,57.0,9.5,0.0,-137762,-37,0,54.5,9.75,0.0,0,0,0,0.125,9.600000000000001,0.0,20,0,0,0.0,9.3,0.0,0,0,0,0.125,9.55,0.0,0,0,0,kReverse,kOff,-85.78,1.41,-179.2,-0.6670532,-1.0819092,0.92633057,32.96,0.0,817.0,-2.3587494,-4.210724,
1038.365855,true,true,true,20.625,9.65,0.0,-117994,276,0,24.375,9.8,0.0,0,0,0,54.125,9.5,0.0,-137794,-63,0,50.125,9.75,0.0,0,0,0,0.125,9.600000000000001,0.0,20,0,0,0.0,9.3,0.0,0,0,0,0.125,9.55,0.0,0,0,0,kReverse,kOff,-85.04,0.57,179.34,-0.46051025,-1.3947754,-0.4237671,32.96,0.0,328.0,-2.3505554,-4.2165833,
1038.385624,true,true,true,21.375,9.65,0.0,-117936,280,0,25.375,9.8,0.0,0,0,0,49.25,9.5,0.0,-137833,-89,0,46.625,9.75,0.0,0,0,0,0.125,9.600000000000001,0.0,20,0,0,0.0,9.3,0.0,0,0,0,0.125,9.55,0.0,0,0,0,kReverse,kOff,-84.99,0.17,178.64,-0.80462646,-1.2441406,-0.11602783,32.96,0.0,707.0,-2.3454285,-4.21846,
1038.410592,true,true,true,22.625,8.65,0.0,-117876,285,0,27.625,8.55,0.0,0,0,0,45.0,8.55,0.0,-137877,-114,0,37.75,8.600000000000001,0.0,0,0,0,0.0,8.9,0.0,20,0,0,0.0,9.0,0.0,0,0,0,0.125,8.95,0.0,0,0,0,kReverse,kOff,-84.79,-0.69,177.13,-0.7384033,-0.4298706,-0.99664307,32.96,0.0,276.0,-2.3322296,-4.22052,
1038.426753,true,true,true,23.125,8.65,0.0,-117814,290,0,27.625,8.55,0.0,0,0,0,39.375,8.55,0.0,-137941,-146,0,37.75,8.600000000000001,0.0,0,0,0,0.0,8.9,0.0,20,0,0,0.0,9.0,0.0,0,0,0,0.125,8.95,0.0,0,0,0,kReverse,kOff,-85.13,-1.32,176.44,-1.4562988,-0.36712646,0.56103516,32.96,0.0,1533.0,-2.3240204,-4.220154,
1038.451975,true,true,true,23.875,8.65,0.0,-117748,294,0,29.125,8.55,0.0,0,0,0,32.5,8.55,0.0,-138014,-182,0,28.25,8.600000000000001,0.0,0,0,0,0.0,8.9,0.0,20,0,0,0.0,9.0,0.0,0,0,0,0.125,8.95,0.0,0,0,0,kReverse,kOff,-84.78,-1.81,175.58,0.44744873,-2.0,0.6207886,32.96,0.0,-240.0,-2.314911,-4.220108,
1038.4761369999999,true,true,true,25.125,8.65,0.0,-117697,297,0,29.75,8.55,0.0,0,0,0,27.875,8.55,0.0,-138133,-257,0,27.625,8.600000000000001,0.0,0,0,0,0.125,8.9,0.0,20,0,0,0.0,9.0,0.0,0,0,0,0.125,8.95,0.0,0,0,0,kReverse,kOff,-84.24,-0.96,175.24,0.57562256,-1.22406,-0.89611816,32.96,0.0,-1057.0,-2.2977905,-4.222061,
1038.490335,true,true,true,25.875,8.65,0.0,-117637,299,0,29.75,8.55,0.0,0,0,0,27.875,8.55,0.0,-138133,-257,0,27.625,8.600000000000001,0.0,0,0,0,0.125,8.9,0.0,20,0,0,0.0,9.0,0.0,0,0,0,0.125,8.95,0.0,0,0,0,kReverse,kOff,-84.56,-0.29,175.59,0.5600586,-0.80999756,-0.5362549,32.96,0.0,-818.0,-2.2908783,-4.2226715,
1038.5194439999998,true,true,true,15.25,8.65,0.0,-117520,299,0,21.75,8.55,0.0,0,0,0,21.0,8.55,0.0,-138227,-295,0,22.0,8.600000000000001,0.0,0,0,0,0.125,8.9,0.0,20,0,0,0.0,9.0,0.0,0,0,0,0.125,8.95,0.0,0,0,0,kReverse,kOff,-84.85,-0.62,173.88,-1.1134033,-1.8878174,-0.13696289,32.9,0.0,519.0,-2.2715607,-4.2222137,
1038.5472849999999,true,true,true,7.375,8.65,0.0,-117475,295,0,13.375,8.55,0.0,0,0,0,12.75,8.55,0.0,-138263,-290,0,15.75,8.600000000000001,0.0,0,0,0,0.125,8.9,0.0,20,0,0,0.0,9.0,0.0,0,0,0,0.125,8.95,0.0,0,0,0,kReverse,kOff,-84.53,-2.31,171.81,-2.0,0.23693848,0.015014648,32.9,0.0,1313.0,-2.2636566,-4.2196503,
1038.567963,true,true,true,1.125,12.05,0.0,-117446,284,0,4.25,11.9,0.0,0,0,0,4.375,12.0,0.0,-138290,-268,0,7.625,12.0,0.0,0,0,0,0.125,12.05,0.0,20,0,0,0.0,12.1,0.0,0,0,0,0.125,12.15,0.0,0,0,0,kReverse,kOff,-84.53,-2.31,171.81,-2.0,0.23693848,0.015014648,32.9,0.0,1313.0,-2.2636566,-4.2196503,
1038.591115,true,true,true,0.5,12.05,0.0,-117419,262,0,1.0,11.9,0.0,0,0,0,1.625,12.0,0.0,-138306,-237,0,1.0,12.0,0.0,0,0,0,0.125,12.05,0.0,20,0,0,0.0,12.1,0.0,0,0,0,0.125,12.15,0.0,0,0,0,kReverse,kOff,-84.59,-2.47,170.7,0.37249756,-1.3244629,-0.09051514,32.9,0.0,-410.0,-2.2474365,-4.211334,
1038.6123989999999,true,true,true,0.125,12.05,0.0,-117384,236,0,0.125,11.9,0.0,0,0,0,0.125,12.0,0.0,-138335,-160,0,0.125,12.0,0.0,0,0,0,0.125,12.05,0.0,20,0,0,0.0,12.1,0.0,0,0,0,0.125,12.15,0.0,0,0,0,kReverse,kOff,-85.29,-1.72,171.48,0.6279907,-1.1708984,-0.45910645,32.9,0.0,-817.0,-2.2404785,-4.207382,
1038.635566,true,true,true,0.125,12.05,0.0,-117346,208,0,0.125,11.9,0.0,0,0,0,0.125,12.0,0.0,-138360,-128,0,0.125,12.0,0.0,0,0,0,0.0,12.05,0.0,20,0,0,0.0,12.1,0.0,0,0,0,0.125,12.15,0.0,0,0,0,kReverse,kOff,-86.05,-0.33,172.43,0.81121826,-0.95428467,-0.25878906,32.9,0.0,-672.0,-2.228424,-4.203293,
1038.658863,true,true,true,0.125,12.05,0.0,-117273,173,0,0.125,11.9,0.0,0,0,0,0.125,12.0,0.0,-138379,-106,0,0.125,12.0,0.0,0,0,0,0.0,12.05,0.0,20,0,0,0.0,12.1,0.0,0,0,0,0.125,12.15,0.0,0,0,0,kReverse,kOff,-86.03,-0.08,171.91,-0.013549805,-0.49157715,-0.33874512,32.9,0.0,-328.0,-2.223343,-4.2022247,
1038.6801939999998,true,true,true,0.125,12.05,0.0,-117237,172,0,0.125,11.9,0.0,0,0,0,0.125,12.0,0.0,-138394,-95,0,0.125,12.0,0.0,0,0,0,0.0,12.05,0.0,20,0,0,0.0,12.1,0.0,0,0,0,0.125,12.15,0.0,0,0,0,kReverse,kOff,-85.68,-0.46,169.05,-0.55303955,-1.2996826,-0.41784668,32.9,0.0,-273.0,-2.212555,-4.198044,
1038.703617,true,true,true,0.125,12.05,0.0,-117204,175,0,0.125,11.9,0.0,0,0,0,0.125,12.0,0.0,-138408,-91,0,0.125,12.0,0.0,0,0,0,0.125,12.05,0.0,20,0,0,0.0,12.1,0.0,0,0,0,0.125,12.15,0.0,0,0,0,kReverse,kOff,-85.44,-0.78,166.1,-0.26013184,-0.8065796,0.1796875,32.9,0.0,189.0,-2.2022858,-4.1911926,
1038.724352,true,true,true,0.125,12.25,0.0,-117173,178,0,0.125,12.25,0.0,0,0,0,0.125,12.25,0.0,-138419,-89,0,0.125,12.25,0.0,0,0,0,0.125,12.25,0.0,20,0,0,0.0,12.25,0.0,0,0,0,0.125,12.35,0.0,0,0,0,kReverse,kOff,-85.4,-0.95,164.9,-0.17230225,-1.0455322,0.101379395,32.9,0.0,64.0,-2.1970062,-4.1873474,
1038.744247,true,true,true,0.125,12.25,0.0,-117146,175,0,0.125,12.25,0.0,0,0,0,0.125,12.25,0.0,-138426,-85,0,0.125,12.25,0.0,0,0,0,0.125,12.25,0.0,20,0,0,0.0,12.25,0.0,0,0,0,0.125,12.35,0.0,0,0,0,kReverse,kOff,-85.44,-0.98,164.02,0.14013672,-1.0585327,-0.1819458,32.9,0.0,-296.0,-2.1918793,-4.1834717,
1038.762444,true,true,true,0.125,12.25,0.0,-117126,167,0,0.125,12.25,0.0,0,0,0,0.125,12.25,0.0,-138432,-75,0,0.125,12.25,0.0,0,0,0,0.125,12.25,0.0,20,0,0,0.0,12.25,0.0,0,0,0,0.125,12.35,0.0,0,0,0,kReverse,kOff,-85.73,-0.34,163.45,0.7376709,-0.89697266,0.33148193,32.9,0.0,72.0,-2.1828003,-4.1773376,
1038.784184,true,true,true,0.125,12.25,0.0,-117109,154,0,0.125,12.25,0.0,0,0,0,0.125,12.25,0.0,-138436,-61,0,0.125,12.25,0.0,0,0,0,0.0,12.25,0.0,20,0,0,0.0,12.25,0.0,0,0,0,0.125,12.35,0.0,0,0,0,kReverse,kOff,-85.54,0.16,161.99,0.3550415,-1.1847534,0.045288086,32.9,0.0,-126.0,-2.1784058,-4.175461,
1038.803964,true,true,true,0.125,12.25,0.0,-117094,138,0,0.125,12.25,0.0,0,0,0,0.125,12.25,0.0,-138440,-48,0,0.125,12.25,0.0,0,0,0,0.0,12.25,0.0,20,0,0,0.0,12.25,0.0,0,0,0,0.125,12.35,0.0,0,0,0,kReverse,kOff,-85.56,0.33,160.74,-0.043884277,-1.2081909,-0.25830078,32.9,0.0,-331.0,-2.1743164,-4.1737213,
1038.826509,true,true,true,0.125,12.25,0.0,-117079,121,0,0.125,12.25,0.0,0,0,0,0.125,12.25,0.0,-138443,-38,0,0.125,12.25,0.0,0,0,0,0.0,12.25,0.0,20,0,0,0.0,12.25,0.0,0,0,0,0.125,12.35,0.0,0,0,0,kReverse,kOff,-85.69,-0.02,157.88,-0.38702393,-0.9810791,0.222229,32.9,0.0,215.0,-2.1665955,-4.1688538,
1038.8441449999998,true,true,true,0.125,12.25,0.0,-117060,105,0,0.125,12.25,0.0,0,0,0,0.125,12.25,0.0,-138445,-29,0,0.125,12.25,0.0,0,0,0,0.125,12.25,0.0,20,0,0,0.0,12.25,0.0,0,0,0,0.125,12.35,0.0,0,0,0,kReverse,kOff,-85.53,-0.18,155.61,0.039489746,-1.0944824,-0.16723633,32.9,0.0,-255.0,-2.1627045,-4.1658783,
1038.866478,true,true,true,0.125,12.25,0.0,-117039,93,0,0.125,12.25,0.0,0,0,0,0.125,12.25,0.0,-138446,-22,0,0.125,12.25,0.0,0,0,0,0.125,12.25,0.0,20,0,0,0.0,12.25,0.0,0,0,0,0.125,12.35,0.0,0,0,0,kReverse,kOff,-85.59,-0.09,153.48,-0.044433594,-0.88134766,0.035217285,32.9,0.0,-25.0,-2.1559906,-4.1600037,
1038.891557,true,true,true,0.125,12.3,0.0,-117021,87,0,0.125,12.3,0.0,0,0,0,0.125,12.3,0.0,-138446,-16,0,0.125,12.35,0.0,0,0,0,0.125,12.35,0.0,20,0,0,0.0,12.35,0.0,0,0,0,0.125,12.4,0.0,0,0,0,kReverse,kOff,-85.61,-0.19,151.27,0.18579102,-1.0478516,-0.0748291,32.9,0.0,-179.0,-2.149643,-4.153946,
1038.918193,true,true,true,0.125,12.3,0.0,-116990,88,0,0.125,12.3,0.0,0,0,0,0.125,12.3,0.0,-138446,-8,0,0.125,12.35,0.0,0,0,0,0.125,12.35,0.0,20,0,0,0.0,12.35,0.0,0,0,0,0.125,12.4,0.0,0,0,0,kReverse,kOff,-85.78,-0.03,151.31,0.44122314,-0.9836426,-0.0028686523,32.9,0.0,-133.0,-2.1467285,-4.1513367,
1038.941398,true,true,true,0.125,12.3,0.0,-116979,87,0,0.125,12.3,0.0,0,0,0,0.125,12.3,0.0,-138446,-4,0,0.125,12.35,0.0,0,0,0,0.125,12.35,0.0,20,0,0,0.0,12.35,0.0,0,0,0,0.125,12.4,0.0,0,0,0,kReverse,kOff,-85.8,0.45,150.14,0.026672363,-1.1213379,0.09686279,32.9,0.0,12.0,-2.141159,-4.147476,
1038.961049,true,true,true,0.125,12.3,0.0,-116969,83,0,0.125,12.3,0.0,0,0,0,0.125,12.3,0.0,-138446,-2,0,0.125,12.35,0.0,0,0,0,0.125,12.35,0.0,20,0,0,0.0,12.35,0.0,0,0,0,0.125,12.4,0.0,0,0,0,kReverse,kOff,-85.85,0.4,149.27,-0.10626221,-0.98791504,-0.14105225,32.9,0.0,-196.0,-2.1384888,-4.145584,
1038.979816,true,true,true,0.125,12.3,0.0,-116962,75,0,0.125,12.3,0.0,0,0,0,0.125,12.3,0.0,-138445,0,0,0.125,12.35,0.0,0,0,0,0.125,12.35,0.0,20,0,0,0.0,12.35,0.0,0,0,0,0.125,12.4,0.0,0,0,0,kReverse,kOff,-85.98,0.32,148.91,-0.061645508,-0.9425049,-0.055236816,32.9,0.0,-112.0,-2.136032,-4.14357,
1038.999499,true,true,true,0.125,12.3,0.0,-116956,65,0,0.125,12.3,0.0,0,0,0,0.125,12.3,0.0,-138444,0,0,0.125,12.35,0.0,0,0,0,0.125,12.35,0.0,20,0,0,0.0,12.35,0.0,0,0,0,0.125,12.4,0.0,0,0,0,kReverse,kOff,-86.06,0.26,146.82,-0.15783691,-1.0160522,-0.13995361,32.9,0.0,-191.0,-2.1315002,-4.139267,
1039.021267,true,true,true,0.125,12.3,0.0,-116949,55,0,0.125,12.3,0.0,0,0,0,0.125,12.3,0.0,-138442,1,0,0.125,12.35,0.0,0,0,0,0.125,12.35,0.0,20,0,0,0.0,12.35,0.0,0,0,0,0.125,12.4,0.0,0,0,0,kReverse,kOff,-86.23,0.17,146.38,-0.09942627,-1.0296631,-0.1663208,32.9,0.0,-222.0,-2.129593,-4.136841,
1039.039772,true,true,true,0.125,12.35,0.0,-116942,46,0,0.125,12.35,0.0,0,0,0,0.125,12.35,0.0,-138441,2,0,0.125,12.35,0.0,0,0,0,0.125,12.35,0.0,20,0,0,0.0,12.35,0.0,0,0,0,0.125,12.4,0.0,0,0,0,kReverse,kOff,-86.37,0.14,145.99,0.043640137,-0.9368286,0.009460449,32.9,0.0,-53.0,-2.127884,-4.1343536,
1039.061597,true,true,true,0.125,12.35,0.0,-116935,39,0,0.125,12.35,0.0,0,0,0,0.125,12.35,0.0,-138440,4,0,0.125,12.35,0.0,0,0,0,0.125,12.35,0.0,20,0,0,0.0,12.35,0.0,0,0,0,0.125,12.4,0.0,0,0,0,kReverse,kOff,-86.49,0.27,144.46,0.16192627,-1.0084229,-0.08526611,32.92,0.0,-159.0,-2.124817,-4.129776,
1039.080537,true,true,true,0.125,12.35,0.0,-116928,36,0,0.125,12.35,0.0,0,0,0,0.125,12.35,0.0,-138439,4,0,0.125,12.35,0.0,0,0,0,0.125,12.35,0.0,20,0,0,0.0,12.35,0.0,0,0,0,0.125,12.4,0.0,0,0,0,kReverse,kOff,-86.55,0.39,143.74,0.16967773,-0.9958496,-0.057495117,32.92,0.0,-129.0,-2.1235504,-4.127762,
1039.102101,true,true,true,0.125,12.35,0.0,-116922,34,0,0.125,12.35,0.0,0,0,0,0.25,12.35,0.0,-138439,5,0,0.125,12.35,0.0,0,0,0,0.125,12.35,0.0,20,0,0,0.0,12.35,0.0,0,0,0,0.125,12.4,0.0,0,0,0,kReverse,kOff,-86.57,0.48,141.66,-0.011657715,-0.9848633,0.074157715,32.92,0.0,17.0,-2.1212158,-4.124054,
1039.123759,true,true,true,0.25,12.35,0.0,-116918,33,0,0.375,12.35,0.0,0,0,0,0.375,12.35,0.0,-138439,5,0,0.25,12.35,0.0,0,0,0,0.125,12.35,0.0,20,0,0,0.0,12.35,0.0,0,0,0,0.125,12.4,0.0,0,0,0,kReverse,kOff,-86.56,0.46,140.12,0.009765625,-1.0488892,-0.064331055,32.92,0.0,-126.0,-2.1201172,-4.122177,
