timer,lineLeft,lineCenter,lineRight,LeftFrontCurrent,LeftFrontVoltage,LeftFrontValue,LeftFrontPosition,LeftFrontVelocity,LeftFrontFaults,LeftRearCurrent,LeftRearVoltage,LeftRearValue,LeftRearPosition,LeftRearVelocity,LeftRearFaults,RightFrontCurrent,RightFrontVoltage,RightFrontValue,RightFrontPosition,RightFrontVelocity,RightFrontFaults,RightRearCurrent,RightRearVoltage,RightRearValue,RightRearPosition,RightRearVelocity,RightRearFaults,LiftCurrent,LiftVoltage,LiftValue,LiftPosition,LiftVelocity,LiftFaults,WristCurrent,WristVoltage,WristValue,WristPosition,WristVelocity,WristFaults,RollerCurrent,RollerVoltage,RollerValue,RollerPosition,RollerVelocity,RollerFaults,PushersState,PivotsState,navx_Pitch,navx_Roll,navx_Yaw,navx_XAcc,navx_YAcc,navx_ZAcc,navx_Temp,navx_Bar,navx_Alt,navx_XDis,navx_YDis,
527.84546,true,true,true,0.125,12.65,0.0,0,0,0,0.125,12.65,0.0,0,0,0,0.125,12.65,0.0,0,0,0,0.125,12.65,0.0,0,0,0,0.125,12.65,0.0,4,0,0,0.0,12.65,0.0,0,0,0,0.125,12.700000000000001,0.0,0,0,0,kReverse,kOff,-87.18,2.09,2.61,0.03845215,-0.9819946,0.030578613,34.82,0.0,1.0,-8.073898,11.752487,
527.8722489999999,true,true,true,0.125,12.65,0.0,0,0,0,0.125,12.65,0.0,0,0,0,0.125,12.65,0.0,0,0,0,0.125,12.65,0.0,0,0,0,0.125,12.65,0.0,4,0,0,0.0,12.65,0.0,0,0,0,0.125,12.700000000000001,0.0,0,0,0,kReverse,kOff,-87.18,2.09,2.61,0.035583496,-0.9830322,0.03314209,34.82,0.0,0.0,-8.073898,11.752487,
527.892876,true,true,true,0.125,12.65,0.0,0,0,0,0.125,12.65,0.0,0,0,0,0.125,12.65,0.0,0,0,0,0.125,12.65,0.0,0,0,0,0.125,12.65,0.0,4,0,0,0.0,12.65,0.0,0,0,0,0.125,12.700000000000001,0.0,0,0,0,kReverse,kOff,-87.18,2.09,2.61,0.036621094,-0.98535156,0.031433105,34.82,0.0,0.0,-8.073898,11.752487,
527.914816,true,true,true,0.125,12.65,0.0,0,0,0,0.125,12.65,0.0,0,0,0,0.125,12.65,0.0,0,0,0,0.125,12.65,0.0,0,0,0,0.125,12.65,0.0,4,0,0,0.0,12.65,0.0,0,0,0,0.125,12.700000000000001,0.0,0,0,0,kReverse,kOff,-87.18,2.09,2.61,0.03778076,-0.9830322,0.033813477,34.82,0.0,2.0,-8.073898,11.752487,
527.934906,true,true,true,0.125,12.65,0.0,0,0,0,0.125,12.65,0.0,0,0,0,0.125,12.65,0.0,0,0,0,0.125,12.65,0.0,0,0,0,0.125,12.65,0.0,4,0,0,0.0,12.65,0.0,0,0,0,0.125,12.700000000000001,0.0,0,0,0,kReverse,kOff,-87.18,2.09,2.61,0.033569336,-0.9821167,0.030578613,34.82,0.0,-2.0,-8.073898,11.752487,
527.9586750000001,true,true,true,0.125,12.65,0.0,0,0,0,0.125,12.65,0.0,0,0,0,0.125,12.65,0.0,0,0,0,0.125,12.65,0.0,0,0,0,0.125,12.65,0.0,4,0,0,0.0,12.65,0.0,0,0,0,0.125,12.700000000000001,0.0,0,0,0,kReverse,kOff,-87.18,2.09,2.61,0.03643799,-0.98187256,0.02734375,34.82,0.0,0.0,-8.073898,11.752487,
527.97871,true,true,true,0.125,12.65,0.0,0,0,0,0.125,12.65,0.0,0,0,0,0.125,12.65,0.0,0,0,0,0.125,12.65,0.0,0,0,0,0.125,12.65,0.0,4,0,0,0.0,12.65,0.0,0,0,0,0.125,12.700000000000001,0.0,0,0,0,kReverse,kOff,-87.18,2.09,2.61,0.036987305,-0.9850464,0.033691406,34.82,0.0,1.0,-8.073898,11.752487,
527.997623,true,true,true,0.125,12.65,0.0,0,0,0,0.125,12.65,0.0,0,0,0,0.125,12.65,0.0,0,0,0,0.125,12.65,0.0,0,0,0,0.125,12.65,0.0,4,0,0,0.0,12.65,0.0,0,0,0,0.125,12.700000000000001,0.0,0,0,0,kReverse,kOff,-87.18,2.09,2.61,0.03778076,-0.98223877,0.03845215,34.82,0.0,3.0,-8.073898,11.752487,
528.0175599999999,true,true,true,0.125,12.65,0.0,0,0,0,0.125,12.65,0.0,0,0,0,0.125,12.65,0.0,0,0,0,0.125,12.65,0.0,0,0,0,0.125,12.65,0.0,4,0,0,0.0,12.65,0.0,0,0,0,0.125,12.700000000000001,0.0,0,0,0,kReverse,kOff,-87.18,2.09,2.61,0.03552246,-0.98321533,0.033203125,34.82,0.0,0.0,-8.073898,11.752487,
528.040148,true,true,true,0.125,12.65,0.0,0,0,0,0.125,12.65,0.0,0,0,0,0.125,12.65,0.0,0,0,0,0.125,12.65,0.0,0,0,0,0.125,12.65,0.0,4,0,0,0.0,12.65,0.0,0,0,0,0.125,12.700000000000001,0.0,0,0,0,kReverse,kOff,-87.18,2.09,2.61,0.033935547,-0.98516846,0.03729248,34.82,0.0,0.0,-8.073898,11.752487,
528.058154,true,true,true,0.125,12.65,0.0,0,0,0,0.125,12.65,0.0,0,0,0,0.125,12.65,0.0,0,0,0,0.125,12.65,0.0,0,0,0,0.125,12.65,0.0,4,0,0,0.0,12.65,0.0,0,0,0,0.125,12.700000000000001,0.0,0,0,0,kReverse,kOff,-87.18,2.08,2.61,0.03540039,-0.9842529,0.031921387,34.82,0.0,0.0,-8.073898,11.752487,
528.079647,true,true,true,0.125,12.65,0.0,0,0,0,0.125,12.65,0.0,0,0,0,0.125,12.65,0.0,0,0,0,0.125,12.65,0.0,0,0,0,0.125,12.65,0.0,4,0,0,0.0,12.65,0.0,0,0,0,0.125,12.700000000000001,0.0,0,0,0,kReverse,kOff,-87.18,2.08,2.61,0.03515625,-0.9835205,0.029296875,34.82,0.0,-1.0,-8.073898,11.752487,
528.100285,true,true,true,0.125,12.65,0.0,0,0,0,0.125,12.65,0.0,0,0,0,0.125,12.65,0.0,0,0,0,0.125,12.65,0.0,0,0,0,0.125,12.65,0.0,4,0,0,0.0,12.65,0.0,0,0,0,0.125,12.700000000000001,0.0,0,0,0,kReverse,kOff,-87.18,2.08,2.61,0.03765869,-0.9819336,0.032104492,34.82,0.0,1.0,-8.073898,11.752487,
528.1232219999999,true,true,true,0.125,12.65,0.0,0,0,0,0.125,12.65,0.0,0,0,0,0.125,12.65,0.0,0,0,0,0.125,12.65,0.0,0,0,0,0.125,12.65,0.0,4,0,0,0.0,12.65,0.0,0,0,0,0.125,12.700000000000001,0.0,0,0,0,kReverse,kOff,-87.18,2.09,2.61,0.037841797,-0.98150635,0.033569336,34.8,0.0,2.0,-8.073898,11.752487,
528.144263,true,true,true,0.125,12.65,0.0,0,0,0,0.125,12.65,0.0,0,0,0,0.125,12.65,0.0,0,0,0,0.125,12.65,0.0,0,0,0,0.125,12.65,0.0,4,0,0,0.0,12.65,0.0,0,0,0,0.125,12.700000000000001,0.0,0,0,0,kReverse,kOff,-87.18,2.09,2.61,0.03881836,-0.98168945,0.032165527,34.8,0.0,2.0,-8.073898,11.752487,
528.165842,true,true,true,0.125,12.65,0.0,0,0,0,0.125,12.65,0.0,0,0,0,0.125,12.65,0.0,0,0,0,0.125,12.65,0.0,0,0,0,0.125,12.65,0.0,4,0,0,0.0,12.65,0.0,0,0,0,0.125,12.700000000000001,0.0,0,0,0,kReverse,kOff,-87.18,2.08,2.61,0.03338623,-0.9824219,0.031555176,34.8,0.0,-2.0,-8.073898,11.752487,
528.187397,true,true,true,0.125,12.65,0.0,0,0,0,0.125,12.65,0.0,0,0,0,0.125,12.65,0.0,0,0,0,0.125,12.65,0.0,0,0,0,0.125,12.65,0.0,4,0,0,0.0,12.65,0.0,0,0,0,0.125,12.700000000000001,0.0,0,0,0,kReverse,kOff,-87.18,2.08,2.61,0.036132812,-0.98095703,0.039978027,34.8,0.0,2.0,-8.073898,11.752487,
528.207137,true,true,true,0.125,12.65,0.0,0,0,0,0.125,12.65,0.0,0,0,0,0.125,12.65,0.0,0,0,0,0.125,12.65,0.0,0,0,0,0.125,12.65,0.0,4,0,0,0.0,12.65,0.0,0,0,0,0.125,12.700000000000001,0.0,0,0,0,kReverse,kOff,-87.18,2.08,2.61,0.032836914,-0.98535156,0.02734375,34.8,0.0,-4.0,-8.073898,11.752487,
528.232851,true,true,true,0.125,12.65,0.0,0,0,0,0.125,12.65,0.0,0,0,0,0.125,12.65,0.0,0,0,0,0.125,12.65,0.0,0,0,0,0.125,12.65,0.0,4,0,0,0.0,12.65,0.0,0,0,0,0.125,12.700000000000001,0.0,0,0,0,kReverse,kOff,-87.19,2.08,2.6,0.033813477,-0.9852905,0.03149414,34.8,0.0,-2.0,-8.073898,11.752487,
528.252934,true,true,true,0.125,12.65,0.0,0,0,0,0.125,12.65,0.0,0,0,0,0.125,12.65,0.0,0,0,0,0.125,12.65,0.0,0,0,0,0.125,12.65,0.0,4,0,0,0.0,12.65,0.0,0,0,0,0.125,12.700000000000001,0.0,0,0,0,kReverse,kOff,-87.19,2.08,2.6,0.035705566,-0.982666,0.032287598,34.8,0.0,0.0,-8.073898,11.752487,
528.2789359999999,true,true,true,0.125,12.65,0.0,0,0,0,0.125,12.65,0.0,0,0,0,0.125,12.65,0.0,0,0,0,0.125,12.65,0.0,0,0,0,0.0,12.65,0.0,4,0,0,0.0,12.65,0.0,0,0,0,0.125,12.700000000000001,0.0,0,0,0,kReverse,kOff,-87.19,2.08,2.6,0.035705566,-0.982666,0.032287598,34.8,0.0,0.0,-8.073898,11.752487,
528.295735,true,true,true,0.125,12.65,0.0,0,0,0,0.125,12.65,0.0,0,0,0,0.125,12.65,0.0,0,0,0,0.125,12.65,0.0,0,0,0,0.0,12.65,0.0,4,0,0,0.0,12.65,0.0,0,0,0,0.125,12.700000000000001,0.0,0,0,0,kReverse,kOff,-87.19,2.08,2.6,0.034851074,-0.9817505,0.03869629,34.8,0.0,0.0,-8.073898,11.752487,
528.320604,true,true,true,0.125,12.65,0.0,0,0,0,0.125,12.65,0.0,0,0,0,0.125,12.65,0.0,0,0,0,0.125,12.65,0.0,0,0,0,0.0,12.65,0.0,4,0,0,0.0,12.65,0.0,0,0,0,0.125,12.700000000000001,0.0,0,0,0,kReverse,kOff,-87.19,2.08,2.6,0.037597656,-0.98443604,0.032348633,34.8,0.0,1.0,-8.073898,11.752487,
528.341811,true,true,true,0.125,12.65,0.0,0,0,0,0.125,12.65,0.0,0,0,0,0.125,12.65,0.0,0,0,0,0.125,12.65,0.0,0,0,0,0.125,12.65,0.0,4,0,0,0.0,12.65,0.0,0,0,0,0.125,12.700000000000001,0.0,0,0,0,kReverse,kOff,-87.19,2.08,2.6,0.037597656,-0.98254395,0.028076172,34.8,0.0,0.0,-8.073898,11.752487,
528.364228,true,true,true,0.125,12.65,0.0,0,0,0,0.125,12.65,0.0,0,0,0,0.125,12.65,0.0,0,0,0,0.125,12.65,0.0,0,0,0,0.125,12.65,0.0,4,0,0,0.0,12.65,0.0,0,0,0,0.125,12.700000000000001,0.0,0,0,0,kReverse,kOff,-87.19,2.08,2.6,0.037353516,-0.98327637,0.03302002,34.8,0.0,1.0,-8.073898,11.752487,
528.386223,true,true,true,0.125,12.65,0.0,0,0,0,0.125,12.65,0.0,0,0,0,0.125,12.65,0.0,0,0,0,0.125,12.65,0.0,0,0,0,0.125,12.65,0.0,4,0,0,0.0,12.65,0.0,0,0,0,0.125,12.700000000000001,0.0,0,0,0,kReverse,kOff,-87.18,2.09,2.61,0.037231445,-0.9824219,0.031555176,34.8,0.0,1.0,-8.073898,11.752487,
528.407607,true,true,true,0.125,12.65,0.0,0,0,0,0.125,12.65,0.0,0,0,0,0.125,12.65,0.0,0,0,0,0.125,12.65,0.0,0,0,0,0.125,12.65,0.0,4,0,0,0.0,12.65,0.0,0,0,0,0.125,12.700000000000001,0.0,0,0,0,kReverse,kOff,-87.18,2.09,2.61,0.036132812,-0.98217773,0.034118652,34.8,0.0,0.0,-8.073898,11.752487,
528.4321600000001,true,true,true,0.125,12.65,0.0,0,0,0,0.125,12.65,0.0,0,0,0,0.125,12.65,0.0,0,0,0,0.125,12.65,0.0,0,0,0,0.125,12.65,0.0,4,0,0,0.0,12.65,0.0,0,0,0,0.125,12.700000000000001,0.0,0,0,0,kReverse,kOff,-87.18,2.08,2.61,0.037719727,-0.9842529,0.03112793,34.8,0.0,1.0,-8.073898,11.752487,
528.4551230000001,true,true,true,0.125,12.65,0.0,0,0,0,0.125,12.65,0.0,0,0,0,0.125,12.65,0.0,0,0,0,0.125,12.65,0.0,0,0,0,0.125,12.65,0.0,4,0,0,0.0,12.65,0.0,0,0,0,0.125,12.700000000000001,0.0,0,0,0,kReverse,kOff,-87.18,2.08,2.61,0.034423828,-0.9815674,0.03363037,34.8,0.0,0.0,-8.073898,11.752487,
528.4783540000001,true,true,true,0.125,12.65,0.0,0,0,0,0.125,12.65,0.0,0,0,0,0.125,12.65,0.0,0,0,0,0.125,12.65,0.0,0,0,0,0.125,12.65,0.0,4,0,0,0.0,12.65,0.0,0,0,0,0.125,12.700000000000001,0.0,0,0,0,kReverse,kOff,-87.18,2.09,2.61,0.036376953,-0.98339844,0.035705566,34.8,0.0,1.0,-8.073898,11.752487,
528.501679,true,true,true,0.125,12.65,0.0,0,0,0,0.125,12.65,0.0,0,0,0,0.125,12.65,0.0,0,0,0,0.125,12.65,0.0,0,0,0,0.125,12.65,0.0,4,0,0,0.0,12.65,0.0,0,0,0,0.125,12.700000000000001,0.0,0,0,0,kReverse,kOff,-87.18,2.09,2.61,0.035339355,-0.98376465,0.027648926,34.8,0.0,-2.0,-8.073898,11.752487,
528.5219089999999,true,true,true,0.125,12.65,0.0,0,0,0,0.125,12.65,0.0,0,0,0,0.125,12.65,0.0,0,0,0,0.125,12.65,0.0,0,0,0,0.125,12.65,0.0,4,0,0,0.0,12.65,0.0,0,0,0,0.125,12.700000000000001,0.0,0,0,0,kReverse,kOff,-87.18,2.08,2.61,0.036315918,-0.98327637,0.042419434,34.8,0.0,3.0,-8.073898,11.752487,
528.542071,true,true,true,0.125,12.65,0.0,0,0,0,0.125,12.65,0.0,0,0,0,0.125,12.65,0.0,0,0,0,0.125,12.65,0.0,0,0,0,0.125,12.65,0.0,4,0,0,0.0,12.65,0.0,0,0,0,0.125,12.700000000000001,0.0,0,0,0,kReverse,kOff,-87.19,2.08,2.6,0.037231445,-0.9837036,0.03527832,34.8,0.0,2.0,-8.073898,11.752487,
528.563843,true,true,true,0.375,12.65,0.0,-1,0,0,0.25,12.65,0.0,0,0,0,0.125,12.65,0.0,0,0,0,0.125,12.65,0.0,0,0,0,0.125,12.65,0.0,4,0,0,0.0,12.65,0.0,0,0,0,0.125,12.700000000000001,0.0,0,0,0,kReverse,kOff,-87.18,2.08,2.61,0.047912598,-0.9781494,0.033081055,34.8,0.0,12.0,-8.073898,11.752487,
528.58497,true,true,true,0.625,12.65,0.0,-2,0,0,0.25,12.65,0.0,0,0,0,0.125,12.65,0.0,0,0,0,0.125,12.65,0.0,0,0,0,0.125,12.65,0.0,4,0,0,0.0,12.65,0.0,0,0,0,0.125,12.700000000000001,0.0,0,0,0,kReverse,kOff,-87.19,2.08,2.61,0.03100586,-1.0182495,0.00982666,34.8,0.0,-12.0,-8.073898,11.752472,
528.605309,true,true,true,0.875,12.65,0.0,-4,-1,0,0.25,12.65,0.0,0,0,0,0.125,12.65,0.0,0,0,0,0.125,12.65,0.0,0,0,0,0.125,12.65,0.0,4,0,0,0.0,12.65,0.0,0,0,0,0.125,12.700000000000001,0.0,0,0,0,kReverse,kOff,-87.17,2.1,2.62,0.028503418,-0.99108887,0.04949951,34.8,0.0,-3.0,-8.073898,11.752426,
528.626899,true,true,true,1.375,12.65,0.0,-7,-3,0,0.25,12.65,0.0,0,0,0,0.125,12.65,0.0,0,0,0,0.125,12.65,0.0,0,0,0,0.125,12.65,0.0,4,0,0,0.0,12.65,0.0,0,0,0,0.125,12.700000000000001,0.0,0,0,0,kReverse,kOff,-87.17,2.09,2.62,0.054504395,-1.0568237,0.0078125,34.84,0.0,7.0,-8.073898,11.752457,
528.65771,true,true,true,2.0,12.6,0.0,-21,-10,0,0.25,12.6,0.0,0,0,0,0.125,12.6,0.0,0,0,0,0.125,12.6,0.0,0,0,0,0.125,12.6,0.0,4,0,0,0.0,12.65,0.0,0,0,0,0.125,12.700000000000001,0.0,0,0,0,kReverse,kOff,-87.18,2.1,2.62,0.029541016,-1.0133667,0.028381348,34.84,0.0,-8.0,-8.073898,11.752457,
528.6751999999999,true,true,true,2.125,12.6,0.0,-29,-16,0,0.25,12.6,0.0,0,0,0,0.125,12.6,0.0,0,0,0,0.125,12.6,0.0,0,0,0,0.125,12.6,0.0,4,0,0,0.0,12.65,0.0,0,0,0,0.125,12.65,0.0,0,0,0,kReverse,kOff,-87.17,2.09,2.62,0.009277344,-0.93774414,0.029052734,34.84,0.0,-24.0,-8.073914,11.752457,
528.6936559999999,true,true,true,2.5,12.6,0.0,-40,-23,0,0.25,12.6,0.0,0,0,0,0.125,12.6,0.0,0,0,0,0.125,12.6,0.0,0,0,0,0.125,12.6,0.0,4,0,0,0.0,12.55,0.0,0,0,0,0.125,12.65,0.0,0,0,0,kReverse,kOff,-87.17,2.1,2.62,0.06549072,-1.0804443,0.018981934,34.84,0.0,20.0,-8.073929,11.752548,
528.719723,true,true,true,2.625,12.6,0.0,-55,-32,0,0.25,12.6,0.0,0,0,0,0.125,12.6,0.0,0,0,0,0.125,12.6,0.0,0,0,0,0.125,12.6,0.0,4,0,0,0.0,12.55,0.0,0,0,0,0.125,12.65,0.0,0,0,0,kReverse,kOff,-87.16,2.11,2.63,0.049743652,-1.0452881,-0.034240723,34.84,0.0,-7.0,-8.073898,11.752548,
528.7392020000001,true,true,true,2.5,12.6,0.0,-69,-41,0,0.25,12.6,0.0,0,0,0,0.125,12.6,0.0,0,0,0,0.125,12.6,0.0,0,0,0,0.125,12.6,0.0,4,0,0,0.0,12.55,0.0,0,0,0,0.125,12.65,0.0,0,0,0,kReverse,kOff,-87.16,2.12,2.64,0.0053100586,-0.9678345,0.034301758,34.84,0.0,-28.0,-8.073868,11.752518,
528.7597589999999,true,true,true,2.125,12.6,0.0,-83,-49,0,0.25,12.6,0.0,0,0,0,0.125,12.6,0.0,0,0,0,0.125,12.6,0.0,0,0,0,0.125,12.6,0.0,4,0,0,0.0,12.55,0.0,0,0,0,0.125,12.65,0.0,0,0,0,kReverse,kOff,-87.15,2.12,2.65,0.028747559,-1.0385132,0.0073242188,34.84,0.0,-16.0,-8.073883,11.752518,
528.777167,true,true,true,2.125,12.6,0.0,-101,-58,0,0.375,12.6,0.0,0,0,0,0.125,12.6,0.0,0,0,0,0.125,12.6,0.0,0,0,0,0.125,12.6,0.0,4,0,0,0.0,12.55,0.0,0,0,0,0.125,12.65,0.0,0,0,0,kReverse,kOff,-87.15,2.12,2.65,0.05102539,-0.9412842,0.08685303,34.84,0.0,30.0,-8.073898,11.752533,
528.797564,true,true,true,2.125,12.6,0.0,-118,-66,0,0.375,12.6,0.0,0,0,0,0.125,12.6,0.0,0,0,0,0.125,12.6,0.0,0,0,0,0.125,12.6,0.0,4,0,0,0.0,12.55,0.0,0,0,0,0.125,12.65,0.0,0,0,0,kReverse,kOff,-87.16,2.13,2.65,0.030883789,-0.9927368,0.05810547,34.84,0.0,0.0,-8.073914,11.752594,
528.821429,true,true,true,2.125,12.55,0.0,-135,-72,0,0.375,12.6,0.0,0,0,0,0.125,12.6,0.0,0,0,0,0.125,12.6,0.0,0,0,0,0.125,12.6,0.0,4,0,0,0.0,12.55,0.0,0,0,0,0.125,12.65,0.0,0,0,0,kReverse,kOff,-87.14,2.14,2.66,0.025756836,-0.979126,-0.010375977,34.84,0.0,-21.0,-8.073944,11.752609,
528.843044,true,true,true,1.75,12.55,0.0,-151,-77,0,0.375,12.6,0.0,0,0,0,0.125,12.6,0.0,0,0,0,0.125,12.6,0.0,0,0,0,0.125,12.6,0.0,4,0,0,0.0,12.6,0.0,0,0,0,0.125,12.65,0.0,0,0,0,kReverse,kOff,-87.15,2.13,2.65,0.008117676,-0.9428711,0.041137695,34.84,0.0,-23.0,-8.07399,11.752609,
528.8617879999999,true,true,true,2.125,12.55,0.0,-170,-81,0,0.25,12.6,0.0,0,0,0,0.125,12.6,0.0,0,0,0,0.125,12.6,0.0,0,0,0,0.125,12.6,0.0,4,0,0,0.0,12.6,0.0,0,0,0,0.125,12.65,0.0,0,0,0,kReverse,kOff,-87.15,2.13,2.65,0.025878906,-1.0436401,0.028747559,34.84,0.0,-14.0,-8.074081,11.752594,
528.8825059999999,true,true,true,2.125,12.55,0.0,-189,-84,0,0.25,12.6,0.0,0,0,0,0.125,12.6,0.0,0,0,0,0.125,12.6,0.0,0,0,0,0.125,12.6,0.0,4,0,0,0.0,12.6,0.0,0,0,0,0.125,12.65,0.0,0,0,0,kReverse,kOff,-87.14,2.14,2.67,-0.0038452148,-0.9338989,-0.020446777,34.84,0.0,-51.0,-8.074127,11.752548,
528.90326,true,true,true,2.375,12.55,0.0,-208,-86,0,0.25,12.6,0.0,0,0,0,0.125,12.6,0.0,0,0,0,0.125,12.6,0.0,0,0,0,0.125,12.6,0.0,4,0,0,0.0,12.6,0.0,0,0,0,0.125,12.65,0.0,0,0,0,kReverse,kOff,-87.15,2.13,2.66,0.045166016,-1.0175171,-0.020202637,34.84,0.0,-7.0,-8.074219,11.752487,
528.923888,true,true,true,2.0,12.55,0.0,-227,-89,0,0.375,12.6,0.0,0,0,0,0.125,12.6,0.0,0,0,0,0.125,12.6,0.0,0,0,0,0.125,12.6,0.0,4,0,0,0.0,12.6,0.0,0,0,0,0.125,12.65,0.0,0,0,0,kReverse,kOff,-87.15,2.14,2.66,0.030456543,-0.9229126,0.060546875,34.84,0.0,4.0,-8.074219,11.752441,
528.944944,true,true,true,2.25,12.55,0.0,-248,-91,0,0.375,12.6,0.0,0,0,0,0.125,12.6,0.0,0,0,0,0.125,12.6,0.0,0,0,0,0.125,12.6,0.0,4,0,0,0.0,12.6,0.0,0,0,0,0.125,12.65,0.0,0,0,0,kReverse,kOff,-87.15,2.14,2.66,0.06713867,-0.9937134,0.101501465,34.84,0.0,47.0,-8.074188,11.752365,
528.966007,true,true,true,2.0,12.55,0.0,-268,-94,0,0.375,12.55,0.0,0,0,0,0.125,12.6,0.0,0,0,0,0.125,12.6,0.0,0,0,0,0.125,12.6,0.0,4,0,0,0.0,12.6,0.0,0,0,0,0.125,12.65,0.0,0,0,0,kReverse,kOff,-87.14,2.14,2.67,0.0043945312,-0.96087646,6.1035156E-4,34.84,0.0,-38.0,-8.074142,11.75235,
528.986894,true,true,true,2.25,12.55,0.0,-290,-96,0,0.375,12.55,0.0,0,0,0,0.125,12.6,0.0,0,0,0,0.125,12.6,0.0,0,0,0,0.125,12.6,0.0,4,0,0,0.0,12.6,0.0,0,0,0,0.125,12.65,0.0,0,0,0,kReverse,kOff,-87.15,2.14,2.66,0.038024902,-1.0248413,0.070617676,34.84,0.0,9.0,-8.074066,11.752274,
529.009371,true,true,true,2.125,12.55,0.0,-331,-100,0,0.375,12.55,0.0,0,0,0,0.125,12.6,0.0,0,0,0,0.125,12.6,0.0,0,0,0,0.125,12.6,0.0,4,0,0,0.0,12.6,0.0,0,0,0,0.125,12.65,0.0,0,0,0,kReverse,kOff,-87.15,2.13,2.66,0.054138184,-0.9975586,0.07727051,34.84,0.0,28.0,-8.073975,11.752289,
529.0296450000001,true,true,true,2.0,12.55,0.0,-352,-102,0,0.375,12.55,0.0,0,0,0,0.125,12.6,0.0,0,0,0,0.125,12.6,0.0,0,0,0,0.125,12.6,0.0,4,0,0,0.0,12.6,0.0,0,0,0,0.125,12.65,0.0,0,0,0,kReverse,kOff,-87.13,2.14,2.67,0.024902344,-0.8927002,0.034362793,34.84,0.0,-6.0,-8.073883,11.752335,
529.053812,true,true,true,2.125,12.55,0.0,-373,-104,0,0.25,12.55,0.0,0,0,0,0.125,12.6,0.0,0,0,0,0.125,12.6,0.0,0,0,0,0.125,12.6,0.0,4,0,0,0.0,12.6,0.0,0,0,0,0.125,12.65,0.0,0,0,0,kReverse,kOff,-87.15,2.12,2.64,0.045898438,-1.0095825,0.03277588,34.84,0.0,7.0,-8.073776,11.75238,
529.077367,true,true,true,1.875,12.55,0.0,-393,-104,0,0.25,12.55,0.0,0,0,0,0.125,12.6,0.0,0,0,0,0.125,12.6,0.0,0,0,0,0.125,12.6,0.0,4,0,0,0.0,12.6,0.0,0,0,0,0.125,12.65,0.0,0,0,0,kReverse,kOff,-87.14,2.13,2.66,-0.022460938,-0.9476929,0.064331055,34.84,0.0,-46.0,-8.073715,11.75238,
529.1010729999999,true,true,true,2.125,12.55,0.0,-414,-104,0,0.375,12.55,0.0,0,0,0,0.125,12.6,0.0,0,0,0,0.125,12.6,0.0,0,0,0,0.125,12.6,0.0,4,0,0,0.0,12.6,0.0,0,0,0,0.125,12.65,0.0,0,0,0,kReverse,kOff,-87.16,2.11,2.64,0.08843994,-1.0551147,0.06994629,34.84,0.0,56.0,-8.073685,11.752441,
529.12326,true,true,true,2.125,12.55,0.0,-435,-104,0,0.375,12.55,0.0,0,0,0,0.125,12.6,0.0,0,0,0,0.125,12.6,0.0,0,0,0,0.125,12.6,0.0,4,0,0,0.0,12.6,0.0,0,0,0,0.125,12.65,0.0,0,0,0,kReverse,kOff,-87.14,2.15,2.67,0.016113281,-0.9824219,0.052490234,34.84,0.0,-14.0,-8.073486,11.752472,
529.15414,true,true,true,2.375,12.55,0.0,-476,-103,0,0.375,12.55,0.0,0,0,0,0.125,12.55,0.0,0,0,0,0.125,12.6,0.0,0,0,0,0.125,12.55,0.0,4,0,0,0.0,12.55,0.0,0,0,0,0.125,12.6,0.0,0,0,0,kReverse,kOff,-87.15,2.12,2.65,0.04724121,-1.001648,-0.009643555,34.84,0.0,-1.0,-8.07341,11.752548,
529.177302,true,true,true,2.5,12.55,0.0,-499,-103,0,0.375,12.55,0.0,0,0,0,0.125,12.55,0.0,0,0,0,0.125,12.6,0.0,0,0,0,0.125,12.55,0.0,4,0,0,0.0,12.55,0.0,0,0,0,0.125,12.6,0.0,0,0,0,kReverse,kOff,-87.16,2.13,2.65,0.044128418,-0.95581055,0.030517578,34.84,0.0,7.0,-8.07341,11.752548,
529.201768,true,true,true,2.625,12.55,0.0,-520,-104,0,0.375,12.55,0.0,0,0,0,0.125,12.55,0.0,0,0,0,0.125,12.6,0.0,0,0,0,0.125,12.55,0.0,4,0,0,0.0,12.55,0.0,0,0,0,0.125,12.6,0.0,0,0,0,kReverse,kOff,-87.13,2.14,2.67,0.022460938,-0.93829346,0.012390137,34.84,0.0,-17.0,-8.073349,11.752579,
529.224933,true,true,true,2.625,12.55,0.0,-544,-105,0,0.375,12.55,0.0,0,0,0,0.125,12.55,0.0,0,0,0,0.125,12.6,0.0,0,0,0,0.125,12.55,0.0,4,0,0,0.0,12.55,0.0,0,0,0,0.125,12.6,0.0,0,0,0,kReverse,kOff,-87.14,2.14,2.66,0.051086426,-1.0102539,0.0793457,34.84,0.0,25.0,-8.0733185,11.7526245,
529.246626,true,true,true,2.75,12.55,0.0,-566,-107,0,0.375,12.55,0.0,0,0,0,0.125,12.55,0.0,0,0,0,0.125,12.6,0.0,0,0,0,0.125,12.55,0.0,4,0,0,0.0,12.55,0.0,0,0,0,0.125,12.6,0.0,0,0,0,kReverse,kOff,-87.16,2.12,2.64,0.06365967,-0.979126,0.042114258,34.84,0.0,28.0,-8.073273,11.752777,
529.269324,true,true,true,3.25,12.55,0.0,-593,-110,0,0.375,12.55,0.0,0,0,0,0.125,12.55,0.0,0,0,0,0.125,12.6,0.0,0,0,0,0.125,12.55,0.0,4,0,0,0.0,12.55,0.0,0,0,0,0.125,12.6,0.0,0,0,0,kReverse,kOff,-87.15,2.13,2.65,0.014770508,-0.9838867,0.052001953,34.84,0.0,-15.0,-8.073227,11.752884,
529.2924619999999,true,true,true,5.75,12.5,0.0,-655,-119,0,0.375,12.450000000000001,0.0,0,0,0,0.125,12.450000000000001,0.0,0,0,0,0.125,12.450000000000001,0.0,0,0,0,0.125,12.450000000000001,0.0,4,0,0,0.0,12.55,0.0,0,0,0,0.125,12.6,0.0,0,0,0,kReverse,kOff,-87.15,2.13,2.66,0.013122559,-0.9367676,-0.06048584,34.84,0.0,-45.0,-8.073242,11.752945,
529.3155370000001,true,true,true,7.625,12.5,0.0,-690,-127,0,0.375,12.450000000000001,0.0,0,0,0,0.125,12.450000000000001,0.0,0,0,0,0.125,12.450000000000001,0.0,0,0,0,0.125,12.450000000000001,0.0,4,0,0,0.0,12.3,0.0,0,0,0,0.125,12.450000000000001,0.0,0,0,0,kReverse,kOff,-87.15,2.12,2.65,0.03375244,-0.8851929,0.055847168,34.84,0.0,7.0,-8.073288,11.753189,
529.340967,true,true,true,12.625,12.5,0.0,-736,-140,0,0.375,12.450000000000001,0.0,0,0,0,0.125,12.450000000000001,0.0,0,0,0,0.125,12.450000000000001,0.0,0,0,0,0.125,12.450000000000001,0.0,4,0,0,0.0,12.3,0.0,0,0,0,0.125,12.450000000000001,0.0,0,0,0,kReverse,kOff,-87.16,2.11,2.63,0.07562256,-1.005127,0.085754395,34.84,0.0,51.0,-8.073257,11.753387,
529.3611169999999,true,true,true,19.125,12.5,0.0,-796,-159,0,0.375,12.450000000000001,0.0,0,0,0,0.125,12.450000000000001,0.0,0,0,0,0.125,12.450000000000001,0.0,0,0,0,0.125,12.450000000000001,0.0,4,0,0,0.0,12.3,0.0,0,0,0,0.125,12.450000000000001,0.0,0,0,0,kReverse,kOff,-87.13,2.12,2.66,0.025512695,-1.0409546,-0.06951904,34.84,0.0,-40.0,-8.073013,11.753998,
529.3794919999999,true,true,true,27.0,12.5,0.0,-868,-187,0,0.25,12.450000000000001,0.0,0,0,0,0.125,12.450000000000001,0.0,0,0,0,0.125,12.450000000000001,0.0,0,0,0,0.125,12.450000000000001,0.0,4,0,0,0.0,12.3,0.0,0,0,0,0.125,12.450000000000001,0.0,0,0,0,kReverse,kOff,-87.14,2.13,2.66,0.015380859,-0.8198242,-0.051574707,34.84,0.0,-35.0,-8.072937,11.754181,
529.399818,true,true,true,31.5,12.5,0.0,-954,-225,0,0.25,12.450000000000001,0.0,0,0,0,0.125,12.450000000000001,0.0,0,0,0,0.125,12.450000000000001,0.0,0,0,0,0.125,12.450000000000001,0.0,4,0,0,0.0,12.3,0.0,0,0,0,0.125,12.450000000000001,0.0,0,0,0,kReverse,kOff,-87.15,2.13,2.66,0.020629883,-1.02594,0.12042236,34.84,0.0,6.0,-8.072876,11.754379,
529.4199279999999,true,true,true,31.375,12.5,0.0,-1049,-272,0,0.25,12.450000000000001,0.0,0,0,0,0.125,12.450000000000001,0.0,0,0,0,0.125,12.450000000000001,0.0,0,0,0,0.125,12.450000000000001,0.0,4,0,0,0.0,12.3,0.0,0,0,0,0.125,12.450000000000001,0.0,0,0,0,kReverse,kOff,-87.14,2.13,2.66,0.06762695,-0.9803467,-0.08856201,34.84,0.0,-2.0,-8.072876,11.754822,
529.441535,true,true,true,27.625,12.5,0.0,-1157,-329,0,0.25,12.0,0.0,0,0,0,0.125,12.450000000000001,0.0,0,0,0,0.125,12.450000000000001,0.0,0,0,0,0.0,12.450000000000001,0.0,4,0,0,0.0,12.3,0.0,0,0,0,0.125,12.450000000000001,0.0,0,0,0,kReverse,kOff,-87.16,2.13,2.65,0.062561035,-1.0127563,0.12164307,34.84,0.0,47.0,-8.072845,11.754974,
529.46134,true,true,true,22.375,11.9,0.0,-1266,-384,0,0.25,12.0,0.0,0,0,0,0.125,12.05,0.0,0,0,0,0.125,12.1,0.0,0,0,0,0.0,12.1,0.0,4,0,0,0.0,12.3,0.0,0,0,0,0.125,12.200000000000001,0.0,0,0,0,kReverse,kOff,-87.13,2.14,2.67,0.054016113,-1.0339355,-0.0067749023,34.84,0.0,3.0,-8.072784,11.755157,
529.4816920000001,true,true,true,18.875,11.9,0.0,-1377,-436,0,0.25,12.0,0.0,0,0,0,0.125,12.05,0.0,0,0,0,0.125,12.1,0.0,0,0,0,0.0,12.1,0.0,4,0,0,0.0,12.15,0.0,0,0,0,0.125,12.200000000000001,0.0,0,0,0,kReverse,kOff,-87.16,2.13,2.65,0.06713867,-1.0812988,0.0881958,34.84,0.0,39.0,-8.072739,11.755432,
529.502134,true,true,true,16.5,11.9,0.0,-1492,-480,0,0.25,12.0,0.0,0,0,0,0.125,12.05,0.0,0,0,0,0.125,12.1,0.0,0,0,0,0.125,12.1,0.0,4,0,0,0.0,12.15,0.0,0,0,0,0.125,12.200000000000001,0.0,0,0,0,kReverse,kOff,-87.12,2.15,2.68,0.02746582,-0.9423828,0.08312988,34.84,0.0,6.0,-8.072693,11.755646,
529.5237569999999,true,true,true,15.0,11.9,0.0,-1604,-513,0,0.25,12.0,0.0,0,0,0,0.125,12.05,0.0,0,0,0,0.125,12.1,0.0,0,0,0,0.125,12.1,0.0,4,0,0,0.0,12.15,0.0,0,0,0,0.125,12.200000000000001,0.0,0,0,0,kReverse,kOff,-87.18,2.1,2.62,0.06933594,-1.0288086,0.16455078,34.84,0.0,65.0,-8.0728,11.756073,
529.5439279999999,true,true,true,13.625,11.9,0.0,-1728,-541,0,0.25,12.0,0.0,0,0,0,0.125,12.05,0.0,0,0,0,0.125,12.1,0.0,0,0,0,0.125,12.1,0.0,4,0,0,0.0,12.15,0.0,0,0,0,0.125,12.200000000000001,0.0,0,0,0,kReverse,kOff,-87.11,2.15,2.69,-0.0256958,-1.0152588,-0.11608887,34.84,0.0,-101.0,-8.072891,11.756302,
529.563889,true,true,true,12.5,11.9,0.0,-1843,-560,0,0.25,12.0,0.0,0,0,0,0.125,12.05,0.0,0,0,0,0.125,12.1,0.0,0,0,0,0.125,12.1,0.0,4,0,0,0.0,12.15,0.0,0,0,0,0.125,12.200000000000001,0.0,0,0,0,kReverse,kOff,-87.17,2.13,2.65,0.023864746,-0.9908447,0.1842041,34.84,0.0,28.0,-8.073029,11.756546,
529.5859849999999,true,true,true,11.625,11.9,0.0,-1972,-575,0,0.25,12.0,0.0,0,0,0,0.125,12.05,0.0,0,0,0,0.125,12.1,0.0,0,0,0,0.125,12.1,0.0,4,0,0,0.0,12.15,0.0,0,0,0,0.125,12.200000000000001,0.0,0,0,0,kReverse,kOff,-87.13,2.17,2.69,0.0637207,-0.88916016,0.022766113,34.84,0.0,27.0,-8.073013,11.757462,
529.6070960000001,true,true,true,11.0,11.9,0.0,-2089,-587,0,0.25,12.3,0.0,0,0,0,0.125,12.4,0.0,0,0,0,0.125,12.450000000000001,0.0,0,0,0,0.125,12.450000000000001,0.0,4,0,0,0.0,12.15,0.0,0,0,0,0.125,12.200000000000001,0.0,0,0,0,kReverse,kOff,-87.16,2.14,2.66,0.0031738281,-1.1078491,0.09838867,34.84,0.0,-20.0,-8.072968,11.757996,
529.62919,true,true,true,7.75,12.4,0.0,-2215,-597,0,0.25,12.3,0.0,0,0,0,0.125,12.4,0.0,0,0,0,0.125,12.450000000000001,0.0,0,0,0,0.125,12.450000000000001,0.0,4,0,0,0.0,12.15,0.0,0,0,0,0.125,12.65,0.0,0,0,0,kReverse,kOff,-87.15,2.13,2.65,0.15270996,-1.060791,0.017822266,34.84,0.0,104.0,-8.072922,11.758911,
529.657814,true,true,true,1.0,12.4,0.0,-2418,-599,0,0.25,12.3,0.0,0,0,0,0.125,12.4,0.0,0,0,0,0.125,12.450000000000001,0.0,0,0,0,0.125,12.450000000000001,0.0,4,0,0,0.0,12.700000000000001,0.0,0,0,0,0.125,12.65,0.0,0,0,0,kReverse,kOff,-87.13,2.17,2.69,0.070617676,-1.1520996,0.024414062,34.84,0.0,22.0,-8.0728,11.759277,
529.67458,true,true,true,0.0,12.4,0.0,-2494,-582,0,0.375,12.3,0.0,0,0,0,0.125,12.4,0.0,0,0,0,0.125,12.450000000000001,0.0,0,0,0,0.125,12.450000000000001,0.0,4,0,0,0.0,12.700000000000001,0.0,0,0,0,0.125,12.65,0.0,0,0,0,kReverse,kOff,-87.09,2.13,2.68,0.11364746,-0.970459,0.41503906,34.85,0.0,176.0,-8.072784,11.760117,
529.695106,true,true,true,0.0,12.4,0.0,-2551,-548,0,0.375,12.3,0.0,0,0,0,0.125,12.4,0.0,0,0,0,0.125,12.450000000000001,0.0,0,0,0,0.125,12.450000000000001,0.0,4,0,0,0.0,12.700000000000001,0.0,0,0,0,0.125,12.65,0.0,0,0,0,kReverse,kOff,-87.05,2.16,2.72,-0.049316406,-0.97857666,-0.28118896,34.85,0.0,-167.0,-8.072769,11.760681,
529.718981,true,true,true,0.0,12.4,0.0,-2595,-495,0,0.375,12.3,0.0,0,0,0,0.125,12.4,0.0,0,0,0,0.125,12.450000000000001,0.0,0,0,0,0.125,12.450000000000001,0.0,4,0,0,0.0,12.700000000000001,0.0,0,0,0,0.125,12.65,0.0,0,0,0,kReverse,kOff,-87.13,2.14,2.67,0.025939941,-1.0222778,0.13165283,34.85,0.0,14.0,-8.072861,11.761139,
529.73638,true,true,true,1.0,12.4,0.0,-2632,-427,0,0.375,12.3,0.0,0,0,0,0.125,12.4,0.0,0,0,0,0.125,12.450000000000001,0.0,0,0,0,0.125,12.450000000000001,0.0,4,0,0,0.0,12.700000000000001,0.0,0,0,0,0.125,12.65,0.0,0,0,0,kReverse,kOff,-87.07,2.16,2.71,0.017822266,-0.95977783,-0.184021,34.85,0.0,-76.0,-8.0728,11.762299,
529.7605599999999,true,true,true,4.375,12.4,0.0,-2676,-352,0,0.375,12.4,0.0,0,0,0,0.125,12.4,0.0,0,0,0,0.125,12.450000000000001,0.0,0,0,0,0.125,12.450000000000001,0.0,4,0,0,0.0,12.700000000000001,0.0,0,0,0,0.125,12.65,0.0,0,0,0,kReverse,kOff,-87.11,2.14,2.68,0.11804199,-1.0961304,0.075683594,34.85,0.0,84.0,-8.072662,11.763214,
529.782695,true,true,true,9.5,12.200000000000001,0.0,-2723,-291,0,0.25,12.4,0.0,0,0,0,0.125,12.35,0.0,0,0,0,0.125,12.35,0.0,0,0,0,0.125,12.200000000000001,0.0,4,0,0,0.0,12.700000000000001,0.0,0,0,0,0.125,12.1,0.0,0,0,0,kReverse,kOff,-87.1,2.16,2.7,0.19232178,-1.3322144,0.1385498,34.85,0.0,161.0,-8.072372,11.763748,
529.8006849999999,true,true,true,16.875,12.200000000000001,0.0,-2776,-251,0,0.25,12.4,0.0,0,0,0,0.125,12.35,0.0,0,0,0,0.125,12.35,0.0,0,0,0,0.125,12.200000000000001,0.0,4,0,0,0.0,11.8,0.0,0,0,0,0.125,12.1,0.0,0,0,0,kReverse,kOff,-87.09,2.22,2.74,-0.029052734,-1.0407715,-0.23699951,34.85,0.0,-139.0,-8.0720825,11.76413,
529.821559,true,true,true,26.375,12.200000000000001,0.0,-2846,-234,0,0.25,12.4,0.0,0,0,0,0.125,12.35,0.0,0,0,0,0.125,12.35,0.0,0,0,0,0.125,12.200000000000001,0.0,4,0,0,0.0,11.8,0.0,0,0,0,0.125,12.1,0.0,0,0,0,kReverse,kOff,-87.07,2.21,2.74,-0.08947754,-0.80859375,-0.045410156,34.85,0.0,-135.0,-8.071472,11.765091,
529.845385,true,true,true,33.25,12.200000000000001,0.0,-2930,-243,0,0.25,12.4,0.0,0,0,0,0.125,12.35,0.0,0,0,0,0.125,12.35,0.0,0,0,0,0.125,12.200000000000001,0.0,4,0,0,0.0,11.8,0.0,0,0,0,0.125,12.1,0.0,0,0,0,kReverse,kOff,-87.19,2.13,2.64,0.045776367,-0.9008789,0.25854492,34.85,0.0,73.0,-8.070984,11.766647,
529.867316,true,true,true,32.875,12.200000000000001,0.0,-3022,-275,0,0.25,12.4,0.0,0,0,0,0.125,12.35,0.0,0,0,0,0.125,12.35,0.0,0,0,0,0.125,12.200000000000001,0.0,4,0,0,0.0,11.8,0.0,0,0,0,0.125,12.1,0.0,0,0,0,kReverse,kOff,-87.16,2.15,2.66,0.05267334,-1.0472412,0.19018555,34.85,0.0,54.0,-8.070618,11.767807,
529.892582,true,true,true,23.375,12.200000000000001,0.0,-3235,-374,0,0.25,12.4,0.0,0,0,0,0.125,12.35,0.0,0,0,0,0.125,12.35,0.0,0,0,0,0.125,12.200000000000001,0.0,4,0,0,0.0,11.8,0.0,0,0,0,0.125,12.1,0.0,0,0,0,kReverse,kOff,-87.15,2.17,2.68,-0.018310547,-0.8484497,0.11779785,34.85,0.0,-24.0,-8.069962,11.770187,
529.915348,true,true,true,20.125,12.200000000000001,0.0,-3340,-422,0,0.25,12.1,0.0,0,0,0,0.125,12.35,0.0,0,0,0,0.125,12.35,0.0,0,0,0,0.125,12.200000000000001,0.0,4,0,0,0.0,11.8,0.0,0,0,0,0.125,12.1,0.0,0,0,0,kReverse,kOff,-87.15,2.13,2.65,-0.009460449,-0.99591064,0.07385254,34.85,0.0,-33.0,-8.069702,11.771484,
529.938196,true,true,true,17.25,12.0,0.0,-3460,-469,0,0.25,12.1,0.0,0,0,0,0.125,12.1,0.0,0,0,0,0.125,12.15,0.0,0,0,0,0.125,12.15,0.0,4,0,0,0.0,11.8,0.0,0,0,0,0.125,12.1,0.0,0,0,0,kReverse,kOff,-87.2,2.13,2.64,-0.001953125,-0.869812,0.1586914,34.85,0.0,2.0,-8.069138,11.77417,
529.958084,true,true,true,15.25,12.0,0.0,-3577,-506,0,0.25,12.1,0.0,0,0,0,0.125,12.1,0.0,0,0,0,0.125,12.15,0.0,0,0,0,0.125,12.15,0.0,4,0,0,0.0,12.200000000000001,0.0,0,0,0,0.125,12.25,0.0,0,0,0,kReverse,kOff,-87.13,2.12,2.66,0.034301758,-0.80285645,0.05456543,34.85,0.0,11.0,-8.069138,11.77565,
529.9819749999999,true,true,true,13.625,12.0,0.0,-3689,-532,0,0.25,12.1,0.0,0,0,0,0.125,12.1,0.0,0,0,0,0.125,12.15,0.0,0,0,0,0.125,12.15,0.0,4,0,0,0.0,12.200000000000001,0.0,0,0,0,0.125,12.25,0.0,0,0,0,kReverse,kOff,-87.15,2.13,2.65,-0.009643555,-1.107605,-0.1463623,34.85,0.0,-98.0,-8.069199,11.777054,
530.000552,true,true,true,12.5,12.0,0.0,-3809,-554,0,0.25,12.1,0.0,0,0,0,0.125,12.1,0.0,0,0,0,0.125,12.15,0.0,0,0,0,0.125,12.15,0.0,4,0,0,0.0,12.200000000000001,0.0,0,0,0,0.125,12.25,0.0,0,0,0,kReverse,kOff,-87.2,2.08,2.6,0.042663574,-1.1411743,0.11779785,34.85,0.0,22.0,-8.06958,11.779785,
530.022255,true,true,true,11.625,12.0,0.0,-3931,-571,0,0.25,12.1,0.0,0,0,0,0.125,12.1,0.0,0,0,0,0.125,12.15,0.0,0,0,0,0.125,12.15,0.0,4,0,0,0.0,12.200000000000001,0.0,0,0,0,0.125,12.25,0.0,0,0,0,kReverse,kOff,-87.18,2.11,2.63,0.08123779,-1.0713501,-0.06573486,34.85,0.0,13.0,-8.069931,11.782532,
530.045081,true,true,true,11.125,12.0,0.0,-4052,-583,0,0.25,12.1,0.0,0,0,0,0.125,12.1,0.0,0,0,0,0.125,12.15,0.0,0,0,0,0.125,12.15,0.0,4,0,0,0.0,12.200000000000001,0.0,0,0,0,0.125,12.25,0.0,0,0,0,kReverse,kOff,-87.2,2.12,2.63,-0.076049805,-1.0367432,-0.0087890625,34.85,0.0,-121.0,-8.07019,11.783768,
530.066106,true,true,true,11.125,12.0,0.0,-4175,-592,0,0.25,12.1,0.0,0,0,0,0.125,12.1,0.0,0,0,0,0.125,12.15,0.0,0,0,0,0.125,12.15,0.0,4,0,0,0.0,12.200000000000001,0.0,0,0,0,0.125,12.25,0.0,0,0,0,kReverse,kOff,-87.15,2.14,2.66,0.029907227,-0.96551514,0.038635254,34.85,0.0,-4.0,-8.070633,11.786591,
530.0923760000001,true,true,true,10.375,12.200000000000001,0.0,-4429,-605,0,0.25,12.25,0.0,0,0,0,0.125,12.25,0.0,0,0,0,0.125,12.3,0.0,0,0,0,0.125,12.25,0.0,4,0,0,0.0,12.200000000000001,0.0,0,0,0,0.125,12.25,0.0,0,0,0,kReverse,kOff,-87.18,2.11,2.63,0.04473877,-0.9533081,0.12591553,34.85,0.0,34.0,-8.070816,11.788116,
530.114833,true,true,true,9.875,12.200000000000001,0.0,-4547,-610,0,0.25,12.25,0.0,0,0,0,0.125,12.25,0.0,0,0,0,0.125,12.3,0.0,0,0,0,0.125,12.25,0.0,4,0,0,0.0,12.25,0.0,0,0,0,0.125,12.35,0.0,0,0,0,kReverse,kOff,-87.12,2.16,2.69,0.0065307617,-0.86242676,-0.04296875,34.85,0.0,-44.0,-8.070999,11.789658,
530.136029,true,true,true,9.5,12.200000000000001,0.0,-4673,-614,0,0.25,12.25,0.0,0,0,0,0.125,12.25,0.0,0,0,0,0.125,12.3,0.0,0,0,0,0.125,12.25,0.0,4,0,0,0.0,12.25,0.0,0,0,0,0.125,12.35,0.0,0,0,0,kReverse,kOff,-87.2,2.12,2.63,0.022155762,-0.9968872,0.037231445,34.85,0.0,-12.0,-8.071533,11.792618,
530.159048,true,true,true,9.375,12.200000000000001,0.0,-4798,-618,0,0.25,12.25,0.0,0,0,0,0.125,12.25,0.0,0,0,0,0.125,12.3,0.0,0,0,0,0.125,12.25,0.0,4,0,0,0.0,12.25,0.0,0,0,0,0.125,12.35,0.0,0,0,0,kReverse,kOff,-87.2,2.11,2.63,0.13757324,-0.8970337,0.13110352,34.84,0.0,127.0,-8.072052,11.795517,
530.180766,true,true,true,9.25,12.200000000000001,0.0,-4930,-621,0,0.25,12.25,0.0,0,0,0,0.125,12.25,0.0,0,0,0,0.125,12.3,0.0,0,0,0,0.125,12.25,0.0,4,0,0,0.0,12.25,0.0,0,0,0,0.125,12.35,0.0,0,0,0,kReverse,kOff,-87.16,2.14,2.65,-0.02520752,-1.0361938,-0.08911133,34.84,0.0,-94.0,-8.07225,11.796967,
530.202232,true,true,true,9.375,12.200000000000001,0.0,-5055,-623,0,0.25,12.25,0.0,0,0,0,0.125,12.25,0.0,0,0,0,0.125,12.3,0.0,0,0,0,0.125,12.25,0.0,4,0,0,0.0,12.25,0.0,0,0,0,0.125,12.35,0.0,0,0,0,kReverse,kOff,-87.19,2.1,2.62,0.036132812,-0.9194336,0.040649414,34.84,0.0,5.0,-8.072739,11.799637,
530.223978,true,true,true,9.125,12.200000000000001,0.0,-5181,-625,0,0.25,12.25,0.0,0,0,0,0.125,12.25,0.0,0,0,0,0.125,12.3,0.0,0,0,0,0.125,12.25,0.0,4,0,0,0.0,12.25,0.0,0,0,0,0.125,12.35,0.0,0,0,0,kReverse,kOff,-87.21,2.12,2.62,0.008605957,-1.1968384,0.14910889,34.84,0.0,-4.0,-8.072937,11.800919,
530.244889,true,true,true,8.875,12.200000000000001,0.0,-5301,-626,0,0.25,12.3,0.0,0,0,0,0.125,12.3,0.0,0,0,0,0.125,12.35,0.0,0,0,0,0.125,12.25,0.0,4,0,0,0.0,12.25,0.0,0,0,0,0.125,12.35,0.0,0,0,0,kReverse,kOff,-87.16,2.16,2.67,0.07507324,-0.92822266,0.020629883,34.84,0.0,35.0,-8.073105,11.803711,
530.2678440000001,true,true,true,8.75,12.25,0.0,-5434,-627,0,0.25,12.3,0.0,0,0,0,0.125,12.3,0.0,0,0,0,0.125,12.35,0.0,0,0,0,0.125,12.3,0.0,4,0,0,0.0,12.25,0.0,0,0,0,0.125,12.35,0.0,0,0,0,kReverse,kOff,-87.19,2.14,2.65,-0.031188965,-0.92407227,0.1531372,34.84,0.0,-30.0,-8.073135,11.805191,
530.3002929999999,true,true,true,7.625,12.25,0.0,-5678,-629,0,0.25,12.3,0.0,0,0,0,0.125,12.3,0.0,0,0,0,0.125,12.35,0.0,0,0,0,0.125,12.3,0.0,4,0,0,0.0,12.35,0.0,0,0,0,0.125,12.35,0.0,0,0,0,kReverse,kOff,-87.17,2.16,2.67,-0.06903076,-0.8934326,-0.062805176,34.84,0.0,-123.0,-8.073303,11.80957,
530.327585,true,true,true,5.5,12.25,0.0,-5800,-629,0,0.25,12.3,0.0,0,0,0,0.125,12.3,0.0,0,0,0,0.125,12.35,0.0,0,0,0,0.125,12.3,0.0,4,0,0,0.0,12.35,0.0,0,0,0,0.125,12.35,0.0,0,0,0,kReverse,kOff,-87.2,2.11,2.62,-0.018371582,-0.8522949,0.14990234,34.84,0.0,-15.0,-8.073471,11.81102,
530.3502339999999,true,true,true,0.75,12.25,0.0,-6018,-618,0,0.25,12.3,0.0,0,0,0,0.125,12.3,0.0,0,0,0,0.125,12.35,0.0,0,0,0,0.125,12.3,0.0,4,0,0,0.0,12.35,0.0,0,0,0,0.125,12.35,0.0,0,0,0,kReverse,kOff,-87.21,2.14,2.64,-0.14282227,-0.5187378,0.14770508,34.84,0.0,-120.0,-8.074219,11.813644,
530.374835,true,true,true,0.0,12.25,0.0,-6096,-599,0,0.125,12.3,0.0,0,0,0,0.125,12.3,0.0,0,0,0,0.125,12.35,0.0,0,0,0,0.125,12.3,0.0,4,0,0,0.0,12.35,0.0,0,0,0,0.125,12.35,0.0,0,0,0,kReverse,kOff,-87.21,2.14,2.64,-0.14282227,-0.5187378,0.14770508,34.84,0.0,-120.0,-8.074219,11.813644,
530.3977639999999,true,true,true,0.0,12.25,0.0,-6171,-565,0,0.125,12.55,0.0,0,0,0,0.125,12.3,0.0,0,0,0,0.125,12.35,0.0,0,0,0,0.125,12.3,0.0,4,0,0,0.0,12.35,0.0,0,0,0,0.125,12.35,0.0,0,0,0,kReverse,kOff,-87.19,2.07,2.6,0.1772461,-0.9526367,0.014953613,34.84,0.0,132.0,-8.07518,11.816681,
530.4205929999999,true,true,true,0.125,12.55,0.0,-6241,-520,0,0.125,12.55,0.0,0,0,0,0.125,12.55,0.0,0,0,0,0.125,12.6,0.0,0,0,0,0.125,12.55,0.0,4,0,0,0.0,12.35,0.0,0,0,0,0.125,12.6,0.0,0,0,0,kReverse,kOff,-87.18,2.13,2.64,0.020812988,-1.111023,-0.049865723,34.84,0.0,64.0,-8.075912,11.81955,
530.443531,true,true,true,0.125,12.55,0.0,-6307,-470,0,0.125,12.55,0.0,0,0,0,0.125,12.55,0.0,0,0,0,0.125,12.6,0.0,0,0,0,0.125,12.55,0.0,4,0,0,0.0,12.55,0.0,0,0,0,0.125,12.6,0.0,0,0,0,kReverse,kOff,-87.18,2.1,2.62,0.0036621094,-0.95214844,-0.023742676,34.84,0.0,-44.0,-8.076263,11.820938,
530.4640350000001,true,true,true,0.125,12.55,0.0,-6370,-420,0,0.125,12.55,0.0,0,0,0,0.125,12.55,0.0,0,0,0,0.125,12.6,0.0,0,0,0,0.125,12.55,0.0,4,0,0,0.0,12.55,0.0,0,0,0,0.125,12.6,0.0,0,0,0,kReverse,kOff,-87.19,2.07,2.6,0.0056152344,-0.9110718,-0.12243652,34.84,0.0,-67.0,-8.076675,11.822205,
530.485331,true,true,true,0.125,12.55,0.0,-6429,-378,0,0.125,12.55,0.0,0,0,0,0.125,12.55,0.0,0,0,0,0.125,12.6,0.0,0,0,0,0.0,12.55,0.0,4,0,0,0.0,12.55,0.0,0,0,0,0.125,12.6,0.0,0,0,0,kReverse,kOff,-87.2,2.08,2.6,-0.015563965,-0.91522217,0.01763916,34.84,0.0,-50.0,-8.077545,11.8246,
530.508429,true,true,true,0.125,12.55,0.0,-6486,-347,0,0.125,12.55,0.0,0,0,0,0.125,12.55,0.0,0,0,0,0.125,12.6,0.0,0,0,0,0.125,12.55,0.0,4,0,0,0.0,12.55,0.0,0,0,0,0.125,12.6,0.0,0,0,0,kReverse,kOff,-87.2,2.07,2.59,0.027954102,-0.97576904,0.055908203,34.84,0.0,0.0,-8.078003,11.825836,
530.530713,true,true,true,0.125,12.55,0.0,-6588,-308,0,0.125,12.55,0.0,0,0,0,0.125,12.55,0.0,0,0,0,0.125,12.6,0.0,0,0,0,0.0,12.55,0.0,4,0,0,0.0,12.55,0.0,0,0,0,0.125,12.6,0.0,0,0,0,kReverse,kOff,-87.19,2.09,2.61,0.0073242188,-0.97473145,0.0703125,34.84,0.0,-16.0,-8.078888,11.828369,
530.552898,true,true,true,0.125,12.55,0.0,-6634,-290,0,0.125,12.55,0.0,0,0,0,0.125,12.55,0.0,0,0,0,0.125,12.6,0.0,0,0,0,0.0,12.55,0.0,4,0,0,0.0,12.55,0.0,0,0,0,0.125,12.6,0.0,0,0,0,kReverse,kOff,-87.21,2.08,2.59,0.047729492,-1.0518799,0.10949707,34.84,0.0,29.0,-8.079315,11.829727,
530.577689,true,true,true,0.125,12.55,0.0,-6678,-274,0,0.125,12.55,0.0,0,0,0,0.125,12.55,0.0,0,0,0,0.125,12.6,0.0,0,0,0,0.125,12.6,0.0,4,0,0,0.0,12.55,0.0,0,0,0,0.125,12.6,0.0,0,0,0,kReverse,kOff,-87.2,2.09,2.6,0.043151855,-1.0351562,0.033996582,34.84,0.0,5.0,-8.080048,11.832611,
530.595563,true,true,true,0.125,12.55,0.0,-6718,-257,0,0.125,12.55,0.0,0,0,0,0.125,12.55,0.0,0,0,0,0.125,12.6,0.0,0,0,0,0.125,12.6,0.0,4,0,0,0.0,12.55,0.0,0,0,0,0.125,12.6,0.0,0,0,0,kReverse,kOff,-87.2,2.08,2.6,0.022399902,-0.82702637,0.08416748,34.84,0.0,7.0,-8.080048,11.834106,
530.618152,true,true,true,0.125,12.55,0.0,-6755,-241,0,0.125,12.55,0.0,0,0,0,0.125,12.55,0.0,0,0,0,0.125,12.6,0.0,0,0,0,0.125,12.6,0.0,4,0,0,0.0,12.55,0.0,0,0,0,0.125,12.6,0.0,0,0,0,kReverse,kOff,-87.17,2.09,2.62,0.062805176,-0.86816406,0.091796875,34.84,0.0,46.0,-8.080017,11.835663,
530.639302,true,true,true,0.125,12.55,0.0,-6790,-225,0,0.125,12.55,0.0,0,0,0,0.125,12.55,0.0,0,0,0,0.125,12.6,0.0,0,0,0,0.125,12.6,0.0,4,0,0,0.0,12.55,0.0,0,0,0,0.125,12.6,0.0,0,0,0,kReverse,kOff,-87.2,2.06,2.58,0.032043457,-1.0393677,-0.03930664,34.84,0.0,-24.0,-8.080093,11.838715,
530.663787,true,true,true,0.125,12.55,0.0,-6822,-210,0,0.125,12.55,0.0,0,0,0,0.125,12.55,0.0,0,0,0,0.125,12.6,0.0,0,0,0,0.125,12.6,0.0,4,0,0,0.0,12.55,0.0,0,0,0,0.125,12.6,0.0,0,0,0,kReverse,kOff,-87.19,2.06,2.59,0.053344727,-0.960083,0.15197754,34.84,0.0,50.0,-8.080261,11.841583,
530.684769,true,true,true,0.125,12.55,0.0,-6852,-195,0,0.125,12.55,0.0,0,0,0,0.125,12.55,0.0,0,0,0,0.125,12.6,0.0,0,0,0,0.125,12.6,0.0,4,0,0,0.0,12.55,0.0,0,0,0,0.125,12.6,0.0,0,0,0,kReverse,kOff,-87.19,2.06,2.59,-0.0041503906,-0.9378662,-0.011352539,34.83,0.0,-47.0,-8.080338,11.843094,
530.707351,true,true,true,0.125,12.55,0.0,-6879,-182,0,0.125,12.55,0.0,0,0,0,0.125,12.55,0.0,0,0,0,0.125,12.6,0.0,0,0,0,0.125,12.6,0.0,4,0,0,0.0,12.55,0.0,0,0,0,0.125,12.6,0.0,0,0,0,kReverse,kOff,-87.17,2.06,2.6,0.019958496,-0.95947266,0.0053100586,34.83,0.0,-21.0,-8.08049,11.8461,
530.7331330000001,true,true,true,2.5,12.450000000000001,0.0,-6906,-150,0,0.125,12.55,0.0,0,0,0,0.125,12.450000000000001,0.0,0,0,0,0.125,12.5,0.0,0,0,0,0.125,12.450000000000001,0.0,4,0,0,0.0,12.55,0.0,0,0,0,0.125,12.6,0.0,0,0,0,kReverse,kOff,-87.18,2.05,2.58,0.033813477,-1.029541,-9.765625E-4,34.83,0.0,-12.0,-8.080597,11.847549,
530.755442,true,true,true,7.625,12.450000000000001,0.0,-6898,-127,0,0.125,12.55,0.0,0,0,0,0.125,12.450000000000001,0.0,0,0,0,0.125,12.5,0.0,0,0,0,0.125,12.450000000000001,0.0,4,0,0,0.0,12.0,0.0,0,0,0,0.125,12.4,0.0,0,0,0,kReverse,kOff,-87.17,2.06,2.6,0.0423584,-0.8512573,0.27435303,34.83,0.0,77.0,-8.080551,11.850571,
530.773753,true,true,true,18.5,12.450000000000001,0.0,-6871,-94,0,0.125,12.55,0.0,0,0,0,0.125,12.450000000000001,0.0,0,0,0,0.125,12.5,0.0,0,0,0,0.125,12.450000000000001,0.0,4,0,0,0.0,12.0,0.0,0,0,0,0.125,12.4,0.0,0,0,0,kReverse,kOff,-87.17,2.06,2.59,0.094177246,-1.0773926,-0.024597168,34.83,0.0,36.0,-8.080414,11.852264,
530.7947979999999,true,true,true,33.0,12.450000000000001,0.0,-6819,-45,0,0.125,12.55,0.0,0,0,0,0.125,12.450000000000001,0.0,0,0,0,0.125,12.5,0.0,0,0,0,0.125,12.450000000000001,0.0,4,0,0,0.0,12.0,0.0,0,0,0,0.125,12.4,0.0,0,0,0,kReverse,kOff,-87.18,2.09,2.61,-0.03302002,-1.006958,-0.04345703,34.83,0.0,-87.0,-8.080322,11.853867,
530.8093240000001,true,true,true,33.0,12.450000000000001,0.0,-6742,23,0,0.125,12.55,0.0,0,0,0,0.125,12.450000000000001,0.0,0,0,0,0.125,12.5,0.0,0,0,0,0.125,12.450000000000001,0.0,4,0,0,0.0,12.0,0.0,0,0,0,0.125,12.4,0.0,0,0,0,kReverse,kOff,-87.17,2.07,2.6,0.01776123,-0.88275146,-0.018920898,34.83,0.0,-26.0,-8.0802765,11.857086,
530.831716,true,true,true,43.0,12.450000000000001,0.0,-6659,102,0,0.125,12.55,0.0,0,0,0,0.125,12.450000000000001,0.0,0,0,0,0.125,12.5,0.0,0,0,0,0.125,12.450000000000001,0.0,4,0,0,0.0,12.0,0.0,0,0,0,0.125,12.4,0.0,0,0,0,kReverse,kOff,-87.19,2.07,2.6,0.061645508,-0.9918823,0.1486206,34.83,0.0,55.0,-8.080246,11.858749,
530.850739,true,true,true,33.0,12.450000000000001,0.0,-6555,197,0,0.125,12.55,0.0,0,0,0,0.125,12.450000000000001,0.0,0,0,0,0.125,12.5,0.0,0,0,0,0.125,12.450000000000001,0.0,4,0,0,0.0,12.0,0.0,0,0,0,0.125,12.4,0.0,0,0,0,kReverse,kOff,-87.16,2.07,2.61,0.022460938,-0.8753052,0.04736328,34.83,0.0,-4.0,-8.08017,11.860489,
530.873032,true,true,true,25.5,12.450000000000001,0.0,-6455,283,0,0.125,12.55,0.0,0,0,0,0.125,12.450000000000001,0.0,0,0,0,0.125,12.5,0.0,0,0,0,0.125,12.450000000000001,0.0,4,0,0,0.0,12.0,0.0,0,0,0,0.125,12.4,0.0,0,0,0,kReverse,kOff,-87.23,2.04,2.56,0.0848999,-1.0335693,0.014831543,34.83,0.0,41.0,-8.080139,11.863907,
530.895123,true,true,true,20.25,11.850000000000001,0.0,-6339,370,0,0.125,11.95,0.0,0,0,0,0.125,12.0,0.0,0,0,0,0.125,12.0,0.0,0,0,0,0.125,12.05,0.0,4,0,0,0.0,12.0,0.0,0,0,0,0.125,12.4,0.0,0,0,0,kReverse,kOff,-87.2,2.07,2.59,0.072631836,-1.0385132,-0.040527344,34.83,0.0,13.0,-8.080078,11.865524,
530.9174320000001,true,true,true,17.25,11.850000000000001,0.0,-6225,438,0,0.125,11.95,0.0,0,0,0,0.125,12.0,0.0,0,0,0,0.125,12.0,0.0,0,0,0,0.125,12.05,0.0,4,0,0,0.0,12.1,0.0,0,0,0,0.125,12.1,0.0,0,0,0,kReverse,kOff,-87.15,2.08,2.62,0.055358887,-1.0175781,0.08331299,34.83,0.0,30.0,-8.079803,11.86853,
530.943365,true,true,true,15.0,11.850000000000001,0.0,-6112,487,0,0.125,11.95,0.0,0,0,0,0.125,12.0,0.0,0,0,0,0.125,12.0,0.0,0,0,0,0.125,12.05,0.0,4,0,0,0.0,12.1,0.0,0,0,0,0.125,12.1,0.0,0,0,0,kReverse,kOff,-87.16,2.06,2.61,-0.042175293,-0.95043945,-0.008117676,34.83,0.0,-84.0,-8.079681,11.870026,
530.962096,true,true,true,13.0,11.850000000000001,0.0,-5987,526,0,0.125,11.95,0.0,0,0,0,0.125,12.0,0.0,0,0,0,0.125,12.0,0.0,0,0,0,0.125,12.05,0.0,4,0,0,0.0,12.1,0.0,0,0,0,0.125,12.1,0.0,0,0,0,kReverse,kOff,-87.21,2.03,2.56,0.06048584,-0.99072266,-0.09240723,34.83,0.0,-9.0,-8.079834,11.872528,
530.98303,true,true,true,11.625,11.850000000000001,0.0,-5866,553,0,0.125,11.95,0.0,0,0,0,0.125,12.0,0.0,0,0,0,0.125,12.0,0.0,0,0,0,0.125,12.05,0.0,4,0,0,0.0,12.1,0.0,0,0,0,0.125,12.1,0.0,0,0,0,kReverse,kOff,-87.21,2.05,2.58,-0.045898438,-0.91174316,0.056884766,34.83,0.0,-68.0,-8.080017,11.873596,
531.003778,true,true,true,10.625,11.850000000000001,0.0,-5749,572,0,0.125,11.95,0.0,0,0,0,0.125,12.0,0.0,0,0,0,0.125,12.0,0.0,0,0,0,0.125,12.05,0.0,4,0,0,0.0,12.1,0.0,0,0,0,0.125,12.1,0.0,0,0,0,kReverse,kOff,-87.21,2.05,2.57,0.041259766,-1.0219727,-2.4414062E-4,34.83,0.0,-4.0,-8.080307,11.875992,
531.024572,true,true,true,10.0,11.850000000000001,0.0,-5625,587,0,0.125,11.95,0.0,0,0,0,0.125,12.0,0.0,0,0,0,0.125,12.0,0.0,0,0,0,0.125,12.05,0.0,4,0,0,0.0,12.1,0.0,0,0,0,0.125,12.1,0.0,0,0,0,kReverse,kOff,-87.22,2.03,2.56,0.059631348,-1.1438599,0.033081055,34.83,0.0,16.0,-8.080307,11.877182,
531.046217,true,true,true,9.75,11.850000000000001,0.0,-5495,599,0,0.125,12.25,0.0,0,0,0,0.125,12.25,0.0,0,0,0,0.125,12.25,0.0,0,0,0,0.125,12.05,0.0,4,0,0,0.0,12.1,0.0,0,0,0,0.125,12.1,0.0,0,0,0,kReverse,kOff,-87.2,2.07,2.59,0.023254395,-1.02771,0.05718994,34.83,0.0,-7.0,-8.080338,11.879227,
531.065324,true,true,true,9.125,12.15,0.0,-5369,608,0,0.125,12.25,0.0,0,0,0,0.125,12.25,0.0,0,0,0,0.125,12.25,0.0,0,0,0,0.125,12.25,0.0,4,0,0,0.0,12.1,0.0,0,0,0,0.125,12.3,0.0,0,0,0,kReverse,kOff,-87.2,2.06,2.59,0.0033569336,-0.7852783,0.10864258,34.83,0.0,-1.0,-8.080368,11.880264,
531.08825,true,true,true,9.0,12.15,0.0,-5244,614,0,0.125,12.25,0.0,0,0,0,0.125,12.25,0.0,0,0,0,0.125,12.25,0.0,0,0,0,0.125,12.25,0.0,4,0,0,0.0,12.25,0.0,0,0,0,0.125,12.3,0.0,0,0,0,kReverse,kOff,-87.25,2.0,2.53,0.022094727,-0.88275146,-0.006713867,34.83,0.0,-18.0,-8.080368,11.881348,
531.108079,true,true,true,8.75,12.15,0.0,-5118,619,0,0.125,12.25,0.0,0,0,0,0.125,12.25,0.0,0,0,0,0.125,12.25,0.0,0,0,0,0.125,12.25,0.0,4,0,0,0.0,12.25,0.0,0,0,0,0.125,12.3,0.0,0,0,0,kReverse,kOff,-87.21,2.07,2.59,0.056274414,-1.0775757,0.06335449,34.83,0.0,24.0,-8.0802,11.883438,
531.13362,true,true,true,8.25,12.15,0.0,-4870,626,0,0.125,12.25,0.0,0,0,0,0.125,12.25,0.0,0,0,0,0.125,12.25,0.0,0,0,0,0.125,12.25,0.0,4,0,0,0.0,12.25,0.0,0,0,0,0.125,12.3,0.0,0,0,0,kReverse,kOff,-87.23,2.05,2.57,0.01373291,-0.96398926,-0.14196777,34.83,0.0,-66.0,-8.080109,11.884384,
531.153729,true,true,true,8.0,12.15,0.0,-4744,628,0,0.125,12.25,0.0,0,0,0,0.125,12.25,0.0,0,0,0,0.125,12.25,0.0,0,0,0,0.125,12.25,0.0,4,0,0,0.0,12.25,0.0,0,0,0,0.125,12.3,0.0,0,0,0,kReverse,kOff,-87.23,2.04,2.56,0.049865723,-1.000061,-0.022766113,34.83,0.0,-1.0,-8.080124,11.885956,
531.176672,true,true,true,8.125,12.15,0.0,-4618,630,0,0.125,12.25,0.0,0,0,0,0.125,12.25,0.0,0,0,0,0.125,12.25,0.0,0,0,0,0.125,12.25,0.0,4,0,0,0.0,12.25,0.0,0,0,0,0.125,12.3,0.0,0,0,0,kReverse,kOff,-87.21,2.07,2.59,0.030212402,-0.96899414,-0.038879395,34.83,0.0,-23.0,-8.08017,11.887299,
531.20169,true,true,true,8.125,12.15,0.0,-4490,632,0,0.125,12.25,0.0,0,0,0,0.125,12.25,0.0,0,0,0,0.125,12.25,0.0,0,0,0,0.125,12.25,0.0,4,0,0,0.0,12.25,0.0,0,0,0,0.125,12.3,0.0,0,0,0,kReverse,kOff,-87.2,2.05,2.58,0.0078125,-1.0062866,0.017028809,34.82,0.0,-31.0,-8.080154,11.88797,
531.223378,true,true,true,8.25,12.200000000000001,0.0,-4357,633,0,0.125,12.25,0.0,0,0,0,0.125,12.25,0.0,0,0,0,0.125,12.3,0.0,0,0,0,0.125,12.25,0.0,4,0,0,0.0,12.25,0.0,0,0,0,0.125,12.35,0.0,0,0,0,kReverse,kOff,-87.25,2.02,2.54,0.09008789,-0.96362305,-0.0032958984,34.82,0.0,44.0,-8.080353,11.889175,
531.243189,true,true,true,8.125,12.200000000000001,0.0,-4236,633,0,0.125,12.25,0.0,0,0,0,0.125,12.25,0.0,0,0,0,0.125,12.3,0.0,0,0,0,0.125,12.25,0.0,4,0,0,0.0,12.25,0.0,0,0,0,0.125,12.35,0.0,0,0,0,kReverse,kOff,-87.23,2.06,2.57,0.14508057,-1.0473633,0.17443848,34.82,0.0,140.0,-8.080368,11.8897705,
531.2636409999999,true,true,true,8.125,12.200000000000001,0.0,-4108,634,0,0.125,12.25,0.0,0,0,0,0.125,12.25,0.0,0,0,0,0.125,12.3,0.0,0,0,0,0.125,12.25,0.0,4,0,0,0.0,12.25,0.0,0,0,0,0.125,12.35,0.0,0,0,0,kReverse,kOff,-87.22,2.07,2.59,0.009033203,-0.9610596,0.0048217773,34.82,0.0,-31.0,-8.080292,11.890427,
531.290901,true,true,true,7.75,12.200000000000001,0.0,-3853,636,0,0.125,12.25,0.0,0,0,0,0.125,12.25,0.0,0,0,0,0.125,12.3,0.0,0,0,0,0.125,12.25,0.0,4,0,0,0.0,12.25,0.0,0,0,0,0.125,12.35,0.0,0,0,0,kReverse,kOff,-87.19,2.05,2.58,0.039245605,-1.0384521,-0.17260742,34.82,0.0,-53.0,-8.080429,11.891464,
531.3146770000001,true,true,true,7.75,12.200000000000001,0.0,-3719,637,0,0.125,12.25,0.0,0,0,0,0.125,12.25,0.0,0,0,0,0.125,12.3,0.0,0,0,0,0.125,12.25,0.0,4,0,0,0.0,12.25,0.0,0,0,0,0.125,12.35,0.0,0,0,0,kReverse,kOff,-87.2,2.09,2.61,0.011047363,-0.9345703,0.19836426,34.82,0.0,22.0,-8.080917,11.891983,
531.345015,true,true,true,7.625,12.200000000000001,0.0,-3598,637,0,0.125,12.25,0.0,0,0,0,0.125,12.25,0.0,0,0,0,0.125,12.3,0.0,0,0,0,0.125,12.25,0.0,4,0,0,0.0,12.25,0.0,0,0,0,0.125,12.35,0.0,0,0,0,kReverse,kOff,-87.2,2.07,2.59,0.041015625,-1.0569458,-0.19586182,34.82,0.0,-59.0,-8.081345,11.892685,
531.366583,true,true,true,7.875,12.200000000000001,0.0,-3471,637,0,0.125,12.25,0.0,0,0,0,0.125,12.25,0.0,0,0,0,0.125,12.3,0.0,0,0,0,0.125,12.25,0.0,4,0,0,0.0,12.25,0.0,0,0,0,0.125,12.35,0.0,0,0,0,kReverse,kOff,-87.22,2.09,2.6,0.02746582,-0.9935913,-0.10900879,34.82,0.0,-46.0,-8.0816345,11.892715,
531.3907800000001,true,true,true,7.875,12.200000000000001,0.0,-3214,638,0,0.125,12.25,0.0,0,0,0,0.125,12.25,0.0,0,0,0,0.125,12.3,0.0,0,0,0,0.0,12.25,0.0,4,0,0,0.0,12.25,0.0,0,0,0,0.125,12.35,0.0,0,0,0,kReverse,kOff,-87.2,2.13,2.64,0.09515381,-1.0048218,0.14172363,34.82,0.0,84.0,-8.082108,11.892868,
531.410929,true,true,true,7.625,12.200000000000001,0.0,-3086,638,0,0.125,12.25,0.0,0,0,0,0.125,12.25,0.0,0,0,0,0.125,12.3,0.0,0,0,0,0.0,12.25,0.0,4,0,0,0.0,12.25,0.0,0,0,0,0.125,12.35,0.0,0,0,0,kReverse,kOff,-87.14,2.14,2.66,-0.05706787,-0.9451904,-0.0138549805,34.82,0.0,-101.0,-8.082306,11.893051,
531.434659,true,true,true,7.75,12.200000000000001,0.0,-2959,639,0,0.125,12.25,0.0,0,0,0,0.125,12.25,0.0,0,0,0,0.125,12.3,0.0,0,0,0,0.0,12.25,0.0,4,0,0,0.0,12.25,0.0,0,0,0,0.125,12.35,0.0,0,0,0,kReverse,kOff,-87.16,2.16,2.67,0.01928711,-0.9735718,-0.054382324,34.82,0.0,-39.0,-8.08284,11.89299,
531.457532,true,true,true,7.625,12.200000000000001,0.0,-2831,639,0,0.125,12.25,0.0,0,0,0,0.125,12.25,0.0,0,0,0,0.125,12.3,0.0,0,0,0,0.125,12.25,0.0,4,0,0,0.0,12.25,0.0,0,0,0,0.125,12.35,0.0,0,0,0,kReverse,kOff,-87.15,2.15,2.67,-0.09387207,-0.8955078,0.022399902,34.82,0.0,-124.0,-8.083221,11.892853,
531.481675,true,true,true,7.875,12.200000000000001,0.0,-2703,639,0,0.125,12.25,0.0,0,0,0,0.125,12.25,0.0,0,0,0,0.125,12.3,0.0,0,0,0,0.125,12.25,0.0,4,0,0,0.0,12.25,0.0,0,0,0,0.125,12.35,0.0,0,0,0,kReverse,kOff,-87.22,2.07,2.59,0.04046631,-0.8580322,0.027282715,34.82,0.0,8.0,-8.08403,11.892624,
531.50215,true,true,true,7.875,12.200000000000001,0.0,-2575,639,0,0.125,12.25,0.0,0,0,0,0.125,12.25,0.0,0,0,0,0.125,12.3,0.0,0,0,0,0.125,12.25,0.0,4,0,0,0.0,12.25,0.0,0,0,0,0.125,12.35,0.0,0,0,0,kReverse,kOff,-87.22,2.07,2.59,0.084472656,-0.9795532,-0.07550049,34.82,0.0,18.0,-8.084381,11.892426,
531.523691,true,true,true,7.875,12.200000000000001,0.0,-2441,638,0,0.125,12.25,0.0,0,0,0,0.125,12.25,0.0,0,0,0,0.125,12.3,0.0,0,0,0,0.125,12.25,0.0,4,0,0,0.0,12.25,0.0,0,0,0,0.125,12.35,0.0,0,0,0,kReverse,kOff,-87.21,2.08,2.59,-3.0517578E-4,-1.034668,0.045288086,34.82,0.0,-33.0,-8.085266,11.891785,
531.5454349999999,true,true,true,7.75,12.200000000000001,0.0,-2313,638,0,0.125,12.25,0.0,0,0,0,0.125,12.25,0.0,0,0,0,0.125,12.3,0.0,0,0,0,0.125,12.3,0.0,4,0,0,0.0,12.25,0.0,0,0,0,0.125,12.35,0.0,0,0,0,kReverse,kOff,-87.18,2.1,2.62,0.01763916,-1.0339966,0.10882568,34.82,0.0,0.0,-8.08577,11.891525,
531.567287,true,true,true,7.5,12.200000000000001,0.0,-2192,638,0,0.125,12.25,0.0,0,0,0,0.125,12.25,0.0,0,0,0,0.125,12.3,0.0,0,0,0,0.125,12.3,0.0,4,0,0,0.0,12.25,0.0,0,0,0,0.125,12.35,0.0,0,0,0,kReverse,kOff,-87.17,2.11,2.63,0.07116699,-0.98065186,0.047729492,34.82,0.0,37.0,-8.085739,11.891327,
531.590654,true,true,true,7.75,12.200000000000001,0.0,-1937,639,0,0.125,12.25,0.0,0,0,0,0.125,12.25,0.0,0,0,0,0.125,12.3,0.0,0,0,0,0.125,12.3,0.0,4,0,0,0.0,12.25,0.0,0,0,0,0.125,12.35,0.0,0,0,0,kReverse,kOff,-87.15,2.1,2.63,0.020751953,-1.0007324,0.097717285,34.82,0.0,1.0,-8.085678,11.891373,
531.607569,true,true,true,7.75,12.200000000000001,0.0,-1802,638,0,0.125,12.25,0.0,0,0,0,0.125,12.25,0.0,0,0,0,0.125,12.3,0.0,0,0,0,0.125,12.3,0.0,4,0,0,0.0,12.25,0.0,0,0,0,0.125,12.35,0.0,0,0,0,kReverse,kOff,-87.15,2.1,2.63,0.020751953,-1.0007324,0.097717285,34.82,0.0,1.0,-8.085678,11.891373,
531.6303419999999,true,true,true,7.75,12.200000000000001,0.0,-1680,638,0,0.125,12.25,0.0,0,0,0,0.125,12.25,0.0,0,0,0,0.125,12.3,0.0,0,0,0,0.125,12.3,0.0,4,0,0,0.0,12.25,0.0,0,0,0,0.125,12.35,0.0,0,0,0,kReverse,kOff,-87.19,2.04,2.58,-0.0029907227,-1.0006104,0.0993042,34.82,0.0,-19.0,-8.085678,11.891632,
531.646977,true,true,true,7.75,12.200000000000001,0.0,-1680,638,0,0.125,12.25,0.0,0,0,0,0.125,12.25,0.0,0,0,0,0.125,12.3,0.0,0,0,0,0.125,12.3,0.0,4,0,0,0.0,12.25,0.0,0,0,0,0.125,12.35,0.0,0,0,0,kReverse,kOff,-87.19,2.05,2.58,0.16156006,-0.9244385,-0.014038086,34.82,0.0,111.0,-8.085632,11.891785,
531.670178,true,true,true,7.625,12.200000000000001,0.0,-1418,639,0,0.125,12.25,0.0,0,0,0,0.125,12.25,0.0,0,0,0,0.125,12.3,0.0,0,0,0,0.125,12.3,0.0,4,0,0,0.0,12.25,0.0,0,0,0,0.125,12.35,0.0,0,0,0,kReverse,kOff,-87.16,2.08,2.61,-0.024536133,-1.0076904,-0.046020508,34.82,0.0,-80.0,-8.08551,11.891876,
531.6904079999999,true,true,true,7.625,12.200000000000001,0.0,-1289,639,0,0.125,12.25,0.0,0,0,0,0.125,12.25,0.0,0,0,0,0.125,12.3,0.0,0,0,0,0.125,12.3,0.0,4,0,0,0.0,12.25,0.0,0,0,0,0.125,12.35,0.0,0,0,0,kReverse,kOff,-87.16,2.08,2.61,-0.13372803,-0.87945557,-0.060058594,34.82,0.0,-183.0,-8.085678,11.891815,
531.715263,true,true,true,7.875,12.200000000000001,0.0,-1163,639,0,0.125,12.25,0.0,0,0,0,0.125,12.25,0.0,0,0,0,0.125,12.3,0.0,0,0,0,0.125,12.3,0.0,4,0,0,0.0,12.25,0.0,0,0,0,0.125,12.35,0.0,0,0,0,kReverse,kOff,-87.21,2.04,2.56,0.109191895,-1.012146,0.11541748,34.81,0.0,31.0,-8.085999,11.8919525,
531.736105,true,true,true,7.875,12.200000000000001,0.0,-1042,639,0,0.125,12.25,0.0,0,0,0,0.125,12.25,0.0,0,0,0,0.125,12.3,0.0,0,0,0,0.125,12.3,0.0,4,0,0,0.0,12.25,0.0,0,0,0,0.125,12.35,0.0,0,0,0,kReverse,kOff,-87.16,2.08,2.61,-0.011352539,-1.0067139,0.08081055,34.81,0.0,-33.0,-8.086105,11.892197,
531.755549,true,true,true,8.0,12.200000000000001,0.0,-915,638,0,0.125,12.25,0.0,0,0,0,0.125,12.25,0.0,0,0,0,0.125,12.3,0.0,0,0,0,0.125,12.3,0.0,4,0,0,0.0,12.25,0.0,0,0,0,0.125,12.35,0.0,0,0,0,kReverse,kOff,-87.19,2.04,2.58,-0.023071289,-1.1226196,-0.14038086,34.81,0.0,-108.0,-8.086319,11.8923645,
531.778517,true,true,true,7.875,12.200000000000001,0.0,-787,637,0,0.125,12.25,0.0,0,0,0,0.125,12.25,0.0,0,0,0,0.125,12.3,0.0,0,0,0,0.125,12.3,0.0,4,0,0,0.0,12.25,0.0,0,0,0,0.125,12.35,0.0,0,0,0,kReverse,kOff,-87.2,2.04,2.57,-0.10534668,-0.9434204,0.04058838,34.81,0.0,-131.0,-8.086685,11.892456,
531.7948859999999,true,true,true,7.625,12.200000000000001,0.0,-659,637,0,0.125,12.25,0.0,0,0,0,0.125,12.25,0.0,0,0,0,0.125,12.3,0.0,0,0,0,0.125,12.3,0.0,4,0,0,0.0,12.25,0.0,0,0,0,0.125,12.35,0.0,0,0,0,kReverse,kOff,-87.16,2.07,2.61,0.025939941,-0.8955078,0.06878662,34.81,0.0,4.0,-8.087128,11.893143,
531.8228220000001,true,true,true,7.5,12.200000000000001,0.0,-525,637,0,0.125,12.25,0.0,0,0,0,0.125,12.25,0.0,0,0,0,0.125,12.3,0.0,0,0,0,0.125,12.3,0.0,4,0,0,0.0,12.25,0.0,0,0,0,0.125,12.35,0.0,0,0,0,kReverse,kOff,-87.14,2.08,2.63,-0.10235596,-1.0419312,-0.059936523,34.81,0.0,-160.0,-8.087402,11.893845,
531.8444479999999,true,true,true,7.75,12.200000000000001,0.0,-405,637,0,0.125,12.25,0.0,0,0,0,0.125,12.25,0.0,0,0,0,0.125,12.3,0.0,0,0,0,0.125,12.3,0.0,4,0,0,0.0,12.25,0.0,0,0,0,0.125,12.35,0.0,0,0,0,kReverse,kOff,-87.17,2.06,2.59,0.02319336,-1.0045776,-0.003540039,34.81,0.0,-22.0,-8.0877075,11.894104,
531.86672,true,true,true,7.875,12.200000000000001,0.0,-270,638,0,0.125,12.25,0.0,0,0,0,0.125,12.25,0.0,0,0,0,0.125,12.3,0.0,0,0,0,0.125,12.25,0.0,4,0,0,0.0,12.25,0.0,0,0,0,0.125,12.35,0.0,0,0,0,kReverse,kOff,-87.17,2.07,2.61,0.07672119,-1.0169067,0.16967773,34.81,0.0,74.0,-8.088074,11.894897,
531.888959,true,true,true,7.875,12.200000000000001,0.0,-142,638,0,0.125,12.25,0.0,0,0,0,0.125,12.25,0.0,0,0,0,0.125,12.3,0.0,0,0,0,0.125,12.25,0.0,4,0,0,0.0,12.4,0.0,0,0,0,0.125,12.35,0.0,0,0,0,kReverse,kOff,-87.14,2.08,2.62,0.0014648438,-1.1619263,-0.11920166,34.81,0.0,-81.0,-8.088196,11.8953705,
531.9132099999999,true,true,true,3.125,12.200000000000001,0.0,67,629,0,0.125,12.25,0.0,0,0,0,0.125,12.25,0.0,0,0,0,0.125,12.3,0.0,0,0,0,0.125,12.25,0.0,4,0,0,0.0,12.4,0.0,0,0,0,0.125,12.35,0.0,0,0,0,kReverse,kOff,-87.21,2.04,2.57,0.16320801,-0.80908203,0.45483398,34.81,0.0,243.0,-8.08876,11.896225,
531.9395159999999,true,true,true,0.625,12.200000000000001,0.0,153,610,0,0.125,12.25,0.0,0,0,0,0.125,12.25,0.0,0,0,0,0.125,12.3,0.0,0,0,0,0.125,12.25,0.0,4,0,0,0.0,12.4,0.0,0,0,0,0.125,12.35,0.0,0,0,0,kReverse,kOff,-87.15,2.09,2.62,0.15283203,-0.82318115,0.105407715,34.81,0.0,138.0,-8.08876,11.897049,
531.957887,true,true,true,0.0,12.200000000000001,0.0,231,577,0,0.125,12.25,0.0,0,0,0,0.125,12.25,0.0,0,0,0,0.125,12.3,0.0,0,0,0,0.125,12.25,0.0,4,0,0,0.0,12.4,0.0,0,0,0,0.125,12.35,0.0,0,0,0,kReverse,kOff,-87.13,2.08,2.63,-0.0017700195,-0.8965454,0.0993042,34.81,0.0,-14.0,-8.089035,11.898804,
531.9795409999999,true,true,true,0.0,12.200000000000001,0.0,308,534,0,0.125,12.25,0.0,0,0,0,0.125,12.25,0.0,0,0,0,0.125,12.3,0.0,0,0,0,0.125,12.25,0.0,4,0,0,0.0,12.4,0.0,0,0,0,0.125,12.35,0.0,0,0,0,kReverse,kOff,-87.12,2.1,2.65,0.107299805,-0.9795532,0.09350586,34.81,0.0,84.0,-8.089203,11.89978,
531.998157,true,true,true,0.125,12.200000000000001,0.0,379,486,0,0.125,12.55,0.0,0,0,0,0.125,12.25,0.0,0,0,0,0.125,12.3,0.0,0,0,0,0.125,12.25,0.0,4,0,0,0.0,12.4,0.0,0,0,0,0.125,12.35,0.0,0,0,0,kReverse,kOff,-87.16,2.1,2.63,-0.057434082,-0.95251465,0.12359619,34.81,0.0,-64.0,-8.089371,11.900864,
532.015164,true,true,true,0.125,12.55,0.0,446,440,0,0.125,12.55,0.0,0,0,0,0.125,12.55,0.0,0,0,0,0.125,12.55,0.0,0,0,0,0.125,12.55,0.0,4,0,0,0.0,12.4,0.0,0,0,0,0.125,12.35,0.0,0,0,0,kReverse,kOff,-87.13,2.09,2.64,0.03643799,-0.9523926,-0.0368042,34.81,0.0,-17.0,-8.089615,11.903152,
532.036422,true,true,true,0.125,12.55,0.0,509,401,0,0.125,12.55,0.0,0,0,0,0.125,12.55,0.0,0,0,0,0.125,12.55,0.0,0,0,0,0.125,12.55,0.0,4,0,0,0.0,12.55,0.0,0,0,0,0.125,12.6,0.0,0,0,0,kReverse,kOff,-87.13,2.09,2.64,0.02508545,-0.9720459,0.10064697,34.81,0.0,7.0,-8.089737,11.904266,
532.0567110000001,true,true,true,0.125,12.55,0.0,569,371,0,0.125,12.55,0.0,0,0,0,0.125,12.55,0.0,0,0,0,0.125,12.55,0.0,0,0,0,0.125,12.55,0.0,4,0,0,0.0,12.55,0.0,0,0,0,0.125,12.6,0.0,0,0,0,kReverse,kOff,-87.11,2.11,2.65,0.03375244,-0.9605713,0.11413574,34.81,0.0,20.0,-8.090012,11.906433,
532.078625,true,true,true,0.125,12.55,0.0,626,349,0,0.125,12.55,0.0,0,0,0,0.125,12.55,0.0,0,0,0,0.125,12.55,0.0,0,0,0,0.125,12.55,0.0,4,0,0,0.0,12.55,0.0,0,0,0,0.125,12.6,0.0,0,0,0,kReverse,kOff,-87.13,2.09,2.64,0.03930664,-1.0469971,0.024169922,34.81,0.0,-2.0,-8.090149,11.907562,
532.101177,true,true,true,0.125,12.55,0.0,680,329,0,0.125,12.55,0.0,0,0,0,0.125,12.55,0.0,0,0,0,0.125,12.55,0.0,0,0,0,0.125,12.55,0.0,4,0,0,0.0,12.55,0.0,0,0,0,0.125,12.6,0.0,0,0,0,kReverse,kOff,-87.12,2.09,2.64,0.04437256,-0.9365845,0.01586914,34.81,0.0,5.0,-8.090149,11.907562,
532.122723,true,true,true,0.125,12.55,0.0,729,311,0,0.125,12.55,0.0,0,0,0,0.125,12.55,0.0,0,0,0,0.125,12.55,0.0,0,0,0,0.125,12.55,0.0,4,0,0,0.0,12.55,0.0,0,0,0,0.125,12.6,0.0,0,0,0,kReverse,kOff,-87.14,2.09,2.63,-0.018127441,-1.0327148,0.03881836,34.81,0.0,-52.0,-8.090179,11.907562,
532.146579,true,true,true,0.125,12.55,0.0,777,293,0,0.125,12.55,0.0,0,0,0,0.125,12.55,0.0,0,0,0,0.125,12.55,0.0,0,0,0,0.125,12.55,0.0,4,0,0,0.0,12.55,0.0,0,0,0,0.125,12.6,0.0,0,0,0,kReverse,kOff,-87.15,2.09,2.63,0.07965088,-0.9985962,0.034301758,34.81,0.0,41.0,-8.090347,11.907394,
532.165803,true,true,true,0.125,12.55,0.0,821,276,0,0.125,12.55,0.0,0,0,0,0.125,12.55,0.0,0,0,0,0.125,12.55,0.0,0,0,0,0.125,12.55,0.0,4,0,0,0.0,12.55,0.0,0,0,0,0.125,12.6,0.0,0,0,0,kReverse,kOff,-87.14,2.1,2.64,0.038391113,-0.96380615,0.051513672,34.81,0.0,8.0,-8.090393,11.907288,
532.186956,true,true,true,0.125,12.55,0.0,862,260,0,0.125,12.55,0.0,0,0,0,0.125,12.55,0.0,0,0,0,0.125,12.55,0.0,0,0,0,0.125,12.55,0.0,4,0,0,0.0,12.55,0.0,0,0,0,0.125,12.6,0.0,0,0,0,kReverse,kOff,-87.12,2.11,2.66,0.08618164,-0.96813965,0.10424805,34.81,0.0,67.0,-8.090424,11.907318,
