timer,lineLeft,lineCenter,lineRight,LeftFrontCurrent,LeftFrontVoltage,LeftFrontValue,LeftFrontPosition,LeftFrontVelocity,LeftFrontFaults,LeftRearCurrent,LeftRearVoltage,LeftRearValue,LeftRearPosition,LeftRearVelocity,LeftRearFaults,RightFrontCurrent,RightFrontVoltage,RightFrontValue,RightFrontPosition,RightFrontVelocity,RightFrontFaults,RightRearCurrent,RightRearVoltage,RightRearValue,RightRearPosition,RightRearVelocity,RightRearFaults,LiftCurrent,LiftVoltage,LiftValue,LiftPosition,LiftVelocity,LiftFaults,WristCurrent,WristVoltage,WristValue,WristPosition,WristVelocity,WristFaults,RollerCurrent,RollerVoltage,RollerValue,RollerPosition,RollerVelocity,RollerFaults,PushersState,PivotsState,navx_Pitch,navx_Roll,navx_Yaw,navx_XAcc,navx_YAcc,navx_ZAcc,navx_Temp,navx_Bar,navx_Alt,navx_XDis,navx_YDis,
579.4357089999999,true,true,true,0.125,12.8,0.0,761,0,0,0.125,12.85,0.0,0,0,0,0.125,12.8,0.0,-66268,0,0,0.125,12.85,0.0,0,0,0,0.0,12.8,0.0,-2,0,0,0.0,12.8,0.0,0,0,0,0.0,12.9,0.0,0,0,0,kReverse,kOff,-85.99,1.83,0.34,0.030700684,-0.98443604,0.0592041,33.01,0.0,0.0,0.70799255,3.2810516,
579.466926,true,true,true,0.125,12.8,0.0,761,0,0,0.125,12.85,0.0,0,0,0,0.125,12.8,0.0,-66268,0,0,0.125,12.85,0.0,0,0,0,0.0,12.8,0.0,-2,0,0,0.0,12.8,0.0,0,0,0,0.125,12.9,0.0,0,0,0,kReverse,kOff,-86.0,1.83,0.34,0.029968262,-0.98028564,0.061828613,33.01,0.0,-1.0,0.70799255,3.2810516,
579.4924929999999,true,true,true,0.125,12.8,0.0,761,0,0,0.125,12.85,0.0,0,0,0,0.125,12.8,0.0,-66268,0,0,0.125,12.85,0.0,0,0,0,0.0,12.8,0.0,-2,0,0,0.0,12.8,0.0,0,0,0,0.125,12.9,0.0,0,0,0,kReverse,kOff,-86.0,1.83,0.34,0.032104492,-0.9797363,0.06414795,33.01,0.0,0.0,0.70799255,3.2810516,
579.5124529999999,true,true,true,0.125,12.8,0.0,761,0,0,0.125,12.85,0.0,0,0,0,0.125,12.8,0.0,-66268,0,0,0.125,12.85,0.0,0,0,0,0.0,12.8,0.0,-2,0,0,0.0,12.8,0.0,0,0,0,0.125,12.9,0.0,0,0,0,kReverse,kOff,-86.0,1.83,0.34,0.03112793,-0.98358154,0.06439209,33.01,0.0,-1.0,0.70799255,3.2810516,
579.531626,true,true,true,0.125,12.8,0.0,761,0,0,0.125,12.85,0.0,0,0,0,0.125,12.8,0.0,-66268,0,0,0.125,12.85,0.0,0,0,0,0.0,12.8,0.0,-2,0,0,0.0,12.8,0.0,0,0,0,0.125,12.9,0.0,0,0,0,kReverse,kOff,-86.0,1.83,0.34,0.031555176,-0.98413086,0.057617188,33.01,0.0,1.0,0.70799255,3.2810516,
579.552068,true,true,true,0.125,12.8,0.0,761,0,0,0.125,12.85,0.0,0,0,0,0.125,12.8,0.0,-66268,0,0,0.125,12.85,0.0,0,0,0,0.0,12.8,0.0,-2,0,0,0.0,12.8,0.0,0,0,0,0.0,12.9,0.0,0,0,0,kReverse,kOff,-86.0,1.83,0.34,0.03173828,-0.9822998,0.055603027,33.01,0.0,2.0,0.70799255,3.2810516,
579.5726649999999,true,true,true,0.125,12.85,0.0,761,0,0,0.125,12.85,0.0,0,0,0,0.125,12.8,0.0,-66268,0,0,0.125,12.85,0.0,0,0,0,0.0,12.8,0.0,-2,0,0,0.0,12.8,0.0,0,0,0,0.0,12.9,0.0,0,0,0,kReverse,kOff,-86.0,1.83,0.34,0.032226562,-0.9800415,0.060668945,33.01,0.0,0.0,0.70799255,3.2810516,
579.593877,true,true,true,0.125,12.85,0.0,761,0,0,0.125,12.85,0.0,0,0,0,0.125,12.8,0.0,-66268,0,0,0.125,12.85,0.0,0,0,0,0.0,12.8,0.0,-2,0,0,0.0,12.8,0.0,0,0,0,0.0,12.9,0.0,0,0,0,kReverse,kOff,-86.0,1.83,0.34,0.033569336,-0.98583984,0.06311035,33.04,0.0,1.0,0.70799255,3.2810516,
579.6154959999999,true,true,true,0.125,12.85,0.0,761,0,0,0.125,12.85,0.0,0,0,0,0.125,12.8,0.0,-66268,0,0,0.125,12.85,0.0,0,0,0,0.0,12.8,0.0,-2,0,0,0.0,12.8,0.0,0,0,0,0.125,12.9,0.0,0,0,0,kReverse,kOff,-86.0,1.83,0.34,0.031555176,-0.9880371,0.061584473,33.04,0.0,0.0,0.70799255,3.2810516,
579.6364809999999,true,true,true,0.125,12.85,0.0,761,0,0,0.125,12.85,0.0,0,0,0,0.125,12.8,0.0,-66268,0,0,0.125,12.85,0.0,0,0,0,0.0,12.8,0.0,-2,0,0,0.0,12.8,0.0,0,0,0,0.125,12.9,0.0,0,0,0,kReverse,kOff,-86.0,1.83,0.34,0.027709961,-0.9852905,0.061462402,33.04,0.0,-3.0,0.70799255,3.2810516,
579.6568779999999,true,true,true,0.125,12.85,0.0,761,0,0,0.125,12.85,0.0,0,0,0,0.125,12.8,0.0,-66268,0,0,0.125,12.85,0.0,0,0,0,0.125,12.8,0.0,-2,0,0,0.0,12.8,0.0,0,0,0,0.125,12.9,0.0,0,0,0,kReverse,kOff,-86.0,1.83,0.34,0.03161621,-0.9814453,0.061767578,33.04,0.0,0.0,0.70799255,3.2810516,
579.6808679999999,true,true,true,0.125,12.85,0.0,761,0,0,0.125,12.85,0.0,0,0,0,0.125,12.8,0.0,-66268,0,0,0.125,12.85,0.0,0,0,0,0.125,12.8,0.0,-2,0,0,0.0,12.8,0.0,0,0,0,0.125,12.9,0.0,0,0,0,kReverse,kOff,-86.0,1.83,0.34,0.029968262,-0.9827881,0.05810547,33.04,0.0,0.0,0.70799255,3.2810516,
579.7013069999999,true,true,true,0.125,12.85,0.0,761,0,0,0.125,12.85,0.0,0,0,0,0.125,12.8,0.0,-66268,0,0,0.125,12.85,0.0,0,0,0,0.125,12.8,0.0,-2,0,0,0.0,12.8,0.0,0,0,0,0.125,12.9,0.0,0,0,0,kReverse,kOff,-86.01,1.83,0.34,0.032165527,-0.9824829,0.058776855,33.04,0.0,1.0,0.70799255,3.2810516,
579.723691,true,true,true,0.125,12.85,0.0,761,0,0,0.125,12.85,0.0,0,0,0,0.125,12.8,0.0,-66268,0,0,0.125,12.85,0.0,0,0,0,0.125,12.8,0.0,-2,0,0,0.0,12.8,0.0,0,0,0,0.125,12.9,0.0,0,0,0,kReverse,kOff,-86.01,1.83,0.34,0.030517578,-0.9838867,0.05908203,33.04,0.0,0.0,0.70799255,3.2810516,
579.7476549999999,true,true,true,0.125,12.85,0.0,761,0,0,0.125,12.85,0.0,0,0,0,0.125,12.8,0.0,-66268,0,0,0.125,12.85,0.0,0,0,0,0.125,12.8,0.0,-2,0,0,0.0,12.8,0.0,0,0,0,0.125,12.9,0.0,0,0,0,kReverse,kOff,-86.01,1.83,0.34,0.030395508,-0.9827881,0.06213379,33.04,0.0,-1.0,0.70799255,3.2810516,
579.764326,true,true,true,0.125,12.85,0.0,761,0,0,0.125,12.85,0.0,0,0,0,0.125,12.8,0.0,-66268,0,0,0.125,12.85,0.0,0,0,0,0.125,12.8,0.0,-2,0,0,0.0,12.8,0.0,0,0,0,0.125,12.9,0.0,0,0,0,kReverse,kOff,-86.01,1.83,0.34,0.030151367,-0.9829712,0.061767578,33.04,0.0,-1.0,0.70799255,3.2810516,
579.7830919999999,true,true,true,0.125,12.85,0.0,761,0,0,0.125,12.85,0.0,0,0,0,0.125,12.8,0.0,-66268,0,0,0.125,12.85,0.0,0,0,0,0.125,12.8,0.0,-2,0,0,0.0,12.8,0.0,0,0,0,0.125,12.9,0.0,0,0,0,kReverse,kOff,-86.01,1.83,0.34,0.02935791,-0.98327637,0.0637207,33.04,0.0,-3.0,0.70799255,3.2810516,
579.803874,true,true,true,0.125,12.85,0.0,761,0,0,0.125,12.85,0.0,0,0,0,0.125,12.8,0.0,-66268,0,0,0.125,12.85,0.0,0,0,0,0.125,12.8,0.0,-2,0,0,0.0,12.8,0.0,0,0,0,0.125,12.9,0.0,0,0,0,kReverse,kOff,-86.0,1.83,0.34,0.030883789,-0.982605,0.05859375,33.04,0.0,0.0,0.70799255,3.2810516,
579.8258269999999,true,true,true,0.125,12.85,0.0,761,0,0,0.125,12.85,0.0,0,0,0,0.125,12.8,0.0,-66268,0,0,0.125,12.85,0.0,0,0,0,0.125,12.8,0.0,-2,0,0,0.0,12.8,0.0,0,0,0,0.125,12.9,0.0,0,0,0,kReverse,kOff,-86.01,1.82,0.34,0.030822754,-0.9841919,0.062927246,33.04,0.0,-1.0,0.70799255,3.2810516,
579.846159,true,true,true,0.125,12.85,0.0,761,0,0,0.125,12.85,0.0,0,0,0,0.125,12.8,0.0,-66268,0,0,0.125,12.85,0.0,0,0,0,0.125,12.8,0.0,-2,0,0,0.0,12.8,0.0,0,0,0,0.125,12.9,0.0,0,0,0,kReverse,kOff,-86.01,1.82,0.34,0.030273438,-0.9805908,0.059143066,33.04,0.0,0.0,0.70799255,3.2810516,
579.8681949999999,true,true,true,0.125,12.85,0.0,761,0,0,0.125,12.85,0.0,0,0,0,0.125,12.8,0.0,-66268,0,0,0.125,12.85,0.0,0,0,0,0.0,12.8,0.0,-2,0,0,0.0,12.8,0.0,0,0,0,0.125,12.9,0.0,0,0,0,kReverse,kOff,-86.01,1.82,0.34,0.030273438,-0.982605,0.05859375,33.04,0.0,0.0,0.70799255,3.2810516,
579.8887779999999,true,true,true,0.125,12.85,0.0,761,0,0,0.125,12.85,0.0,0,0,0,0.125,12.8,0.0,-66268,0,0,0.125,12.85,0.0,0,0,0,0.0,12.85,0.0,-2,0,0,0.0,12.8,0.0,0,0,0,0.125,12.9,0.0,0,0,0,kReverse,kOff,-86.01,1.82,0.34,0.031982422,-0.9840698,0.059143066,33.04,0.0,1.0,0.70799255,3.2810516,
579.911397,true,true,true,0.125,12.8,0.0,761,0,0,0.125,12.85,0.0,0,0,0,0.125,12.8,0.0,-66268,0,0,0.125,12.85,0.0,0,0,0,0.0,12.85,0.0,-2,0,0,0.0,12.8,0.0,0,0,0,0.125,12.9,0.0,0,0,0,kReverse,kOff,-86.01,1.82,0.34,0.031677246,-0.9821167,0.06121826,33.04,0.0,0.0,0.70799255,3.2810516,
579.928862,true,true,true,0.125,12.8,0.0,761,0,0,0.125,12.85,0.0,0,0,0,0.125,12.8,0.0,-66268,0,0,0.125,12.85,0.0,0,0,0,0.0,12.85,0.0,-2,0,0,0.0,12.8,0.0,0,0,0,0.0,12.9,0.0,0,0,0,kReverse,kOff,-86.01,1.82,0.34,0.030761719,-0.9838257,0.05871582,33.04,0.0,0.0,0.70799255,3.2810516,
579.943759,true,true,true,0.125,12.8,0.0,761,0,0,0.125,12.85,0.0,0,0,0,0.125,12.8,0.0,-66268,0,0,0.125,12.85,0.0,0,0,0,0.0,12.85,0.0,-2,0,0,0.0,12.8,0.0,0,0,0,0.0,12.9,0.0,0,0,0,kReverse,kOff,-86.01,1.82,0.34,0.03387451,-0.98291016,0.062194824,33.04,0.0,1.0,0.70799255,3.2810516,
579.9748709999999,true,true,true,0.125,12.8,0.0,761,0,0,0.125,12.85,0.0,0,0,0,0.125,12.8,0.0,-66268,0,0,0.125,12.85,0.0,0,0,0,0.0,12.85,0.0,-2,0,0,0.0,12.8,0.0,0,0,0,0.0,12.9,0.0,0,0,0,kReverse,kOff,-86.01,1.82,0.34,0.030700684,-0.9833374,0.059692383,33.04,0.0,0.0,0.70799255,3.2810516,
579.996771,true,true,true,0.125,12.8,0.0,761,0,0,0.125,12.85,0.0,0,0,0,0.125,12.8,0.0,-66268,0,0,0.125,12.85,0.0,0,0,0,0.0,12.85,0.0,-2,0,0,0.0,12.8,0.0,0,0,0,0.125,12.9,0.0,0,0,0,kReverse,kOff,-86.01,1.82,0.34,0.032043457,-0.982666,0.053649902,33.04,0.0,3.0,0.70799255,3.2810516,
580.018394,true,true,true,0.125,12.8,0.0,761,0,0,0.125,12.85,0.0,0,0,0,0.125,12.8,0.0,-66268,0,0,0.125,12.85,0.0,0,0,0,0.0,12.85,0.0,-2,0,0,0.0,12.8,0.0,0,0,0,0.125,12.9,0.0,0,0,0,kReverse,kOff,-86.02,1.82,0.34,0.03289795,-0.9829712,0.062194824,33.04,0.0,0.0,0.70799255,3.2810516,
580.038471,true,true,true,0.125,12.8,0.0,761,0,0,0.125,12.85,0.0,0,0,0,0.125,12.8,0.0,-66268,0,0,0.125,12.85,0.0,0,0,0,0.0,12.85,0.0,-2,0,0,0.0,12.8,0.0,0,0,0,0.125,12.9,0.0,0,0,0,kReverse,kOff,-86.02,1.82,0.34,0.030883789,-0.9827881,0.058898926,33.04,0.0,0.0,0.70799255,3.2810516,
580.050317,true,true,true,0.125,12.8,0.0,761,0,0,0.125,12.85,0.0,0,0,0,0.125,12.8,0.0,-66268,0,0,0.125,12.85,0.0,0,0,0,0.0,12.85,0.0,-2,0,0,0.0,12.8,0.0,0,0,0,0.125,12.9,0.0,0,0,0,kReverse,kOff,-86.02,1.82,0.34,0.030883789,-0.9827881,0.058898926,33.04,0.0,0.0,0.70799255,3.2810516,
580.061529,true,true,true,0.125,12.85,0.0,761,0,0,0.125,12.85,0.0,0,0,0,0.125,12.8,0.0,-66268,0,0,0.125,12.85,0.0,0,0,0,0.0,12.85,0.0,-2,0,0,0.0,12.8,0.0,0,0,0,0.125,12.9,0.0,0,0,0,kReverse,kOff,-86.02,1.82,0.34,0.030883789,-0.9827881,0.058898926,33.04,0.0,0.0,0.70799255,3.2810516,
580.0740509999999,true,true,true,0.125,12.85,0.0,761,0,0,0.125,12.85,0.0,0,0,0,0.125,12.8,0.0,-66268,0,0,0.125,12.85,0.0,0,0,0,0.0,12.85,0.0,-2,0,0,0.0,12.8,0.0,0,0,0,0.125,12.9,0.0,0,0,0,kReverse,kOff,-86.02,1.82,0.34,0.032104492,-0.98236084,0.06573486,33.04,0.0,-1.0,0.70799255,3.2810516,
580.0863429999999,true,true,true,0.125,12.85,0.0,761,0,0,0.125,12.85,0.0,0,0,0,0.125,12.8,0.0,-66268,0,0,0.125,12.85,0.0,0,0,0,0.0,12.85,0.0,-2,0,0,0.0,12.8,0.0,0,0,0,0.0,12.9,0.0,0,0,0,kReverse,kOff,-86.02,1.82,0.34,0.032104492,-0.98236084,0.06573486,33.04,0.0,-1.0,0.70799255,3.2810516,
580.0975859999999,true,true,true,0.125,12.85,0.0,761,0,0,0.125,12.85,0.0,0,0,0,0.125,12.8,0.0,-66268,0,0,0.125,12.85,0.0,0,0,0,0.0,12.85,0.0,-2,0,0,0.0,12.8,0.0,0,0,0,0.0,12.9,0.0,0,0,0,kReverse,kOff,-86.01,1.82,0.34,0.030395508,-0.9834595,0.06060791,33.04,0.0,0.0,0.70799255,3.2810516,
580.117122,true,true,true,0.125,12.85,0.0,761,0,0,0.125,12.85,0.0,0,0,0,0.125,12.8,0.0,-66268,0,0,0.125,12.85,0.0,0,0,0,0.0,12.85,0.0,-2,0,0,0.0,12.8,0.0,0,0,0,0.0,12.9,0.0,0,0,0,kReverse,kOff,-86.01,1.82,0.34,0.03186035,-0.9816284,0.06225586,33.01,0.0,0.0,0.70799255,3.2810516,
580.147213,true,true,true,0.125,12.85,0.0,761,0,0,0.125,12.85,0.0,0,0,0,0.125,12.8,0.0,-66268,0,0,0.125,12.85,0.0,0,0,0,0.0,12.85,0.0,-2,0,0,0.0,12.8,0.0,0,0,0,0.125,12.9,0.0,0,0,0,kReverse,kOff,-86.01,1.82,0.33,0.032043457,-0.98150635,0.06384277,33.01,0.0,0.0,0.70799255,3.2810516,
580.1751129999999,true,true,true,0.125,12.85,0.0,761,0,0,0.125,12.85,0.0,0,0,0,0.125,12.8,0.0,-66268,0,0,0.125,12.85,0.0,0,0,0,0.125,12.85,0.0,-2,0,0,0.0,12.8,0.0,0,0,0,0.125,12.9,0.0,0,0,0,kReverse,kOff,-86.01,1.82,0.33,0.032409668,-0.9830322,0.061584473,33.01,0.0,0.0,0.70799255,3.2810516,
580.195323,true,true,true,0.125,12.85,0.0,761,0,0,0.125,12.85,0.0,0,0,0,0.125,12.8,0.0,-66268,0,0,0.125,12.85,0.0,0,0,0,0.125,12.85,0.0,-2,0,0,0.0,12.8,0.0,0,0,0,0.125,12.9,0.0,0,0,0,kReverse,kOff,-86.01,1.82,0.33,0.030212402,-0.98516846,0.061523438,33.01,0.0,-1.0,0.70799255,3.2810516,
580.2196969999999,true,true,true,0.125,12.85,0.0,761,0,0,0.125,12.85,0.0,0,0,0,0.125,12.8,0.0,-66268,0,0,0.125,12.85,0.0,0,0,0,0.125,12.8,0.0,-2,0,0,0.0,12.8,0.0,0,0,0,0.125,12.9,0.0,0,0,0,kReverse,kOff,-86.01,1.82,0.33,0.035827637,-0.9835205,0.06072998,33.01,0.0,4.0,0.70799255,3.2810516,
580.239525,true,true,true,0.125,12.85,0.0,761,0,0,0.125,12.85,0.0,0,0,0,0.125,12.8,0.0,-66268,0,0,0.125,12.85,0.0,0,0,0,0.125,12.8,0.0,-2,0,0,0.0,12.8,0.0,0,0,0,0.125,12.9,0.0,0,0,0,kReverse,kOff,-86.01,1.82,0.33,0.031982422,-0.9795532,0.061462402,33.01,0.0,0.0,0.70799255,3.2810516,
580.256551,true,true,true,0.125,12.85,0.0,761,0,0,0.125,12.85,0.0,0,0,0,0.125,12.8,0.0,-66268,0,0,0.125,12.85,0.0,0,0,0,0.0,12.8,0.0,-2,0,0,0.0,12.8,0.0,0,0,0,0.125,12.9,0.0,0,0,0,kReverse,kOff,-86.01,1.82,0.33,0.032836914,-0.98376465,0.0625,33.01,0.0,0.0,0.70799255,3.2810516,
580.2774969999999,true,true,true,0.125,12.85,0.0,761,0,0,0.125,12.85,0.0,0,0,0,0.125,12.8,0.0,-66268,0,0,0.125,12.85,0.0,0,0,0,0.0,12.8,0.0,-2,0,0,0.0,12.8,0.0,0,0,0,0.0,12.9,0.0,0,0,0,kReverse,kOff,-86.01,1.82,0.33,0.033203125,-0.98358154,0.061706543,33.01,0.0,1.0,0.70799255,3.2810516,
580.3016009999999,true,true,true,0.125,12.85,0.0,761,0,0,0.125,12.85,0.0,0,0,0,0.125,12.8,0.0,-66268,0,0,0.125,12.85,0.0,0,0,0,0.125,12.8,0.0,-2,0,0,0.0,12.8,0.0,0,0,0,0.0,12.9,0.0,0,0,0,kReverse,kOff,-86.01,1.82,0.33,0.030639648,-0.98236084,0.06311035,33.01,0.0,-1.0,0.70799255,3.2810516,
580.320806,true,true,true,0.125,12.85,0.0,761,0,0,0.125,12.85,0.0,0,0,0,0.125,12.8,0.0,-66268,0,0,0.125,12.85,0.0,0,0,0,0.125,12.8,0.0,-2,0,0,0.0,12.8,0.0,0,0,0,0.0,12.9,0.0,0,0,0,kReverse,kOff,-86.01,1.82,0.33,0.03100586,-0.9846802,0.06225586,33.01,0.0,0.0,0.70799255,3.2810516,
580.343227,true,true,true,0.125,12.85,0.0,761,0,0,0.125,12.85,0.0,0,0,0,0.125,12.8,0.0,-66268,0,0,0.125,12.85,0.0,0,0,0,0.125,12.8,0.0,-2,0,0,0.0,12.8,0.0,0,0,0,0.125,12.9,0.0,0,0,0,kReverse,kOff,-86.01,1.82,0.33,0.030639648,-0.9835205,0.059570312,33.01,0.0,0.0,0.70799255,3.2810516,
580.3628249999999,true,true,true,0.125,12.85,0.0,761,0,0,0.125,12.85,0.0,0,0,0,0.125,12.8,0.0,-66268,0,0,0.125,12.85,0.0,0,0,0,0.125,12.85,0.0,-2,0,0,0.0,12.8,0.0,0,0,0,0.125,12.9,0.0,0,0,0,kReverse,kOff,-86.01,1.82,0.33,0.030639648,-0.98461914,0.059753418,33.01,0.0,0.0,0.70799255,3.2810516,
580.3852239999999,true,true,true,0.125,12.85,0.0,761,0,0,0.125,12.85,0.0,0,0,0,0.125,12.8,0.0,-66268,0,0,0.125,12.85,0.0,0,0,0,0.125,12.85,0.0,-2,0,0,0.0,12.8,0.0,0,0,0,0.125,12.9,0.0,0,0,0,kReverse,kOff,-86.01,1.81,0.33,0.030456543,-0.9819946,0.060546875,33.01,0.0,0.0,0.70799255,3.2810516,
580.4084069999999,true,true,true,0.125,12.85,0.0,761,0,0,0.125,12.85,0.0,0,0,0,0.125,12.8,0.0,-66268,0,0,0.125,12.85,0.0,0,0,0,0.125,12.85,0.0,-2,0,0,0.0,12.8,0.0,0,0,0,0.125,12.9,0.0,0,0,0,kReverse,kOff,-86.01,1.81,0.33,0.03302002,-0.984375,0.061706543,33.01,0.0,1.0,0.70799255,3.2810516,
580.4302479999999,true,true,true,0.125,12.85,0.0,761,0,0,0.125,12.85,0.0,0,0,0,0.125,12.8,0.0,-66268,0,0,0.125,12.85,0.0,0,0,0,0.125,12.85,0.0,-2,0,0,0.0,12.8,0.0,0,0,0,0.0,12.9,0.0,0,0,0,kReverse,kOff,-86.01,1.81,0.33,0.031066895,-0.98339844,0.066223145,33.01,0.0,-3.0,0.70799255,3.2810516,
580.451745,true,true,true,0.125,12.85,0.0,761,0,0,0.125,12.85,0.0,0,0,0,0.125,12.8,0.0,-66268,0,0,0.125,12.85,0.0,0,0,0,0.125,12.85,0.0,-2,0,0,0.0,12.8,0.0,0,0,0,0.0,12.9,0.0,0,0,0,kReverse,kOff,-86.01,1.81,0.33,0.030883789,-0.9814453,0.060180664,33.01,0.0,0.0,0.70799255,3.2810516,
580.4728089999999,true,true,true,0.125,12.85,0.0,761,0,0,0.125,12.85,0.0,0,0,0,0.125,12.8,0.0,-66268,0,0,0.125,12.85,0.0,0,0,0,0.125,12.85,0.0,-2,0,0,0.0,12.8,0.0,0,0,0,0.0,12.9,0.0,0,0,0,kReverse,kOff,-86.01,1.81,0.32,0.030456543,-0.98217773,0.05847168,33.01,0.0,0.0,0.70799255,3.2810516,
580.493354,true,true,true,0.125,12.85,0.0,761,0,0,0.125,12.85,0.0,0,0,0,0.125,12.8,0.0,-66268,0,0,0.125,12.85,0.0,0,0,0,0.125,12.85,0.0,-2,0,0,0.0,12.8,0.0,0,0,0,0.125,12.9,0.0,0,0,0,kReverse,kOff,-86.01,1.81,0.32,0.030151367,-0.9822998,0.06347656,33.01,0.0,-1.0,0.70799255,3.2810516,
580.515266,true,true,true,0.125,12.85,0.0,761,0,0,0.125,12.85,0.0,0,0,0,0.125,12.8,0.0,-66268,0,0,0.125,12.85,0.0,0,0,0,0.125,12.85,0.0,-2,0,0,0.0,12.8,0.0,0,0,0,0.125,12.9,0.0,0,0,0,kReverse,kOff,-86.01,1.81,0.32,0.03137207,-0.9846802,0.05810547,33.01,0.0,1.0,0.70799255,3.2810516,
580.5368269999999,true,true,true,0.125,12.85,0.0,761,0,0,0.125,12.85,0.0,0,0,0,0.125,12.8,0.0,-66268,0,0,0.125,12.85,0.0,0,0,0,0.125,12.85,0.0,-2,0,0,0.0,12.8,0.0,0,0,0,0.125,12.9,0.0,0,0,0,kReverse,kOff,-86.01,1.81,0.32,0.031311035,-0.9829712,0.05609131,33.01,0.0,2.0,0.70799255,3.2810516,
580.5568499999999,true,true,true,0.125,12.85,0.0,761,0,0,0.125,12.85,0.0,0,0,0,0.125,12.8,0.0,-66268,0,0,0.125,12.85,0.0,0,0,0,0.125,12.85,0.0,-2,0,0,0.0,12.8,0.0,0,0,0,0.125,12.9,0.0,0,0,0,kReverse,kOff,-86.01,1.81,0.32,0.030822754,-0.98065186,0.061584473,33.01,0.0,0.0,0.70799255,3.2810516,
580.5769449999999,true,true,true,0.125,12.85,0.0,761,0,0,0.125,12.85,0.0,0,0,0,0.125,12.8,0.0,-66268,0,0,0.125,12.85,0.0,0,0,0,0.0,12.85,0.0,-2,0,0,0.0,12.8,0.0,0,0,0,0.125,12.9,0.0,0,0,0,kReverse,kOff,-86.01,1.81,0.32,0.03173828,-0.982666,0.05834961,33.01,0.0,1.0,0.70799255,3.2810516,
580.5961169999999,true,true,true,0.125,12.85,0.0,761,0,0,0.125,12.85,0.0,0,0,0,0.125,12.8,0.0,-66268,0,0,0.125,12.85,0.0,0,0,0,0.125,12.85,0.0,-2,0,0,0.0,12.8,0.0,0,0,0,0.125,12.9,0.0,0,0,0,kReverse,kOff,-86.01,1.81,0.32,0.029907227,-0.984375,0.05847168,33.03,0.0,0.0,0.70799255,3.2810516,
580.6300239999999,true,true,true,0.125,12.85,0.0,761,0,0,0.125,12.85,0.0,0,0,0,0.125,12.8,0.0,-66268,0,0,0.125,12.85,0.0,0,0,0,0.125,12.85,0.0,-2,0,0,0.0,12.8,0.0,0,0,0,0.0,12.9,0.0,0,0,0,kReverse,kOff,-86.01,1.81,0.32,0.03149414,-0.98291016,0.06298828,33.03,0.0,0.0,0.70799255,3.2810516,
580.654643,true,true,true,0.125,12.85,0.0,761,0,0,0.125,12.85,0.0,0,0,0,0.125,12.8,0.0,-66268,0,0,0.125,12.85,0.0,0,0,0,0.125,12.85,0.0,-2,0,0,0.0,12.8,0.0,0,0,0,0.0,12.9,0.0,0,0,0,kReverse,kOff,-86.01,1.81,0.32,0.033203125,-0.9837036,0.0592041,33.03,0.0,2.0,0.70799255,3.2810516,
580.676235,true,true,true,0.125,12.85,0.0,761,0,0,0.125,12.85,0.0,0,0,0,0.125,12.8,0.0,-66268,0,0,0.125,12.85,0.0,0,0,0,0.0,12.85,0.0,-2,0,0,0.0,12.8,0.0,0,0,0,0.0,12.9,0.0,0,0,0,kReverse,kOff,-86.01,1.81,0.32,0.02947998,-0.98150635,0.061706543,33.03,0.0,-1.0,0.70799255,3.2810516,
580.6974979999999,true,true,true,0.125,12.85,0.0,761,0,0,0.125,12.85,0.0,0,0,0,0.125,12.8,0.0,-66268,0,0,0.125,12.85,0.0,0,0,0,0.0,12.85,0.0,-2,0,0,0.0,12.8,0.0,0,0,0,0.0,12.9,0.0,0,0,0,kReverse,kOff,-86.01,1.8,0.32,0.029907227,-0.98223877,0.061340332,33.03,0.0,-1.0,0.70799255,3.2810516,
580.718038,true,true,true,0.125,12.85,0.0,761,0,0,0.125,12.85,0.0,0,0,0,0.125,12.8,0.0,-66268,0,0,0.125,12.85,0.0,0,0,0,0.0,12.85,0.0,-2,0,0,0.0,12.8,0.0,0,0,0,0.0,12.9,0.0,0,0,0,kReverse,kOff,-86.01,1.81,0.32,0.033691406,-0.98443604,0.06726074,33.03,0.0,0.0,0.70799255,3.2810516,
580.7369839999999,true,true,true,0.125,12.85,0.0,761,0,0,0.125,12.85,0.0,0,0,0,0.125,12.8,0.0,-66268,0,0,0.125,12.85,0.0,0,0,0,0.0,12.85,0.0,-2,0,0,0.0,12.8,0.0,0,0,0,0.0,12.9,0.0,0,0,0,kReverse,kOff,-86.01,1.81,0.32,0.031982422,-0.9822998,0.062927246,33.03,0.0,0.0,0.70799255,3.2810516,
580.7629179999999,true,true,true,0.125,12.85,0.0,761,0,0,0.125,12.85,0.0,0,0,0,0.125,12.8,0.0,-66268,0,0,0.125,12.85,0.0,0,0,0,0.0,12.85,0.0,-2,0,0,0.0,12.8,0.0,0,0,0,0.125,12.9,0.0,0,0,0,kReverse,kOff,-86.01,1.81,0.32,0.030151367,-0.9828491,0.060668945,33.03,0.0,0.0,0.70799255,3.2810516,
580.785631,true,true,true,0.125,12.85,0.0,761,0,0,0.125,12.85,0.0,0,0,0,0.125,12.8,0.0,-66268,0,0,0.125,12.85,0.0,0,0,0,0.0,12.85,0.0,-2,0,0,0.0,12.8,0.0,0,0,0,0.125,12.9,0.0,0,0,0,kReverse,kOff,-86.01,1.81,0.33,0.029907227,-0.9841919,0.057678223,33.03,0.0,0.0,0.70799255,3.2810516,
580.804775,true,true,true,0.125,12.85,0.0,761,0,0,0.125,12.85,0.0,0,0,0,0.125,12.8,0.0,-66268,0,0,0.125,12.85,0.0,0,0,0,0.125,12.85,0.0,-2,0,0,0.0,12.8,0.0,0,0,0,0.125,12.9,0.0,0,0,0,kReverse,kOff,-86.01,1.81,0.32,0.033081055,-0.9827881,0.064575195,33.03,0.0,0.0,0.70799255,3.2810516,
580.826727,true,true,true,0.125,12.85,0.0,761,0,0,0.125,12.85,0.0,0,0,0,0.125,12.8,0.0,-66268,0,0,0.125,12.85,0.0,0,0,0,0.0,12.85,0.0,-2,0,0,0.0,12.8,0.0,0,0,0,0.125,12.9,0.0,0,0,0,kReverse,kOff,-86.01,1.81,0.32,0.03137207,-0.98101807,0.061767578,33.03,0.0,0.0,0.70799255,3.2810516,
580.8498679999999,true,true,true,0.125,12.85,0.0,761,0,0,0.125,12.85,0.0,0,0,0,0.125,12.8,0.0,-66268,0,0,0.125,12.85,0.0,0,0,0,0.0,12.85,0.0,-2,0,0,0.0,12.8,0.0,0,0,0,0.125,12.9,0.0,0,0,0,kReverse,kOff,-86.01,1.81,0.32,0.03161621,-0.98223877,0.068847656,33.03,0.0,-2.0,0.70799255,3.2810516,
580.8723719999999,true,true,true,0.125,12.85,0.0,761,0,0,0.125,12.85,0.0,0,0,0,0.125,12.8,0.0,-66268,0,0,0.125,12.85,0.0,0,0,0,0.0,12.85,0.0,-2,0,0,0.0,12.8,0.0,0,0,0,0.125,12.9,0.0,0,0,0,kReverse,kOff,-86.01,1.81,0.32,0.030029297,-0.9819336,0.06109619,33.03,0.0,-1.0,0.70799255,3.2810516,
580.8914589999999,true,true,true,0.125,12.85,0.0,761,0,0,0.125,12.85,0.0,0,0,0,0.125,12.8,0.0,-66268,0,0,0.125,12.85,0.0,0,0,0,0.0,12.85,0.0,-2,0,0,0.0,12.8,0.0,0,0,0,0.125,12.9,0.0,0,0,0,kReverse,kOff,-86.01,1.81,0.32,0.03338623,-0.9812012,0.06341553,33.03,0.0,1.0,0.70799255,3.2810516,
580.9103189999998,true,true,true,0.125,12.85,0.0,761,0,0,0.125,12.85,0.0,0,0,0,0.125,12.8,0.0,-66268,0,0,0.125,12.85,0.0,0,0,0,0.0,12.85,0.0,-2,0,0,0.0,12.8,0.0,0,0,0,0.125,12.9,0.0,0,0,0,kReverse,kOff,-86.01,1.81,0.32,0.03112793,-0.9815674,0.0625,33.03,0.0,0.0,0.70799255,3.2810516,
580.9302339999999,true,true,true,0.125,12.85,0.0,761,0,0,0.125,12.85,0.0,0,0,0,0.125,12.8,0.0,-66268,0,0,0.125,12.85,0.0,0,0,0,0.0,12.85,0.0,-2,0,0,0.0,12.8,0.0,0,0,0,0.125,12.9,0.0,0,0,0,kReverse,kOff,-86.01,1.81,0.32,0.031799316,-0.9834595,0.061950684,33.03,0.0,0.0,0.70799255,3.2810516,
580.950051,true,true,true,0.125,12.85,0.0,761,0,0,0.125,12.85,0.0,0,0,0,0.125,12.8,0.0,-66268,0,0,0.125,12.85,0.0,0,0,0,0.0,12.85,0.0,-2,0,0,0.0,12.8,0.0,0,0,0,0.125,12.9,0.0,0,0,0,kReverse,kOff,-86.01,1.81,0.32,0.031677246,-0.9817505,0.061340332,33.03,0.0,0.0,0.70799255,3.2810516,
580.971174,true,true,true,0.125,12.85,0.0,761,0,0,0.125,12.85,0.0,0,0,0,0.125,12.8,0.0,-66268,0,0,0.125,12.85,0.0,0,0,0,0.0,12.85,0.0,-2,0,0,0.0,12.8,0.0,0,0,0,0.125,12.9,0.0,0,0,0,kReverse,kOff,-86.01,1.81,0.32,0.031799316,-0.9813843,0.06402588,33.03,0.0,0.0,0.70799255,3.2810516,
580.989551,true,true,true,0.125,12.85,0.0,761,0,0,0.125,12.85,0.0,0,0,0,0.125,12.8,0.0,-66268,0,0,0.125,12.85,0.0,0,0,0,0.0,12.85,0.0,-2,0,0,0.0,12.8,0.0,0,0,0,0.125,12.9,0.0,0,0,0,kReverse,kOff,-86.01,1.81,0.32,0.032043457,-0.9830322,0.064086914,33.03,0.0,0.0,0.70799255,3.2810516,
581.012043,true,true,true,0.125,12.85,0.0,761,0,0,0.125,12.85,0.0,0,0,0,0.125,12.8,0.0,-66268,0,0,0.125,12.85,0.0,0,0,0,0.0,12.8,0.0,-2,0,0,0.0,12.8,0.0,0,0,0,0.125,12.9,0.0,0,0,0,kReverse,kOff,-86.01,1.81,0.32,0.031921387,-0.9819946,0.06378174,33.03,0.0,0.0,0.70799255,3.2810516,
581.031652,true,true,true,0.125,12.85,0.0,761,0,0,0.125,12.85,0.0,0,0,0,0.125,12.8,0.0,-66268,0,0,0.125,12.85,0.0,0,0,0,0.0,12.8,0.0,-2,0,0,0.0,12.8,0.0,0,0,0,0.125,12.9,0.0,0,0,0,kReverse,kOff,-86.01,1.81,0.32,0.03302002,-0.9812622,0.060302734,33.03,0.0,2.0,0.70799255,3.2810516,
581.0511129999999,true,true,true,0.125,12.85,0.0,761,0,0,0.125,12.85,0.0,0,0,0,0.125,12.8,0.0,-66268,0,0,0.125,12.85,0.0,0,0,0,0.0,12.8,0.0,-2,0,0,0.0,12.8,0.0,0,0,0,0.125,12.9,0.0,0,0,0,kReverse,kOff,-86.01,1.81,0.32,0.03302002,-0.9816284,0.05633545,33.03,0.0,3.0,0.70799255,3.2810516,
581.071477,true,true,true,0.125,12.85,0.0,761,0,0,0.125,12.85,0.0,0,0,0,0.125,12.8,0.0,-66268,0,0,0.125,12.85,0.0,0,0,0,0.0,12.8,0.0,-2,0,0,0.0,12.8,0.0,0,0,0,0.125,12.9,0.0,0,0,0,kReverse,kOff,-86.01,1.81,0.32,0.03302002,-0.9822998,0.059509277,33.03,0.0,2.0,0.70799255,3.2810516,
581.0921209999999,true,true,true,0.125,12.85,0.0,761,0,0,0.125,12.85,0.0,0,0,0,0.125,12.8,0.0,-66268,0,0,0.125,12.85,0.0,0,0,0,0.0,12.8,0.0,-2,0,0,0.0,12.8,0.0,0,0,0,0.125,12.9,0.0,0,0,0,kReverse,kOff,-86.01,1.81,0.32,0.029296875,-0.9829712,0.06060791,33.03,0.0,-1.0,0.70799255,3.2810516,
581.111801,true,true,true,0.125,12.85,0.0,761,0,0,0.125,12.85,0.0,0,0,0,0.125,12.8,0.0,-66268,0,0,0.125,12.85,0.0,0,0,0,0.0,12.8,0.0,-2,0,0,0.0,12.8,0.0,0,0,0,0.125,12.9,0.0,0,0,0,kReverse,kOff,-86.01,1.81,0.32,0.031433105,-0.9829712,0.05895996,33.03,0.0,1.0,0.70799255,3.2810516,
581.1318409999999,true,true,true,0.125,12.85,0.0,761,0,0,0.125,12.85,0.0,0,0,0,0.125,12.8,0.0,-66268,0,0,0.125,12.85,0.0,0,0,0,0.125,12.8,0.0,-2,0,0,0.0,12.8,0.0,0,0,0,0.125,12.9,0.0,0,0,0,kReverse,kOff,-86.01,1.81,0.32,0.030456543,-0.982605,0.06201172,33.03,0.0,-1.0,0.70799255,3.2810516,
581.1552389999999,true,true,true,0.125,12.85,0.0,761,0,0,0.125,12.85,0.0,0,0,0,0.125,12.8,0.0,-66268,0,0,0.125,12.85,0.0,0,0,0,0.0,12.8,0.0,-2,0,0,0.0,12.8,0.0,0,0,0,0.125,12.9,0.0,0,0,0,kReverse,kOff,-86.01,1.81,0.32,0.031677246,-0.9834595,0.059814453,33.03,0.0,0.0,0.70799255,3.2810516,
581.175538,true,true,true,0.125,12.85,0.0,761,0,0,0.125,12.85,0.0,0,0,0,0.125,12.8,0.0,-66268,0,0,0.125,12.85,0.0,0,0,0,0.0,12.8,0.0,-2,0,0,0.0,12.8,0.0,0,0,0,0.125,12.9,0.0,0,0,0,kReverse,kOff,-86.01,1.81,0.33,0.030334473,-0.9838257,0.059814453,33.03,0.0,0.0,0.70799255,3.2810516,
581.1943219999999,true,true,true,0.125,12.85,0.0,761,0,0,0.125,12.85,0.0,0,0,0,0.125,12.8,0.0,-66268,0,0,0.125,12.85,0.0,0,0,0,0.0,12.8,0.0,-2,0,0,0.0,12.8,0.0,0,0,0,0.125,12.9,0.0,0,0,0,kReverse,kOff,-86.01,1.81,0.33,0.030883789,-0.9835205,0.06304932,33.03,0.0,-1.0,0.70799255,3.2810516,
581.2139929999998,true,true,true,0.125,12.85,0.0,761,0,0,0.125,12.85,0.0,0,0,0,0.125,12.8,0.0,-66268,0,0,0.125,12.85,0.0,0,0,0,0.0,12.8,0.0,-2,0,0,0.0,12.8,0.0,0,0,0,0.125,12.9,0.0,0,0,0,kReverse,kOff,-86.01,1.81,0.33,0.03265381,-0.98461914,0.057006836,33.03,0.0,2.0,0.70799255,3.2810516,
581.227361,true,true,true,0.125,12.85,0.0,761,0,0,0.125,12.85,0.0,0,0,0,0.125,12.8,0.0,-66268,0,0,0.125,12.85,0.0,0,0,0,0.0,12.8,0.0,-2,0,0,0.0,12.8,0.0,0,0,0,0.125,12.9,0.0,0,0,0,kReverse,kOff,-86.01,1.82,0.33,0.033203125,-0.98327637,0.06097412,33.03,0.0,1.0,0.70799255,3.2810516,
581.2538169999999,true,true,true,0.125,12.85,0.0,761,0,0,0.125,12.85,0.0,0,0,0,0.125,12.8,0.0,-66268,0,0,0.125,12.85,0.0,0,0,0,0.0,12.8,0.0,-2,0,0,0.0,12.8,0.0,0,0,0,0.125,12.9,0.0,0,0,0,kReverse,kOff,-86.01,1.82,0.33,0.031311035,-0.98291016,0.054260254,33.03,0.0,2.0,0.70799255,3.2810516,
581.2752459999999,true,true,true,0.125,12.85,0.0,761,0,0,0.125,12.85,0.0,0,0,0,0.125,12.8,0.0,-66268,0,0,0.125,12.85,0.0,0,0,0,0.0,12.8,0.0,-2,0,0,0.0,12.8,0.0,0,0,0,0.125,12.9,0.0,0,0,0,kReverse,kOff,-86.01,1.81,0.33,0.031799316,-0.9833374,0.06341553,33.03,0.0,0.0,0.70799255,3.2810516,
581.296754,true,true,true,0.25,12.85,0.0,761,0,0,0.25,12.85,0.0,0,0,0,0.375,12.8,0.0,-66268,0,0,0.125,12.85,0.0,0,0,0,0.0,12.8,0.0,-2,0,0,0.0,12.8,0.0,0,0,0,0.125,12.9,0.0,0,0,0,kReverse,kOff,-86.01,1.82,0.33,0.029846191,-0.97906494,0.056518555,33.03,0.0,0.0,0.70799255,3.2810516,
581.3205619999999,true,true,true,0.375,12.85,0.0,756,0,0,0.375,12.85,0.0,0,0,0,0.375,12.8,0.0,-66270,0,0,0.25,12.85,0.0,0,0,0,0.0,12.75,0.0,-2,0,0,0.0,12.8,0.0,0,0,0,0.125,12.8,0.0,0,0,0,kReverse,kOff,-86.01,1.82,0.33,0.02722168,-0.96099854,0.06286621,33.03,0.0,-4.0,0.70799255,3.2809906,
581.3452629999999,true,true,true,0.5,12.75,0.0,747,-3,0,1.25,12.8,0.0,0,0,0,0.5,12.75,0.0,-66283,-4,0,0.375,12.8,0.0,0,0,0,0.125,12.75,0.0,-2,0,0,0.0,12.75,0.0,0,0,0,0.125,12.8,0.0,0,0,0,kReverse,kOff,-86.01,1.79,0.31,0.12695312,-0.913208,0.1104126,33.03,0.0,69.0,0.7080231,3.2812347,
581.366852,true,true,true,0.875,12.75,0.0,741,-9,0,1.75,12.8,0.0,0,0,0,0.875,12.75,0.0,-66288,-10,0,1.0,12.8,0.0,0,0,0,0.125,12.75,0.0,-2,0,0,0.0,12.75,0.0,0,0,0,0.125,12.8,0.0,0,0,0,kReverse,kOff,-85.98,1.89,0.41,0.29559326,-1.0750732,-0.27062988,33.03,0.0,370.0,0.708374,3.2813416,
581.3871089999999,true,true,true,1.5,12.75,0.0,738,-15,0,2.125,12.8,0.0,0,0,0,1.375,12.75,0.0,-66290,-15,0,1.5,12.8,0.0,0,0,0,0.125,12.75,0.0,-2,0,0,0.0,12.75,0.0,0,0,0,0.125,12.8,0.0,0,0,0,kReverse,kOff,-86.22,1.96,0.61,-0.091796875,-1.1634521,-0.4019165,33.03,0.0,58.0,0.70899963,3.2809906,
581.4106349999998,true,true,true,2.125,12.75,0.0,727,-24,0,2.375,12.8,0.0,0,0,0,1.625,12.75,0.0,-66294,-20,0,1.75,12.8,0.0,0,0,0,0.0,12.75,0.0,-2,0,0,0.0,12.75,0.0,0,0,0,0.125,12.8,0.0,0,0,0,kReverse,kOff,-86.54,1.68,0.44,-0.24993896,-1.0849609,-0.36608887,33.03,0.0,-98.0,0.71006775,3.2787323,
581.4315789999999,true,true,true,2.0,12.75,0.0,721,-26,0,2.375,12.8,0.0,0,0,0,1.75,12.75,0.0,-66299,-22,0,1.875,12.8,0.0,0,0,0,0.0,12.75,0.0,-2,0,0,0.0,12.75,0.0,0,0,0,0.125,12.8,0.0,0,0,0,kReverse,kOff,-86.71,1.63,0.45,0.23052979,-1.0188599,0.08782959,33.03,0.0,171.0,0.7105713,3.2770996,
581.452674,true,true,true,2.0,12.75,0.0,716,-26,0,2.25,12.8,0.0,0,0,0,1.625,12.75,0.0,-66303,-23,0,1.75,12.8,0.0,0,0,0,0.0,12.75,0.0,-2,0,0,0.0,12.75,0.0,0,0,0,0.125,12.8,0.0,0,0,0,kReverse,kOff,-86.83,1.81,0.73,0.10723877,-0.9082031,0.08642578,33.03,0.0,55.0,0.71214294,3.2739563,
581.472865,true,true,true,2.0,12.75,0.0,709,-26,0,2.375,12.8,0.0,0,0,0,1.5,12.75,0.0,-66308,-22,0,1.75,12.8,0.0,0,0,0,0.0,12.75,0.0,-2,0,0,0.0,12.75,0.0,0,0,0,0.125,12.8,0.0,0,0,0,kReverse,kOff,-86.89,1.8,0.75,-0.06933594,-1.031311,0.042114258,33.03,0.0,-92.0,0.7129669,3.2724304,
581.4946889999999,true,true,true,2.0,12.6,0.0,701,-27,0,2.375,12.6,0.0,0,0,0,1.5,12.6,0.0,-66314,-21,0,1.875,12.6,0.0,0,0,0,0.0,12.6,0.0,-2,0,0,0.0,12.6,0.0,0,0,0,0.125,12.65,0.0,0,0,0,kReverse,kOff,-86.84,1.78,0.71,0.13952637,-0.9925537,-0.12249756,33.03,0.0,164.0,0.71466064,3.2691193,
581.514855,true,true,true,2.0,12.6,0.0,694,-29,0,2.25,12.6,0.0,0,0,0,1.5,12.6,0.0,-66321,-22,0,1.875,12.6,0.0,0,0,0,0.0,12.6,0.0,-2,0,0,0.0,12.6,0.0,0,0,0,0.0,12.65,0.0,0,0,0,kReverse,kOff,-86.84,1.84,0.8,0.071899414,-1.0125122,-0.105041504,33.03,0.0,93.0,0.715744,3.2672577,
581.53513,true,true,true,2.0,12.6,0.0,684,-32,0,2.25,12.6,0.0,0,0,0,1.5,12.6,0.0,-66328,-24,0,1.75,12.6,0.0,0,0,0,0.0,12.6,0.0,-2,0,0,0.0,12.6,0.0,0,0,0,0.0,12.65,0.0,0,0,0,kReverse,kOff,-86.91,1.76,0.73,-0.06719971,-0.99438477,-0.08856201,33.03,0.0,-40.0,0.7178955,3.263031,
581.5561059999999,true,true,true,2.0,12.6,0.0,675,-35,0,2.125,12.6,0.0,0,0,0,1.5,12.6,0.0,-66335,-27,0,1.75,12.6,0.0,0,0,0,0.0,12.6,0.0,-2,0,0,0.0,12.6,0.0,0,0,0,0.0,12.65,0.0,0,0,0,kReverse,kOff,-86.98,1.74,0.74,0.054992676,-0.9993286,-0.04498291,33.03,0.0,55.0,0.71894836,3.260666,
581.576256,true,true,true,1.875,12.6,0.0,664,-38,0,2.125,12.6,0.0,0,0,0,1.375,12.6,0.0,-66344,-30,0,1.875,12.6,0.0,0,0,0,0.0,12.6,0.0,-2,0,0,0.0,12.6,0.0,0,0,0,0.0,12.65,0.0,0,0,0,kReverse,kOff,-86.97,1.78,0.79,0.07562256,-0.98272705,0.03729248,33.03,0.0,43.0,0.72006226,3.2582703,
581.601678,true,true,true,2.25,12.6,0.0,652,-42,0,2.5,12.6,0.0,0,0,0,1.625,12.6,0.0,-66354,-33,0,2.375,12.6,0.0,0,0,0,0.125,12.6,0.0,-2,0,0,0.0,12.6,0.0,0,0,0,0.125,12.65,0.0,0,0,0,kReverse,kOff,-87.06,1.78,0.84,0.046081543,-1.1801147,0.07910156,33.03,0.0,-3.0,0.72236633,3.253479,
581.6246059999999,true,true,true,2.75,12.6,0.0,639,-46,0,4.0,12.6,0.0,0,0,0,3.0,12.6,0.0,-66378,-42,0,3.125,12.6,0.0,0,0,0,0.0,12.6,0.0,-2,0,0,0.0,12.6,0.0,0,0,0,0.125,12.65,0.0,0,0,0,kReverse,kOff,-87.11,1.8,0.9,0.08276367,-1.1293945,-0.28814697,33.03,0.0,167.0,0.7236328,3.2509155,
581.64677,true,true,true,3.5,12.6,0.0,625,-51,0,4.625,12.35,0.0,0,0,0,3.5,12.3,0.0,-66392,-47,0,3.75,12.4,0.0,0,0,0,0.0,12.35,0.0,-2,0,0,0.0,12.35,0.0,0,0,0,0.125,12.4,0.0,0,0,0,kReverse,kOff,-87.35,1.8,1.03,0.015258789,-1.0093994,-0.17272949,33.03,0.0,61.0,0.72650146,3.2449646,
581.668473,true,true,true,4.125,12.35,0.0,608,-56,0,5.125,12.35,0.0,0,0,0,3.75,12.3,0.0,-66408,-53,0,4.25,12.4,0.0,0,0,0,0.0,12.35,0.0,-2,0,0,0.0,12.35,0.0,0,0,0,0.125,12.4,0.0,0,0,0,kReverse,kOff,-87.47,1.81,1.11,-0.08618164,-0.9664917,-0.20043945,33.03,0.0,-23.0,0.7280121,3.2415466,
581.689024,true,true,true,5.0,12.35,0.0,573,-69,0,5.375,12.35,0.0,0,0,0,3.75,12.3,0.0,-66425,-60,0,4.625,12.4,0.0,0,0,0,0.0,12.35,0.0,-2,0,0,0.0,12.35,0.0,0,0,0,0.125,12.4,0.0,0,0,0,kReverse,kOff,-87.71,1.8,1.24,-0.020507812,-1.0241089,-0.15411377,33.03,0.0,17.0,0.73106384,3.2337189,
581.711748,true,true,true,4.875,12.35,0.0,554,-75,0,5.25,12.35,0.0,0,0,0,3.875,12.3,0.0,-66443,-67,0,4.625,12.4,0.0,0,0,0,0.0,12.35,0.0,-2,0,0,0.0,12.35,0.0,0,0,0,0.125,12.4,0.0,0,0,0,kReverse,kOff,-87.78,1.78,1.26,0.04815674,-1.0768433,-0.3986206,33.03,0.0,169.0,0.7327423,3.229248,
581.733796,true,true,true,4.75,12.35,0.0,534,-81,0,5.125,12.35,0.0,0,0,0,3.75,12.3,0.0,-66463,-74,0,4.5,12.4,0.0,0,0,0,0.0,12.35,0.0,-2,0,0,0.0,12.35,0.0,0,0,0,0.125,12.4,0.0,0,0,0,kReverse,kOff,-87.86,1.8,1.35,0.028747559,-0.9230957,-0.13391113,33.03,0.0,55.0,0.7366028,3.218933,
581.7547749999999,true,true,true,4.625,12.35,0.0,514,-87,0,5.0,12.35,0.0,0,0,0,3.625,12.3,0.0,-66483,-80,0,4.375,12.4,0.0,0,0,0,0.0,12.35,0.0,-2,0,0,0.0,12.35,0.0,0,0,0,0.125,12.4,0.0,0,0,0,kReverse,kOff,-87.89,1.79,1.35,0.012207031,-0.956604,-0.023620605,33.03,0.0,-1.0,0.7386322,3.2134705,
581.777203,true,true,true,4.5,12.35,0.0,492,-92,0,4.875,12.35,0.0,0,0,0,3.5,12.3,0.0,-66505,-86,0,4.25,12.4,0.0,0,0,0,0.0,12.35,0.0,-2,0,0,0.0,12.35,0.0,0,0,0,0.125,12.4,0.0,0,0,0,kReverse,kOff,-87.91,1.82,1.41,0.03765869,-0.84680176,0.119384766,33.03,0.0,-28.0,0.7425995,3.202591,
581.7966349999999,true,true,true,4.125,12.35,0.0,469,-96,0,4.625,12.35,0.0,0,0,0,3.25,12.3,0.0,-66526,-92,0,4.0,12.4,0.0,0,0,0,0.0,12.35,0.0,-2,0,0,0.0,12.35,0.0,0,0,0,0.125,12.4,0.0,0,0,0,kReverse,kOff,-87.86,1.85,1.43,0.038024902,-0.84381104,0.0060424805,33.03,0.0,13.0,0.7445679,3.1972504,
581.819656,true,true,true,4.0,12.3,0.0,445,-101,0,4.5,12.35,0.0,0,0,0,3.0,12.35,0.0,-66549,-97,0,3.875,12.35,0.0,0,0,0,0.0,12.4,0.0,-2,0,0,0.0,12.4,0.0,0,0,0,0.0,12.450000000000001,0.0,0,0,0,kReverse,kOff,-87.88,1.86,1.46,0.016967773,-0.9734497,-0.06933594,33.03,0.0,18.0,0.7445679,3.186386,
581.8392389999999,true,true,true,3.75,12.3,0.0,419,-106,0,4.25,12.35,0.0,0,0,0,2.875,12.35,0.0,-66575,-103,0,3.75,12.35,0.0,0,0,0,0.0,12.4,0.0,-2,0,0,0.0,12.4,0.0,0,0,0,0.0,12.450000000000001,0.0,0,0,0,kReverse,kOff,-87.92,1.86,1.49,0.013305664,-0.98150635,-0.07092285,33.03,0.0,14.0,0.7445679,3.1808014,
581.857166,true,true,true,3.75,12.3,0.0,393,-111,0,4.375,12.35,0.0,0,0,0,2.5,12.35,0.0,-66598,-108,0,3.375,12.35,0.0,0,0,0,0.0,12.4,0.0,-2,0,0,0.0,12.4,0.0,0,0,0,0.0,12.450000000000001,0.0,0,0,0,kReverse,kOff,-87.94,1.86,1.52,0.043029785,-1.0324707,9.1552734E-4,33.03,0.0,14.0,0.7445679,3.1751404,
581.8739879999999,true,true,true,4.125,12.3,0.0,365,-117,0,4.625,12.35,0.0,0,0,0,2.125,12.35,0.0,-66623,-112,0,2.75,12.35,0.0,0,0,0,0.0,12.4,0.0,-2,0,0,0.0,12.4,0.0,0,0,0,0.0,12.450000000000001,0.0,0,0,0,kReverse,kOff,-88.01,1.88,1.63,0.049194336,-0.9981079,-0.0579834,33.03,0.0,40.0,0.7447357,3.1638184,
581.9096229999999,true,true,true,5.0,12.3,0.0,306,-129,0,5.5,12.35,0.0,0,0,0,1.125,12.35,0.0,-66673,-119,0,2.125,12.35,0.0,0,0,0,0.0,12.4,0.0,-2,0,0,0.0,12.4,0.0,0,0,0,0.125,12.450000000000001,0.0,0,0,0,kReverse,kOff,-88.03,1.92,1.76,0.07745361,-1.680542,-0.07470703,33.03,0.0,50.0,0.74523926,3.1520233,
581.9325729999999,true,true,true,5.5,12.3,0.0,275,-134,0,5.875,12.35,0.0,0,0,0,0.875,12.35,0.0,-66697,-122,0,1.5,12.35,0.0,0,0,0,0.0,12.4,0.0,-2,0,0,0.0,12.4,0.0,0,0,0,0.0,12.450000000000001,0.0,0,0,0,kReverse,kOff,-88.02,1.93,1.79,0.11785889,-1.25354,0.018615723,33.03,0.0,66.0,0.7456207,3.1460266,
581.9562559999999,true,true,true,6.375,12.3,0.0,241,-140,0,6.75,12.35,0.0,0,0,0,0.75,12.35,0.0,-66719,-122,0,1.0,12.35,0.0,0,0,0,0.0,12.4,0.0,-2,0,0,0.0,12.4,0.0,0,0,0,0.0,12.450000000000001,0.0,0,0,0,kReverse,kOff,-87.98,1.99,1.89,0.0,-0.68865967,-0.12963867,33.03,0.0,24.0,0.7466583,3.134018,
581.9783849999999,true,true,true,7.875,12.35,0.0,206,-147,0,8.125,12.200000000000001,0.0,0,0,0,0.5,12.25,0.0,-66739,-121,0,0.625,12.25,0.0,0,0,0,0.0,12.25,0.0,-2,0,0,0.0,12.25,0.0,0,0,0,0.125,12.35,0.0,0,0,0,kReverse,kOff,-88.01,1.98,1.93,-0.07489014,-1.1300049,-0.31030273,33.03,0.0,2.0,0.74723816,3.127655,
581.9990429999999,true,true,true,9.25,12.35,0.0,168,-155,0,9.625,12.200000000000001,0.0,0,0,0,0.375,12.25,0.0,-66758,-118,0,0.25,12.25,0.0,0,0,0,0.0,12.25,0.0,-2,0,0,0.0,12.25,0.0,0,0,0,0.125,12.35,0.0,0,0,0,kReverse,kOff,-88.01,1.97,2.04,0.13378906,-1.1876831,-0.11663818,33.03,0.0,124.0,0.7486572,3.1140137,
582.017021,true,true,true,10.0,12.35,0.0,128,-163,0,10.625,12.200000000000001,0.0,0,0,0,0.375,12.25,0.0,-66775,-113,0,0.25,12.25,0.0,0,0,0,0.0,12.25,0.0,-2,0,0,0.0,12.25,0.0,0,0,0,0.125,12.35,0.0,0,0,0,kReverse,kOff,-87.95,2.02,2.12,0.0021972656,-1.2206421,-0.13989258,33.03,0.0,4.0,0.7495117,3.1069336,
582.040262,true,true,true,10.25,12.35,0.0,86,-173,0,10.625,12.200000000000001,0.0,0,0,0,0.375,12.25,0.0,-66794,-106,0,0.25,12.25,0.0,0,0,0,0.125,12.25,0.0,-2,0,0,0.0,12.25,0.0,0,0,0,0.125,12.35,0.0,0,0,0,kReverse,kOff,-87.93,2.03,2.14,-0.059692383,-0.9929199,-0.14813232,33.03,0.0,-45.0,0.75035095,3.0996552,
582.0617219999999,true,true,true,9.75,12.35,0.0,43,-183,0,10.25,12.200000000000001,0.0,0,0,0,0.375,12.25,0.0,-66816,-100,0,0.25,12.25,0.0,0,0,0,0.0,12.25,0.0,-2,0,0,0.0,12.25,0.0,0,0,0,0.125,12.35,0.0,0,0,0,kReverse,kOff,-87.96,1.99,2.11,-0.045898438,-0.9838867,-0.057861328,33.03,0.0,-61.0,0.75172424,3.0849152,
582.0824259999999,true,true,true,9.375,12.35,0.0,-2,-192,0,9.75,12.200000000000001,0.0,0,0,0,0.375,12.25,0.0,-66858,-97,0,0.25,12.25,0.0,0,0,0,0.0,12.25,0.0,-2,0,0,0.0,12.25,0.0,0,0,0,0.125,12.35,0.0,0,0,0,kReverse,kOff,-87.97,1.99,2.09,0.16070557,-0.89434814,-0.073913574,33.03,0.0,143.0,0.75242615,3.0774841,
582.110603,true,true,true,8.5,12.35,0.0,-95,-210,0,9.25,12.200000000000001,0.0,0,0,0,0.375,12.25,0.0,-66878,-99,0,0.25,12.25,0.0,0,0,0,0.0,12.25,0.0,-2,0,0,0.0,12.25,0.0,0,0,0,0.125,12.35,0.0,0,0,0,kReverse,kOff,-87.9,2.07,2.15,0.06817627,-1.2280273,0.05987549,33.03,0.0,5.0,0.7532196,3.070053,
582.1322779999999,true,true,true,8.5,12.35,0.0,-95,-210,0,9.0,12.25,0.0,0,0,0,0.375,12.25,0.0,-66899,-101,0,0.25,12.3,0.0,0,0,0,0.0,12.3,0.0,-2,0,0,0.0,12.3,0.0,0,0,0,0.0,12.35,0.0,0,0,0,kReverse,kOff,-87.97,2.0,2.07,-0.18475342,-0.8312378,-0.12298584,33.03,0.0,-180.0,0.75445557,3.0548553,
582.1546109999999,true,true,true,8.375,12.200000000000001,0.0,-192,-225,0,9.0,12.25,0.0,0,0,0,0.375,12.25,0.0,-66919,-103,0,0.25,12.3,0.0,0,0,0,0.0,12.3,0.0,-2,0,0,0.0,12.3,0.0,0,0,0,0.0,12.35,0.0,0,0,0,kReverse,kOff,-88.06,1.91,1.97,-0.012512207,-1.0058594,0.016723633,33.01,0.0,-49.0,0.7548218,3.0470428,
582.17437,true,true,true,8.375,12.200000000000001,0.0,-242,-231,0,8.875,12.25,0.0,0,0,0,0.375,12.25,0.0,-66939,-103,0,0.25,12.3,0.0,0,0,0,0.0,12.3,0.0,-2,0,0,0.0,12.3,0.0,0,0,0,0.0,12.35,0.0,0,0,0,kReverse,kOff,-88.02,1.96,1.99,-0.037231445,-0.99816895,0.023254395,33.01,0.0,-75.0,0.75546265,3.0317535,
582.195038,true,true,true,8.25,12.200000000000001,0.0,-292,-237,0,8.75,12.25,0.0,0,0,0,0.375,12.25,0.0,-66959,-102,0,0.25,12.3,0.0,0,0,0,0.0,12.3,0.0,-2,0,0,0.0,12.3,0.0,0,0,0,0.125,12.35,0.0,0,0,0,kReverse,kOff,-88.05,1.93,1.97,-0.1430664,-0.6668701,-0.035095215,33.01,0.0,-157.0,0.7556,3.0241394,
582.2167589999999,true,true,true,8.25,12.200000000000001,0.0,-343,-241,0,8.625,12.25,0.0,0,0,0,0.375,12.25,0.0,-66980,-101,0,0.25,12.3,0.0,0,0,0,0.0,12.3,0.0,-2,0,0,0.0,12.3,0.0,0,0,0,0.0,12.35,0.0,0,0,0,kReverse,kOff,-88.26,1.71,1.74,-0.15667725,-1.0124512,-0.10333252,33.01,0.0,-172.0,0.7550049,3.0089111,
582.236978,true,true,true,8.125,12.200000000000001,0.0,-394,-245,0,8.625,12.25,0.0,0,0,0,0.375,12.25,0.0,-67002,-101,0,0.25,12.3,0.0,0,0,0,0.0,12.3,0.0,-2,0,0,0.0,12.3,0.0,0,0,0,0.0,12.35,0.0,0,0,0,kReverse,kOff,-88.27,1.67,1.72,-0.11016846,-0.9394531,-0.08062744,33.01,0.0,-128.0,0.75434875,3.0011292,
582.256269,true,true,true,8.0,12.200000000000001,0.0,-447,-249,0,8.625,12.25,0.0,0,0,0,0.375,12.25,0.0,-67023,-102,0,0.25,12.3,0.0,0,0,0,0.0,12.3,0.0,-2,0,0,0.0,12.3,0.0,0,0,0,0.125,12.35,0.0,0,0,0,kReverse,kOff,-88.29,1.65,1.69,-0.096191406,-0.9397583,-0.0068969727,33.01,0.0,-122.0,0.7535095,2.9933014,
582.279997,true,true,true,7.875,12.200000000000001,0.0,-500,-252,0,8.375,12.25,0.0,0,0,0,0.375,12.25,0.0,-67043,-103,0,0.25,12.3,0.0,0,0,0,0.0,12.35,0.0,-2,0,0,0.0,12.3,0.0,0,0,0,0.125,12.4,0.0,0,0,0,kReverse,kOff,-88.31,1.64,1.66,-0.1352539,-1.2683716,-0.168396,33.01,0.0,-162.0,0.7513428,2.993164,
582.3014929999999,true,true,true,7.875,12.200000000000001,0.0,-552,-255,0,8.25,12.25,0.0,0,0,0,0.375,12.3,0.0,-67085,-104,0,0.25,12.35,0.0,0,0,0,0.0,12.35,0.0,-2,0,0,0.0,12.35,0.0,0,0,0,0.125,12.4,0.0,0,0,0,kReverse,kOff,-88.31,1.62,1.64,-0.10681152,-0.98651123,-0.038391113,33.01,0.0,-133.0,0.7499542,2.9929047,
582.3212799999999,true,true,true,7.75,12.200000000000001,0.0,-606,-258,0,8.125,12.25,0.0,0,0,0,0.375,12.3,0.0,-67085,-104,0,0.25,12.35,0.0,0,0,0,0.0,12.35,0.0,-2,0,0,0.0,12.35,0.0,0,0,0,0.125,12.4,0.0,0,0,0,kReverse,kOff,-88.29,1.64,1.64,-0.13635254,-1.1452637,0.04321289,33.01,0.0,-168.0,0.7468109,2.9924316,
582.3445099999999,true,true,true,7.5,12.200000000000001,0.0,-661,-261,0,7.875,12.25,0.0,0,0,0,0.375,12.3,0.0,-67125,-103,0,0.25,12.35,0.0,0,0,0,0.0,12.35,0.0,-2,0,0,0.0,12.35,0.0,0,0,0,0.125,12.4,0.0,0,0,0,kReverse,kOff,-88.32,1.6,1.59,-0.24279785,-0.9470825,-0.121154785,33.01,0.0,-272.0,0.74487305,2.9921875,
582.366213,true,true,true,7.0,12.200000000000001,0.0,-716,-264,0,6.375,12.25,0.0,0,0,0,0.75,12.3,0.0,-67146,-103,0,0.375,12.35,0.0,0,0,0,0.0,12.35,0.0,-2,0,0,0.0,12.35,0.0,0,0,0,0.125,12.4,0.0,0,0,0,kReverse,kOff,-88.43,1.46,1.42,-0.06567383,-0.8057251,-0.09069824,33.01,0.0,-91.0,0.7402344,2.9917145,
582.39018,true,true,true,3.875,12.200000000000001,0.0,-821,-268,0,4.5,12.25,0.0,0,0,0,1.25,12.3,0.0,-67172,-103,0,1.25,12.35,0.0,0,0,0,0.0,12.35,0.0,-2,0,0,0.0,12.35,0.0,0,0,0,0.0,12.4,0.0,0,0,0,kReverse,kOff,-88.43,1.44,1.39,-0.21325684,-0.93847656,-0.021362305,33.01,0.0,-236.0,0.73760986,2.991455,
582.413239,true,true,true,2.0,12.200000000000001,0.0,-866,-268,0,3.0,12.25,0.0,0,0,0,1.75,12.3,0.0,-67205,-106,0,2.125,12.35,0.0,0,0,0,0.0,12.35,0.0,-2,0,0,0.0,12.35,0.0,0,0,0,0.0,12.4,0.0,0,0,0,kReverse,kOff,-88.61,1.31,1.25,-0.2140503,-0.72106934,0.11804199,33.01,0.0,-211.0,0.7314453,2.991272,
582.4327509999999,true,true,true,1.0,12.200000000000001,0.0,-914,-265,0,1.0,12.25,0.0,0,0,0,2.375,12.3,0.0,-67235,-114,0,3.0,12.35,0.0,0,0,0,0.0,12.35,0.0,-2,0,0,0.0,12.35,0.0,0,0,0,0.0,12.4,0.0,0,0,0,kReverse,kOff,-88.67,1.28,1.23,-0.09289551,-0.90625,0.15344238,33.01,0.0,-87.0,0.7280121,2.991516,
582.4534739999999,true,true,true,0.75,12.450000000000001,0.0,-964,-259,0,0.625,12.450000000000001,0.0,0,0,0,3.125,12.35,0.0,-67261,-123,0,3.75,12.450000000000001,0.0,0,0,0,0.0,12.450000000000001,0.0,-2,0,0,0.0,12.450000000000001,0.0,0,0,0,0.0,12.5,0.0,0,0,0,kReverse,kOff,-88.83,1.13,1.08,-0.18304443,-1.0580444,0.19683838,33.01,0.0,-162.0,0.7206421,2.992981,
582.474394,true,true,true,0.625,12.450000000000001,0.0,-1008,-253,0,0.625,12.450000000000001,0.0,0,0,0,3.375,12.35,0.0,-67291,-132,0,4.25,12.450000000000001,0.0,0,0,0,0.0,12.450000000000001,0.0,-2,0,0,0.0,12.450000000000001,0.0,0,0,0,0.0,12.5,0.0,0,0,0,kReverse,kOff,-88.93,1.04,1.0,-0.1329956,-0.7512207,0.105041504,33.01,0.0,-122.0,0.71665955,2.9941406,
582.4932739999999,true,true,true,0.625,12.450000000000001,0.0,-1055,-246,0,0.625,12.450000000000001,0.0,0,0,0,3.5,12.35,0.0,-67321,-138,0,4.5,12.450000000000001,0.0,0,0,0,0.0,12.450000000000001,0.0,-2,0,0,0.0,12.450000000000001,0.0,0,0,0,0.0,12.5,0.0,0,0,0,kReverse,kOff,-88.99,0.96,0.9,-0.16784668,-1.0501099,0.12390137,33.01,0.0,-154.0,0.71247864,2.995514,
582.514923,true,true,true,0.625,12.450000000000001,0.0,-1103,-240,0,0.625,12.450000000000001,0.0,0,0,0,3.25,12.35,0.0,-67352,-143,0,4.25,12.450000000000001,0.0,0,0,0,0.0,12.450000000000001,0.0,-2,0,0,0.0,12.450000000000001,0.0,0,0,0,0.125,12.5,0.0,0,0,0,kReverse,kOff,-89.23,0.65,0.56,-0.20483398,-0.91259766,-0.09790039,33.01,0.0,-230.0,0.703125,2.998764,
582.544636,true,true,true,0.625,12.450000000000001,0.0,-1149,-237,0,0.625,12.450000000000001,0.0,0,0,0,3.125,12.35,0.0,-67383,-145,0,3.875,12.450000000000001,0.0,0,0,0,0.0,12.450000000000001,0.0,-2,0,0,0.0,12.450000000000001,0.0,0,0,0,0.125,12.5,0.0,0,0,0,kReverse,kOff,-89.32,0.64,0.58,0.05871582,-0.9472046,0.054382324,33.01,0.0,60.0,0.69306946,3.0020752,
582.569589,true,true,true,0.75,12.450000000000001,0.0,-1241,-234,0,0.625,12.450000000000001,0.0,0,0,0,3.0,12.35,0.0,-67449,-150,0,3.75,12.450000000000001,0.0,0,0,0,0.0,12.450000000000001,0.0,-2,0,0,0.0,12.450000000000001,0.0,0,0,0,0.0,12.5,0.0,0,0,0,kReverse,kOff,-89.29,0.69,0.67,0.040039062,-1.0923462,0.11987305,33.01,0.0,56.0,0.68814087,3.0038605,
582.5907639999999,true,true,true,0.875,12.450000000000001,0.0,-1285,-232,0,0.75,12.450000000000001,0.0,0,0,0,2.875,12.35,0.0,-67481,-154,0,3.625,12.450000000000001,0.0,0,0,0,0.0,12.450000000000001,0.0,-2,0,0,0.0,12.450000000000001,0.0,0,0,0,0.0,12.5,0.0,0,0,0,kReverse,kOff,-89.23,0.75,0.78,-0.045288086,-1.0759888,0.22155762,33.01,0.0,0.0,0.6832428,3.0079956,
582.613414,true,true,true,1.25,12.450000000000001,0.0,-1329,-230,0,1.25,12.450000000000001,0.0,0,0,0,2.5,12.450000000000001,0.0,-67516,-159,0,3.375,12.450000000000001,0.0,0,0,0,0.0,12.450000000000001,0.0,-2,0,0,0.0,12.450000000000001,0.0,0,0,0,0.0,12.55,0.0,0,0,0,kReverse,kOff,-89.18,0.79,0.84,-0.19311523,-1.9363403,0.53466797,33.01,0.0,-72.0,0.683197,3.0107422,
582.633882,true,true,true,1.5,12.450000000000001,0.0,-1368,-226,0,1.375,12.450000000000001,0.0,0,0,0,2.125,12.450000000000001,0.0,-67554,-163,0,3.125,12.450000000000001,0.0,0,0,0,0.0,12.450000000000001,0.0,-2,0,0,0.0,12.450000000000001,0.0,0,0,0,0.125,12.55,0.0,0,0,0,kReverse,kOff,-88.95,1.01,0.94,-0.1795044,-0.12835693,-0.11682129,33.01,0.0,-205.0,0.6828003,3.0181885,
582.654429,true,true,true,1.75,12.450000000000001,0.0,-1412,-221,0,1.625,12.450000000000001,0.0,0,0,0,1.75,12.450000000000001,0.0,-67594,-169,0,3.0,12.450000000000001,0.0,0,0,0,0.125,12.450000000000001,0.0,-2,0,0,0.0,12.450000000000001,0.0,0,0,0,0.125,12.55,0.0,0,0,0,kReverse,kOff,-88.78,0.98,0.79,0.115478516,-0.80529785,-0.066223145,32.95,0.0,83.0,0.6824341,3.021988,
582.675269,true,true,true,1.75,12.450000000000001,0.0,-1451,-217,0,1.75,12.450000000000001,0.0,0,0,0,1.375,12.450000000000001,0.0,-67635,-176,0,2.75,12.450000000000001,0.0,0,0,0,0.0,12.450000000000001,0.0,-2,0,0,0.0,12.450000000000001,0.0,0,0,0,0.125,12.55,0.0,0,0,0,kReverse,kOff,-88.39,1.06,0.73,0.41705322,-0.5543823,-0.51678467,32.95,0.0,261.0,0.6828613,3.028885,
582.695849,true,true,true,2.0,12.450000000000001,0.0,-1490,-212,0,2.0,12.450000000000001,0.0,0,0,0,1.25,12.450000000000001,0.0,-67675,-183,0,2.25,12.450000000000001,0.0,0,0,0,0.0,12.450000000000001,0.0,-2,0,0,0.0,12.450000000000001,0.0,0,0,0,0.125,12.55,0.0,0,0,0,kReverse,kOff,-88.38,1.11,0.8,0.50286865,-1.0940552,-0.13244629,32.95,0.0,435.0,0.6837921,3.0315247,
582.7169819999999,true,true,true,2.125,12.450000000000001,0.0,-1531,-208,0,2.375,12.450000000000001,0.0,0,0,0,1.25,12.450000000000001,0.0,-67714,-190,0,2.5,12.450000000000001,0.0,0,0,0,0.0,12.450000000000001,0.0,-2,0,0,0.0,12.450000000000001,0.0,0,0,0,0.125,12.55,0.0,0,0,0,kReverse,kOff,-88.86,0.72,0.48,-0.48327637,-0.82281494,-0.43096924,32.95,0.0,-588.0,0.68556213,3.0357056,
582.7464469999999,true,true,true,2.25,12.450000000000001,0.0,-1572,-205,0,2.625,12.450000000000001,0.0,0,0,0,1.75,12.450000000000001,0.0,-67789,-196,0,3.0,12.450000000000001,0.0,0,0,0,0.0,12.450000000000001,0.0,-2,0,0,0.0,12.450000000000001,0.0,0,0,0,0.0,12.55,0.0,0,0,0,kReverse,kOff,-89.25,0.62,0.51,-0.015563965,-0.45251465,-0.71417236,32.95,0.0,-207.0,0.6852722,3.0390167,
582.772193,true,true,true,2.625,12.4,0.0,-1649,-202,0,3.0,12.4,0.0,0,0,0,2.0,12.4,0.0,-67826,-195,0,3.125,12.4,0.0,0,0,0,0.0,12.450000000000001,0.0,-2,0,0,0.0,12.4,0.0,0,0,0,0.0,12.450000000000001,0.0,0,0,0,kReverse,kOff,-89.29,0.57,0.46,0.16394043,-1.0482178,-0.37036133,32.95,0.0,53.0,0.684845,3.0397797,
582.79333,true,true,true,3.25,12.4,0.0,-1682,-198,0,3.375,12.4,0.0,0,0,0,2.125,12.4,0.0,-67862,-192,0,3.125,12.4,0.0,0,0,0,0.0,12.450000000000001,0.0,-2,0,0,0.0,12.4,0.0,0,0,0,0.0,12.450000000000001,0.0,0,0,0,kReverse,kOff,-89.2,0.79,0.75,0.20172119,-1.673645,-0.4656372,32.95,0.0,53.0,0.684494,3.0399323,
582.8117729999999,true,true,true,3.75,12.4,0.0,-1715,-193,0,3.875,12.4,0.0,0,0,0,2.375,12.4,0.0,-67896,-189,0,3.25,12.4,0.0,0,0,0,0.0,12.450000000000001,0.0,-2,0,0,0.0,12.4,0.0,0,0,0,0.125,12.450000000000001,0.0,0,0,0,kReverse,kOff,-88.96,0.88,1.02,-0.3829956,-0.8458252,-0.23510742,32.95,0.0,-445.0,0.6828766,3.038498,
582.831576,true,true,true,3.75,12.4,0.0,-1751,-186,0,4.125,12.4,0.0,0,0,0,2.5,12.4,0.0,-67932,-185,0,3.375,12.4,0.0,0,0,0,0.0,12.450000000000001,0.0,-2,0,0,0.0,12.4,0.0,0,0,0,0.125,12.450000000000001,0.0,0,0,0,kReverse,kOff,-88.89,0.8,1.0,-0.2140503,-0.64538574,0.08972168,32.95,0.0,-194.0,0.6813812,3.0375671,
582.8528809999999,true,true,true,3.5,12.4,0.0,-1789,-180,0,3.875,12.4,0.0,0,0,0,2.375,12.4,0.0,-67970,-182,0,3.25,12.4,0.0,0,0,0,0.125,12.450000000000001,0.0,-2,0,0,0.0,12.4,0.0,0,0,0,0.125,12.450000000000001,0.0,0,0,0,kReverse,kOff,-88.89,0.76,0.97,0.20355225,-0.72424316,0.24029541,32.95,0.0,246.0,0.678772,3.036377,
582.8730149999999,true,true,true,3.0,12.4,0.0,-1830,-177,0,3.25,12.4,0.0,0,0,0,2.0,12.4,0.0,-68009,-181,0,3.125,12.4,0.0,0,0,0,0.125,12.450000000000001,0.0,-2,0,0,0.0,12.4,0.0,0,0,0,0.125,12.450000000000001,0.0,0,0,0,kReverse,kOff,-88.73,0.99,1.2,0.14807129,-1.4498901,0.51330566,32.95,0.0,246.0,0.6779938,3.0363617,
582.893124,true,true,true,2.875,12.4,0.0,-1868,-178,0,3.125,12.4,0.0,0,0,0,1.75,12.4,0.0,-68049,-182,0,3.0,12.4,0.0,0,0,0,0.0,12.450000000000001,0.0,-2,0,0,0.0,12.4,0.0,0,0,0,0.125,12.450000000000001,0.0,0,0,0,kReverse,kOff,-88.63,1.12,1.33,-0.38867188,-2.0,1.1193848,32.95,0.0,-133.0,0.67729187,3.037445,
582.913857,true,true,true,3.0,12.4,0.0,-1902,-181,0,3.125,12.4,0.0,0,0,0,1.625,12.4,0.0,-68089,-185,0,2.875,12.4,0.0,0,0,0,0.0,12.450000000000001,0.0,-2,0,0,0.0,12.4,0.0,0,0,0,0.125,12.450000000000001,0.0,0,0,0,kReverse,kOff,-88.57,1.21,1.39,0.13140869,-0.24822998,0.5827637,32.95,0.0,262.0,0.6758728,3.0435638,
582.934267,true,true,true,3.375,12.4,0.0,-1934,-184,0,3.5,12.35,0.0,0,0,0,1.375,12.35,0.0,-68130,-189,0,2.75,12.35,0.0,0,0,0,0.0,12.4,0.0,-2,0,0,0.0,12.4,0.0,0,0,0,0.125,12.450000000000001,0.0,0,0,0,kReverse,kOff,-88.36,1.36,1.58,0.51519775,-2.0,-0.31610107,32.95,0.0,372.0,0.67567444,3.0471954,
582.9539719999999,true,true,true,3.875,12.4,0.0,-1965,-183,0,4.125,12.35,0.0,0,0,0,1.375,12.35,0.0,-68168,-194,0,2.5,12.35,0.0,0,0,0,0.0,12.4,0.0,-2,0,0,0.0,12.4,0.0,0,0,0,0.125,12.450000000000001,0.0,0,0,0,kReverse,kOff,-88.22,1.63,1.8,0.54473877,-0.55999756,-0.59198,32.95,0.0,376.0,0.6759949,3.0500488,
582.97412,true,true,true,4.25,12.4,0.0,-1996,-178,0,4.5,12.35,0.0,0,0,0,1.625,12.35,0.0,-68204,-196,0,3.0,12.35,0.0,0,0,0,0.0,12.4,0.0,-2,0,0,0.0,12.4,0.0,0,0,0,0.125,12.450000000000001,0.0,0,0,0,kReverse,kOff,-87.45,2.37,2.59,0.58239746,-0.472229,-0.48614502,32.95,0.0,431.0,0.6781616,3.0522614,
582.9940889999999,true,true,true,4.0,12.4,0.0,-2033,-172,0,4.375,12.35,0.0,0,0,0,2.375,12.35,0.0,-68236,-195,0,3.25,12.35,0.0,0,0,0,0.0,12.4,0.0,-2,0,0,0.0,12.4,0.0,0,0,0,0.125,12.450000000000001,0.0,0,0,0,kReverse,kOff,-87.45,2.37,2.59,0.58239746,-0.472229,-0.48614502,32.95,0.0,431.0,0.6781616,3.0522614,
583.014737,true,true,true,3.375,12.4,0.0,-2074,-168,0,3.75,12.35,0.0,0,0,0,2.875,12.35,0.0,-68267,-190,0,3.625,12.35,0.0,0,0,0,0.0,12.4,0.0,-2,0,0,0.0,12.4,0.0,0,0,0,0.125,12.450000000000001,0.0,0,0,0,kReverse,kOff,-87.47,1.29,1.82,-0.33270264,-0.34118652,0.08996582,32.95,0.0,-312.0,0.6819916,3.053299,
583.036345,true,true,true,2.625,12.4,0.0,-2115,-169,0,3.125,12.35,0.0,0,0,0,3.125,12.35,0.0,-68299,-183,0,3.875,12.35,0.0,0,0,0,0.0,12.4,0.0,-2,0,0,0.0,12.4,0.0,0,0,0,0.125,12.450000000000001,0.0,0,0,0,kReverse,kOff,-87.47,1.29,1.82,-0.33270264,-0.34118652,0.08996582,32.95,0.0,-312.0,0.6819916,3.053299,
583.057818,true,true,true,1.625,12.4,0.0,-2159,-177,0,1.75,12.35,0.0,0,0,0,2.625,12.35,0.0,-68335,-175,0,3.625,12.35,0.0,0,0,0,0.0,12.4,0.0,-2,0,0,0.0,12.4,0.0,0,0,0,0.125,12.450000000000001,0.0,0,0,0,kReverse,kOff,-87.37,1.18,1.75,-0.062194824,0.21026611,-0.1496582,32.95,0.0,-89.0,0.6825409,3.0539246,
583.0778329999999,true,true,true,1.0,12.4,0.0,-2199,-188,0,1.25,12.35,0.0,0,0,0,2.125,12.35,0.0,-68369,-169,0,2.875,12.35,0.0,0,0,0,0.125,12.4,0.0,-2,0,0,0.0,12.4,0.0,0,0,0,0.125,12.65,0.0,0,0,0,kReverse,kOff,-87.38,0.89,1.5,1.999939,-2.0,1.999939,32.95,0.0,2372.0,0.6849823,3.0563354,
583.101063,true,true,true,0.75,12.6,0.0,-2233,-197,0,0.625,12.6,0.0,0,0,0,1.25,12.55,0.0,-68402,-166,0,1.25,12.6,0.0,0,0,0,0.0,12.6,0.0,-2,0,0,0.0,12.6,0.0,0,0,0,0.125,12.65,0.0,0,0,0,kReverse,kOff,-86.89,0.78,1.54,0.24475098,-2.0,-0.8765869,32.95,0.0,-30.0,0.6885834,3.0583344,
583.121259,true,true,true,0.625,12.6,0.0,-2266,-200,0,0.625,12.6,0.0,0,0,0,0.5,12.55,0.0,-68435,-166,0,1.25,12.6,0.0,0,0,0,0.0,12.6,0.0,-2,0,0,0.0,12.6,0.0,0,0,0,0.125,12.65,0.0,0,0,0,kReverse,kOff,-87.95,1.02,1.44,0.031982422,-2.0,0.90234375,32.95,0.0,192.0,0.69706726,3.0651855,
583.1387359999999,true,true,true,0.75,12.6,0.0,-2299,-197,0,0.625,12.6,0.0,0,0,0,0.5,12.55,0.0,-68470,-167,0,0.625,12.6,0.0,0,0,0,0.0,12.6,0.0,-2,0,0,0.0,12.6,0.0,0,0,0,0.125,12.65,0.0,0,0,0,kReverse,kOff,-88.19,1.01,1.36,1.2724609,-2.0,-0.14111328,32.95,0.0,1158.0,0.70248413,3.069748,
583.164629,true,true,true,0.875,12.6,0.0,-2332,-189,0,0.75,12.6,0.0,0,0,0,0.5,12.55,0.0,-68542,-170,0,0.625,12.6,0.0,0,0,0,0.0,12.6,0.0,-2,0,0,0.0,12.6,0.0,0,0,0,0.125,12.65,0.0,0,0,0,kReverse,kOff,-87.93,1.75,2.0,0.36187744,0.055114746,0.5105591,32.95,0.0,468.0,0.70903015,3.0742645,
583.183279,true,true,true,1.0,12.6,0.0,-2363,-179,0,0.75,12.6,0.0,0,0,0,0.5,12.55,0.0,-68578,-172,0,0.375,12.6,0.0,0,0,0,0.0,12.6,0.0,-2,0,0,0.0,12.6,0.0,0,0,0,0.125,12.65,0.0,0,0,0,kReverse,kOff,-87.11,2.02,2.47,0.1829834,-0.7907715,0.28216553,32.92,0.0,205.0,0.7289734,3.088379,
583.2166649999999,true,true,true,1.25,12.6,0.0,-2425,-164,0,1.25,12.6,0.0,0,0,0,0.5,12.55,0.0,-68614,-174,0,0.375,12.6,0.0,0,0,0,0.0,12.6,0.0,-2,0,0,0.0,12.6,0.0,0,0,0,0.125,12.65,0.0,0,0,0,kReverse,kOff,-86.78,2.03,2.56,-0.012451172,-0.861084,-0.11975098,32.92,0.0,-74.0,0.7421875,3.0979462,
583.2453449999999,true,true,true,1.25,12.6,0.0,-2456,-160,0,1.375,12.6,0.0,0,0,0,0.5,12.55,0.0,-68686,-179,0,0.375,12.6,0.0,0,0,0,0.125,12.6,0.0,-2,0,0,0.0,12.6,0.0,0,0,0,0.125,12.65,0.0,0,0,0,kReverse,kOff,-86.62,1.96,2.54,0.050598145,-1.6169434,0.14459229,32.92,0.0,8.0,0.748703,3.1026154,
583.2677679999999,true,true,true,1.25,12.6,0.0,-2486,-157,0,1.25,12.6,0.0,0,0,0,0.5,12.55,0.0,-68721,-180,0,0.375,12.6,0.0,0,0,0,0.125,12.6,0.0,-2,0,0,0.0,12.6,0.0,0,0,0,0.125,12.65,0.0,0,0,0,kReverse,kOff,-86.35,2.07,2.7,-0.03137207,-1.0424194,-0.34857178,32.92,0.0,-150.0,0.7551117,3.107071,
583.2853909999999,true,true,true,1.25,12.6,0.0,-2516,-155,0,1.25,12.6,0.0,0,0,0,0.5,12.55,0.0,-68756,-179,0,0.625,12.6,0.0,0,0,0,0.125,12.6,0.0,-2,0,0,0.0,12.6,0.0,0,0,0,0.125,12.65,0.0,0,0,0,kReverse,kOff,-85.73,2.28,3.03,0.32739258,-0.8198242,-0.02142334,32.92,0.0,273.0,0.76808167,3.1151428,
583.305798,true,true,true,1.125,12.6,0.0,-2547,-154,0,1.0,12.6,0.0,0,0,0,0.5,12.55,0.0,-68786,-178,0,0.625,12.6,0.0,0,0,0,0.125,12.6,0.0,-2,0,0,0.0,12.6,0.0,0,0,0,0.0,12.65,0.0,0,0,0,kReverse,kOff,-85.49,2.35,3.15,0.023742676,-0.67541504,0.93304443,32.92,0.0,177.0,0.77500916,3.1196136,
583.3295129999999,true,true,true,0.75,12.6,0.0,-2606,-152,0,0.75,12.6,0.0,0,0,0,0.5,12.55,0.0,-68814,-174,0,0.625,12.6,0.0,0,0,0,0.125,12.6,0.0,-2,0,0,0.0,12.6,0.0,0,0,0,0.0,12.65,0.0,0,0,0,kReverse,kOff,-84.93,2.2,3.18,-0.05267334,-0.49743652,0.028076172,32.92,0.0,-72.0,0.78878784,3.1307983,
583.351333,true,true,true,0.5,12.6,0.0,-2632,-151,0,0.625,12.6,0.0,0,0,0,0.375,12.55,0.0,-68839,-167,0,0.375,12.6,0.0,0,0,0,0.0,12.6,0.0,-2,0,0,0.0,12.6,0.0,0,0,0,0.0,12.65,0.0,0,0,0,kReverse,kOff,-84.98,2.16,3.15,0.10418701,-0.37835693,0.036865234,32.92,0.0,89.0,0.7956238,3.1365662,
583.3708169999999,true,true,true,0.375,12.6,0.0,-2655,-147,0,0.375,12.6,0.0,0,0,0,0.375,12.55,0.0,-68861,-157,0,0.25,12.6,0.0,0,0,0,0.0,12.6,0.0,-2,0,0,0.0,12.6,0.0,0,0,0,0.125,12.65,0.0,0,0,0,kReverse,kOff,-85.4,2.32,3.19,0.002319336,-1.3965454,-0.072143555,32.92,0.0,-89.0,0.8099518,3.1480408,
583.3926619999999,true,true,true,0.125,12.6,0.0,-2687,-142,0,0.125,12.6,0.0,0,0,0,0.125,12.55,0.0,-68889,-147,0,0.25,12.6,0.0,0,0,0,0.0,12.6,0.0,-2,0,0,0.0,12.6,0.0,0,0,0,0.125,12.65,0.0,0,0,0,kReverse,kOff,-86.0,2.19,2.92,-0.74938965,-1.4887695,-0.15948486,32.92,0.0,-839.0,0.8165283,3.153595,
583.41319,true,true,true,0.125,12.75,0.0,-2724,-140,0,0.125,12.75,0.0,0,0,0,0.125,12.700000000000001,0.0,-68922,-139,0,0.125,12.75,0.0,0,0,0,0.0,12.75,0.0,-2,0,0,0.0,12.75,0.0,0,0,0,0.125,12.8,0.0,0,0,0,kReverse,kOff,-86.48,1.81,2.46,-0.27087402,-0.101623535,0.390625,32.92,0.0,-187.0,0.8224182,3.1593933,
583.433132,true,true,true,0.125,12.75,0.0,-2760,-142,0,0.125,12.75,0.0,0,0,0,0.125,12.700000000000001,0.0,-68947,-135,0,0.125,12.75,0.0,0,0,0,0.0,12.75,0.0,-2,0,0,0.0,12.75,0.0,0,0,0,0.125,12.8,0.0,0,0,0,kReverse,kOff,-86.84,1.77,2.3,0.31756592,-0.9412842,-0.023742676,32.92,0.0,269.0,0.83461,3.1726685,
583.4524879999999,true,true,true,0.125,12.75,0.0,-2790,-148,0,0.125,12.75,0.0,0,0,0,0.125,12.700000000000001,0.0,-68968,-133,0,0.125,12.75,0.0,0,0,0,0.0,12.75,0.0,-2,0,0,0.0,12.75,0.0,0,0,0,0.125,12.8,0.0,0,0,0,kReverse,kOff,-86.98,1.89,2.37,0.08868408,-1.0842896,-0.59069824,32.92,0.0,-74.0,0.8410034,3.178955,
583.4733789999999,true,true,true,0.125,12.75,0.0,-2814,-154,0,0.125,12.75,0.0,0,0,0,0.125,12.700000000000001,0.0,-68988,-131,0,0.125,12.75,0.0,0,0,0,0.0,12.75,0.0,-2,0,0,0.0,12.75,0.0,0,0,0,0.125,12.8,0.0,0,0,0,kReverse,kOff,-86.39,1.91,2.57,-0.022766113,-1.1710815,0.1663208,32.92,0.0,-38.0,0.85383606,3.1902618,
583.493802,true,true,true,0.125,12.75,0.0,-2832,-156,0,0.125,12.75,0.0,0,0,0,0.125,12.700000000000001,0.0,-69007,-127,0,0.125,12.75,0.0,0,0,0,0.0,12.75,0.0,-2,0,0,0.0,12.75,0.0,0,0,0,0.125,12.8,0.0,0,0,0,kReverse,kOff,-85.83,1.94,2.75,0.15319824,-0.95977783,0.31848145,32.92,0.0,172.0,0.8603668,3.1960907,
583.515002,true,true,true,0.125,12.75,0.0,-2848,-149,0,0.125,12.75,0.0,0,0,0,0.125,12.700000000000001,0.0,-69024,-120,0,0.125,12.75,0.0,0,0,0,0.0,12.75,0.0,-2,0,0,0.0,12.75,0.0,0,0,0,0.125,12.8,0.0,0,0,0,kReverse,kOff,-85.54,1.93,2.83,-0.0032958984,-1.1670532,0.35650635,32.92,0.0,18.0,0.8670349,3.2022705,
583.536208,true,true,true,0.125,12.75,0.0,-2863,-135,0,0.125,12.75,0.0,0,0,0,0.125,12.700000000000001,0.0,-69040,-110,0,0.125,12.75,0.0,0,0,0,0.0,12.75,0.0,-2,0,0,0.0,12.75,0.0,0,0,0,0.125,12.8,0.0,0,0,0,kReverse,kOff,-85.34,2.01,2.97,0.056518555,-0.78308105,0.12774658,32.92,0.0,43.0,0.8804321,3.2155151,
583.5567309999999,true,true,true,0.125,12.75,0.0,-2882,-116,0,0.125,12.75,0.0,0,0,0,0.125,12.700000000000001,0.0,-69056,-99,0,0.125,12.75,0.0,0,0,0,0.0,12.75,0.0,-2,0,0,0.0,12.75,0.0,0,0,0,0.125,12.8,0.0,0,0,0,kReverse,kOff,-85.17,2.12,3.13,-0.05340576,-0.5430908,0.059387207,32.92,0.0,-67.0,0.887146,3.22229,
583.5804009999999,true,true,true,0.125,12.75,0.0,-2904,-101,0,0.125,12.75,0.0,0,0,0,0.125,12.700000000000001,0.0,-69074,-91,0,0.125,12.75,0.0,0,0,0,0.0,12.75,0.0,-2,0,0,0.0,12.75,0.0,0,0,0,0.125,12.8,0.0,0,0,0,kReverse,kOff,-84.79,2.17,3.28,0.119506836,-1.0227051,1.0303345,32.92,0.0,292.0,0.90104675,3.2368774,
583.602505,true,true,true,0.125,12.75,0.0,-2927,-93,0,0.125,12.75,0.0,0,0,0,0.125,12.700000000000001,0.0,-69092,-87,0,0.125,12.75,0.0,0,0,0,0.0,12.75,0.0,-2,0,0,0.0,12.75,0.0,0,0,0,0.125,12.8,0.0,0,0,0,kReverse,kOff,-84.86,2.14,3.23,0.024169922,-1.1660767,0.39819336,32.92,0.0,49.0,0.9084015,3.2453613,
583.6214299999999,true,true,true,0.125,12.75,0.0,-2948,-93,0,0.125,12.75,0.0,0,0,0,0.125,12.700000000000001,0.0,-69109,-85,0,0.125,12.75,0.0,0,0,0,0.0,12.75,0.0,-2,0,0,0.0,12.75,0.0,0,0,0,0.125,12.8,0.0,0,0,0,kReverse,kOff,-85.21,2.02,3.04,-0.0715332,-1.1325684,-0.033447266,32.92,0.0,-135.0,0.91571045,3.2539673,
583.6436819999999,true,true,true,0.125,12.75,0.0,-2970,-97,0,0.125,12.75,0.0,0,0,0,0.125,12.700000000000001,0.0,-69139,-84,0,0.125,12.75,0.0,0,0,0,0.0,12.75,0.0,-2,0,0,0.0,12.75,0.0,0,0,0,0.125,12.8,0.0,0,0,0,kReverse,kOff,-85.48,1.82,2.83,-0.06677246,-1.1259155,-0.14678955,32.92,0.0,-153.0,0.9295807,3.270279,
583.665259,true,true,true,0.125,12.75,0.0,-2990,-102,0,0.125,12.75,0.0,0,0,0,0.125,12.700000000000001,0.0,-69151,-83,0,0.125,12.75,0.0,0,0,0,0.0,12.75,0.0,-2,0,0,0.0,12.75,0.0,0,0,0,0.125,12.8,0.0,0,0,0,kReverse,kOff,-85.36,1.74,2.81,-0.03845215,-0.9492798,0.0758667,32.92,0.0,-64.0,0.9362335,3.2781372,
