timer,lineLeft,lineCenter,lineRight,LeftFrontCurrent,LeftFrontVoltage,LeftFrontValue,LeftFrontPosition,LeftFrontVelocity,LeftFrontFaults,LeftRearCurrent,LeftRearVoltage,LeftRearValue,LeftRearPosition,LeftRearVelocity,LeftRearFaults,RightFrontCurrent,RightFrontVoltage,RightFrontValue,RightFrontPosition,RightFrontVelocity,RightFrontFaults,RightRearCurrent,RightRearVoltage,RightRearValue,RightRearPosition,RightRearVelocity,RightRearFaults,LiftCurrent,LiftVoltage,LiftValue,LiftPosition,LiftVelocity,LiftFaults,WristCurrent,WristVoltage,WristValue,WristPosition,WristVelocity,WristFaults,RollerCurrent,RollerVoltage,RollerValue,RollerPosition,RollerVelocity,RollerFaults,PushersState,PivotsState,navx_Pitch,navx_Roll,navx_Yaw,navx_XAcc,navx_YAcc,navx_ZAcc,navx_Temp,navx_Bar,navx_Alt,navx_XDis,navx_YDis,
25.918674,true,true,true,0.125,12.75,0.0,0,0,0,0.125,12.75,0.0,0,0,0,0.125,12.75,0.0,0,0,0,0.125,12.75,0.0,0,0,0,0.0,12.75,0.0,0,0,0,0.0,12.75,0.0,0,0,0,0.125,12.8,0.0,0,0,0,kReverse,kOff,-85.82,1.55,1.47,0.024169922,-0.98376465,0.06707764,32.47,0.0,-2.0,0.0,0.0,
26.006667999999998,true,true,true,0.125,12.75,0.0,0,0,0,0.125,12.75,0.0,0,0,0,0.125,12.75,0.0,0,0,0,0.125,12.75,0.0,0,0,0,0.0,12.75,0.0,0,0,0,0.0,12.75,0.0,0,0,0,0.125,12.8,0.0,0,0,0,kReverse,kOff,-85.82,1.55,1.47,0.029541016,-0.98394775,0.06854248,32.47,0.0,2.0,0.0,0.0,
26.035988999999997,true,true,true,0.125,12.75,0.0,0,0,0,0.125,12.75,0.0,0,0,0,0.125,12.75,0.0,0,0,0,0.125,12.75,0.0,0,0,0,0.0,12.75,0.0,0,0,0,0.0,12.75,0.0,0,0,0,0.125,12.8,0.0,0,0,0,kReverse,kOff,-85.81,1.56,1.47,0.026855469,-0.9813843,0.06427002,32.47,0.0,0.0,0.0,0.0,
26.084681999999997,true,true,true,0.125,12.75,0.0,0,0,0,0.125,12.75,0.0,0,0,0,0.125,12.75,0.0,0,0,0,0.125,12.75,0.0,0,0,0,0.125,12.75,0.0,0,0,0,0.0,12.75,0.0,0,0,0,0.125,12.8,0.0,0,0,0,kReverse,kOff,-85.81,1.55,1.47,0.023864746,-0.9822998,0.06750488,32.47,0.0,-2.0,0.0,0.0,
26.134220999999997,true,true,true,0.125,12.75,0.0,0,0,0,0.125,12.75,0.0,0,0,0,0.125,12.75,0.0,0,0,0,0.125,12.75,0.0,0,0,0,0.0,12.75,0.0,0,0,0,0.0,12.75,0.0,0,0,0,0.125,12.8,0.0,0,0,0,kReverse,kOff,-85.81,1.55,1.47,0.02508545,-0.9822998,0.06542969,32.47,0.0,0.0,0.0,0.0,
26.183289,true,true,true,0.125,12.75,0.0,0,0,0,0.125,12.75,0.0,0,0,0,0.125,12.75,0.0,0,0,0,0.125,12.75,0.0,0,0,0,0.0,12.75,0.0,0,0,0,0.0,12.75,0.0,0,0,0,0.125,12.8,0.0,0,0,0,kReverse,kOff,-85.81,1.55,1.47,0.026428223,-0.9841919,0.06933594,32.47,0.0,0.0,0.0,0.0,
26.22111,true,true,true,0.125,12.75,0.0,0,0,0,0.125,12.75,0.0,0,0,0,0.125,12.75,0.0,0,0,0,0.125,12.75,0.0,0,0,0,0.0,12.75,0.0,0,0,0,0.0,12.75,0.0,0,0,0,0.125,12.8,0.0,0,0,0,kReverse,kOff,-85.81,1.55,1.47,0.025390625,-0.9834595,0.070495605,32.47,0.0,-1.0,0.0,0.0,
26.258345999999996,true,true,true,0.125,12.75,0.0,0,0,0,0.125,12.75,0.0,0,0,0,0.125,12.75,0.0,0,0,0,0.125,12.75,0.0,0,0,0,0.0,12.75,0.0,0,0,0,0.0,12.75,0.0,0,0,0,0.0,12.8,0.0,0,0,0,kReverse,kOff,-85.81,1.56,1.47,0.02746582,-0.9810791,0.06842041,32.47,0.0,0.0,0.0,0.0,
26.295402,true,true,true,0.125,12.75,0.0,0,0,0,0.125,12.75,0.0,0,0,0,0.125,12.75,0.0,0,0,0,0.125,12.75,0.0,0,0,0,0.0,12.75,0.0,0,0,0,0.0,12.75,0.0,0,0,0,0.125,12.8,0.0,0,0,0,kReverse,kOff,-85.81,1.55,1.47,0.027709961,-0.9838867,0.072021484,32.47,0.0,0.0,0.0,0.0,
26.334718,true,true,true,0.125,12.75,0.0,0,0,0,0.125,12.75,0.0,0,0,0,0.125,12.75,0.0,0,0,0,0.125,12.75,0.0,0,0,0,0.0,12.75,0.0,0,0,0,0.0,12.75,0.0,0,0,0,0.125,12.8,0.0,0,0,0,kReverse,kOff,-85.81,1.55,1.47,0.02557373,-0.9812012,0.06488037,32.47,0.0,-1.0,0.0,0.0,
26.371942999999998,true,true,true,0.125,12.75,0.0,0,0,0,0.125,12.75,0.0,0,0,0,0.125,12.75,0.0,0,0,0,0.125,12.75,0.0,0,0,0,0.0,12.75,0.0,0,0,0,0.0,12.75,0.0,0,0,0,0.125,12.8,0.0,0,0,0,kReverse,kOff,-85.81,1.56,1.47,0.026428223,-0.98083496,0.0602417,32.47,0.0,0.0,0.0,0.0,
26.411454999999997,true,true,true,0.125,12.75,0.0,0,0,0,0.125,12.75,0.0,0,0,0,0.125,12.75,0.0,0,0,0,0.125,12.75,0.0,0,0,0,0.0,12.75,0.0,0,0,0,0.0,12.75,0.0,0,0,0,0.125,12.8,0.0,0,0,0,kReverse,kOff,-85.81,1.56,1.47,0.025817871,-0.98376465,0.06915283,32.47,0.0,-1.0,0.0,0.0,
26.456574999999997,true,true,true,0.125,12.75,0.0,0,0,0,0.125,12.75,0.0,0,0,0,0.125,12.75,0.0,0,0,0,0.125,12.75,0.0,0,0,0,0.0,12.75,0.0,0,0,0,0.0,12.75,0.0,0,0,0,0.125,12.8,0.0,0,0,0,kReverse,kOff,-85.81,1.55,1.47,0.02734375,-0.9805298,0.07006836,32.47,0.0,0.0,0.0,0.0,
26.511615999999997,true,true,true,0.125,12.75,0.0,0,0,0,0.125,12.75,0.0,0,0,0,0.125,12.75,0.0,0,0,0,0.125,12.75,0.0,0,0,0,0.0,12.75,0.0,0,0,0,0.0,12.75,0.0,0,0,0,0.0,12.8,0.0,0,0,0,kReverse,kOff,-85.81,1.55,1.47,0.026855469,-0.98223877,0.0637207,32.47,0.0,0.0,0.0,0.0,
26.549291999999998,true,true,true,0.125,12.75,0.0,0,0,0,0.125,12.75,0.0,0,0,0,0.125,12.75,0.0,0,0,0,0.125,12.75,0.0,0,0,0,0.0,12.75,0.0,0,0,0,0.0,12.75,0.0,0,0,0,0.0,12.8,0.0,0,0,0,kReverse,kOff,-85.81,1.55,1.47,0.028015137,-0.98431396,0.06512451,32.47,0.0,1.0,0.0,0.0,
26.579967999999997,true,true,true,0.125,12.75,0.0,0,0,0,0.125,12.75,0.0,0,0,0,0.125,12.75,0.0,0,0,0,0.125,12.75,0.0,0,0,0,0.0,12.75,0.0,0,0,0,0.0,12.75,0.0,0,0,0,0.125,12.8,0.0,0,0,0,kReverse,kOff,-85.81,1.55,1.47,0.02532959,-0.9829712,0.06970215,32.47,0.0,0.0,0.0,0.0,
26.637661,true,true,true,0.125,12.75,0.0,0,0,0,0.125,12.75,0.0,0,0,0,0.125,12.75,0.0,0,0,0,0.125,12.75,0.0,0,0,0,0.0,12.75,0.0,0,0,0,0.0,12.75,0.0,0,0,0,0.0,12.8,0.0,0,0,0,kReverse,kOff,-85.81,1.55,1.47,0.026000977,-0.98291016,0.06781006,32.48,0.0,0.0,0.0,0.0,
26.684495,true,true,true,0.125,12.75,0.0,0,0,0,0.125,12.75,0.0,0,0,0,0.125,12.75,0.0,0,0,0,0.125,12.75,0.0,0,0,0,0.0,12.75,0.0,0,0,0,0.0,12.75,0.0,0,0,0,0.125,12.8,0.0,0,0,0,kReverse,kOff,-85.81,1.55,1.47,0.027954102,-0.98095703,0.06652832,32.48,0.0,1.0,0.0,0.0,
26.727614999999997,true,true,true,0.125,12.75,0.0,0,0,0,0.125,12.75,0.0,0,0,0,0.125,12.75,0.0,0,0,0,0.125,12.75,0.0,0,0,0,0.0,12.75,0.0,0,0,0,0.0,12.75,0.0,0,0,0,0.125,12.8,0.0,0,0,0,kReverse,kOff,-85.81,1.55,1.47,0.030456543,-0.98187256,0.07244873,32.48,0.0,3.0,0.0,0.0,
26.76091,true,true,true,0.125,12.75,0.0,0,0,0,0.125,12.75,0.0,0,0,0,0.125,12.75,0.0,0,0,0,0.125,12.75,0.0,0,0,0,0.0,12.75,0.0,0,0,0,0.0,12.75,0.0,0,0,0,0.125,12.8,0.0,0,0,0,kReverse,kOff,-85.8,1.55,1.47,0.026428223,-0.9827881,0.06677246,32.48,0.0,0.0,0.0,0.0,
26.796371,true,true,true,0.125,12.75,0.0,0,0,0,0.125,12.75,0.0,0,0,0,0.125,12.75,0.0,0,0,0,0.125,12.75,0.0,0,0,0,0.0,12.75,0.0,0,0,0,0.0,12.75,0.0,0,0,0,0.125,12.8,0.0,0,0,0,kReverse,kOff,-85.81,1.55,1.46,0.028137207,-0.98339844,0.07067871,32.48,0.0,1.0,0.0,0.0,
26.829523,true,true,true,0.125,12.75,0.0,0,0,0,0.125,12.75,0.0,0,0,0,0.125,12.75,0.0,0,0,0,0.125,12.75,0.0,0,0,0,0.0,12.75,0.0,0,0,0,0.0,12.75,0.0,0,0,0,0.125,12.8,0.0,0,0,0,kReverse,kOff,-85.8,1.56,1.47,0.023803711,-0.9838257,0.07086182,32.48,0.0,-3.0,0.0,0.0,
26.869918,true,true,true,0.125,12.75,0.0,0,0,0,0.125,12.75,0.0,0,0,0,0.125,12.75,0.0,0,0,0,0.125,12.75,0.0,0,0,0,0.0,12.75,0.0,0,0,0,0.0,12.75,0.0,0,0,0,0.125,12.8,0.0,0,0,0,kReverse,kOff,-85.8,1.56,1.47,0.025268555,-0.982605,0.06341553,32.48,0.0,-1.0,0.0,0.0,
26.918426,true,true,true,0.125,12.75,0.0,0,0,0,0.125,12.75,0.0,0,0,0,0.125,12.75,0.0,0,0,0,0.125,12.75,0.0,0,0,0,0.0,12.75,0.0,0,0,0,0.0,12.75,0.0,0,0,0,0.125,12.8,0.0,0,0,0,kReverse,kOff,-85.8,1.55,1.47,0.02722168,-0.97979736,0.0635376,32.48,0.0,0.0,0.0,0.0,
26.960756999999997,true,true,true,0.125,12.75,0.0,0,0,0,0.125,12.75,0.0,0,0,0,0.125,12.75,0.0,0,0,0,0.125,12.75,0.0,0,0,0,0.0,12.75,0.0,0,0,0,0.0,12.75,0.0,0,0,0,0.125,12.8,0.0,0,0,0,kReverse,kOff,-85.81,1.56,1.47,0.02709961,-0.98187256,0.064941406,32.48,0.0,0.0,0.0,0.0,
27.03836,true,true,true,0.125,12.75,0.0,0,0,0,0.125,12.75,0.0,0,0,0,0.125,12.75,0.0,0,0,0,0.125,12.75,0.0,0,0,0,0.125,12.75,0.0,0,0,0,0.0,12.75,0.0,0,0,0,0.0,12.8,0.0,0,0,0,kReverse,kOff,-85.81,1.56,1.47,0.027160645,-0.98358154,0.06549072,32.48,0.0,1.0,0.0,0.0,
27.088022999999996,true,true,true,0.125,12.75,0.0,0,0,0,0.125,12.75,0.0,0,0,0,0.125,12.75,0.0,0,0,0,0.125,12.75,0.0,0,0,0,0.125,12.75,0.0,0,0,0,0.0,12.75,0.0,0,0,0,0.125,12.8,0.0,0,0,0,kReverse,kOff,-85.81,1.56,1.47,0.027038574,-0.9842529,0.07086182,32.48,0.0,0.0,0.0,0.0,
27.131503999999996,true,true,true,0.125,12.75,0.0,0,0,0,0.125,12.75,0.0,0,0,0,0.125,12.75,0.0,0,0,0,0.125,12.75,0.0,0,0,0,0.0,12.75,0.0,0,0,0,0.0,12.75,0.0,0,0,0,0.125,12.8,0.0,0,0,0,kReverse,kOff,-85.8,1.56,1.47,0.026794434,-0.98095703,0.06878662,32.47,0.0,0.0,0.0,0.0,
27.157898999999997,true,true,true,0.125,12.75,0.0,0,0,0,0.125,12.75,0.0,0,0,0,0.125,12.75,0.0,0,0,0,0.125,12.75,0.0,0,0,0,0.0,12.75,0.0,0,0,0,0.0,12.75,0.0,0,0,0,0.125,12.8,0.0,0,0,0,kReverse,kOff,-85.8,1.56,1.47,0.026062012,-0.9833374,0.06915283,32.47,0.0,0.0,0.0,0.0,
27.190541999999997,true,true,true,0.125,12.75,0.0,0,0,0,0.125,12.75,0.0,0,0,0,0.125,12.75,0.0,0,0,0,0.125,12.75,0.0,0,0,0,0.0,12.75,0.0,0,0,0,0.0,12.75,0.0,0,0,0,0.125,12.8,0.0,0,0,0,kReverse,kOff,-85.8,1.55,1.47,0.030395508,-0.9804077,0.07281494,32.47,0.0,3.0,0.0,0.0,
27.217868,true,true,true,0.125,12.75,0.0,0,0,0,0.125,12.75,0.0,0,0,0,0.125,12.75,0.0,0,0,0,0.125,12.75,0.0,0,0,0,0.0,12.75,0.0,0,0,0,0.0,12.75,0.0,0,0,0,0.125,12.8,0.0,0,0,0,kReverse,kOff,-85.8,1.55,1.47,0.026184082,-0.9863281,0.06738281,32.47,0.0,0.0,0.0,0.0,
27.248966,true,true,true,0.125,12.75,0.0,0,0,0,0.125,12.75,0.0,0,0,0,0.125,12.75,0.0,0,0,0,0.125,12.75,0.0,0,0,0,0.0,12.75,0.0,0,0,0,0.0,12.75,0.0,0,0,0,0.125,12.8,0.0,0,0,0,kReverse,kOff,-85.8,1.55,1.47,0.025817871,-0.98223877,0.06854248,32.47,0.0,-1.0,0.0,0.0,
27.278561999999997,true,true,true,0.125,12.75,0.0,0,0,0,0.125,12.75,0.0,0,0,0,0.125,12.75,0.0,0,0,0,0.125,12.75,0.0,0,0,0,0.0,12.75,0.0,0,0,0,0.0,12.75,0.0,0,0,0,0.125,12.8,0.0,0,0,0,kReverse,kOff,-85.8,1.55,1.47,0.025634766,-0.9833374,0.066101074,32.47,0.0,-1.0,0.0,0.0,
27.303528,true,true,true,0.125,12.75,0.0,0,0,0,0.125,12.75,0.0,0,0,0,0.125,12.75,0.0,0,0,0,0.125,12.75,0.0,0,0,0,0.0,12.75,0.0,0,0,0,0.0,12.75,0.0,0,0,0,0.125,12.8,0.0,0,0,0,kReverse,kOff,-85.8,1.56,1.47,0.026733398,-0.9833374,0.06439209,32.47,0.0,0.0,0.0,0.0,
27.327604,true,true,true,0.125,12.75,0.0,0,0,0,0.125,12.75,0.0,0,0,0,0.125,12.75,0.0,0,0,0,0.125,12.75,0.0,0,0,0,0.0,12.75,0.0,0,0,0,0.0,12.75,0.0,0,0,0,0.125,12.8,0.0,0,0,0,kReverse,kOff,-85.8,1.56,1.47,0.026000977,-0.98376465,0.06188965,32.47,0.0,0.0,0.0,0.0,
27.360637,true,true,true,0.125,12.75,0.0,0,0,0,0.125,12.75,0.0,0,0,0,0.125,12.75,0.0,0,0,0,0.125,12.75,0.0,0,0,0,0.0,12.75,0.0,0,0,0,0.0,12.75,0.0,0,0,0,0.125,12.8,0.0,0,0,0,kReverse,kOff,-85.8,1.56,1.47,0.025756836,-0.98272705,0.07019043,32.47,0.0,-1.0,0.0,0.0,
27.392422999999997,true,true,true,0.125,12.75,0.0,0,0,0,0.125,12.75,0.0,0,0,0,0.125,12.75,0.0,0,0,0,0.125,12.75,0.0,0,0,0,0.0,12.75,0.0,0,0,0,0.0,12.75,0.0,0,0,0,0.125,12.8,0.0,0,0,0,kReverse,kOff,-85.8,1.55,1.47,0.026672363,-0.98083496,0.07019043,32.47,0.0,0.0,0.0,0.0,
27.439377999999998,true,true,true,0.125,12.75,0.0,0,0,0,0.125,12.75,0.0,0,0,0,0.125,12.75,0.0,0,0,0,0.125,12.75,0.0,0,0,0,0.0,12.75,0.0,0,0,0,0.0,12.75,0.0,0,0,0,0.125,12.8,0.0,0,0,0,kReverse,kOff,-85.8,1.55,1.46,0.027770996,-0.9818115,0.06829834,32.47,0.0,1.0,0.0,0.0,
27.472133,true,true,true,0.125,12.75,0.0,0,0,0,0.125,12.75,0.0,0,0,0,0.125,12.75,0.0,0,0,0,0.125,12.75,0.0,0,0,0,0.0,12.75,0.0,0,0,0,0.0,12.75,0.0,0,0,0,0.125,12.8,0.0,0,0,0,kReverse,kOff,-85.81,1.55,1.47,0.026855469,-0.9817505,0.06347656,32.47,0.0,0.0,0.0,0.0,
27.497719999999997,true,true,true,0.125,12.75,0.0,0,0,0,0.125,12.75,0.0,0,0,0,0.125,12.75,0.0,0,0,0,0.125,12.75,0.0,0,0,0,0.0,12.75,0.0,0,0,0,0.0,12.75,0.0,0,0,0,0.125,12.8,0.0,0,0,0,kReverse,kOff,-85.81,1.55,1.47,0.028015137,-0.9824829,0.065979004,32.47,0.0,1.0,0.0,0.0,
27.525454999999997,true,true,true,0.125,12.75,0.0,0,0,0,0.125,12.75,0.0,0,0,0,0.125,12.75,0.0,0,0,0,0.125,12.75,0.0,0,0,0,0.0,12.75,0.0,0,0,0,0.0,12.75,0.0,0,0,0,0.125,12.8,0.0,0,0,0,kReverse,kOff,-85.8,1.55,1.47,0.0289917,-0.9821167,0.06842041,32.47,0.0,2.0,0.0,0.0,
27.557123,true,true,true,0.125,12.75,0.0,0,0,0,0.125,12.75,0.0,0,0,0,0.125,12.75,0.0,0,0,0,0.125,12.75,0.0,0,0,0,0.0,12.75,0.0,0,0,0,0.0,12.75,0.0,0,0,0,0.0,12.8,0.0,0,0,0,kReverse,kOff,-85.8,1.55,1.47,0.026916504,-0.98187256,0.06213379,32.47,0.0,0.0,0.0,0.0,
27.5937,true,true,true,0.125,12.75,0.0,0,0,0,0.125,12.75,0.0,0,0,0,0.125,12.75,0.0,0,0,0,0.125,12.75,0.0,0,0,0,0.0,12.75,0.0,0,0,0,0.0,12.75,0.0,0,0,0,0.0,12.8,0.0,0,0,0,kReverse,kOff,-85.81,1.55,1.47,0.028320312,-0.982666,0.07104492,32.47,0.0,1.0,0.0,0.0,
27.617677,true,true,true,0.125,12.75,0.0,0,0,0,0.125,12.75,0.0,0,0,0,0.125,12.75,0.0,0,0,0,0.125,12.75,0.0,0,0,0,0.0,12.75,0.0,0,0,0,0.0,12.75,0.0,0,0,0,0.0,12.8,0.0,0,0,0,kReverse,kOff,-85.81,1.55,1.47,0.028381348,-0.98498535,0.068847656,32.47,0.0,1.0,0.0,0.0,
27.644284,true,true,true,0.125,12.75,0.0,0,0,0,0.125,12.75,0.0,0,0,0,0.125,12.75,0.0,0,0,0,0.125,12.75,0.0,0,0,0,0.0,12.75,0.0,0,0,0,0.0,12.75,0.0,0,0,0,0.125,12.8,0.0,0,0,0,kReverse,kOff,-85.81,1.56,1.47,0.027954102,-0.9828491,0.061645508,32.43,0.0,1.0,0.0,0.0,
27.686032,true,true,true,0.125,12.75,0.0,0,0,0,0.125,12.75,0.0,0,0,0,0.125,12.75,0.0,0,0,0,0.125,12.75,0.0,0,0,0,0.0,12.75,0.0,0,0,0,0.0,12.75,0.0,0,0,0,0.125,12.8,0.0,0,0,0,kReverse,kOff,-85.81,1.56,1.47,0.027770996,-0.98376465,0.06652832,32.43,0.0,0.0,0.0,0.0,
27.718635,true,true,true,0.125,12.75,0.0,0,0,0,0.125,12.75,0.0,0,0,0,0.125,12.75,0.0,0,0,0,0.125,12.75,0.0,0,0,0,0.0,12.75,0.0,0,0,0,0.0,12.75,0.0,0,0,0,0.125,12.8,0.0,0,0,0,kReverse,kOff,-85.81,1.56,1.47,0.024841309,-0.98516846,0.06359863,32.43,0.0,-2.0,0.0,0.0,
27.746472999999998,true,true,true,0.125,12.75,0.0,0,0,0,0.125,12.75,0.0,0,0,0,0.125,12.75,0.0,0,0,0,0.125,12.75,0.0,0,0,0,0.0,12.75,0.0,0,0,0,0.0,12.75,0.0,0,0,0,0.0,12.8,0.0,0,0,0,kReverse,kOff,-85.82,1.55,1.47,0.026062012,-0.98217773,0.061767578,32.43,0.0,1.0,0.0,0.0,
27.777628999999997,true,true,true,0.125,12.75,0.0,0,0,0,0.125,12.75,0.0,0,0,0,0.125,12.75,0.0,0,0,0,0.125,12.75,0.0,0,0,0,0.0,12.75,0.0,0,0,0,0.0,12.75,0.0,0,0,0,0.0,12.8,0.0,0,0,0,kReverse,kOff,-85.82,1.55,1.47,0.026245117,-0.9822998,0.06335449,32.43,0.0,0.0,0.0,0.0,
27.802554,true,true,true,0.125,12.75,0.0,0,0,0,0.125,12.75,0.0,0,0,0,0.125,12.75,0.0,0,0,0,0.125,12.75,0.0,0,0,0,0.0,12.75,0.0,0,0,0,0.0,12.75,0.0,0,0,0,0.125,12.8,0.0,0,0,0,kReverse,kOff,-85.82,1.55,1.46,0.02722168,-0.98553467,0.06072998,32.43,0.0,0.0,0.0,0.0,
27.8284,true,true,true,0.125,12.75,0.0,0,0,0,0.125,12.75,0.0,0,0,0,0.125,12.75,0.0,0,0,0,0.125,12.75,0.0,0,0,0,0.0,12.75,0.0,0,0,0,0.0,12.75,0.0,0,0,0,0.125,12.8,0.0,0,0,0,kReverse,kOff,-85.82,1.55,1.47,0.026733398,-0.98461914,0.066223145,32.43,0.0,0.0,0.0,0.0,
27.8572,true,true,true,0.125,12.75,0.0,0,0,0,0.125,12.75,0.0,0,0,0,0.125,12.75,0.0,0,0,0,0.125,12.75,0.0,0,0,0,0.0,12.75,0.0,0,0,0,0.0,12.75,0.0,0,0,0,0.125,12.8,0.0,0,0,0,kReverse,kOff,-85.82,1.55,1.47,0.025817871,-0.9840698,0.06738281,32.43,0.0,-1.0,0.0,0.0,
27.885484,true,true,true,0.125,12.75,0.0,0,0,0,0.125,12.75,0.0,0,0,0,0.125,12.75,0.0,0,0,0,0.125,12.75,0.0,0,0,0,0.125,12.75,0.0,0,0,0,0.0,12.75,0.0,0,0,0,0.125,12.8,0.0,0,0,0,kReverse,kOff,-85.82,1.55,1.47,0.02709961,-0.98236084,0.064575195,32.43,0.0,0.0,0.0,0.0,
27.915902,true,true,true,0.125,12.75,0.0,0,0,0,0.125,12.75,0.0,0,0,0,0.125,12.75,0.0,0,0,0,0.125,12.75,0.0,0,0,0,0.0,12.75,0.0,0,0,0,0.0,12.75,0.0,0,0,0,0.0,12.8,0.0,0,0,0,kReverse,kOff,-85.82,1.55,1.47,0.028198242,-0.9830322,0.064453125,32.43,0.0,1.0,0.0,0.0,
27.941173,true,true,true,0.125,12.75,0.0,0,0,0,0.125,12.75,0.0,0,0,0,0.125,12.75,0.0,0,0,0,0.125,12.75,0.0,0,0,0,0.0,12.75,0.0,0,0,0,0.0,12.75,0.0,0,0,0,0.0,12.8,0.0,0,0,0,kReverse,kOff,-85.82,1.55,1.47,0.02746582,-0.9874878,0.06866455,32.43,0.0,0.0,0.0,0.0,
27.962784,true,true,true,0.125,12.75,0.0,0,0,0,0.125,12.75,0.0,0,0,0,0.125,12.75,0.0,0,0,0,0.125,12.75,0.0,0,0,0,0.125,12.75,0.0,0,0,0,0.0,12.75,0.0,0,0,0,0.0,12.8,0.0,0,0,0,kReverse,kOff,-85.82,1.55,1.47,0.025390625,-0.9840698,0.06573486,32.43,0.0,-1.0,0.0,0.0,
27.999218999999997,true,true,true,0.125,12.75,0.0,0,0,0,0.125,12.75,0.0,0,0,0,0.125,12.75,0.0,0,0,0,0.125,12.75,0.0,0,0,0,0.125,12.75,0.0,0,0,0,0.0,12.75,0.0,0,0,0,0.125,12.8,0.0,0,0,0,kReverse,kOff,-85.82,1.55,1.47,0.026489258,-0.9828491,0.06866455,32.43,0.0,0.0,0.0,0.0,
28.023937999999998,true,true,true,0.125,12.75,0.0,0,0,0,0.125,12.75,0.0,0,0,0,0.125,12.75,0.0,0,0,0,0.125,12.75,0.0,0,0,0,0.0,12.75,0.0,0,0,0,0.0,12.75,0.0,0,0,0,0.125,12.8,0.0,0,0,0,kReverse,kOff,-85.82,1.55,1.47,0.026611328,-0.98046875,0.06506348,32.43,0.0,0.0,0.0,0.0,
28.051122,true,true,true,0.125,12.75,0.0,0,0,0,0.125,12.75,0.0,0,0,0,0.125,12.75,0.0,0,0,0,0.125,12.75,0.0,0,0,0,0.0,12.75,0.0,0,0,0,0.0,12.75,0.0,0,0,0,0.125,12.8,0.0,0,0,0,kReverse,kOff,-85.82,1.55,1.46,0.025268555,-0.9831543,0.062683105,32.43,0.0,-1.0,0.0,0.0,
28.079593999999997,true,true,true,0.125,12.75,0.0,0,0,0,0.125,12.75,0.0,0,0,0,0.125,12.75,0.0,0,0,0,0.125,12.75,0.0,0,0,0,0.0,12.75,0.0,0,0,0,0.0,12.75,0.0,0,0,0,0.125,12.8,0.0,0,0,0,kReverse,kOff,-85.82,1.55,1.46,0.024597168,-0.9814453,0.066345215,32.43,0.0,-2.0,0.0,0.0,
28.108382999999996,true,true,true,0.125,12.75,0.0,0,0,0,0.125,12.75,0.0,0,0,0,0.125,12.75,0.0,0,0,0,0.125,12.75,0.0,0,0,0,0.0,12.75,0.0,0,0,0,0.0,12.75,0.0,0,0,0,0.125,12.8,0.0,0,0,0,kReverse,kOff,-85.82,1.55,1.46,0.027038574,-0.9821167,0.06768799,32.43,0.0,0.0,0.0,0.0,
28.144547,true,true,true,0.125,12.75,0.0,0,0,0,0.125,12.75,0.0,0,0,0,0.125,12.75,0.0,0,0,0,0.125,12.75,0.0,0,0,0,0.0,12.75,0.0,0,0,0,0.0,12.75,0.0,0,0,0,0.125,12.8,0.0,0,0,0,kReverse,kOff,-85.82,1.55,1.47,0.028015137,-0.9833374,0.0692749,32.47,0.0,1.0,0.0,0.0,
28.175216,true,true,true,0.125,12.75,0.0,0,0,0,0.125,12.75,0.0,0,0,0,0.125,12.75,0.0,0,0,0,0.125,12.75,0.0,0,0,0,0.0,12.75,0.0,0,0,0,0.0,12.75,0.0,0,0,0,0.125,12.8,0.0,0,0,0,kReverse,kOff,-85.82,1.55,1.47,0.025756836,-0.9812012,0.06762695,32.47,0.0,-1.0,0.0,0.0,
28.202612999999996,true,true,true,0.125,12.75,0.0,0,0,0,0.125,12.75,0.0,0,0,0,0.125,12.75,0.0,0,0,0,0.125,12.75,0.0,0,0,0,0.0,12.75,0.0,0,0,0,0.0,12.75,0.0,0,0,0,0.125,12.8,0.0,0,0,0,kReverse,kOff,-85.82,1.55,1.47,0.027038574,-0.98480225,0.06604004,32.47,0.0,0.0,0.0,0.0,
28.231234,true,true,true,0.125,12.75,0.0,0,0,0,0.125,12.75,0.0,0,0,0,0.125,12.75,0.0,0,0,0,0.125,12.75,0.0,0,0,0,0.0,12.75,0.0,0,0,0,0.0,12.75,0.0,0,0,0,0.125,12.8,0.0,0,0,0,kReverse,kOff,-85.82,1.55,1.47,0.029052734,-0.98498535,0.070373535,32.47,0.0,2.0,0.0,0.0,
28.258145999999996,true,true,true,0.125,12.75,0.0,0,0,0,0.125,12.75,0.0,0,0,0,0.125,12.75,0.0,0,0,0,0.125,12.75,0.0,0,0,0,0.0,12.75,0.0,0,0,0,0.0,12.75,0.0,0,0,0,0.0,12.8,0.0,0,0,0,kReverse,kOff,-85.81,1.55,1.47,0.029907227,-0.980896,0.06958008,32.47,0.0,3.0,0.0,0.0,
28.295842,true,true,true,0.125,12.75,0.0,0,0,0,0.125,12.75,0.0,0,0,0,0.125,12.75,0.0,0,0,0,0.125,12.75,0.0,0,0,0,0.0,12.75,0.0,0,0,0,0.0,12.75,0.0,0,0,0,0.0,12.8,0.0,0,0,0,kReverse,kOff,-85.82,1.55,1.47,0.025634766,-0.98480225,0.061950684,32.47,0.0,-1.0,0.0,0.0,
28.320641,true,true,true,0.125,12.75,0.0,0,0,0,0.125,12.75,0.0,0,0,0,0.125,12.75,0.0,0,0,0,0.125,12.75,0.0,0,0,0,0.0,12.75,0.0,0,0,0,0.0,12.75,0.0,0,0,0,0.125,12.8,0.0,0,0,0,kReverse,kOff,-85.82,1.55,1.47,0.027526855,-0.98254395,0.06726074,32.47,0.0,0.0,0.0,0.0,
28.354991,true,true,true,0.125,12.75,0.0,0,0,0,0.125,12.75,0.0,0,0,0,0.125,12.75,0.0,0,0,0,0.125,12.75,0.0,0,0,0,0.0,12.75,0.0,0,0,0,0.0,12.75,0.0,0,0,0,0.125,12.8,0.0,0,0,0,kReverse,kOff,-85.82,1.56,1.48,0.028564453,-0.9850464,0.0637207,32.47,0.0,1.0,0.0,0.0,
28.392647999999998,true,true,true,0.125,12.75,0.0,0,0,0,0.125,12.75,0.0,0,0,0,0.125,12.75,0.0,0,0,0,0.125,12.75,0.0,0,0,0,0.0,12.75,0.0,0,0,0,0.0,12.75,0.0,0,0,0,0.125,12.8,0.0,0,0,0,kReverse,kOff,-85.82,1.56,1.48,0.025817871,-0.98132324,0.0635376,32.47,0.0,0.0,0.0,0.0,
28.411944,true,true,true,0.125,12.75,0.0,0,0,0,0.125,12.75,0.0,0,0,0,0.125,12.75,0.0,0,0,0,0.125,12.75,0.0,0,0,0,0.0,12.75,0.0,0,0,0,0.0,12.75,0.0,0,0,0,0.125,12.8,0.0,0,0,0,kReverse,kOff,-85.82,1.56,1.48,0.026367188,-0.9833374,0.072265625,32.47,0.0,0.0,0.0,0.0,
28.438005999999998,true,true,true,0.125,12.75,0.0,0,0,0,0.125,12.75,0.0,0,0,0,0.125,12.75,0.0,0,0,0,0.125,12.75,0.0,0,0,0,0.0,12.75,0.0,0,0,0,0.0,12.75,0.0,0,0,0,0.0,12.8,0.0,0,0,0,kReverse,kOff,-85.82,1.56,1.48,0.024169922,-0.9866333,0.068847656,32.47,0.0,-2.0,0.0,0.0,
28.466673,true,true,true,0.125,12.75,0.0,0,0,0,0.125,12.75,0.0,0,0,0,0.125,12.75,0.0,0,0,0,0.125,12.75,0.0,0,0,0,0.0,12.75,0.0,0,0,0,0.0,12.75,0.0,0,0,0,0.0,12.8,0.0,0,0,0,kReverse,kOff,-85.82,1.56,1.48,0.02545166,-0.9852905,0.06817627,32.47,0.0,-1.0,0.0,0.0,
28.493657,true,true,true,0.125,12.75,0.0,0,0,0,0.125,12.75,0.0,0,0,0,0.125,12.75,0.0,0,0,0,0.125,12.75,0.0,0,0,0,0.0,12.75,0.0,0,0,0,0.0,12.75,0.0,0,0,0,0.125,12.8,0.0,0,0,0,kReverse,kOff,-85.82,1.56,1.48,0.027038574,-0.98187256,0.067871094,32.47,0.0,0.0,0.0,0.0,
28.518431999999997,true,true,true,0.125,12.75,0.0,0,0,0,0.125,12.75,0.0,0,0,0,0.125,12.75,0.0,0,0,0,0.125,12.75,0.0,0,0,0,0.0,12.75,0.0,0,0,0,0.0,12.75,0.0,0,0,0,0.125,12.8,0.0,0,0,0,kReverse,kOff,-85.82,1.56,1.48,0.024169922,-0.98321533,0.06915283,32.47,0.0,-2.0,0.0,0.0,
28.542921,true,true,true,0.125,12.75,0.0,0,0,0,0.125,12.75,0.0,0,0,0,0.125,12.75,0.0,0,0,0,0.125,12.75,0.0,0,0,0,0.125,12.75,0.0,0,0,0,0.0,12.75,0.0,0,0,0,0.125,12.8,0.0,0,0,0,kReverse,kOff,-85.82,1.56,1.48,0.027404785,-0.9838257,0.07122803,32.47,0.0,0.0,0.0,0.0,
28.569608,true,true,true,0.125,12.75,0.0,0,0,0,0.125,12.75,0.0,0,0,0,0.125,12.75,0.0,0,0,0,0.125,12.75,0.0,0,0,0,0.125,12.75,0.0,0,0,0,0.0,12.75,0.0,0,0,0,0.125,12.8,0.0,0,0,0,kReverse,kOff,-85.81,1.56,1.47,0.024658203,-0.9833374,0.06390381,32.47,0.0,-2.0,0.0,0.0,
28.587702999999998,true,true,true,0.125,12.75,0.0,0,0,0,0.125,12.75,0.0,0,0,0,0.125,12.75,0.0,0,0,0,0.125,12.75,0.0,0,0,0,0.125,12.75,0.0,0,0,0,0.0,12.75,0.0,0,0,0,0.125,12.8,0.0,0,0,0,kReverse,kOff,-85.82,1.55,1.47,0.023742676,-0.9836426,0.06640625,32.47,0.0,-3.0,0.0,0.0,
28.617313999999997,true,true,true,0.125,12.75,0.0,0,0,0,0.125,12.75,0.0,0,0,0,0.125,12.75,0.0,0,0,0,0.125,12.75,0.0,0,0,0,0.0,12.75,0.0,0,0,0,0.0,12.75,0.0,0,0,0,0.125,12.8,0.0,0,0,0,kReverse,kOff,-85.82,1.55,1.47,0.0234375,-0.9824219,0.06817627,32.47,0.0,-3.0,0.0,0.0,
28.652458,true,true,true,0.125,12.75,0.0,0,0,0,0.125,12.75,0.0,0,0,0,0.125,12.75,0.0,0,0,0,0.125,12.75,0.0,0,0,0,0.0,12.75,0.0,0,0,0,0.0,12.75,0.0,0,0,0,0.125,12.8,0.0,0,0,0,kReverse,kOff,-85.82,1.55,1.47,0.025024414,-0.9824829,0.06762695,32.47,0.0,-1.0,0.0,0.0,
28.674052,true,true,true,0.125,12.75,0.0,0,0,0,0.125,12.75,0.0,0,0,0,0.125,12.75,0.0,0,0,0,0.125,12.75,0.0,0,0,0,0.0,12.75,0.0,0,0,0,0.0,12.75,0.0,0,0,0,0.125,12.8,0.0,0,0,0,kReverse,kOff,-85.82,1.55,1.47,0.02520752,-0.98327637,0.06793213,32.48,0.0,-1.0,0.0,0.0,
28.699779,true,true,true,0.125,12.75,0.0,0,0,0,0.125,12.75,0.0,0,0,0,0.125,12.75,0.0,0,0,0,0.125,12.75,0.0,0,0,0,0.0,12.75,0.0,0,0,0,0.0,12.75,0.0,0,0,0,0.0,12.8,0.0,0,0,0,kReverse,kOff,-85.81,1.55,1.47,0.028320312,-0.9812622,0.0657959,32.48,0.0,1.0,0.0,0.0,
28.727447,true,true,true,0.125,12.75,0.0,0,0,0,0.125,12.75,0.0,0,0,0,0.125,12.75,0.0,0,0,0,0.125,12.75,0.0,0,0,0,0.0,12.75,0.0,0,0,0,0.0,12.75,0.0,0,0,0,0.0,12.8,0.0,0,0,0,kReverse,kOff,-85.81,1.55,1.47,0.027954102,-0.98236084,0.07086182,32.48,0.0,1.0,0.0,0.0,
28.751686,true,true,true,0.125,12.75,0.0,0,0,0,0.125,12.75,0.0,0,0,0,0.125,12.75,0.0,0,0,0,0.125,12.75,0.0,0,0,0,0.0,12.75,0.0,0,0,0,0.0,12.75,0.0,0,0,0,0.0,12.8,0.0,0,0,0,kReverse,kOff,-85.81,1.55,1.47,0.025878906,-0.98547363,0.0670166,32.48,0.0,-1.0,0.0,0.0,
28.777977,true,true,true,0.125,12.75,0.0,0,0,0,0.125,12.75,0.0,0,0,0,0.125,12.75,0.0,0,0,0,0.125,12.75,0.0,0,0,0,0.0,12.75,0.0,0,0,0,0.0,12.75,0.0,0,0,0,0.125,12.8,0.0,0,0,0,kReverse,kOff,-85.81,1.54,1.46,0.028625488,-0.98187256,0.0647583,32.48,0.0,2.0,0.0,0.0,
28.804492,true,true,true,0.125,12.75,0.0,0,0,0,0.125,12.75,0.0,0,0,0,0.125,12.75,0.0,0,0,0,0.125,12.75,0.0,0,0,0,0.0,12.75,0.0,0,0,0,0.0,12.75,0.0,0,0,0,0.125,12.8,0.0,0,0,0,kReverse,kOff,-85.81,1.54,1.46,0.025756836,-0.9844971,0.06201172,32.48,0.0,0.0,0.0,0.0,
28.830118000000002,true,true,true,0.125,12.75,0.0,0,0,0,0.125,12.75,0.0,0,0,0,0.125,12.75,0.0,0,0,0,0.125,12.75,0.0,0,0,0,0.0,12.75,0.0,0,0,0,0.0,12.75,0.0,0,0,0,0.125,12.8,0.0,0,0,0,kReverse,kOff,-85.81,1.54,1.46,0.027893066,-0.98168945,0.072387695,32.48,0.0,1.0,0.0,0.0,
28.857511999999996,true,true,true,0.125,12.75,0.0,0,0,0,0.125,12.75,0.0,0,0,0,0.125,12.75,0.0,0,0,0,0.125,12.75,0.0,0,0,0,0.0,12.75,0.0,0,0,0,0.0,12.75,0.0,0,0,0,0.125,12.8,0.0,0,0,0,kReverse,kOff,-85.81,1.54,1.46,0.026245117,-0.9817505,0.06506348,32.48,0.0,0.0,0.0,0.0,
28.881743999999998,true,true,true,0.125,12.75,0.0,0,0,0,0.125,12.75,0.0,0,0,0,0.125,12.75,0.0,0,0,0,0.125,12.75,0.0,0,0,0,0.0,12.75,0.0,0,0,0,0.0,12.75,0.0,0,0,0,0.125,12.8,0.0,0,0,0,kReverse,kOff,-85.81,1.54,1.46,0.026855469,-0.98394775,0.0647583,32.48,0.0,0.0,0.0,0.0,
28.911659999999998,true,true,true,0.125,12.75,0.0,0,0,0,0.125,12.75,0.0,0,0,0,0.125,12.75,0.0,0,0,0,0.125,12.75,0.0,0,0,0,0.0,12.75,0.0,0,0,0,0.0,12.75,0.0,0,0,0,0.125,12.8,0.0,0,0,0,kReverse,kOff,-85.81,1.54,1.46,0.029968262,-0.9829712,0.07043457,32.48,0.0,3.0,0.0,0.0,
28.933101999999998,true,true,true,0.125,12.75,0.0,0,0,0,0.125,12.75,0.0,0,0,0,0.125,12.75,0.0,0,0,0,0.125,12.75,0.0,0,0,0,0.0,12.75,0.0,0,0,0,0.0,12.75,0.0,0,0,0,0.125,12.8,0.0,0,0,0,kReverse,kOff,-85.81,1.55,1.47,0.024780273,-0.9798584,0.06750488,32.48,0.0,-1.0,0.0,0.0,
28.962981,true,true,true,0.125,12.75,0.0,0,0,0,0.125,12.75,0.0,0,0,0,0.125,12.75,0.0,0,0,0,0.125,12.75,0.0,0,0,0,0.0,12.75,0.0,0,0,0,0.0,12.75,0.0,0,0,0,0.0,12.8,0.0,0,0,0,kReverse,kOff,-85.81,1.55,1.47,0.029907227,-0.98236084,0.066589355,32.48,0.0,3.0,0.0,0.0,
28.989618000000004,true,true,true,0.125,12.75,0.0,0,0,0,0.125,12.75,0.0,0,0,0,0.125,12.75,0.0,0,0,0,0.125,12.75,0.0,0,0,0,0.0,12.75,0.0,0,0,0,0.0,12.75,0.0,0,0,0,0.0,12.8,0.0,0,0,0,kReverse,kOff,-85.81,1.55,1.47,0.028564453,-0.9830322,0.06640625,32.48,0.0,1.0,0.0,0.0,
29.018182,true,true,true,0.125,12.75,0.0,0,0,0,0.125,12.75,0.0,0,0,0,0.125,12.75,0.0,0,0,0,0.125,12.75,0.0,0,0,0,0.0,12.75,0.0,0,0,0,0.0,12.75,0.0,0,0,0,0.0,12.8,0.0,0,0,0,kReverse,kOff,-85.8,1.55,1.47,0.026367188,-0.98272705,0.06524658,32.48,0.0,0.0,0.0,0.0,
29.045686999999997,true,true,true,0.125,12.75,0.0,0,0,0,0.125,12.75,0.0,0,0,0,0.25,12.75,0.0,0,0,0,0.125,12.75,0.0,0,0,0,0.0,12.75,0.0,0,0,0,0.0,12.75,0.0,0,0,0,0.0,12.8,0.0,0,0,0,kReverse,kOff,-85.8,1.55,1.47,0.026245117,-0.9835205,0.064331055,32.48,0.0,0.0,0.0,0.0,
29.075476000000002,true,true,true,0.5,12.75,0.0,-2,0,0,0.375,12.75,0.0,0,0,0,0.5,12.75,0.0,-2,0,0,0.375,12.75,0.0,0,0,0,0.0,12.75,0.0,0,0,0,0.0,12.75,0.0,0,0,0,0.0,12.8,0.0,0,0,0,kReverse,kOff,-85.8,1.55,1.47,0.039245605,-0.9961548,0.0670166,32.48,0.0,12.0,0.0,0.0,
29.097489999999997,true,true,true,2.0,12.75,0.0,-11,-1,0,0.75,12.75,0.0,0,0,0,2.0,12.75,0.0,-11,-2,0,0.625,12.75,0.0,0,0,0,0.0,12.75,0.0,0,0,0,0.0,12.75,0.0,0,0,0,0.125,12.8,0.0,0,0,0,kReverse,kOff,-85.79,1.54,1.45,0.042236328,-0.9320679,0.24353027,32.48,0.0,12.0,0.0,1.2207031E-4,
29.125453,true,true,true,5.375,12.75,0.0,-23,-7,0,4.375,12.75,0.0,0,0,0,5.0,12.75,0.0,-27,-8,0,7.625,12.75,0.0,0,0,0,0.0,12.75,0.0,0,0,0,0.0,12.75,0.0,0,0,0,0.125,12.8,0.0,0,0,0,kReverse,kOff,-85.93,1.62,1.55,-0.12475586,-0.8720703,-1.1304932,32.48,0.0,-125.0,1.373291E-4,-0.0016021729,
29.157360999999998,true,true,true,13.375,12.75,0.0,-46,-26,0,12.375,12.75,0.0,0,0,0,12.0,12.75,0.0,-48,-29,0,11.125,12.75,0.0,0,0,0,0.0,12.75,0.0,0,0,0,0.0,11.4,0.0,0,0,0,0.125,11.45,0.0,0,0,0,kReverse,kOff,-86.6,1.45,1.43,-0.15234375,-1.3237305,0.18389893,32.48,0.0,-187.0,4.8828125E-4,-0.006576538,
29.193454,true,true,true,12.625,11.3,0.0,-91,-53,0,13.25,11.15,0.0,0,0,0,12.125,11.3,0.0,-87,-54,0,12.5,11.350000000000001,0.0,0,0,0,0.0,11.4,0.0,0,0,0,0.0,11.4,0.0,0,0,0,0.125,11.45,0.0,0,0,0,kReverse,kOff,-87.32,1.39,1.38,-0.031433105,-1.2737427,0.018981934,32.45,0.0,-62.0,5.187988E-4,-0.009033203,
29.214710999999994,true,true,true,11.125,11.3,0.0,-114,-70,0,12.375,11.15,0.0,0,0,0,10.75,11.3,0.0,-114,-67,0,11.25,11.350000000000001,0.0,0,0,0,0.0,11.4,0.0,0,0,0,0.0,11.4,0.0,0,0,0,0.125,11.45,0.0,0,0,0,kReverse,kOff,-87.91,1.44,1.42,-0.002746582,-0.5472412,-0.9338989,32.45,0.0,-4.0,2.4414062E-4,-0.016540527,
29.228634,true,true,true,11.125,11.3,0.0,-114,-70,0,12.375,11.15,0.0,0,0,0,10.75,11.3,0.0,-131,-80,0,11.125,11.350000000000001,0.0,0,0,0,0.125,11.4,0.0,0,0,0,0.0,11.4,0.0,0,0,0,0.0,11.45,0.0,0,0,0,kReverse,kOff,-88.24,1.45,1.43,0.066345215,-1.0096436,-0.53637695,32.45,0.0,49.0,9.1552734E-5,-0.021957397,
29.259938000000002,true,true,true,11.125,11.3,0.0,-155,-95,0,12.75,11.15,0.0,0,0,0,10.625,11.3,0.0,-151,-90,0,11.25,11.350000000000001,0.0,0,0,0,0.0,11.4,0.0,0,0,0,0.0,11.4,0.0,0,0,0,0.0,11.45,0.0,0,0,0,kReverse,kOff,-88.11,1.54,1.52,0.097229004,-1.4470825,-0.17529297,32.45,0.0,60.0,7.6293945E-5,-0.041030884,
29.295036999999997,true,true,true,10.25,11.3,0.0,-205,-109,0,12.125,11.15,0.0,0,0,0,10.625,11.3,0.0,-199,-105,0,11.25,11.350000000000001,0.0,0,0,0,0.0,11.4,0.0,0,0,0,0.0,11.4,0.0,0,0,0,0.0,11.45,0.0,0,0,0,kReverse,kOff,-88.11,1.58,1.56,0.21533203,-1.0775757,-0.46929932,32.45,0.0,-96.0,4.4250488E-4,-0.05479431,
29.319197,true,true,true,9.625,11.3,0.0,-234,-112,0,11.375,11.15,0.0,0,0,0,10.0,11.3,0.0,-227,-109,0,10.5,11.350000000000001,0.0,0,0,0,0.0,11.4,0.0,0,0,0,0.0,11.4,0.0,0,0,0,0.125,11.7,0.0,0,0,0,kReverse,kOff,-88.18,1.56,1.55,-0.15441895,-0.9367676,-0.23937988,32.45,0.0,-176.0,4.5776367E-4,-0.062347412,
29.347739,true,true,true,9.25,11.55,0.0,-265,-118,0,9.875,11.600000000000001,0.0,0,0,0,9.0,11.55,0.0,-291,-121,0,9.5,11.600000000000001,0.0,0,0,0,0.0,11.7,0.0,0,0,0,0.0,11.7,0.0,0,0,0,0.125,11.7,0.0,0,0,0,kReverse,kOff,-88.23,1.58,1.57,0.058898926,-1.277771,-0.45880127,32.45,0.0,28.0,3.9672852E-4,-0.078430176,
29.376451,true,true,true,8.5,11.55,0.0,-333,-137,0,9.75,11.600000000000001,0.0,0,0,0,8.625,11.55,0.0,-325,-131,0,9.125,11.600000000000001,0.0,0,0,0,0.0,11.7,0.0,0,0,0,0.0,11.7,0.0,0,0,0,0.125,11.7,0.0,0,0,0,kReverse,kOff,-88.34,1.59,1.59,0.0446167,-0.8909912,-0.05859375,32.45,0.0,20.0,2.746582E-4,-0.09649658,
29.402269,true,true,true,8.375,11.55,0.0,-369,-148,0,9.5,11.600000000000001,0.0,0,0,0,8.5,11.55,0.0,-361,-144,0,9.0,11.600000000000001,0.0,0,0,0,0.0,11.7,0.0,0,0,0,0.0,11.7,0.0,0,0,0,0.125,11.7,0.0,0,0,0,kReverse,kOff,-88.38,1.61,1.61,-0.1541748,-0.80822754,-0.07165527,32.45,0.0,-176.0,1.9836426E-4,-0.115356445,
29.428559999999997,true,true,true,8.375,11.55,0.0,-406,-158,0,9.375,11.600000000000001,0.0,0,0,0,8.25,11.55,0.0,-439,-165,0,8.75,11.600000000000001,0.0,0,0,0,0.0,11.7,0.0,0,0,0,0.0,11.7,0.0,0,0,0,0.125,11.7,0.0,0,0,0,kReverse,kOff,-88.47,1.52,1.52,0.12249756,-0.89575195,0.16851807,32.45,0.0,96.0,-1.2207031E-4,-0.13482666,
29.457337,true,true,true,8.0,11.55,0.0,-484,-174,0,9.125,11.600000000000001,0.0,0,0,0,8.25,11.55,0.0,-476,-173,0,8.625,11.600000000000001,0.0,0,0,0,0.0,11.7,0.0,0,0,0,0.0,11.7,0.0,0,0,0,0.125,11.7,0.0,0,0,0,kReverse,kOff,-88.42,1.57,1.57,0.062194824,-0.9602051,-0.1472168,32.45,0.0,37.0,-1.8310547E-4,-0.14456177,
29.482044000000002,true,true,true,7.625,11.55,0.0,-524,-181,0,8.875,11.600000000000001,0.0,0,0,0,7.75,11.55,0.0,-518,-181,0,8.25,11.600000000000001,0.0,0,0,0,0.0,11.7,0.0,0,0,0,0.0,11.850000000000001,0.0,0,0,0,0.125,11.9,0.0,0,0,0,kReverse,kOff,-88.37,1.6,1.61,0.12402344,-0.9937134,0.0848999,32.45,0.0,95.0,-1.9836426E-4,-0.1643219,
29.510771000000002,true,true,true,7.5,11.75,0.0,-566,-187,0,8.25,11.75,0.0,0,0,0,6.875,11.75,0.0,-608,-196,0,7.625,11.75,0.0,0,0,0,0.0,11.850000000000001,0.0,0,0,0,0.0,11.850000000000001,0.0,0,0,0,0.125,11.9,0.0,0,0,0,kReverse,kOff,-88.35,1.63,1.63,0.08679199,-1.1151733,-0.21435547,32.45,0.0,57.0,-1.6784668E-4,-0.18391418,
29.531784,true,true,true,6.75,11.75,0.0,-654,-199,0,8.0,11.75,0.0,0,0,0,6.5,11.75,0.0,-650,-202,0,7.5,11.75,0.0,0,0,0,0.0,11.850000000000001,0.0,0,0,0,0.0,11.850000000000001,0.0,0,0,0,0.125,11.9,0.0,0,0,0,kReverse,kOff,-88.29,1.67,1.68,0.052612305,-1.102478,-0.2199707,32.45,0.0,22.0,-1.0681152E-4,-0.19403076,
29.558121,true,true,true,6.375,11.75,0.0,-704,-206,0,7.625,11.75,0.0,0,0,0,6.25,11.75,0.0,-699,-210,0,7.25,11.75,0.0,0,0,0,0.0,11.850000000000001,0.0,0,0,0,0.0,11.850000000000001,0.0,0,0,0,0.125,11.9,0.0,0,0,0,kReverse,kOff,-88.27,1.65,1.66,-0.008361816,-1.0094604,-0.08459473,32.45,0.0,-36.0,-1.5258789E-5,-0.21504211,
29.580996999999996,true,true,true,6.0,11.75,0.0,-749,-213,0,7.375,11.75,0.0,0,0,0,6.125,11.75,0.0,-743,-215,0,7.125,11.75,0.0,0,0,0,0.125,11.850000000000001,0.0,0,0,0,0.0,11.850000000000001,0.0,0,0,0,0.125,11.9,0.0,0,0,0,kReverse,kOff,-88.26,1.62,1.62,0.05987549,-1.039856,-0.031433105,32.45,0.0,30.0,4.5776367E-5,-0.23605347,
29.606805999999995,true,true,true,5.875,11.75,0.0,-796,-219,0,7.0,11.75,0.0,0,0,0,5.75,11.75,0.0,-841,-226,0,6.75,11.75,0.0,0,0,0,0.0,11.850000000000001,0.0,0,0,0,0.0,11.850000000000001,0.0,0,0,0,0.125,11.9,0.0,0,0,0,kReverse,kOff,-88.23,1.62,1.62,-0.0012207031,-0.99139404,-0.09283447,32.45,0.0,-28.0,1.0681152E-4,-0.24656677,
29.628524,true,true,true,5.75,11.75,0.0,-846,-226,0,6.5,11.75,0.0,0,0,0,5.5,11.75,0.0,-888,-230,0,6.625,11.75,0.0,0,0,0,0.0,11.850000000000001,0.0,0,0,0,0.0,11.850000000000001,0.0,0,0,0,0.125,11.9,0.0,0,0,0,kReverse,kOff,-88.19,1.62,1.63,0.04901123,-1.1254272,-0.15338135,32.45,0.0,18.0,3.2043457E-4,-0.27830505,
29.653703,true,true,true,5.25,11.9,0.0,-943,-235,0,6.375,11.9,0.0,0,0,0,5.25,11.95,0.0,-937,-234,0,6.625,11.75,0.0,0,0,0,0.0,12.0,0.0,0,0,0,0.0,12.0,0.0,0,0,0,0.125,12.05,0.0,0,0,0,kReverse,kOff,-88.19,1.62,1.63,0.04901123,-1.1254272,-0.15338135,32.45,0.0,18.0,3.2043457E-4,-0.27830505,
29.677989,true,true,true,5.125,11.9,0.0,-996,-239,0,6.125,11.9,0.0,0,0,0,5.25,11.95,0.0,-986,-238,0,6.375,11.9,0.0,0,0,0,0.0,12.0,0.0,0,0,0,0.0,12.0,0.0,0,0,0,0.125,12.05,0.0,0,0,0,kReverse,kOff,-88.18,1.57,1.58,0.042663574,-0.87194824,0.06085205,32.45,0.0,17.0,7.171631E-4,-0.2997284,
29.698601000000004,true,true,true,4.875,11.9,0.0,-1044,-243,0,5.875,11.9,0.0,0,0,0,5.25,11.95,0.0,-1038,-242,0,6.25,11.9,0.0,0,0,0,0.0,12.0,0.0,0,0,0,0.0,12.0,0.0,0,0,0,0.125,12.05,0.0,0,0,0,kReverse,kOff,-88.29,1.51,1.52,0.020751953,-1.0900269,-0.012512207,32.48,0.0,-8.0,9.918213E-4,-0.32086182,
29.722979,true,true,true,4.875,11.9,0.0,-1098,-246,0,5.75,11.9,0.0,0,0,0,5.125,11.95,0.0,-1089,-244,0,6.25,11.9,0.0,0,0,0,0.0,12.0,0.0,0,0,0,0.0,12.0,0.0,0,0,0,0.125,12.05,0.0,0,0,0,kReverse,kOff,-88.28,1.55,1.56,0.036499023,-0.7982788,-0.025390625,32.48,0.0,14.0,0.0011138916,-0.34202576,
29.755309,true,true,true,5.0,11.9,0.0,-1202,-252,0,5.625,11.9,0.0,0,0,0,5.0,11.95,0.0,-1190,-248,0,6.0,11.9,0.0,0,0,0,0.0,12.0,0.0,0,0,0,0.0,12.0,0.0,0,0,0,0.125,12.05,0.0,0,0,0,kReverse,kOff,-88.39,1.47,1.48,0.054626465,-1.18396,-0.013427734,32.48,0.0,24.0,0.0010070801,-0.36314392,
29.777962,true,true,true,4.875,11.9,0.0,-1254,-254,0,5.625,11.9,0.0,0,0,0,5.0,11.95,0.0,-1243,-251,0,5.75,11.9,0.0,0,0,0,0.0,12.0,0.0,0,0,0,0.0,12.0,0.0,0,0,0,0.125,12.05,0.0,0,0,0,kReverse,kOff,-88.35,1.55,1.56,0.07446289,-0.9779053,0.020812988,32.48,0.0,47.0,9.3078613E-4,-0.38401794,
29.803172999999994,true,true,true,4.75,11.9,0.0,-1305,-256,0,5.5,11.9,0.0,0,0,0,5.0,11.95,0.0,-1296,-254,0,5.75,11.9,0.0,0,0,0,0.0,12.05,0.0,0,0,0,0.0,12.05,0.0,0,0,0,0.125,12.1,0.0,0,0,0,kReverse,kOff,-88.33,1.59,1.6,-0.03942871,-0.9637451,-0.10992432,32.48,0.0,-65.0,8.544922E-4,-0.40473938,
29.835521999999997,true,true,true,5.25,11.95,0.0,-1414,-262,0,5.75,11.9,0.0,0,0,0,5.25,11.95,0.0,-1410,-263,0,6.0,12.0,0.0,0,0,0,0.0,12.05,0.0,0,0,0,0.0,12.05,0.0,0,0,0,0.125,12.1,0.0,0,0,0,kReverse,kOff,-88.34,1.59,1.59,0.14093018,-1.0784912,0.121276855,32.48,0.0,109.0,8.239746E-4,-0.41508484,
29.856064,true,true,true,5.625,11.95,0.0,-1469,-266,0,6.125,11.9,0.0,0,0,0,5.5,11.95,0.0,-1465,-267,0,6.375,12.0,0.0,0,0,0,0.0,12.05,0.0,0,0,0,0.0,12.05,0.0,0,0,0,0.125,12.1,0.0,0,0,0,kReverse,kOff,-88.28,1.66,1.66,0.09063721,-0.998291,-0.01965332,32.48,0.0,61.0,9.1552734E-4,-0.425354,
29.868366,true,true,true,5.625,11.95,0.0,-1469,-266,0,6.125,11.9,0.0,0,0,0,5.5,11.95,0.0,-1523,-272,0,6.625,12.0,0.0,0,0,0,0.0,12.05,0.0,0,0,0,0.0,12.05,0.0,0,0,0,0.125,12.1,0.0,0,0,0,kReverse,kOff,-88.26,1.65,1.65,-0.068359375,-1.053833,0.10571289,32.48,0.0,-99.0,0.0013885498,-0.44563293,
29.898729999999997,true,true,true,5.875,11.95,0.0,-1586,-273,0,6.75,11.9,0.0,0,0,0,5.75,11.95,0.0,-1581,-277,0,6.75,12.0,0.0,0,0,0,0.0,12.05,0.0,0,0,0,0.0,12.05,0.0,0,0,0,0.125,12.1,0.0,0,0,0,kReverse,kOff,-88.29,1.55,1.56,0.014892578,-1.0852051,-0.11395264,32.48,0.0,-13.0,0.0016021729,-0.4656372,
29.926315000000002,true,true,true,5.875,11.95,0.0,-1645,-277,0,6.625,11.9,0.0,0,0,0,5.875,11.95,0.0,-1704,-286,0,7.0,12.0,0.0,0,0,0,0.125,12.05,0.0,0,0,0,0.0,12.05,0.0,0,0,0,0.125,12.1,0.0,0,0,0,kReverse,kOff,-88.24,1.55,1.56,0.120666504,-1.0334473,-0.24029541,32.48,0.0,94.0,0.001739502,-0.4758911,
29.954407,true,true,true,6.25,11.95,0.0,-1769,-288,0,6.75,11.9,0.0,0,0,0,6.125,11.95,0.0,-1761,-290,0,7.25,12.0,0.0,0,0,0,0.125,12.05,0.0,0,0,0,0.0,12.05,0.0,0,0,0,0.125,12.1,0.0,0,0,0,kReverse,kOff,-88.2,1.54,1.55,-0.023376465,-1.0179443,-0.08294678,32.48,0.0,-50.0,0.002090454,-0.49694824,
29.978636999999996,true,true,true,6.5,11.75,0.0,-1832,-293,0,7.0,11.75,0.0,0,0,0,6.5,11.75,0.0,-1825,-294,0,7.5,11.8,0.0,0,0,0,0.125,11.850000000000001,0.0,0,0,0,0.0,11.850000000000001,0.0,0,0,0,0.125,11.9,0.0,0,0,0,kReverse,kOff,-88.25,1.49,1.5,0.032165527,-0.78808594,-0.055786133,32.48,0.0,11.0,0.0023345947,-0.5181427,
30.000589,true,true,true,6.625,11.75,0.0,-1890,-298,0,7.375,11.75,0.0,0,0,0,6.75,11.75,0.0,-1883,-297,0,7.875,11.8,0.0,0,0,0,0.125,11.850000000000001,0.0,0,0,0,0.0,11.850000000000001,0.0,0,0,0,0.125,11.9,0.0,0,0,0,kReverse,kOff,-88.3,1.48,1.49,0.097351074,-0.6378784,0.026672363,32.48,0.0,80.0,0.0025024414,-0.5287323,
30.02693,true,true,true,6.75,11.75,0.0,-1952,-302,0,7.625,11.75,0.0,0,0,0,7.125,11.75,0.0,-2007,-303,0,8.375,11.8,0.0,0,0,0,0.125,11.850000000000001,0.0,0,0,0,0.0,11.850000000000001,0.0,0,0,0,0.125,11.9,0.0,0,0,0,kReverse,kOff,-88.4,1.42,1.43,0.15515137,-1.4644165,0.20697021,32.48,0.0,116.0,0.0029144287,-0.5499573,
30.055134,true,true,true,7.0,11.75,0.0,-2080,-308,0,7.75,11.75,0.0,0,0,0,7.0,11.75,0.0,-2072,-305,0,8.25,11.8,0.0,0,0,0,0.125,11.850000000000001,0.0,0,0,0,0.0,11.850000000000001,0.0,0,0,0,0.125,11.9,0.0,0,0,0,kReverse,kOff,-88.4,1.42,1.43,0.080566406,-1.0959473,0.1875,32.48,0.0,51.0,0.003326416,-0.5701599,
30.079978999999998,true,true,true,7.0,11.75,0.0,-2145,-311,0,7.625,11.75,0.0,0,0,0,7.0,11.75,0.0,-2138,-308,0,8.25,11.8,0.0,0,0,0,0.0,11.850000000000001,0.0,0,0,0,0.0,11.850000000000001,0.0,0,0,0,0.125,11.9,0.0,0,0,0,kReverse,kOff,-88.27,1.48,1.49,0.016845703,-0.83740234,-0.1940918,32.48,0.0,-3.0,0.0038452148,-0.5897064,
30.108055999999998,true,true,true,7.0,11.75,0.0,-2213,-315,0,7.875,11.75,0.0,0,0,0,7.25,11.75,0.0,-2274,-318,0,8.5,11.8,0.0,0,0,0,0.0,11.850000000000001,0.0,0,0,0,0.0,11.850000000000001,0.0,0,0,0,0.125,11.9,0.0,0,0,0,kReverse,kOff,-88.22,1.43,1.44,-0.028686523,-1.364624,-0.17907715,32.48,0.0,-61.0,0.0040893555,-0.59973145,
30.13282,true,true,true,7.875,11.600000000000001,0.0,-2349,-325,0,8.5,11.600000000000001,0.0,0,0,0,7.625,11.600000000000001,0.0,-2343,-325,0,8.875,11.7,0.0,0,0,0,0.125,11.7,0.0,0,0,0,0.0,11.7,0.0,0,0,0,0.125,11.75,0.0,0,0,0,kReverse,kOff,-88.02,1.48,1.49,0.02911377,-0.9244385,-0.107299805,32.48,0.0,-87.0,0.004760742,-0.630249,
30.175769,true,true,true,8.25,11.600000000000001,0.0,-2490,-336,0,9.125,11.600000000000001,0.0,0,0,0,8.25,11.600000000000001,0.0,-2483,-338,0,9.625,11.7,0.0,0,0,0,0.125,11.7,0.0,0,0,0,0.0,11.7,0.0,0,0,0,0.125,11.75,0.0,0,0,0,kReverse,kOff,-87.86,1.32,1.33,0.14465332,-1.1434937,-0.120910645,32.48,0.0,118.0,0.004928589,-0.6513519,
30.200517999999995,true,true,true,8.75,11.600000000000001,0.0,-2564,-342,0,9.125,11.600000000000001,0.0,0,0,0,8.625,11.600000000000001,0.0,-2554,-343,0,9.875,11.7,0.0,0,0,0,0.125,11.7,0.0,0,0,0,0.0,11.7,0.0,0,0,0,0.125,11.75,0.0,0,0,0,kReverse,kOff,-87.81,1.42,1.44,0.03265381,-1.4168091,0.008239746,32.36,0.0,-3.0,0.00541687,-0.6728821,
30.231646,true,true,true,11.375,11.600000000000001,0.0,-2706,-349,0,12.25,11.600000000000001,0.0,0,0,0,11.375,11.600000000000001,0.0,-2697,-349,0,12.25,11.7,0.0,0,0,0,0.125,11.7,0.0,0,0,0,0.0,11.7,0.0,0,0,0,0.125,11.75,0.0,0,0,0,kReverse,kOff,-87.92,1.38,1.39,0.038391113,-0.6550293,-0.12042236,32.36,0.0,23.0,0.005996704,-0.69477844,
30.257523000000003,true,true,true,13.25,11.600000000000001,0.0,-2786,-354,0,13.75,11.600000000000001,0.0,0,0,0,13.5,11.600000000000001,0.0,-2771,-352,0,14.0,11.7,0.0,0,0,0,0.125,11.7,0.0,0,0,0,0.0,11.7,0.0,0,0,0,0.0,11.75,0.0,0,0,0,kReverse,kOff,-87.98,1.33,1.34,-0.17993164,-1.0419312,-0.3269043,32.36,0.0,-157.0,0.0061187744,-0.7178345,
30.28308,true,true,true,14.875,11.600000000000001,0.0,-2862,-359,0,15.0,11.600000000000001,0.0,0,0,0,15.0,11.600000000000001,0.0,-2848,-355,0,16.5,11.7,0.0,0,0,0,0.0,10.9,0.0,0,0,0,0.0,10.9,0.0,0,0,0,0.0,11.75,0.0,0,0,0,kReverse,kOff,-88.04,1.25,1.26,0.017944336,-0.9715576,0.0602417,32.36,0.0,-3.0,0.0059509277,-0.7297058,
30.314538,true,true,true,17.375,10.75,0.0,-3019,-372,0,17.875,10.8,0.0,0,0,0,17.25,10.7,0.0,-3009,-369,0,18.0,10.850000000000001,0.0,0,0,0,0.0,10.9,0.0,0,0,0,0.0,10.9,0.0,0,0,0,0.125,11.0,0.0,0,0,0,kReverse,kOff,-87.78,1.31,1.32,0.055236816,-1.130188,0.15045166,32.36,0.0,28.0,0.0058288574,-0.7529907,
30.339714999999998,true,true,true,18.125,10.75,0.0,-3102,-381,0,18.75,10.8,0.0,0,0,0,18.0,10.7,0.0,-3097,-378,0,18.875,10.850000000000001,0.0,0,0,0,0.0,10.9,0.0,0,0,0,0.0,10.9,0.0,0,0,0,0.125,11.0,0.0,0,0,0,kReverse,kOff,-87.53,1.26,1.26,-0.03491211,-0.9989624,-0.21289062,32.36,0.0,-56.0,0.005554199,-0.7761688,
30.362782,true,true,true,18.25,10.75,0.0,-3188,-390,0,18.875,10.8,0.0,0,0,0,17.875,10.7,0.0,-3183,-389,0,19.375,10.850000000000001,0.0,0,0,0,0.0,10.9,0.0,0,0,0,0.0,10.9,0.0,0,0,0,0.125,11.0,0.0,0,0,0,kReverse,kOff,-87.32,1.25,1.26,0.015197754,-0.9533081,-0.27825928,32.36,0.0,-5.0,0.0053100586,-0.8002777,
30.394451999999998,true,true,true,17.375,10.75,0.0,-3361,-409,0,18.5,10.8,0.0,0,0,0,16.75,10.7,0.0,-3354,-411,0,18.5,10.850000000000001,0.0,0,0,0,0.0,10.9,0.0,0,0,0,0.0,10.9,0.0,0,0,0,0.125,11.0,0.0,0,0,0,kReverse,kOff,-87.27,1.28,1.28,-0.09869385,-0.692749,-0.44866943,32.36,0.0,-113.0,0.0052337646,-0.812912,
30.416574999999998,true,true,true,17.125,10.75,0.0,-3448,-418,0,18.375,10.8,0.0,0,0,0,16.875,10.7,0.0,-3443,-421,0,18.25,10.850000000000001,0.0,0,0,0,0.0,10.9,0.0,0,0,0,0.0,10.9,0.0,0,0,0,0.125,11.0,0.0,0,0,0,kReverse,kOff,-87.35,1.24,1.24,-0.007873535,-1.079834,-0.11663818,32.36,0.0,-31.0,0.0047912598,-0.83935547,
30.440737999999996,true,true,true,17.75,10.75,0.0,-3542,-425,0,18.5,10.8,0.0,0,0,0,17.75,10.7,0.0,-3537,-429,0,18.625,10.850000000000001,0.0,0,0,0,0.0,10.9,0.0,0,0,0,0.0,10.65,0.0,0,0,0,0.125,10.7,0.0,0,0,0,kReverse,kOff,-87.49,1.33,1.34,0.019104004,-0.7119751,-0.13415527,32.36,0.0,2.0,0.0048065186,-0.8659973,
30.469886,true,true,true,18.625,10.5,0.0,-3629,-431,0,19.875,10.5,0.0,0,0,0,19.375,10.45,0.0,-3720,-441,0,19.875,10.5,0.0,0,0,0,0.0,10.65,0.0,0,0,0,0.0,10.65,0.0,0,0,0,0.125,10.7,0.0,0,0,0,kReverse,kOff,-87.55,1.3,1.31,-0.14428711,-0.79504395,-5.493164E-4,32.36,0.0,-162.0,0.004776001,-0.8793793,
30.496405,true,true,true,19.125,10.5,0.0,-3816,-444,0,20.125,10.5,0.0,0,0,0,19.5,10.45,0.0,-3810,-446,0,19.875,10.5,0.0,0,0,0,0.0,10.65,0.0,0,0,0,0.0,10.65,0.0,0,0,0,0.125,10.7,0.0,0,0,0,kReverse,kOff,-87.72,1.19,1.2,0.008544922,-0.92071533,-0.22894287,32.36,0.0,-10.0,0.0045318604,-0.90626526,
30.509926,true,true,true,19.125,10.5,0.0,-3816,-451,0,19.625,10.5,0.0,0,0,0,18.75,10.45,0.0,-3906,-452,0,19.625,10.5,0.0,0,0,0,0.0,10.65,0.0,0,0,0,0.0,10.65,0.0,0,0,0,0.125,10.7,0.0,0,0,0,kReverse,kOff,-87.7,1.21,1.22,0.07147217,-0.8186035,0.30407715,32.36,0.0,53.0,0.0043945312,-0.9326935,
30.541957000000004,true,true,true,18.125,10.5,0.0,-4009,-459,0,18.75,10.5,0.0,0,0,0,18.125,10.45,0.0,-4004,-459,0,19.125,10.5,0.0,0,0,0,0.0,10.65,0.0,0,0,0,0.0,10.65,0.0,0,0,0,0.125,10.7,0.0,0,0,0,kReverse,kOff,-87.34,1.24,1.25,0.081970215,-0.70599365,-0.41448975,32.36,0.0,67.0,0.0045928955,-0.95899963,
30.573589999999996,true,true,true,16.875,10.5,0.0,-4210,-475,0,17.25,10.5,0.0,0,0,0,16.625,10.45,0.0,-4208,-476,0,18.875,10.5,0.0,0,0,0,0.0,10.65,0.0,0,0,0,0.0,10.65,0.0,0,0,0,0.125,10.7,0.0,0,0,0,kReverse,kOff,-87.23,1.25,1.25,-0.022460938,-0.70233154,-0.20251465,32.36,0.0,-37.0,0.004776001,-0.9727173,
30.596349999999997,true,true,true,16.5,10.5,0.0,-4312,-483,0,17.0,10.5,0.0,0,0,0,15.875,10.45,0.0,-4311,-486,0,18.5,10.5,0.0,0,0,0,0.0,10.65,0.0,0,0,0,0.0,10.65,0.0,0,0,0,0.125,10.7,0.0,0,0,0,kReverse,kOff,-86.81,1.14,1.15,0.12530518,-1.0213623,0.074157715,32.36,0.0,104.0,0.0051727295,-1.0005493,
30.617343,true,true,true,15.75,10.8,0.0,-4415,-490,0,17.0,10.8,0.0,0,0,0,15.625,10.8,0.0,-4415,-495,0,18.125,10.8,0.0,0,0,0,0.0,10.9,0.0,0,0,0,0.0,10.9,0.0,0,0,0,0.125,11.0,0.0,0,0,0,kReverse,kOff,-86.64,1.18,1.19,0.08850098,-0.9517822,-0.18981934,32.36,0.0,-72.0,0.005874634,-1.0284424,
30.646879999999996,true,true,true,15.625,10.8,0.0,-4520,-499,0,16.375,10.8,0.0,0,0,0,15.375,10.8,0.0,-4519,-504,0,17.5,10.8,0.0,0,0,0,0.0,10.9,0.0,0,0,0,0.0,10.9,0.0,0,0,0,0.125,11.0,0.0,0,0,0,kReverse,kOff,-86.61,1.09,1.1,0.07562256,-0.9075928,-0.3026123,32.36,0.0,58.0,0.006210327,-1.0427399,
30.669972,true,true,true,15.125,10.8,0.0,-4624,-506,0,15.75,10.8,0.0,0,0,0,14.625,10.8,0.0,-4732,-517,0,17.125,10.8,0.0,0,0,0,0.0,10.9,0.0,0,0,0,0.0,10.9,0.0,0,0,0,0.125,11.0,0.0,0,0,0,kReverse,kOff,-86.66,1.18,1.19,-0.013061523,-1.4580078,0.1895752,32.36,0.0,-44.0,0.0069274902,-1.0723419,
30.696707999999997,true,true,true,15.0,10.8,0.0,-4834,-517,0,15.625,10.8,0.0,0,0,0,14.5,10.8,0.0,-4839,-521,0,16.875,10.8,0.0,0,0,0,0.0,10.9,0.0,0,0,0,0.0,10.9,0.0,0,0,0,0.125,11.0,0.0,0,0,0,kReverse,kOff,-86.78,1.24,1.25,0.17114258,-0.64019775,-0.105285645,32.33,0.0,157.0,0.007736206,-1.1012878,
30.718301999999998,true,true,true,14.625,10.8,0.0,-4946,-521,0,15.875,10.8,0.0,0,0,0,14.25,10.8,0.0,-4947,-525,0,16.875,10.8,0.0,0,0,0,0.0,10.9,0.0,0,0,0,0.0,10.9,0.0,0,0,0,0.125,11.0,0.0,0,0,0,kReverse,kOff,-86.68,1.29,1.31,0.1385498,-1.0402832,-0.08673096,32.33,0.0,115.0,0.008392334,-1.1157684,
30.740578999999997,true,true,true,14.125,10.8,0.0,-5050,-523,0,15.125,10.8,0.0,0,0,0,14.125,10.8,0.0,-5055,-529,0,16.75,10.8,0.0,0,0,0,0.0,10.9,0.0,0,0,0,0.0,10.9,0.0,0,0,0,0.125,11.0,0.0,0,0,0,kReverse,kOff,-86.63,1.17,1.19,-0.009155273,-0.76916504,-0.01977539,32.33,0.0,-25.0,0.009719849,-1.1448517,
30.773220000000002,true,true,true,12.875,11.05,0.0,-5271,-531,0,13.625,11.05,0.0,0,0,0,13.625,11.05,0.0,-5283,-537,0,16.0,11.05,0.0,0,0,0,0.0,11.15,0.0,0,0,0,0.0,11.15,0.0,0,0,0,0.125,11.2,0.0,0,0,0,kReverse,kOff,-86.57,1.07,1.09,-0.026855469,-0.8296509,-0.21069336,32.33,0.0,-41.0,0.010299683,-1.1595001,
30.793771999999997,true,true,true,12.625,11.05,0.0,-5383,-538,0,12.875,11.05,0.0,0,0,0,13.5,11.05,0.0,-5395,-542,0,15.75,11.05,0.0,0,0,0,0.0,11.15,0.0,0,0,0,0.0,11.15,0.0,0,0,0,0.125,11.2,0.0,0,0,0,kReverse,kOff,-86.34,1.07,1.1,0.21044922,-1.2174072,0.08081055,32.33,0.0,186.0,0.0116119385,-1.1894836,
30.815617,true,true,true,12.25,11.05,0.0,-5496,-544,0,13.125,11.05,0.0,0,0,0,13.125,11.05,0.0,-5503,-547,0,15.375,11.05,0.0,0,0,0,0.0,11.15,0.0,0,0,0,0.0,11.15,0.0,0,0,0,0.125,11.2,0.0,0,0,0,kReverse,kOff,-86.27,1.16,1.19,-0.011413574,-0.9719238,-0.028137207,32.33,0.0,-31.0,0.012435913,-1.2043762,
30.837612,true,true,true,12.0,11.05,0.0,-5609,-550,0,12.5,11.05,0.0,0,0,0,13.0,11.05,0.0,-5616,-553,0,15.375,11.05,0.0,0,0,0,0.0,11.15,0.0,0,0,0,0.0,11.15,0.0,0,0,0,0.125,11.2,0.0,0,0,0,kReverse,kOff,-86.28,1.09,1.12,-0.049194336,-0.85650635,-0.08465576,32.33,0.0,-65.0,0.013870239,-1.2343597,
30.860027000000002,true,true,true,12.25,11.05,0.0,-5720,-555,0,11.875,11.05,0.0,0,0,0,12.625,11.05,0.0,-5736,-558,0,15.125,11.05,0.0,0,0,0,0.0,11.15,0.0,0,0,0,0.0,11.15,0.0,0,0,0,0.125,11.2,0.0,0,0,0,kReverse,kOff,-86.37,1.2,1.24,0.08905029,-0.8275757,-0.19415283,32.33,0.0,73.0,0.015472412,-1.2649536,
30.885627,true,true,true,12.25,11.05,0.0,-5833,-559,0,12.5,11.05,0.0,0,0,0,12.125,11.05,0.0,-5845,-562,0,14.75,11.05,0.0,0,0,0,0.0,11.15,0.0,0,0,0,0.0,11.15,0.0,0,0,0,0.125,11.2,0.0,0,0,0,kReverse,kOff,-86.35,1.22,1.27,0.007080078,-1.0313721,-0.31896973,32.33,0.0,-12.0,0.016403198,-1.2806396,
30.914180999999996,true,true,true,12.125,11.05,0.0,-6058,-561,0,12.75,11.05,0.0,0,0,0,11.875,11.05,0.0,-6074,-568,0,14.625,11.05,0.0,0,0,0,0.0,11.15,0.0,0,0,0,0.0,11.15,0.0,0,0,0,0.125,11.2,0.0,0,0,0,kReverse,kOff,-86.61,1.06,1.1,0.07470703,-1.1188965,0.30004883,32.33,0.0,49.0,0.017929077,-1.3119812,
30.937767,true,true,true,11.75,11.15,0.0,-6178,-562,0,12.625,11.15,0.0,0,0,0,12.125,11.15,0.0,-6189,-570,0,14.625,11.15,0.0,0,0,0,0.0,11.25,0.0,0,0,0,0.0,11.25,0.0,0,0,0,0.125,11.3,0.0,0,0,0,kReverse,kOff,-86.79,1.1,1.14,0.05633545,-1.1660156,0.26708984,32.33,0.0,29.0,0.019638062,-1.3419647,
30.959248,true,true,true,11.625,11.15,0.0,-6292,-563,0,11.875,11.15,0.0,0,0,0,11.875,11.15,0.0,-6304,-572,0,14.625,11.15,0.0,0,0,0,0.0,11.25,0.0,0,0,0,0.0,11.25,0.0,0,0,0,0.125,11.3,0.0,0,0,0,kReverse,kOff,-86.9,1.12,1.16,0.016418457,-0.97039795,0.16894531,32.33,0.0,-5.0,0.020553589,-1.3564148,
30.981396999999998,true,true,true,11.125,11.15,0.0,-6403,-565,0,11.625,11.15,0.0,0,0,0,11.625,11.15,0.0,-6423,-574,0,14.5,11.15,0.0,0,0,0,0.0,11.25,0.0,0,0,0,0.0,11.25,0.0,0,0,0,0.125,11.3,0.0,0,0,0,kReverse,kOff,-86.74,1.1,1.16,0.10272217,-1.0023193,0.23718262,32.33,0.0,78.0,0.022079468,-1.3849945,
31.011025,true,true,true,10.625,11.15,0.0,-6523,-569,0,10.375,11.15,0.0,0,0,0,10.625,11.15,0.0,-6663,-579,0,13.125,11.15,0.0,0,0,0,0.0,11.25,0.0,0,0,0,0.0,11.25,0.0,0,0,0,0.125,11.3,0.0,0,0,0,kReverse,kOff,-86.7,1.15,1.21,0.16149902,-1.0849609,0.018615723,32.33,0.0,138.0,0.022949219,-1.3989563,
31.034587,true,true,true,9.875,11.15,0.0,-6762,-580,0,9.875,11.15,0.0,0,0,0,10.0,11.15,0.0,-6784,-585,0,12.625,11.15,0.0,0,0,0,0.0,11.25,0.0,0,0,0,0.0,11.25,0.0,0,0,0,0.125,11.3,0.0,0,0,0,kReverse,kOff,-86.4,1.4,1.46,0.15466309,-1.0717163,0.04736328,32.33,0.0,126.0,0.025482178,-1.4267426,
31.061729999999997,true,true,true,9.875,11.15,0.0,-6881,-586,0,9.625,11.15,0.0,0,0,0,9.875,11.15,0.0,-6904,-590,0,12.5,11.15,0.0,0,0,0,0.0,11.25,0.0,0,0,0,0.0,11.25,0.0,0,0,0,0.0,11.3,0.0,0,0,0,kReverse,kOff,-86.31,1.26,1.33,-0.085510254,-0.97698975,-0.20031738,32.33,0.0,-104.0,0.027954102,-1.4546051,
31.103411999999995,true,true,true,9.5,11.350000000000001,0.0,-7128,-595,0,10.0,11.350000000000001,0.0,0,0,0,9.625,11.350000000000001,0.0,-7269,-603,0,12.125,11.4,0.0,0,0,0,0.0,11.45,0.0,0,0,0,0.0,11.45,0.0,0,0,0,0.125,11.5,0.0,0,0,0,kReverse,kOff,-85.26,0.3,0.46,-0.4508667,1.6660156,-0.39019775,32.33,0.0,-424.0,0.029342651,-1.508255,
31.143182999999997,true,true,true,9.625,11.350000000000001,0.0,-7362,-598,0,9.75,11.350000000000001,0.0,0,0,0,7.5,11.350000000000001,0.0,-7520,-608,0,10.25,11.4,0.0,0,0,0,0.0,11.45,0.0,0,0,0,0.0,11.45,0.0,0,0,0,0.0,11.5,0.0,0,0,0,kReverse,kOff,-83.78,1.24,1.54,-0.394104,-1.2006226,1.999939,32.33,0.0,-522.0,0.030136108,-1.530426,
31.188388999999997,true,true,true,7.25,11.350000000000001,0.0,-7617,-604,0,6.375,11.350000000000001,0.0,0,0,0,6.125,11.350000000000001,0.0,-7775,-618,0,9.75,11.4,0.0,0,0,0,0.0,11.45,0.0,0,0,0,0.0,11.45,0.0,0,0,0,0.0,11.5,0.0,0,0,0,kReverse,kOff,-82.97,1.85,2.15,0.44158936,-0.37615967,-0.85754395,32.33,0.0,462.0,0.033187866,-1.5608368,
31.221892,true,true,true,8.125,11.350000000000001,0.0,-7865,-614,0,8.75,11.350000000000001,0.0,0,0,0,7.0,11.350000000000001,0.0,-7896,-623,0,10.125,11.4,0.0,0,0,0,0.0,11.45,0.0,0,0,0,0.0,11.45,0.0,0,0,0,0.125,11.5,0.0,0,0,0,kReverse,kOff,-83.69,1.79,1.96,0.038635254,-0.03387451,0.052856445,32.28,0.0,36.0,0.03540039,-1.5804291,
31.250409,true,true,true,9.125,11.350000000000001,0.0,-7986,-617,0,10.0,11.3,0.0,0,0,0,9.375,11.3,0.0,-8135,-624,0,11.75,11.3,0.0,0,0,0,0.0,11.4,0.0,0,0,0,0.0,11.4,0.0,0,0,0,0.125,11.4,0.0,0,0,0,kReverse,kOff,-83.97,1.8,1.98,0.29284668,-0.95214844,-0.8452759,32.28,0.0,283.0,0.036605835,-1.5899506,
31.272119,true,true,true,10.125,11.3,0.0,-8211,-611,0,10.5,11.3,0.0,0,0,0,10.0,11.3,0.0,-8250,-618,0,12.75,11.3,0.0,0,0,0,0.0,11.4,0.0,0,0,0,0.0,11.4,0.0,0,0,0,0.125,11.4,0.0,0,0,0,kReverse,kOff,-83.56,0.98,1.19,0.5900879,-2.0,-0.04333496,32.28,0.0,549.0,0.039535522,-1.6137238,
31.293841999999998,true,true,true,11.5,11.3,0.0,-8321,-600,0,12.0,11.3,0.0,0,0,0,11.75,11.3,0.0,-8352,-607,0,15.0,11.3,0.0,0,0,0,0.0,11.4,0.0,0,0,0,0.0,11.4,0.0,0,0,0,0.125,11.4,0.0,0,0,0,kReverse,kOff,-84.59,0.51,0.7,0.12536621,0.2788086,-0.010314941,32.28,0.0,129.0,0.04159546,-1.6260681,
31.315883999999997,true,true,true,13.5,11.3,0.0,-8418,-585,0,14.5,11.3,0.0,0,0,0,13.125,11.3,0.0,-8460,-590,0,16.0,11.3,0.0,0,0,0,0.0,11.4,0.0,0,0,0,0.0,11.4,0.0,0,0,0,0.125,11.4,0.0,0,0,0,kReverse,kOff,-85.07,1.39,1.56,0.06866455,1.0622559,-0.17303467,32.28,0.0,103.0,0.043823242,-1.6386261,
31.336765,true,true,true,14.125,11.3,0.0,-8530,-570,0,14.75,11.3,0.0,0,0,0,12.875,11.3,0.0,-8578,-575,0,15.625,11.3,0.0,0,0,0,0.0,11.4,0.0,0,0,0,0.0,11.4,0.0,0,0,0,0.125,11.4,0.0,0,0,0,kReverse,kOff,-88.27,1.72,1.72,-1.8045654,-2.0,1.2732544,32.28,0.0,-1900.0,0.045333862,-1.6596527,
31.357517999999995,true,true,true,13.875,11.3,0.0,-8642,-557,0,14.375,11.3,0.0,0,0,0,11.875,11.3,0.0,-8693,-563,0,14.75,11.3,0.0,0,0,0,0.0,11.4,0.0,0,0,0,0.0,11.4,0.0,0,0,0,0.125,11.4,0.0,0,0,0,kReverse,kOff,-87.69,1.32,1.27,0.89868164,-0.20159912,0.25634766,32.28,0.0,886.0,0.043289185,-1.6805725,
31.381498999999994,true,true,true,11.625,11.3,0.0,-8758,-549,0,12.625,11.3,0.0,0,0,0,11.375,11.3,0.0,-8801,-556,0,14.0,11.3,0.0,0,0,0,0.0,11.4,0.0,0,0,0,0.0,11.4,0.0,0,0,0,0.125,11.4,0.0,0,0,0,kReverse,kOff,-86.79,2.32,2.29,0.7175293,1.8222046,1.999939,32.28,0.0,757.0,0.04374695,-1.6899719,
31.408381000000002,true,true,true,10.375,11.3,0.0,-8880,-548,0,10.875,11.3,0.0,0,0,0,10.875,11.350000000000001,0.0,-9040,-561,0,13.75,11.350000000000001,0.0,0,0,0,0.0,11.45,0.0,0,0,0,0.0,11.45,0.0,0,0,0,0.125,11.5,0.0,0,0,0,kReverse,kOff,-85.95,1.43,1.39,-0.21087646,-2.0,0.6011963,32.28,0.0,-266.0,0.04473877,-1.7030334,
31.432587999999996,true,true,true,8.5,11.4,0.0,-9125,-572,0,8.875,11.350000000000001,0.0,0,0,0,10.25,11.350000000000001,0.0,-9158,-571,0,13.5,11.350000000000001,0.0,0,0,0,0.0,11.45,0.0,0,0,0,0.0,11.45,0.0,0,0,0,0.125,11.5,0.0,0,0,0,kReverse,kOff,-86.3,1.53,1.49,0.19049072,-0.010864258,-0.5177002,32.28,0.0,196.0,0.04496765,-1.7090149,
31.456394,true,true,true,7.875,11.4,0.0,-9249,-587,0,8.5,11.350000000000001,0.0,0,0,0,9.75,11.350000000000001,0.0,-9289,-580,0,13.0,11.350000000000001,0.0,0,0,0,0.0,11.45,0.0,0,0,0,0.0,11.45,0.0,0,0,0,0.125,11.5,0.0,0,0,0,kReverse,kOff,-86.77,2.62,2.62,-0.26568604,-0.7636719,0.46466064,32.28,0.0,-300.0,0.04647827,-1.7203369,
31.480129,true,true,true,7.375,11.4,0.0,-9376,-600,0,7.5,11.350000000000001,0.0,0,0,0,9.375,11.350000000000001,0.0,-9408,-589,0,12.625,11.350000000000001,0.0,0,0,0,0.0,11.45,0.0,0,0,0,0.0,11.45,0.0,0,0,0,0.125,11.5,0.0,0,0,0,kReverse,kOff,-88.43,1.38,1.39,-0.01977539,-0.7076416,0.20056152,32.28,0.0,-34.0,0.047332764,-1.7296295,
31.512197999999998,true,true,true,5.875,11.4,0.0,-9636,-620,0,5.0,11.350000000000001,0.0,0,0,0,7.0,11.350000000000001,0.0,-9663,-609,0,10.625,11.350000000000001,0.0,0,0,0,0.0,11.45,0.0,0,0,0,0.0,11.45,0.0,0,0,0,0.125,11.5,0.0,0,0,0,kReverse,kOff,-87.68,1.47,1.43,1.4877319,-2.0,-0.5389404,32.28,0.0,1426.0,0.04940796,-1.7375336,
31.533682000000002,true,true,true,5.5,11.4,0.0,-9765,-628,0,4.0,11.350000000000001,0.0,0,0,0,6.75,11.350000000000001,0.0,-9790,-617,0,10.5,11.350000000000001,0.0,0,0,0,0.0,11.45,0.0,0,0,0,0.0,11.45,0.0,0,0,0,0.125,11.5,0.0,0,0,0,kReverse,kOff,-86.89,0.96,0.89,-0.4319458,0.9640503,-0.32733154,32.28,0.0,-423.0,0.051696777,-1.7420502,
31.556048999999998,true,true,true,5.5,11.4,0.0,-9892,-635,0,5.0,11.350000000000001,0.0,0,0,0,7.0,11.350000000000001,0.0,-9914,-624,0,10.625,11.350000000000001,0.0,0,0,0,0.0,11.45,0.0,0,0,0,0.0,11.45,0.0,0,0,0,0.125,11.5,0.0,0,0,0,kReverse,kOff,-86.21,0.85,0.81,-0.4827881,-0.5878906,-0.3326416,32.28,0.0,-495.0,0.05496216,-1.7523193,
31.578993999999998,true,true,true,6.875,11.5,0.0,-10014,-639,0,5.75,11.5,0.0,0,0,0,7.625,11.5,0.0,-10039,-629,0,10.875,11.5,0.0,0,0,0,0.0,11.55,0.0,0,0,0,0.0,11.55,0.0,0,0,0,0.125,11.600000000000001,0.0,0,0,0,kReverse,kOff,-86.34,0.33,0.28,-0.01739502,-1.2844849,0.7877197,32.28,0.0,-11.0,0.056427002,-1.7641907,
31.603841999999997,true,true,true,8.0,11.5,0.0,-10136,-638,0,8.125,11.5,0.0,0,0,0,7.875,11.5,0.0,-10164,-630,0,11.0,11.5,0.0,0,0,0,0.0,11.55,0.0,0,0,0,0.0,11.55,0.0,0,0,0,0.125,11.600000000000001,0.0,0,0,0,kReverse,kOff,-87.77,0.43,0.38,0.19586182,-1.0549316,0.06976318,32.28,0.0,190.0,0.057174683,-1.7694397,
31.631528,true,true,true,8.375,11.5,0.0,-10376,-626,0,9.125,11.5,0.0,0,0,0,7.0,11.5,0.0,-10409,-626,0,10.625,11.5,0.0,0,0,0,0.0,11.55,0.0,0,0,0,0.0,11.55,0.0,0,0,0,0.125,11.600000000000001,0.0,0,0,0,kReverse,kOff,-87.7,0.94,0.91,-0.014892578,-0.9595947,0.14434814,32.28,0.0,-27.0,0.06011963,-1.7813873,
31.657776,true,true,true,6.5,11.5,0.0,-10492,-617,0,7.875,11.5,0.0,0,0,0,5.0,11.5,0.0,-10528,-622,0,9.125,11.5,0.0,0,0,0,0.0,11.55,0.0,0,0,0,0.0,11.55,0.0,0,0,0,0.125,11.600000000000001,0.0,0,0,0,kReverse,kOff,-87.9,0.73,0.72,-0.09863281,-0.62005615,0.44561768,32.28,0.0,-102.0,0.062683105,-1.7927094,
31.683500999999996,true,true,true,3.375,11.5,0.0,-10603,-606,0,6.5,11.5,0.0,0,0,0,2.875,11.5,0.0,-10641,-616,0,4.625,11.5,0.0,0,0,0,0.0,11.55,0.0,0,0,0,0.0,11.55,0.0,0,0,0,0.125,11.600000000000001,0.0,0,0,0,kReverse,kOff,-87.96,0.65,0.65,-0.009277344,-1.6837158,0.680542,32.28,0.0,-25.0,0.06373596,-1.7973022,
31.709902000000003,true,true,true,0.875,11.5,0.0,-10704,-594,0,0.25,11.5,0.0,0,0,0,0.0,11.5,0.0,-10841,-590,0,1.25,11.5,0.0,0,0,0,0.0,11.55,0.0,0,0,0,0.0,11.55,0.0,0,0,0,0.125,11.600000000000001,0.0,0,0,0,kReverse,kOff,-87.85,0.92,0.92,-0.14227295,-1.5153198,-0.31817627,32.28,0.0,-167.0,0.066604614,-1.8039246,
31.737345,true,true,true,0.0,13.15,0.0,-10900,-557,0,0.0,13.15,0.0,0,0,0,0.0,13.15,0.0,-10941,-569,0,0.0,13.200000000000001,0.0,0,0,0,0.0,13.15,0.0,0,0,0,0.0,13.15,0.0,0,0,0,0.125,13.200000000000001,0.0,0,0,0,kReverse,kOff,-88.78,0.93,0.93,0.017456055,-0.82037354,0.3098755,32.27,0.0,4.0,0.070129395,-1.8095703,
31.762881,true,true,true,0.0,13.15,0.0,-10993,-535,0,0.0,13.15,0.0,0,0,0,0.0,13.15,0.0,-11037,-545,0,0.0,13.200000000000001,0.0,0,0,0,0.125,13.15,0.0,0,0,0,0.0,13.15,0.0,0,0,0,0.125,13.200000000000001,0.0,0,0,0,kReverse,kOff,-88.71,1.07,1.07,-0.076293945,-1.3731079,0.93548584,32.27,0.0,-99.0,0.073638916,-1.8126984,
31.786303999999998,true,true,true,0.0,13.15,0.0,-11080,-513,0,0.0,13.15,0.0,0,0,0,0.0,13.15,0.0,-11212,-500,0,0.0,13.200000000000001,0.0,0,0,0,0.125,13.15,0.0,0,0,0,0.0,13.15,0.0,0,0,0,0.125,13.200000000000001,0.0,0,0,0,kReverse,kOff,-87.5,1.04,1.04,0.09692383,-0.9133301,0.45141602,32.27,0.0,79.0,0.07740784,-1.8110504,
31.818830000000002,true,true,true,0.0,13.15,0.0,-11237,-469,0,0.0,13.15,0.0,0,0,0,0.125,13.15,0.0,-11292,-479,0,0.0,13.200000000000001,0.0,0,0,0,0.125,13.15,0.0,0,0,0,0.0,13.15,0.0,0,0,0,0.125,13.200000000000001,0.0,0,0,0,kReverse,kOff,-86.53,1.33,1.31,-0.25738525,-0.35162354,0.4239502,32.27,0.0,-268.0,0.08180237,-1.8057709,
31.843004,true,true,true,0.0,13.15,0.0,-11312,-447,0,0.0,13.15,0.0,0,0,0,0.125,13.15,0.0,-11370,-459,0,0.0,13.200000000000001,0.0,0,0,0,0.125,13.15,0.0,0,0,0,0.0,13.15,0.0,0,0,0,0.125,13.200000000000001,0.0,0,0,0,kReverse,kOff,-86.15,1.17,1.14,-0.15093994,-0.46948242,0.9378662,32.27,0.0,-169.0,0.0836792,-1.8018188,
31.868815,true,true,true,0.0,13.15,0.0,-11386,-425,0,0.0,13.15,0.0,0,0,0,0.125,13.15,0.0,-11523,-421,0,0.0,13.200000000000001,0.0,0,0,0,0.125,13.15,0.0,0,0,0,0.0,13.15,0.0,0,0,0,0.125,13.200000000000001,0.0,0,0,0,kReverse,kOff,-85.61,1.04,0.99,0.18255615,-1.0396118,1.2554321,32.27,0.0,147.0,0.08554077,-1.7964478,
31.891265999999995,true,true,true,0.0,13.15,0.0,-11457,-404,0,0.0,13.15,0.0,0,0,0,0.125,14.100000000000001,0.0,-11597,-404,0,0.0,14.100000000000001,0.0,0,0,0,0.0,14.100000000000001,0.0,0,0,0,0.0,14.100000000000001,0.0,0,0,0,0.125,14.15,0.0,0,0,0,kReverse,kOff,-84.75,1.21,1.13,0.13647461,-1.0110474,0.6114502,32.27,0.0,106.0,0.08959961,-1.7825012,
