timer,lineLeft,lineCenter,lineRight,LeftFrontCurrent,LeftFrontVoltage,LeftFrontValue,LeftFrontPosition,LeftFrontVelocity,LeftFrontFaults,LeftRearCurrent,LeftRearVoltage,LeftRearValue,LeftRearPosition,LeftRearVelocity,LeftRearFaults,RightFrontCurrent,RightFrontVoltage,RightFrontValue,RightFrontPosition,RightFrontVelocity,RightFrontFaults,RightRearCurrent,RightRearVoltage,RightRearValue,RightRearPosition,RightRearVelocity,RightRearFaults,LiftCurrent,LiftVoltage,LiftValue,LiftPosition,LiftVelocity,LiftFaults,WristCurrent,WristVoltage,WristValue,WristPosition,WristVelocity,WristFaults,RollerCurrent,RollerVoltage,RollerValue,RollerPosition,RollerVelocity,RollerFaults,PushersState,PivotsState,navx_Pitch,navx_Roll,navx_Yaw,navx_XAcc,navx_YAcc,navx_ZAcc,navx_Temp,navx_Bar,navx_Alt,navx_XDis,navx_YDis,
188.29294199999998,true,true,true,0.125,12.700000000000001,0.0,0,0,0,0.125,12.75,0.0,0,0,0,0.125,12.700000000000001,0.0,0,0,0,0.125,12.75,0.0,0,0,0,0.0,12.700000000000001,0.0,0,0,0,0.0,12.700000000000001,0.0,0,0,0,0.0,12.75,0.0,0,0,0,kReverse,kOff,-86.85,2.28,2.26,0.035705566,-0.9522095,0.045776367,30.65,0.0,-2.0,-3.9962769,-5.525711,
188.328742,true,true,true,0.125,12.700000000000001,0.0,0,0,0,0.125,12.75,0.0,0,0,0,0.125,12.700000000000001,0.0,0,0,0,0.125,12.75,0.0,0,0,0,0.0,12.700000000000001,0.0,0,0,0,0.0,12.700000000000001,0.0,0,0,0,0.0,12.75,0.0,0,0,0,kReverse,kOff,-86.86,2.28,2.27,0.03527832,-0.9691162,0.068725586,30.65,0.0,-3.0,-3.9962769,-5.5256805,
188.354838,true,true,true,0.125,12.700000000000001,0.0,0,0,0,0.125,12.75,0.0,0,0,0,0.125,12.700000000000001,0.0,0,0,0,0.125,12.75,0.0,0,0,0,0.0,12.700000000000001,0.0,0,0,0,0.0,12.700000000000001,0.0,0,0,0,0.0,12.75,0.0,0,0,0,kReverse,kOff,-86.86,2.28,2.27,0.03527832,-0.9691162,0.068725586,30.65,0.0,-3.0,-3.9962769,-5.5256805,
188.37837999999996,true,true,true,0.125,12.700000000000001,0.0,0,0,0,0.125,12.75,0.0,0,0,0,0.125,12.700000000000001,0.0,0,0,0,0.125,12.75,0.0,0,0,0,0.0,12.700000000000001,0.0,0,0,0,0.0,12.700000000000001,0.0,0,0,0,0.0,12.75,0.0,0,0,0,kReverse,kOff,-86.84,2.32,2.31,-0.2010498,-0.5391846,-0.062438965,30.65,0.0,-222.0,-3.996292,-5.5255127,
188.426433,true,true,true,0.125,12.4,0.0,0,0,0,0.125,12.4,0.0,0,0,0,0.125,12.4,0.0,0,0,0,0.125,12.4,0.0,0,0,0,0.0,12.4,0.0,0,0,0,0.0,12.4,0.0,0,0,0,0.0,12.450000000000001,0.0,0,0,0,kReverse,kOff,-86.89,2.19,2.18,-0.0028076172,-0.8178711,0.11785889,30.62,0.0,-35.0,-3.9953918,-5.5312195,
188.50782999999998,true,true,true,0.125,12.4,0.0,0,0,0,0.125,12.4,0.0,0,0,0,0.125,12.4,0.0,0,0,0,0.125,12.4,0.0,0,0,0,0.0,12.4,0.0,0,0,0,0.0,12.4,0.0,0,0,0,0.125,12.450000000000001,0.0,0,0,0,kReverse,kOff,-86.91,2.21,2.19,0.13061523,-1.2080078,0.068237305,30.62,0.0,83.0,-3.9927368,-5.53627,
188.58659899999998,true,true,true,0.125,12.4,0.0,0,0,0,0.125,12.4,0.0,0,0,0,0.125,12.4,0.0,0,0,0,0.125,12.4,0.0,0,0,0,0.0,12.4,0.0,0,0,0,0.0,12.4,0.0,0,0,0,0.0,12.450000000000001,0.0,0,0,0,kReverse,kOff,-86.94,2.24,2.22,0.13458252,-1.2463989,0.2055664,30.62,0.0,84.0,-3.987152,-5.5372314,
188.663122,true,true,true,0.125,12.4,0.0,0,0,0,0.125,12.4,0.0,0,0,0,0.125,12.4,0.0,0,0,0,0.125,12.4,0.0,0,0,0,0.0,12.4,0.0,0,0,0,0.0,12.4,0.0,0,0,0,0.0,12.450000000000001,0.0,0,0,0,kReverse,kOff,-86.96,2.27,2.25,0.18695068,-1.3179932,0.413208,30.62,0.0,130.0,-3.9822083,-5.5339813,
188.70662699999997,true,true,true,0.125,12.4,0.0,0,0,0,0.125,12.4,0.0,0,0,0,0.125,12.4,0.0,0,0,0,0.125,12.4,0.0,0,0,0,0.0,12.4,0.0,0,0,0,0.0,12.4,0.0,0,0,0,0.0,12.450000000000001,0.0,0,0,0,kReverse,kOff,-86.95,2.33,2.31,0.08270264,-1.1729736,0.47283936,30.62,0.0,30.0,-3.975891,-5.5260773,
188.749033,true,true,true,0.125,12.4,0.0,0,0,0,0.125,12.4,0.0,0,0,0,0.125,12.4,0.0,0,0,0,0.125,12.4,0.0,0,0,0,0.0,12.4,0.0,0,0,0,0.0,12.4,0.0,0,0,0,0.0,12.450000000000001,0.0,0,0,0,kReverse,kOff,-86.93,2.35,2.33,0.115478516,-1.131897,0.7196655,30.62,0.0,62.0,-3.9664307,-5.506241,
188.80767799999998,true,true,true,0.125,12.4,0.0,0,0,0,0.125,12.4,0.0,0,0,0,0.125,12.4,0.0,0,0,0,0.125,12.4,0.0,0,0,0,0.0,12.4,0.0,0,0,0,0.0,12.4,0.0,0,0,0,0.0,12.450000000000001,0.0,0,0,0,kReverse,kOff,-86.88,2.34,2.32,0.05908203,-1.0281372,0.70758057,30.62,0.0,10.0,-3.961319,-5.4723816,
188.873924,true,true,true,0.125,12.4,0.0,0,0,0,0.125,12.4,0.0,0,0,0,0.125,12.4,0.0,0,0,0,0.125,12.4,0.0,0,0,0,0.0,12.4,0.0,0,0,0,0.0,12.4,0.0,0,0,0,0.0,12.450000000000001,0.0,0,0,0,kReverse,kOff,-86.95,2.26,2.24,0.044555664,-1.0371704,0.66326904,30.62,0.0,-2.0,-3.9612732,-5.423874,
188.92923499999998,true,true,true,0.125,12.4,0.0,0,0,0,0.125,12.4,0.0,0,0,0,0.125,12.4,0.0,0,0,0,0.0,12.4,0.0,0,0,0,0.0,12.4,0.0,0,0,0,0.0,12.4,0.0,0,0,0,0.125,12.450000000000001,0.0,0,0,0,kReverse,kOff,-86.96,2.23,2.21,0.019226074,-1.1165161,0.2993164,30.65,0.0,-26.0,-3.9614868,-5.327652,
189.026468,true,true,true,0.125,12.4,0.0,0,0,0,0.125,12.4,0.0,0,0,0,0.125,12.4,0.0,0,0,0,0.125,12.4,0.0,0,0,0,0.0,12.4,0.0,0,0,0,0.0,12.4,0.0,0,0,0,0.0,12.450000000000001,0.0,0,0,0,kReverse,kOff,-86.91,2.3,2.29,-0.061828613,-1.0932007,-0.12030029,30.65,0.0,-104.0,-3.9626312,-5.256607,
189.083148,true,true,true,0.125,12.4,0.0,0,0,0,0.125,12.4,0.0,0,0,0,0.125,12.35,0.0,0,0,0,0.125,12.4,0.0,0,0,0,0.0,12.4,0.0,0,0,0,0.0,12.4,0.0,0,0,0,0.0,12.450000000000001,0.0,0,0,0,kReverse,kOff,-86.86,2.36,2.35,-0.10180664,-0.94384766,-0.37194824,30.65,0.0,-137.0,-3.9668884,-5.1734314,
189.16436299999998,true,true,true,0.125,12.4,0.0,0,0,0,0.125,12.4,0.0,0,0,0,0.125,12.35,0.0,0,0,0,0.125,12.4,0.0,0,0,0,0.0,12.4,0.0,0,0,0,0.0,12.4,0.0,0,0,0,0.0,12.450000000000001,0.0,0,0,0,kReverse,kOff,-86.84,2.32,2.3,-0.121520996,-0.7513428,-0.52630615,30.65,0.0,-147.0,-3.9757385,-5.1045074,
189.24788199999998,true,true,true,0.125,12.35,0.0,0,0,0,0.125,12.4,0.0,0,0,0,0.125,12.35,0.0,0,0,0,0.125,12.4,0.0,0,0,0,0.0,12.35,0.0,0,0,0,0.0,12.35,0.0,0,0,0,0.0,12.4,0.0,0,0,0,kReverse,kOff,-86.92,2.26,2.25,-0.060058594,-0.77716064,-0.3725586,30.65,0.0,-87.0,-3.9864502,-5.061783,
189.31757,true,true,true,0.125,12.35,0.0,0,0,0,0.125,12.4,0.0,0,0,0,0.125,12.35,0.0,0,0,0,0.125,12.4,0.0,0,0,0,0.0,12.35,0.0,0,0,0,0.0,12.35,0.0,0,0,0,0.0,12.4,0.0,0,0,0,kReverse,kOff,-86.9,2.3,2.28,0.086242676,-1.0144043,-0.18609619,30.65,0.0,47.0,-4.0020447,-5.0200043,
189.38669,true,true,true,0.125,12.35,0.0,0,0,0,0.125,12.35,0.0,0,0,0,0.125,12.35,0.0,0,0,0,0.125,12.4,0.0,0,0,0,0.0,12.35,0.0,0,0,0,0.0,12.35,0.0,0,0,0,0.0,12.4,0.0,0,0,0,kReverse,kOff,-86.87,2.33,2.32,0.14422607,-0.95440674,-0.0413208,30.65,0.0,105.0,-4.013382,-4.9920197,
189.42651199999997,true,true,true,0.125,12.35,0.0,0,0,0,0.125,12.35,0.0,0,0,0,0.125,12.35,0.0,0,0,0,0.125,12.4,0.0,0,0,0,0.0,12.35,0.0,0,0,0,0.0,12.35,0.0,0,0,0,0.0,12.4,0.0,0,0,0,kReverse,kOff,-86.86,2.32,2.31,0.15118408,-0.9420166,-0.06604004,30.65,0.0,113.0,-4.0181885,-4.9788513,
189.45567799999998,true,true,true,0.125,12.35,0.0,0,0,0,0.125,12.35,0.0,0,0,0,0.125,12.35,0.0,0,0,0,0.125,12.4,0.0,0,0,0,0.0,12.35,0.0,0,0,0,0.0,12.35,0.0,0,0,0,0.125,12.4,0.0,0,0,0,kReverse,kOff,-86.86,2.31,2.29,0.14849854,-0.8253174,-0.015625,30.64,0.0,115.0,-4.022415,-4.9662476,
189.48375199999998,true,true,true,0.125,12.35,0.0,0,0,0,0.125,12.35,0.0,0,0,0,0.125,12.35,0.0,0,0,0,0.125,12.4,0.0,0,0,0,0.0,12.35,0.0,0,0,0,0.0,12.35,0.0,0,0,0,0.125,12.4,0.0,0,0,0,kReverse,kOff,-86.88,2.28,2.27,0.103393555,-0.85339355,-0.07098389,30.64,0.0,70.0,-4.026123,-4.9541016,
189.513696,true,true,true,0.125,12.35,0.0,0,0,0,0.125,12.35,0.0,0,0,0,0.125,12.35,0.0,0,0,0,0.125,12.4,0.0,0,0,0,0.0,12.35,0.0,0,0,0,0.0,12.35,0.0,0,0,0,0.125,12.4,0.0,0,0,0,kReverse,kOff,-86.89,2.26,2.25,0.13830566,-0.87194824,-0.09765625,30.64,0.0,130.0,-4.0293274,-4.9424896,
189.540694,true,true,true,0.125,12.35,0.0,0,0,0,0.125,12.35,0.0,0,0,0,0.125,12.35,0.0,0,0,0,0.125,12.4,0.0,0,0,0,0.0,12.35,0.0,0,0,0,0.0,12.35,0.0,0,0,0,0.0,12.4,0.0,0,0,0,kReverse,kOff,-86.96,2.24,2.22,0.15124512,-1.0924683,0.10083008,30.64,0.0,107.0,-4.0319214,-4.931198,
189.56676599999997,true,true,true,0.125,12.35,0.0,0,0,0,0.125,12.35,0.0,0,0,0,0.125,12.35,0.0,0,0,0,0.125,12.4,0.0,0,0,0,0.0,12.35,0.0,0,0,0,0.0,12.35,0.0,0,0,0,0.0,12.4,0.0,0,0,0,kReverse,kOff,-86.96,2.25,2.23,0.18426514,-1.1231079,0.16888428,30.64,0.0,138.0,-4.032959,-4.9254,
189.595148,true,true,true,0.125,12.35,0.0,0,0,0,0.125,12.35,0.0,0,0,0,0.125,12.35,0.0,0,0,0,0.125,12.4,0.0,0,0,0,0.0,12.35,0.0,0,0,0,0.0,12.35,0.0,0,0,0,0.0,12.4,0.0,0,0,0,kReverse,kOff,-86.98,2.27,2.25,0.17767334,-1.2374878,0.3330078,30.64,0.0,125.0,-4.0345154,-4.9130096,
189.61933599999998,true,true,true,0.125,12.35,0.0,0,0,0,0.125,12.35,0.0,0,0,0,0.125,12.35,0.0,0,0,0,0.125,12.4,0.0,0,0,0,0.0,12.35,0.0,0,0,0,0.0,12.35,0.0,0,0,0,0.0,12.4,0.0,0,0,0,kReverse,kOff,-86.98,2.29,2.27,0.12438965,-1.2261963,0.4451294,30.64,0.0,71.0,-4.0354767,-4.8989563,
189.64497899999998,true,true,true,0.125,12.35,0.0,0,0,0,0.125,12.35,0.0,0,0,0,0.125,12.35,0.0,0,0,0,0.0,12.4,0.0,0,0,0,0.0,12.35,0.0,0,0,0,0.0,12.35,0.0,0,0,0,0.125,12.4,0.0,0,0,0,kReverse,kOff,-86.99,2.29,2.27,0.14990234,-1.173584,0.5866699,30.64,0.0,97.0,-4.035797,-4.8910217,
189.668745,true,true,true,0.125,12.35,0.0,0,0,0,0.125,12.35,0.0,0,0,0,0.125,12.35,0.0,0,0,0,0.0,12.4,0.0,0,0,0,0.0,12.35,0.0,0,0,0,0.0,12.35,0.0,0,0,0,0.125,12.4,0.0,0,0,0,kReverse,kOff,-86.96,2.32,2.3,0.08148193,-1.0857544,0.74609375,30.64,0.0,30.0,-4.036148,-4.8726654,
189.695439,true,true,true,0.125,12.35,0.0,0,0,0,0.125,12.35,0.0,0,0,0,0.125,12.35,0.0,0,0,0,0.0,12.35,0.0,0,0,0,0.0,12.35,0.0,0,0,0,0.0,12.35,0.0,0,0,0,0.0,12.4,0.0,0,0,0,kReverse,kOff,-86.93,2.3,2.28,0.061523438,-1.0526733,0.72216797,30.64,0.0,12.0,-4.036377,-4.85054,
189.723179,true,true,true,0.125,12.35,0.0,0,0,0,0.125,12.35,0.0,0,0,0,0.125,12.35,0.0,0,0,0,0.125,12.35,0.0,0,0,0,0.0,12.35,0.0,0,0,0,0.0,12.35,0.0,0,0,0,0.0,12.4,0.0,0,0,0,kReverse,kOff,-86.94,2.28,2.26,0.01965332,-1.0239258,0.64801025,30.64,0.0,-26.0,-4.036392,-4.8247986,
189.75243999999998,true,true,true,0.125,12.35,0.0,0,0,0,0.125,12.35,0.0,0,0,0,0.125,12.35,0.0,0,0,0,0.125,12.35,0.0,0,0,0,0.0,12.35,0.0,0,0,0,0.0,12.35,0.0,0,0,0,0.0,12.4,0.0,0,0,0,kReverse,kOff,-86.97,2.26,2.24,0.02734375,-1.0750122,0.52001953,30.64,0.0,-19.0,-4.0365143,-4.795944,
189.78106199999996,true,true,true,0.125,12.35,0.0,0,0,0,0.125,12.35,0.0,0,0,0,0.125,12.35,0.0,0,0,0,0.125,12.35,0.0,0,0,0,0.0,12.35,0.0,0,0,0,0.0,12.35,0.0,0,0,0,0.0,12.4,0.0,0,0,0,kReverse,kOff,-86.96,2.26,2.24,-0.0053100586,-1.0609131,0.40734863,30.64,0.0,-50.0,-4.0368347,-4.7647552,
189.805423,true,true,true,0.125,12.35,0.0,0,0,0,0.125,12.35,0.0,0,0,0,0.125,12.35,0.0,0,0,0,0.125,12.35,0.0,0,0,0,0.0,12.35,0.0,0,0,0,0.0,12.35,0.0,0,0,0,0.125,12.4,0.0,0,0,0,kReverse,kOff,-86.93,2.28,2.26,-0.014892578,-1.0793457,0.20574951,30.64,0.0,-59.0,-4.0371246,-4.7486267,
189.83070299999997,true,true,true,0.125,12.35,0.0,0,0,0,0.125,12.35,0.0,0,0,0,0.125,12.35,0.0,0,0,0,0.125,12.35,0.0,0,0,0,0.0,12.35,0.0,0,0,0,0.0,12.35,0.0,0,0,0,0.125,12.4,0.0,0,0,0,kReverse,kOff,-86.89,2.32,2.31,-0.04888916,-1.1113892,-0.054626465,30.64,0.0,-93.0,-4.0379944,-4.716156,
189.85765899999998,true,true,true,0.125,12.35,0.0,0,0,0,0.125,12.35,0.0,0,0,0,0.125,12.35,0.0,0,0,0,0.125,12.35,0.0,0,0,0,0.0,12.35,0.0,0,0,0,0.0,12.35,0.0,0,0,0,0.0,12.4,0.0,0,0,0,kReverse,kOff,-86.86,2.36,2.34,-0.09350586,-1.0229492,-0.28063965,30.64,0.0,-132.0,-4.0394287,-4.684555,
189.883932,true,true,true,0.125,12.35,0.0,0,0,0,0.125,12.35,0.0,0,0,0,0.125,12.35,0.0,0,0,0,0.125,12.35,0.0,0,0,0,0.0,12.35,0.0,0,0,0,0.0,12.35,0.0,0,0,0,0.0,12.4,0.0,0,0,0,kReverse,kOff,-86.82,2.38,2.36,-0.123046875,-0.9612427,-0.4142456,30.64,0.0,-158.0,-4.0416107,-4.6548767,
189.908003,true,true,true,0.125,12.35,0.0,0,0,0,0.125,12.35,0.0,0,0,0,0.125,12.35,0.0,0,0,0,0.125,12.35,0.0,0,0,0,0.0,12.35,0.0,0,0,0,0.0,12.35,0.0,0,0,0,0.0,12.4,0.0,0,0,0,kReverse,kOff,-86.8,2.38,2.36,-0.1638794,-0.8876343,-0.44580078,30.64,0.0,-196.0,-4.04303,-4.6409607,
189.93151699999999,true,true,true,0.125,12.35,0.0,0,0,0,0.125,12.35,0.0,0,0,0,0.125,12.35,0.0,0,0,0,0.125,12.35,0.0,0,0,0,0.0,12.35,0.0,0,0,0,0.0,12.35,0.0,0,0,0,0.0,12.4,0.0,0,0,0,kReverse,kOff,-86.81,2.35,2.34,-0.1720581,-0.7932739,-0.54748535,30.64,0.0,-199.0,-4.046707,-4.6151886,
189.95283799999999,true,true,true,0.125,12.35,0.0,0,0,0,0.125,12.35,0.0,0,0,0,0.125,12.35,0.0,0,0,0,0.125,12.35,0.0,0,0,0,0.0,12.35,0.0,0,0,0,0.0,12.35,0.0,0,0,0,0.125,12.4,0.0,0,0,0,kReverse,kOff,-86.83,2.33,2.32,-0.17077637,-0.772522,-0.52923584,30.7,0.0,-197.0,-4.04895,-4.6034393,
189.97718799999998,true,true,true,0.125,12.35,0.0,0,0,0,0.125,12.35,0.0,0,0,0,0.125,12.35,0.0,0,0,0,0.125,12.35,0.0,0,0,0,0.0,12.35,0.0,0,0,0,0.0,12.35,0.0,0,0,0,0.125,12.4,0.0,0,0,0,kReverse,kOff,-86.87,2.3,2.28,-0.1395874,-0.7503662,-0.44293213,30.7,0.0,-165.0,-4.054199,-4.5821075,
190.00123799999997,true,true,true,0.125,12.35,0.0,0,0,0,0.125,12.35,0.0,0,0,0,0.125,12.35,0.0,0,0,0,0.125,12.35,0.0,0,0,0,0.0,12.35,0.0,0,0,0,0.0,12.35,0.0,0,0,0,0.0,12.4,0.0,0,0,0,kReverse,kOff,-86.85,2.29,2.28,-0.02130127,-0.84576416,-0.32733154,30.7,0.0,-51.0,-4.060135,-4.563141,
190.02468399999998,true,true,true,0.125,12.35,0.0,0,0,0,0.125,12.35,0.0,0,0,0,0.125,12.35,0.0,0,0,0,0.125,12.35,0.0,0,0,0,0.0,12.35,0.0,0,0,0,0.0,12.35,0.0,0,0,0,0.0,12.4,0.0,0,0,0,kReverse,kOff,-86.84,2.31,2.29,0.007385254,-0.90405273,-0.28778076,30.7,0.0,-26.0,-4.0631866,-4.554367,
190.04728699999998,true,true,true,0.125,12.35,0.0,0,0,0,0.125,12.35,0.0,0,0,0,0.125,12.35,0.0,0,0,0,0.125,12.35,0.0,0,0,0,0.0,12.35,0.0,0,0,0,0.0,12.35,0.0,0,0,0,0.0,12.4,0.0,0,0,0,kReverse,kOff,-86.85,2.32,2.31,0.12188721,-1.0027466,-0.14300537,30.7,0.0,82.0,-4.0692444,-4.5379333,
190.068598,true,true,true,0.125,12.35,0.0,0,0,0,0.125,12.35,0.0,0,0,0,0.125,12.35,0.0,0,0,0,0.125,12.35,0.0,0,0,0,0.0,12.35,0.0,0,0,0,0.0,12.35,0.0,0,0,0,0.0,12.4,0.0,0,0,0,kReverse,kOff,-86.86,2.33,2.32,0.16320801,-1.0444336,-0.0635376,30.7,0.0,121.0,-4.072098,-4.53006,
190.09027899999998,true,true,true,0.125,12.35,0.0,0,0,0,0.125,12.35,0.0,0,0,0,0.125,12.35,0.0,0,0,0,0.125,12.35,0.0,0,0,0,0.0,12.35,0.0,0,0,0,0.0,12.35,0.0,0,0,0,0.0,12.4,0.0,0,0,0,kReverse,kOff,-86.85,2.34,2.33,0.16558838,-1.0014648,-0.026550293,30.7,0.0,124.0,-4.0747833,-4.522293,
190.115423,true,true,true,0.125,12.35,0.0,0,0,0,0.125,12.35,0.0,0,0,0,0.125,12.35,0.0,0,0,0,0.125,12.35,0.0,0,0,0,0.0,12.35,0.0,0,0,0,0.0,12.35,0.0,0,0,0,0.0,12.4,0.0,0,0,0,kReverse,kOff,-86.82,2.34,2.32,0.20892334,-0.8967285,0.03753662,30.7,0.0,172.0,-4.0795746,-4.514572,
190.139397,true,true,true,0.125,12.35,0.0,0,0,0,0.125,12.35,0.0,0,0,0,0.125,12.35,0.0,0,0,0,0.125,12.35,0.0,0,0,0,0.0,12.35,0.0,0,0,0,0.0,12.35,0.0,0,0,0,0.125,12.4,0.0,0,0,0,kReverse,kOff,-86.8,2.33,2.31,0.21325684,-0.8640747,0.016235352,30.7,0.0,178.0,-4.0816345,-4.514572,
190.16103,true,true,true,0.125,12.35,0.0,0,0,0,0.125,12.35,0.0,0,0,0,0.125,12.35,0.0,0,0,0,0.125,12.35,0.0,0,0,0,0.0,12.35,0.0,0,0,0,0.0,12.35,0.0,0,0,0,0.125,12.4,0.0,0,0,0,kReverse,kOff,-86.82,2.3,2.28,0.18054199,-0.8311157,-0.07720947,30.7,0.0,148.0,-4.0851135,-4.514862,
190.18465799999998,true,true,true,0.125,12.35,0.0,0,0,0,0.125,12.35,0.0,0,0,0,0.125,12.3,0.0,0,0,0,0.125,12.35,0.0,0,0,0,0.0,12.35,0.0,0,0,0,0.0,12.35,0.0,0,0,0,0.125,12.4,0.0,0,0,0,kReverse,kOff,-86.87,2.26,2.25,0.17681885,-0.91845703,0.031677246,30.7,0.0,140.0,-4.0878143,-4.5155334,
190.20805399999998,true,true,true,0.125,12.35,0.0,0,0,0,0.125,12.35,0.0,0,0,0,0.125,12.3,0.0,0,0,0,0.125,12.35,0.0,0,0,0,0.0,12.35,0.0,0,0,0,0.0,12.35,0.0,0,0,0,0.125,12.4,0.0,0,0,0,kReverse,kOff,-86.87,2.26,2.25,0.18945312,-0.99938965,0.09210205,30.7,0.0,149.0,-4.0888824,-4.5158386,
190.234312,true,true,true,0.125,12.35,0.0,0,0,0,0.125,12.35,0.0,0,0,0,0.125,12.3,0.0,0,0,0,0.125,12.35,0.0,0,0,0,0.0,12.35,0.0,0,0,0,0.0,12.35,0.0,0,0,0,0.125,12.4,0.0,0,0,0,kReverse,kOff,-86.88,2.29,2.27,0.18103027,-1.1663818,0.2121582,30.7,0.0,132.0,-4.090393,-4.5160065,
190.26315,true,true,true,0.125,12.35,0.0,0,0,0,0.125,12.35,0.0,0,0,0,0.125,12.3,0.0,0,0,0,0.125,12.35,0.0,0,0,0,0.0,12.35,0.0,0,0,0,0.0,12.35,0.0,0,0,0,0.0,12.4,0.0,0,0,0,kReverse,kOff,-86.91,2.32,2.3,0.111083984,-1.2075806,0.39263916,30.7,0.0,58.0,-4.0913086,-4.514969,
190.285348,true,true,true,0.125,12.35,0.0,0,0,0,0.125,12.35,0.0,0,0,0,0.125,12.3,0.0,0,0,0,0.125,12.35,0.0,0,0,0,0.0,12.35,0.0,0,0,0,0.0,12.35,0.0,0,0,0,0.0,12.4,0.0,0,0,0,kReverse,kOff,-86.92,2.33,2.31,0.07623291,-1.126648,0.60339355,30.7,0.0,24.0,-4.0919952,-4.511688,
190.30954699999998,true,true,true,0.125,12.35,0.0,0,0,0,0.125,12.35,0.0,0,0,0,0.125,12.3,0.0,0,0,0,0.125,12.35,0.0,0,0,0,0.0,12.35,0.0,0,0,0,0.0,12.35,0.0,0,0,0,0.0,12.4,0.0,0,0,0,kReverse,kOff,-86.91,2.33,2.31,0.033081055,-1.0859375,0.6571655,30.7,0.0,-17.0,-4.0923157,-4.508896,
190.33249899999998,true,true,true,0.125,12.35,0.0,0,0,0,0.125,12.35,0.0,0,0,0,0.125,12.3,0.0,0,0,0,0.125,12.35,0.0,0,0,0,0.0,12.35,0.0,0,0,0,0.0,12.35,0.0,0,0,0,0.0,12.4,0.0,0,0,0,kReverse,kOff,-86.92,2.3,2.28,-5.493164E-4,-1.02771,0.6235962,30.7,0.0,-47.0,-4.0930634,-4.500824,
190.366628,true,true,true,0.125,12.35,0.0,0,0,0,0.125,12.35,0.0,0,0,0,0.125,12.3,0.0,0,0,0,0.125,12.35,0.0,0,0,0,0.0,12.35,0.0,0,0,0,0.0,12.35,0.0,0,0,0,0.0,12.4,0.0,0,0,0,kReverse,kOff,-86.95,2.27,2.25,0.0068969727,-1.0765381,0.5289917,30.7,0.0,-40.0,-4.094055,-4.4895782,
190.393237,true,true,true,0.125,12.35,0.0,0,0,0,0.125,12.35,0.0,0,0,0,0.125,12.3,0.0,0,0,0,0.125,12.35,0.0,0,0,0,0.0,12.35,0.0,0,0,0,0.0,12.35,0.0,0,0,0,0.0,12.4,0.0,0,0,0,kReverse,kOff,-86.93,2.27,2.25,0.0030517578,-1.0786133,0.3112793,30.7,0.0,-42.0,-4.095276,-4.475952,
190.42003499999998,true,true,true,0.125,12.35,0.0,0,0,0,0.125,12.35,0.0,0,0,0,0.125,12.3,0.0,0,0,0,0.125,12.35,0.0,0,0,0,0.0,12.35,0.0,0,0,0,0.0,12.35,0.0,0,0,0,0.0,12.4,0.0,0,0,0,kReverse,kOff,-86.9,2.31,2.29,-0.034240723,-1.0804443,-0.04046631,30.7,0.0,-77.0,-4.096756,-4.4613953,
190.445227,true,true,true,0.125,12.35,0.0,0,0,0,0.125,12.35,0.0,0,0,0,0.125,12.3,0.0,0,0,0,0.125,12.35,0.0,0,0,0,0.0,12.35,0.0,0,0,0,0.0,12.35,0.0,0,0,0,0.0,12.4,0.0,0,0,0,kReverse,kOff,-86.89,2.33,2.31,-0.07373047,-1.0283813,-0.1739502,30.7,0.0,-113.0,-4.0976562,-4.4543,
190.468009,true,true,true,0.125,12.35,0.0,0,0,0,0.125,12.35,0.0,0,0,0,0.125,12.3,0.0,0,0,0,0.125,12.35,0.0,0,0,0,0.0,12.35,0.0,0,0,0,0.0,12.35,0.0,0,0,0,0.0,12.4,0.0,0,0,0,kReverse,kOff,-86.87,2.35,2.33,-0.12286377,-0.8883667,-0.35943604,30.68,0.0,-155.0,-4.100006,-4.441284,
190.497821,true,true,true,0.125,12.3,0.0,0,0,0,0.125,12.35,0.0,0,0,0,0.125,12.3,0.0,0,0,0,0.125,12.35,0.0,0,0,0,0.0,12.35,0.0,0,0,0,0.0,12.3,0.0,0,0,0,0.0,12.4,0.0,0,0,0,kReverse,kOff,-86.83,2.35,2.34,-0.14440918,-0.8031006,-0.427063,30.68,0.0,-173.0,-4.103256,-4.4305267,
190.523147,true,true,true,0.125,12.3,0.0,0,0,0,0.125,12.35,0.0,0,0,0,0.125,12.3,0.0,0,0,0,0.125,12.35,0.0,0,0,0,0.0,12.35,0.0,0,0,0,0.0,12.3,0.0,0,0,0,0.0,12.4,0.0,0,0,0,kReverse,kOff,-86.83,2.35,2.34,-0.15612793,-0.76538086,-0.4265747,30.68,0.0,-183.0,-4.105255,-4.4260864,
190.54312299999998,true,true,true,0.125,12.3,0.0,0,0,0,0.125,12.35,0.0,0,0,0,0.125,12.3,0.0,0,0,0,0.125,12.35,0.0,0,0,0,0.0,12.35,0.0,0,0,0,0.0,12.3,0.0,0,0,0,0.0,12.4,0.0,0,0,0,kReverse,kOff,-86.85,2.34,2.33,-0.08856201,-0.8175049,-0.3791504,30.68,0.0,-118.0,-4.109894,-4.418991,
190.56354599999997,true,true,true,0.125,12.3,0.0,0,0,0,0.125,12.35,0.0,0,0,0,0.125,12.3,0.0,0,0,0,0.125,12.35,0.0,0,0,0,0.0,12.35,0.0,0,0,0,0.0,12.3,0.0,0,0,0,0.125,12.4,0.0,0,0,0,kReverse,kOff,-86.85,2.34,2.33,-0.08856201,-0.8175049,-0.3791504,30.68,0.0,-118.0,-4.109894,-4.418991,
190.58672799999997,true,true,true,0.125,12.3,0.0,0,0,0,0.125,12.35,0.0,0,0,0,0.125,12.3,0.0,0,0,0,0.125,12.35,0.0,0,0,0,0.0,12.35,0.0,0,0,0,0.0,12.3,0.0,0,0,0,0.125,12.4,0.0,0,0,0,kReverse,kOff,-86.85,2.34,2.32,-0.019714355,-0.90179443,-0.26654053,30.68,0.0,-53.0,-4.115097,-4.4138947,
190.61271699999998,true,true,true,0.125,12.3,0.0,0,0,0,0.125,12.35,0.0,0,0,0,0.125,12.3,0.0,0,0,0,0.125,12.35,0.0,0,0,0,0.0,12.35,0.0,0,0,0,0.0,12.3,0.0,0,0,0,0.125,12.4,0.0,0,0,0,kReverse,kOff,-86.84,2.34,2.33,0.041870117,-0.97540283,-0.22009277,30.68,0.0,3.0,-4.120529,-4.41037,
190.63815999999997,true,true,true,0.125,12.3,0.0,0,0,0,0.125,12.35,0.0,0,0,0,0.125,12.3,0.0,0,0,0,0.125,12.35,0.0,0,0,0,0.0,12.35,0.0,0,0,0,0.0,12.3,0.0,0,0,0,0.0,12.35,0.0,0,0,0,kReverse,kOff,-86.82,2.36,2.34,0.09246826,-0.9730835,-0.17712402,30.68,0.0,54.0,-4.1231995,-4.4091034,
190.66510699999998,true,true,true,0.125,12.3,0.0,0,0,0,0.125,12.3,0.0,0,0,0,0.125,12.3,0.0,0,0,0,0.125,12.35,0.0,0,0,0,0.0,12.3,0.0,0,0,0,0.0,12.3,0.0,0,0,0,0.0,12.35,0.0,0,0,0,kReverse,kOff,-86.84,2.32,2.3,0.13323975,-0.92645264,-0.07928467,30.68,0.0,96.0,-4.12825,-4.407318,
190.68951199999998,true,true,true,0.125,12.3,0.0,0,0,0,0.125,12.3,0.0,0,0,0,0.125,12.3,0.0,0,0,0,0.125,12.35,0.0,0,0,0,0.0,12.3,0.0,0,0,0,0.0,12.3,0.0,0,0,0,0.0,12.35,0.0,0,0,0,kReverse,kOff,-86.86,2.26,2.24,0.13757324,-0.82611084,-0.0020141602,30.68,0.0,105.0,-4.132736,-4.40596,
190.720577,true,true,true,0.125,12.3,0.0,0,0,0,0.125,12.3,0.0,0,0,0,0.125,12.3,0.0,0,0,0,0.125,12.35,0.0,0,0,0,0.0,12.3,0.0,0,0,0,0.0,12.3,0.0,0,0,0,0.0,12.35,0.0,0,0,0,kReverse,kOff,-86.89,2.2,2.19,0.16809082,-0.8814697,-0.064331055,30.68,0.0,134.0,-4.1365814,-4.404953,
190.74802899999997,true,true,true,0.125,12.3,0.0,0,0,0,0.125,12.3,0.0,0,0,0,0.125,12.3,0.0,0,0,0,0.125,12.35,0.0,0,0,0,0.0,12.3,0.0,0,0,0,0.0,12.3,0.0,0,0,0,0.0,12.35,0.0,0,0,0,kReverse,kOff,-86.93,2.22,2.2,0.19049072,-1.2109985,0.19616699,30.68,0.0,141.0,-4.1409607,-4.4035645,
190.776772,true,true,true,0.125,12.3,0.0,0,0,0,0.125,12.3,0.0,0,0,0,0.125,12.3,0.0,0,0,0,0.0,12.35,0.0,0,0,0,0.0,12.3,0.0,0,0,0,0.0,12.3,0.0,0,0,0,0.0,12.35,0.0,0,0,0,kReverse,kOff,-86.93,2.24,2.22,0.17443848,-1.2397461,0.27105713,30.68,0.0,123.0,-4.142029,-4.402725,
190.802878,true,true,true,0.125,12.3,0.0,0,0,0,0.125,12.3,0.0,0,0,0,0.125,12.3,0.0,0,0,0,0.0,12.35,0.0,0,0,0,0.0,12.3,0.0,0,0,0,0.0,12.3,0.0,0,0,0,0.0,12.35,0.0,0,0,0,kReverse,kOff,-86.96,2.28,2.26,0.11175537,-1.2069092,0.49353027,30.68,0.0,59.0,-4.1437683,-4.3997498,
190.82504799999998,true,true,true,0.125,12.3,0.0,0,0,0,0.125,12.3,0.0,0,0,0,0.125,12.3,0.0,0,0,0,0.125,12.35,0.0,0,0,0,0.0,12.3,0.0,0,0,0,0.0,12.3,0.0,0,0,0,0.0,12.35,0.0,0,0,0,kReverse,kOff,-86.94,2.3,2.28,0.08270264,-1.0948486,0.6553345,30.68,0.0,32.0,-4.1452026,-4.3940277,
190.847294,true,true,true,0.125,12.3,0.0,0,0,0,0.125,12.3,0.0,0,0,0,0.125,12.3,0.0,0,0,0,0.125,12.35,0.0,0,0,0,0.0,12.3,0.0,0,0,0,0.0,12.3,0.0,0,0,0,0.0,12.35,0.0,0,0,0,kReverse,kOff,-86.93,2.3,2.28,0.05456543,-1.0881958,0.7305298,30.68,0.0,4.0,-4.145874,-4.389862,
190.86749399999997,true,true,true,0.125,12.3,0.0,0,0,0,0.125,12.3,0.0,0,0,0,0.125,12.3,0.0,0,0,0,0.125,12.35,0.0,0,0,0,0.0,12.3,0.0,0,0,0,0.0,12.3,0.0,0,0,0,0.0,12.35,0.0,0,0,0,kReverse,kOff,-86.94,2.29,2.27,0.059387207,-1.088501,0.73358154,30.68,0.0,9.0,-4.14653,-4.3847656,
190.89305199999998,true,true,true,0.125,12.3,0.0,0,0,0,0.125,12.3,0.0,0,0,0,0.125,12.3,0.0,0,0,0,0.125,12.35,0.0,0,0,0,0.0,12.3,0.0,0,0,0,0.0,12.3,0.0,0,0,0,0.0,12.35,0.0,0,0,0,kReverse,kOff,-86.96,2.26,2.24,0.03894043,-1.0629883,0.58795166,30.68,0.0,-8.0,-4.14653,-4.3719025,
190.918458,true,true,true,0.125,12.3,0.0,0,0,0,0.125,12.3,0.0,0,0,0,0.125,12.3,0.0,0,0,0,0.125,12.35,0.0,0,0,0,0.0,12.3,0.0,0,0,0,0.0,12.3,0.0,0,0,0,0.0,12.35,0.0,0,0,0,kReverse,kOff,-86.94,2.27,2.25,-0.0043945312,-1.0692749,0.24682617,30.68,0.0,-48.0,-4.146576,-4.356491,
190.942484,true,true,true,0.125,12.3,0.0,0,0,0,0.125,12.3,0.0,0,0,0,0.125,12.3,0.0,0,0,0,0.125,12.35,0.0,0,0,0,0.0,12.3,0.0,0,0,0,0.0,12.3,0.0,0,0,0,0.0,12.35,0.0,0,0,0,kReverse,kOff,-86.91,2.29,2.27,-0.04119873,-1.1209717,0.061340332,30.68,0.0,-86.0,-4.1467133,-4.348404,
190.96385899999999,true,true,true,0.125,12.3,0.0,0,0,0,0.125,12.3,0.0,0,0,0,0.125,12.3,0.0,0,0,0,0.125,12.35,0.0,0,0,0,0.0,12.3,0.0,0,0,0,0.0,12.3,0.0,0,0,0,0.0,12.35,0.0,0,0,0,kReverse,kOff,-86.88,2.32,2.3,-0.124938965,-1.0446777,-0.24908447,30.7,0.0,-164.0,-4.147476,-4.332779,
190.98603699999998,true,true,true,0.125,12.3,0.0,0,0,0,0.125,12.3,0.0,0,0,0,0.125,12.3,0.0,0,0,0,0.125,12.35,0.0,0,0,0,0.0,12.3,0.0,0,0,0,0.0,12.3,0.0,0,0,0,0.125,12.35,0.0,0,0,0,kReverse,kOff,-86.87,2.32,2.31,-0.13757324,-1.0031128,-0.38891602,30.7,0.0,-174.0,-4.1481934,-4.3256226,
191.01034399999998,true,true,true,0.125,12.3,0.0,0,0,0,0.125,12.3,0.0,0,0,0,0.125,12.3,0.0,0,0,0,0.125,12.35,0.0,0,0,0,0.0,12.3,0.0,0,0,0,0.0,12.3,0.0,0,0,0,0.0,12.35,0.0,0,0,0,kReverse,kOff,-86.82,2.32,2.3,-0.17456055,-0.8129883,-0.5239868,30.7,0.0,-202.0,-4.1503906,-4.313324,
191.03507299999998,true,true,true,0.125,12.3,0.0,0,0,0,0.125,12.3,0.0,0,0,0,0.125,12.3,0.0,0,0,0,0.125,12.35,0.0,0,0,0,0.0,12.3,0.0,0,0,0,0.0,12.3,0.0,0,0,0,0.0,12.35,0.0,0,0,0,kReverse,kOff,-86.82,2.3,2.29,-0.16119385,-0.75390625,-0.5643921,30.7,0.0,-186.0,-4.151886,-4.308319,
191.056683,true,true,true,0.125,12.3,0.0,0,0,0,0.125,12.3,0.0,0,0,0,0.125,12.3,0.0,0,0,0,0.125,12.35,0.0,0,0,0,0.0,12.3,0.0,0,0,0,0.0,12.3,0.0,0,0,0,0.0,12.35,0.0,0,0,0,kReverse,kOff,-86.86,2.28,2.26,-0.12976074,-0.73394775,-0.4890747,30.7,0.0,-154.0,-4.155594,-4.300644,
191.08396199999999,true,true,true,0.125,12.3,0.0,0,0,0,0.125,12.3,0.0,0,0,0,0.125,12.3,0.0,0,0,0,0.125,12.35,0.0,0,0,0,0.0,12.3,0.0,0,0,0,0.0,12.3,0.0,0,0,0,0.125,12.35,0.0,0,0,0,kReverse,kOff,-86.86,2.28,2.26,-0.016601562,-0.8450928,-0.31671143,30.7,0.0,-47.0,-4.159973,-4.2955933,
191.10783099999998,true,true,true,0.125,12.3,0.0,0,0,0,0.125,12.3,0.0,0,0,0,0.125,12.3,0.0,0,0,0,0.125,12.35,0.0,0,0,0,0.0,12.3,0.0,0,0,0,0.0,12.3,0.0,0,0,0,0.125,12.35,0.0,0,0,0,kReverse,kOff,-86.85,2.29,2.28,0.042785645,-0.9467163,-0.255188,30.7,0.0,7.0,-4.1622467,-4.293762,
191.130951,true,true,true,0.125,12.3,0.0,0,0,0,0.125,12.3,0.0,0,0,0,0.125,12.25,0.0,0,0,0,0.125,12.35,0.0,0,0,0,0.0,12.3,0.0,0,0,0,0.0,12.3,0.0,0,0,0,0.125,12.35,0.0,0,0,0,kReverse,kOff,-86.85,2.31,2.29,0.117614746,-1.0163574,-0.18811035,30.7,0.0,78.0,-4.164459,-4.2922974,
191.159922,true,true,true,0.125,12.3,0.0,0,0,0,0.125,12.3,0.0,0,0,0,0.125,12.25,0.0,0,0,0,0.125,12.35,0.0,0,0,0,0.0,12.3,0.0,0,0,0,0.0,12.3,0.0,0,0,0,0.0,12.35,0.0,0,0,0,kReverse,kOff,-86.86,2.32,2.3,0.18817139,-1.0048828,-0.04559326,30.7,0.0,147.0,-4.1684113,-4.290085,
191.182511,true,true,true,0.125,12.3,0.0,0,0,0,0.125,12.3,0.0,0,0,0,0.125,12.25,0.0,0,0,0,0.125,12.35,0.0,0,0,0,0.0,12.3,0.0,0,0,0,0.0,12.3,0.0,0,0,0,0.0,12.35,0.0,0,0,0,kReverse,kOff,-86.85,2.31,2.3,0.21044922,-0.9384155,0.042785645,30.7,0.0,172.0,-4.1700745,-4.2891235,
191.204533,true,true,true,0.125,12.3,0.0,0,0,0,0.125,12.3,0.0,0,0,0,0.125,12.25,0.0,0,0,0,0.125,12.35,0.0,0,0,0,0.0,12.3,0.0,0,0,0,0.0,12.3,0.0,0,0,0,0.125,12.35,0.0,0,0,0,kReverse,kOff,-86.84,2.28,2.26,0.175354,-0.82629395,-0.014404297,30.7,0.0,142.0,-4.1727448,-4.287277,
191.22756,true,true,true,0.125,12.3,0.0,0,0,0,0.125,12.3,0.0,0,0,0,0.125,12.25,0.0,0,0,0,0.125,12.35,0.0,0,0,0,0.0,12.3,0.0,0,0,0,0.0,12.3,0.0,0,0,0,0.125,12.35,0.0,0,0,0,kReverse,kOff,-86.9,2.23,2.22,0.18621826,-0.9951172,0.06378174,30.7,0.0,146.0,-4.1746216,-4.2855835,
191.25100899999998,true,true,true,0.125,12.3,0.0,0,0,0,0.125,12.3,0.0,0,0,0,0.125,12.25,0.0,0,0,0,0.125,12.35,0.0,0,0,0,0.0,12.3,0.0,0,0,0,0.0,12.3,0.0,0,0,0,0.125,12.35,0.0,0,0,0,kReverse,kOff,-86.92,2.23,2.22,0.19506836,-1.0663452,0.121276855,30.7,0.0,152.0,-4.175247,-4.284668,
191.27669699999998,true,true,true,0.125,12.3,0.0,0,0,0,0.125,12.3,0.0,0,0,0,0.125,12.25,0.0,0,0,0,0.0,12.35,0.0,0,0,0,0.0,12.3,0.0,0,0,0,0.0,12.3,0.0,0,0,0,0.0,12.35,0.0,0,0,0,kReverse,kOff,-86.93,2.27,2.25,0.17547607,-1.2010498,0.26898193,30.7,0.0,125.0,-4.1759033,-4.282242,
191.30345499999999,true,true,true,0.125,12.3,0.0,0,0,0,0.125,12.3,0.0,0,0,0,0.125,12.25,0.0,0,0,0,0.0,12.3,0.0,0,0,0,0.0,12.3,0.0,0,0,0,0.0,12.3,0.0,0,0,0,0.0,12.35,0.0,0,0,0,kReverse,kOff,-86.94,2.31,2.29,0.10333252,-1.1924438,0.4694214,30.7,0.0,51.0,-4.175934,-4.2782745,
191.325788,true,true,true,0.125,12.3,0.0,0,0,0,0.125,12.3,0.0,0,0,0,0.125,12.25,0.0,0,0,0,0.125,12.3,0.0,0,0,0,0.0,12.3,0.0,0,0,0,0.0,12.3,0.0,0,0,0,0.0,12.35,0.0,0,0,0,kReverse,kOff,-86.93,2.33,2.31,0.045043945,-1.100647,0.6134033,30.7,0.0,-5.0,-4.1757507,-4.271759,
191.35864299999997,true,true,true,0.125,12.3,0.0,0,0,0,0.125,12.3,0.0,0,0,0,0.125,12.25,0.0,0,0,0,0.125,12.3,0.0,0,0,0,0.0,12.3,0.0,0,0,0,0.0,12.3,0.0,0,0,0,0.0,12.35,0.0,0,0,0,kReverse,kOff,-86.95,2.3,2.28,0.042419434,-1.102356,0.6334839,30.7,0.0,-7.0,-4.1757507,-4.2621,
191.389807,true,true,true,0.125,12.3,0.0,0,0,0,0.125,12.3,0.0,0,0,0,0.125,12.25,0.0,0,0,0,0.125,12.3,0.0,0,0,0,0.0,12.3,0.0,0,0,0,0.0,12.3,0.0,0,0,0,0.125,12.35,0.0,0,0,0,kReverse,kOff,-86.97,2.29,2.27,0.021911621,-1.1228638,0.5137329,30.7,0.0,-27.0,-4.175827,-4.249344,
191.42323,true,true,true,0.125,12.3,0.0,0,0,0,0.125,12.3,0.0,0,0,0,0.125,12.25,0.0,0,0,0,0.0,12.3,0.0,0,0,0,0.0,12.3,0.0,0,0,0,0.0,12.3,0.0,0,0,0,0.125,12.35,0.0,0,0,0,kReverse,kOff,-86.91,2.31,2.3,-0.07141113,-1.0826416,0.08380127,30.7,0.0,-115.0,-4.1761627,-4.2345734,
191.444549,true,true,true,0.125,12.3,0.0,0,0,0,0.125,12.3,0.0,0,0,0,0.125,12.25,0.0,0,0,0,0.0,12.3,0.0,0,0,0,0.0,12.3,0.0,0,0,0,0.0,12.3,0.0,0,0,0,0.125,12.35,0.0,0,0,0,kReverse,kOff,-86.91,2.32,2.3,-0.10180664,-1.08844,-0.13677979,30.7,0.0,-144.0,-4.1765594,-4.2271576,
191.46656099999998,true,true,true,0.125,12.3,0.0,0,0,0,0.125,12.3,0.0,0,0,0,0.125,12.25,0.0,0,0,0,0.125,12.3,0.0,0,0,0,0.0,12.3,0.0,0,0,0,0.0,12.3,0.0,0,0,0,0.125,12.35,0.0,0,0,0,kReverse,kOff,-86.88,2.34,2.33,-0.14355469,-0.9990845,-0.40826416,30.7,0.0,-180.0,-4.1780243,-4.2135925,
191.486826,true,true,true,0.125,12.3,0.0,0,0,0,0.125,12.3,0.0,0,0,0,0.125,12.25,0.0,0,0,0,0.125,12.3,0.0,0,0,0,0.0,12.3,0.0,0,0,0,0.0,12.3,0.0,0,0,0,0.125,12.35,0.0,0,0,0,kReverse,kOff,-86.86,2.34,2.32,-0.18835449,-0.8981323,-0.48706055,30.73,0.0,-220.0,-4.1791687,-4.207733,
191.516587,true,true,true,0.125,12.3,0.0,0,0,0,0.125,12.3,0.0,0,0,0,0.125,12.25,0.0,0,0,0,0.125,12.3,0.0,0,0,0,0.0,12.3,0.0,0,0,0,0.0,12.3,0.0,0,0,0,0.125,12.35,0.0,0,0,0,kReverse,kOff,-86.85,2.3,2.29,-0.16296387,-0.7523804,-0.5366821,30.73,0.0,-188.0,-4.1822968,-4.198242,
191.54241499999998,true,true,true,0.125,12.3,0.0,0,0,0,0.125,12.3,0.0,0,0,0,0.125,12.25,0.0,0,0,0,0.125,12.3,0.0,0,0,0,0.0,12.3,0.0,0,0,0,0.0,12.3,0.0,0,0,0,0.0,12.35,0.0,0,0,0,kReverse,kOff,-86.88,2.28,2.26,-0.122680664,-0.7217407,-0.45715332,30.73,0.0,-147.0,-4.1864624,-4.191681,
191.564316,true,true,true,0.125,12.3,0.0,0,0,0,0.125,12.3,0.0,0,0,0,0.125,12.25,0.0,0,0,0,0.125,12.3,0.0,0,0,0,0.0,12.3,0.0,0,0,0,0.0,12.3,0.0,0,0,0,0.0,12.35,0.0,0,0,0,kReverse,kOff,-86.88,2.28,2.26,-0.044067383,-0.7653198,-0.35583496,30.73,0.0,-71.0,-4.1888123,-4.189331,
191.586351,true,true,true,0.125,12.3,0.0,0,0,0,0.125,12.3,0.0,0,0,0,0.125,12.25,0.0,0,0,0,0.125,12.3,0.0,0,0,0,0.0,12.3,0.0,0,0,0,0.0,12.3,0.0,0,0,0,0.0,12.35,0.0,0,0,0,kReverse,kOff,-86.84,2.33,2.31,0.070373535,-0.9859619,-0.24279785,30.73,0.0,32.0,-4.1935883,-4.1860046,
191.60974099999999,true,true,true,0.125,12.25,0.0,0,0,0,0.125,12.3,0.0,0,0,0,0.125,12.25,0.0,0,0,0,0.125,12.3,0.0,0,0,0,0.0,12.3,0.0,0,0,0,0.0,12.25,0.0,0,0,0,0.0,12.35,0.0,0,0,0,kReverse,kOff,-86.84,2.38,2.37,0.14471436,-0.958313,-0.2078247,30.73,0.0,106.0,-4.1980896,-4.1841583,
191.637606,true,true,true,0.125,12.25,0.0,0,0,0,0.125,12.3,0.0,0,0,0,0.125,12.25,0.0,0,0,0,0.125,12.3,0.0,0,0,0,0.0,12.3,0.0,0,0,0,0.0,12.25,0.0,0,0,0,0.125,12.35,0.0,0,0,0,kReverse,kOff,-86.82,2.4,2.38,0.14996338,-0.8982544,-0.13684082,30.73,0.0,113.0,-4.2001343,-4.1836853,
191.661398,true,true,true,0.125,12.25,0.0,0,0,0,0.125,12.3,0.0,0,0,0,0.125,12.25,0.0,0,0,0,0.125,12.3,0.0,0,0,0,0.0,12.3,0.0,0,0,0,0.0,12.25,0.0,0,0,0,0.0,12.35,0.0,0,0,0,kReverse,kOff,-86.83,2.37,2.36,0.1404419,-0.8808594,-0.09851074,30.73,0.0,104.0,-4.2037506,-4.183365,
191.684338,true,true,true,0.125,12.25,0.0,0,0,0,0.125,12.3,0.0,0,0,0,0.125,12.25,0.0,0,0,0,0.125,12.3,0.0,0,0,0,0.0,12.3,0.0,0,0,0,0.0,12.25,0.0,0,0,0,0.0,12.35,0.0,0,0,0,kReverse,kOff,-86.86,2.31,2.3,0.1593628,-0.97839355,-0.0256958,30.73,0.0,120.0,-4.206772,-4.18367,
191.711066,true,true,true,0.125,12.25,0.0,0,0,0,0.125,12.3,0.0,0,0,0,0.125,12.25,0.0,0,0,0,0.125,12.3,0.0,0,0,0,0.0,12.3,0.0,0,0,0,0.0,12.25,0.0,0,0,0,0.0,12.35,0.0,0,0,0,kReverse,kOff,-86.87,2.29,2.28,0.18200684,-1.0732422,0.10479736,30.73,0.0,138.0,-4.2080383,-4.1838684,
191.73771299999999,true,true,true,0.125,12.25,0.0,0,0,0,0.125,12.3,0.0,0,0,0,0.125,12.25,0.0,0,0,0,0.125,12.3,0.0,0,0,0,0.0,12.3,0.0,0,0,0,0.0,12.25,0.0,0,0,0,0.0,12.35,0.0,0,0,0,kReverse,kOff,-86.91,2.29,2.27,0.17901611,-1.2513428,0.22576904,30.73,0.0,127.0,-4.2099915,-4.1838074,
191.76475999999997,true,true,true,0.125,12.25,0.0,0,0,0,0.125,12.25,0.0,0,0,0,0.125,12.25,0.0,0,0,0,0.0,12.3,0.0,0,0,0,0.0,12.25,0.0,0,0,0,0.0,12.25,0.0,0,0,0,0.0,12.35,0.0,0,0,0,kReverse,kOff,-86.94,2.31,2.29,0.11999512,-1.192749,0.44952393,30.73,0.0,67.0,-4.2113495,-4.1824036,
191.789889,true,true,true,0.125,12.25,0.0,0,0,0,0.125,12.25,0.0,0,0,0,0.125,12.25,0.0,0,0,0,0.0,12.3,0.0,0,0,0,0.0,12.25,0.0,0,0,0,0.0,12.25,0.0,0,0,0,0.0,12.35,0.0,0,0,0,kReverse,kOff,-86.95,2.3,2.28,0.055908203,-1.0317383,0.72698975,30.73,0.0,7.0,-4.212494,-4.1783295,
191.816076,true,true,true,0.125,12.25,0.0,0,0,0,0.125,12.25,0.0,0,0,0,0.125,12.25,0.0,0,0,0,0.0,12.3,0.0,0,0,0,0.0,12.25,0.0,0,0,0,0.0,12.25,0.0,0,0,0,0.0,12.35,0.0,0,0,0,kReverse,kOff,-86.95,2.3,2.28,0.031066895,-1.0030518,0.70458984,30.73,0.0,-15.0,-4.212494,-4.174942,
191.84086099999996,true,true,true,0.125,12.25,0.0,0,0,0,0.125,12.25,0.0,0,0,0,0.125,12.25,0.0,0,0,0,0.125,12.3,0.0,0,0,0,0.0,12.25,0.0,0,0,0,0.0,12.25,0.0,0,0,0,0.0,12.35,0.0,0,0,0,kReverse,kOff,-86.97,2.27,2.25,-0.006958008,-1.06427,0.6409912,30.73,0.0,-54.0,-4.2126617,-4.165497,
191.86601199999998,true,true,true,0.125,12.25,0.0,0,0,0,0.125,12.25,0.0,0,0,0,0.125,12.25,0.0,0,0,0,0.125,12.3,0.0,0,0,0,0.0,12.25,0.0,0,0,0,0.0,12.25,0.0,0,0,0,0.0,12.35,0.0,0,0,0,kReverse,kOff,-86.94,2.29,2.27,-0.03729248,-1.0805664,0.31488037,30.73,0.0,-83.0,-4.2131653,-4.1532288,
191.891199,true,true,true,0.125,12.25,0.0,0,0,0,0.125,12.25,0.0,0,0,0,0.125,12.25,0.0,0,0,0,0.125,12.3,0.0,0,0,0,0.0,12.25,0.0,0,0,0,0.0,12.25,0.0,0,0,0,0.0,12.35,0.0,0,0,0,kReverse,kOff,-86.88,2.34,2.33,-0.060913086,-1.0725098,-0.15301514,30.73,0.0,-103.0,-4.214142,-4.1401978,
191.920539,true,true,true,0.125,12.25,0.0,0,0,0,0.125,12.25,0.0,0,0,0,0.125,12.25,0.0,0,0,0,0.125,12.3,0.0,0,0,0,0.0,12.25,0.0,0,0,0,0.0,12.25,0.0,0,0,0,0.0,12.35,0.0,0,0,0,kReverse,kOff,-86.85,2.39,2.37,-0.08325195,-0.9124756,-0.31036377,30.73,0.0,-118.0,-4.215683,-4.128433,
191.94689,true,true,true,0.125,12.25,0.0,0,0,0,0.125,12.25,0.0,0,0,0,0.125,12.25,0.0,0,0,0,0.125,12.3,0.0,0,0,0,0.0,12.25,0.0,0,0,0,0.0,12.25,0.0,0,0,0,0.0,12.35,0.0,0,0,0,kReverse,kOff,-86.83,2.4,2.38,-0.12219238,-0.8195801,-0.32867432,30.73,0.0,-153.0,-4.2167206,-4.12323,
191.967177,true,true,true,0.125,12.25,0.0,0,0,0,0.125,12.25,0.0,0,0,0,0.125,12.25,0.0,0,0,0,0.125,12.3,0.0,0,0,0,0.0,12.25,0.0,0,0,0,0.0,12.25,0.0,0,0,0,0.0,12.35,0.0,0,0,0,kReverse,kOff,-86.83,2.39,2.37,-0.1329956,-0.7772827,-0.40118408,30.73,0.0,-161.0,-4.2179565,-4.118576,
191.986552,true,true,true,0.125,12.25,0.0,0,0,0,0.125,12.25,0.0,0,0,0,0.125,12.25,0.0,0,0,0,0.125,12.3,0.0,0,0,0,0.0,12.25,0.0,0,0,0,0.0,12.25,0.0,0,0,0,0.0,12.35,0.0,0,0,0,kReverse,kOff,-86.84,2.35,2.34,-0.11383057,-0.73657227,-0.48675537,30.68,0.0,-139.0,-4.2211,-4.111191,
192.00804599999998,true,true,true,0.125,12.25,0.0,0,0,0,0.125,12.25,0.0,0,0,0,0.125,12.25,0.0,0,0,0,0.125,12.3,0.0,0,0,0,0.0,12.25,0.0,0,0,0,0.0,12.25,0.0,0,0,0,0.0,12.35,0.0,0,0,0,kReverse,kOff,-86.86,2.34,2.32,-0.051330566,-0.8286133,-0.39916992,30.68,0.0,-81.0,-4.2229156,-4.10849,
192.03280399999997,true,true,true,0.125,12.25,0.0,0,0,0,0.125,12.25,0.0,0,0,0,0.125,12.25,0.0,0,0,0,0.125,12.3,0.0,0,0,0,0.0,12.25,0.0,0,0,0,0.0,12.25,0.0,0,0,0,0.125,12.35,0.0,0,0,0,kReverse,kOff,-86.85,2.33,2.32,0.07366943,-0.9923706,-0.27087402,30.68,0.0,35.0,-4.2266846,-4.1045685,
192.060061,true,true,true,0.125,12.25,0.0,0,0,0,0.125,12.25,0.0,0,0,0,0.125,12.25,0.0,0,0,0,0.125,12.3,0.0,0,0,0,0.0,12.25,0.0,0,0,0,0.0,12.25,0.0,0,0,0,0.0,12.35,0.0,0,0,0,kReverse,kOff,-86.87,2.32,2.3,0.15777588,-1.0249634,-0.07330322,30.68,0.0,117.0,-4.230133,-4.102051,
192.08432299999998,true,true,true,0.125,12.25,0.0,0,0,0,0.125,12.25,0.0,0,0,0,0.125,12.25,0.0,0,0,0,0.125,12.3,0.0,0,0,0,0.0,12.25,0.0,0,0,0,0.0,12.25,0.0,0,0,0,0.0,12.35,0.0,0,0,0,kReverse,kOff,-86.86,2.32,2.3,0.14996338,-0.9211426,0.015625,30.68,0.0,112.0,-4.2316284,-4.101013,
192.107161,true,true,true,0.125,12.25,0.0,0,0,0,0.125,12.25,0.0,0,0,0,0.125,12.25,0.0,0,0,0,0.125,12.3,0.0,0,0,0,0.0,12.25,0.0,0,0,0,0.0,12.25,0.0,0,0,0,0.0,12.35,0.0,0,0,0,kReverse,kOff,-86.83,2.29,2.27,0.1618042,-0.8239746,-0.06274414,30.68,0.0,129.0,-4.2341156,-4.099167,
192.13456,true,true,true,0.125,12.25,0.0,0,0,0,0.125,12.25,0.0,0,0,0,0.125,12.25,0.0,0,0,0,0.125,12.3,0.0,0,0,0,0.0,12.25,0.0,0,0,0,0.0,12.25,0.0,0,0,0,0.0,12.35,0.0,0,0,0,kReverse,kOff,-86.85,2.27,2.25,0.16064453,-0.94299316,-0.20397949,30.68,0.0,125.0,-4.2360077,-4.0981293,
192.15876799999998,true,true,true,0.125,12.25,0.0,0,0,0,0.125,12.25,0.0,0,0,0,0.125,12.25,0.0,0,0,0,0.125,12.3,0.0,0,0,0,0.0,12.25,0.0,0,0,0,0.0,12.25,0.0,0,0,0,0.0,12.35,0.0,0,0,0,kReverse,kOff,-86.87,2.27,2.25,0.17346191,-1.0231323,-0.0126953125,30.68,0.0,133.0,-4.236725,-4.097946,
192.182518,true,true,true,0.125,12.25,0.0,0,0,0,0.125,12.25,0.0,0,0,0,0.125,12.25,0.0,0,0,0,0.125,12.3,0.0,0,0,0,0.0,12.25,0.0,0,0,0,0.0,12.25,0.0,0,0,0,0.0,12.35,0.0,0,0,0,kReverse,kOff,-86.88,2.31,2.29,0.19299316,-1.2286377,0.25616455,30.68,0.0,140.0,-4.2375183,-4.0972443,
192.20587999999998,true,true,true,0.125,12.25,0.0,0,0,0,0.125,12.25,0.0,0,0,0,0.125,12.25,0.0,0,0,0,0.125,12.3,0.0,0,0,0,0.0,12.25,0.0,0,0,0,0.0,12.25,0.0,0,0,0,0.0,12.35,0.0,0,0,0,kReverse,kOff,-86.9,2.37,2.35,0.103271484,-1.1898804,0.43554688,30.68,0.0,49.0,-4.2376556,-4.095154,
192.227557,true,true,true,0.125,12.25,0.0,0,0,0,0.125,12.25,0.0,0,0,0,0.125,12.25,0.0,0,0,0,0.125,12.3,0.0,0,0,0,0.0,12.25,0.0,0,0,0,0.0,12.25,0.0,0,0,0,0.0,12.35,0.0,0,0,0,kReverse,kOff,-86.9,2.38,2.36,0.07305908,-1.1321411,0.59106445,30.68,0.0,20.0,-4.237625,-4.093231,
192.25109799999998,true,true,true,0.125,12.25,0.0,0,0,0,0.125,12.25,0.0,0,0,0,0.125,12.25,0.0,0,0,0,0.125,12.3,0.0,0,0,0,0.0,12.25,0.0,0,0,0,0.0,12.25,0.0,0,0,0,0.0,12.35,0.0,0,0,0,kReverse,kOff,-86.91,2.36,2.34,0.024658203,-1.0386353,0.70202637,30.68,0.0,-24.0,-4.237564,-4.086914,
192.281365,true,true,true,0.125,12.25,0.0,0,0,0,0.125,12.25,0.0,0,0,0,0.125,12.25,0.0,0,0,0,0.125,12.3,0.0,0,0,0,0.0,12.25,0.0,0,0,0,0.0,12.25,0.0,0,0,0,0.0,12.35,0.0,0,0,0,kReverse,kOff,-86.93,2.34,2.32,0.015808105,-1.0803833,0.61035156,30.68,0.0,-34.0,-4.2375793,-4.0824738,
192.30389799999998,true,true,true,0.125,12.25,0.0,0,0,0,0.125,12.25,0.0,0,0,0,0.125,12.25,0.0,0,0,0,0.125,12.3,0.0,0,0,0,0.0,12.25,0.0,0,0,0,0.0,12.25,0.0,0,0,0,0.0,12.35,0.0,0,0,0,kReverse,kOff,-86.93,2.32,2.3,0.014099121,-1.0800171,0.414917,30.68,0.0,-33.0,-4.237747,-4.071533,
192.32690999999997,true,true,true,0.125,12.25,0.0,0,0,0,0.125,12.25,0.0,0,0,0,0.125,12.25,0.0,0,0,0,0.125,12.3,0.0,0,0,0,0.0,12.25,0.0,0,0,0,0.0,12.25,0.0,0,0,0,0.0,12.35,0.0,0,0,0,kReverse,kOff,-86.88,2.34,2.33,-0.050354004,-1.1186523,0.021728516,30.68,0.0,-96.0,-4.2382355,-4.059082,
192.348625,true,true,true,0.125,12.25,0.0,0,0,0,0.125,12.25,0.0,0,0,0,0.125,12.25,0.0,0,0,0,0.125,12.3,0.0,0,0,0,0.0,12.25,0.0,0,0,0,0.0,12.25,0.0,0,0,0,0.0,12.35,0.0,0,0,0,kReverse,kOff,-86.87,2.36,2.34,-0.07147217,-1.0819092,-0.14575195,30.68,0.0,-114.0,-4.238678,-4.052948,
192.38522199999997,true,true,true,0.125,12.25,0.0,0,0,0,0.125,12.25,0.0,0,0,0,0.125,12.25,0.0,0,0,0,0.125,12.3,0.0,0,0,0,0.0,12.25,0.0,0,0,0,0.0,12.25,0.0,0,0,0,0.0,12.35,0.0,0,0,0,kReverse,kOff,-86.83,2.37,2.35,-0.15899658,-0.81292725,-0.4547119,30.68,0.0,-188.0,-4.241104,-4.037201,
192.42180399999998,true,true,true,0.125,12.25,0.0,0,0,0,0.125,12.25,0.0,0,0,0,0.125,12.25,0.0,0,0,0,0.125,12.3,0.0,0,0,0,0.0,12.25,0.0,0,0,0,0.0,12.25,0.0,0,0,0,0.0,12.35,0.0,0,0,0,kReverse,kOff,-86.86,2.33,2.31,-0.13446045,-0.72869873,-0.5046387,30.68,0.0,-159.0,-4.243866,-4.0299225,
192.44637,true,true,true,0.125,12.25,0.0,0,0,0,0.125,12.25,0.0,0,0,0,0.125,12.25,0.0,0,0,0,0.125,12.3,0.0,0,0,0,0.0,12.25,0.0,0,0,0,0.0,12.25,0.0,0,0,0,0.125,12.35,0.0,0,0,0,kReverse,kOff,-86.88,2.31,2.3,-0.087524414,-0.7468262,-0.4362793,30.68,0.0,-113.0,-4.245529,-4.027298,
192.47044999999997,true,true,true,0.125,12.25,0.0,0,0,0,0.125,12.25,0.0,0,0,0,0.125,12.25,0.0,0,0,0,0.125,12.3,0.0,0,0,0,0.0,12.25,0.0,0,0,0,0.0,12.25,0.0,0,0,0,0.0,12.35,0.0,0,0,0,kReverse,kOff,-86.86,2.32,2.3,0.03338623,-0.916687,-0.29278564,30.68,0.0,0.0,-4.2491455,-4.023651,
192.498462,true,true,true,0.125,12.25,0.0,0,0,0,0.125,12.25,0.0,0,0,0,0.125,12.25,0.0,0,0,0,0.125,12.3,0.0,0,0,0,0.0,12.25,0.0,0,0,0,0.0,12.25,0.0,0,0,0,0.0,12.35,0.0,0,0,0,kReverse,kOff,-86.85,2.35,2.34,0.16607666,-1.045227,-0.1539917,30.68,0.0,124.0,-4.252594,-4.0216064,
192.52468399999998,true,true,true,0.125,12.25,0.0,0,0,0,0.125,12.25,0.0,0,0,0,0.125,12.25,0.0,0,0,0,0.125,12.3,0.0,0,0,0,0.0,12.25,0.0,0,0,0,0.0,12.25,0.0,0,0,0,0.0,12.35,0.0,0,0,0,kReverse,kOff,-86.83,2.37,2.35,0.18078613,-0.9277954,-0.024108887,30.68,0.0,142.0,-4.2553864,-4.0203857,
192.54948499999998,true,true,true,0.125,12.25,0.0,0,0,0,0.125,12.25,0.0,0,0,0,0.125,12.25,0.0,0,0,0,0.125,12.3,0.0,0,0,0,0.0,12.25,0.0,0,0,0,0.0,12.25,0.0,0,0,0,0.0,12.35,0.0,0,0,0,kReverse,kOff,-86.82,2.36,2.34,0.16009521,-0.8244629,-0.05895996,30.68,0.0,126.0,-4.2565002,-4.019928,
192.57755099999997,true,true,true,0.125,12.25,0.0,0,0,0,0.125,12.25,0.0,0,0,0,0.125,12.25,0.0,0,0,0,0.125,12.25,0.0,0,0,0,0.0,12.25,0.0,0,0,0,0.0,12.25,0.0,0,0,0,0.0,12.35,0.0,0,0,0,kReverse,kOff,-86.85,2.32,2.3,0.1652832,-0.8544922,0.011657715,30.68,0.0,130.0,-4.258209,-4.0193176,
192.60278,true,true,true,0.125,12.25,0.0,0,0,0,0.125,12.25,0.0,0,0,0,0.125,12.25,0.0,0,0,0,0.125,12.25,0.0,0,0,0,0.0,12.25,0.0,0,0,0,0.0,12.25,0.0,0,0,0,0.0,12.35,0.0,0,0,0,kReverse,kOff,-86.88,2.3,2.28,0.20861816,-1.1506958,0.1963501,30.68,0.0,160.0,-4.25914,-4.0186005,
192.62508899999997,true,true,true,0.125,12.25,0.0,0,0,0,0.125,12.25,0.0,0,0,0,0.125,12.25,0.0,0,0,0,0.125,12.25,0.0,0,0,0,0.0,12.25,0.0,0,0,0,0.0,12.25,0.0,0,0,0,0.0,12.35,0.0,0,0,0,kReverse,kOff,-86.89,2.31,2.29,0.16894531,-1.1878052,0.24401855,30.68,0.0,118.0,-4.259308,-4.017929,
192.648542,true,true,true,0.125,12.25,0.0,0,0,0,0.125,12.25,0.0,0,0,0,0.125,12.25,0.0,0,0,0,0.125,12.25,0.0,0,0,0,0.0,12.25,0.0,0,0,0,0.0,12.25,0.0,0,0,0,0.0,12.35,0.0,0,0,0,kReverse,kOff,-86.91,2.33,2.31,0.094055176,-1.1555176,0.45654297,30.68,0.0,42.0,-4.259262,-4.0154724,
192.67714299999997,true,true,true,0.125,12.25,0.0,0,0,0,0.125,12.25,0.0,0,0,0,0.125,12.25,0.0,0,0,0,0.125,12.25,0.0,0,0,0,0.0,12.25,0.0,0,0,0,0.0,12.25,0.0,0,0,0,0.0,12.35,0.0,0,0,0,kReverse,kOff,-86.92,2.33,2.31,0.04321289,-1.0532227,0.68603516,30.68,0.0,-6.0,-4.2591705,-4.010391,
192.70318999999998,true,true,true,0.125,12.25,0.0,0,0,0,0.125,12.25,0.0,0,0,0,0.125,12.25,0.0,0,0,0,0.125,12.25,0.0,0,0,0,0.0,12.25,0.0,0,0,0,0.0,12.25,0.0,0,0,0,0.0,12.35,0.0,0,0,0,kReverse,kOff,-86.94,2.29,2.27,-0.0057373047,-1.0435181,0.6158447,30.68,0.0,-53.0,-4.259308,-4.0019073,
192.72781899999998,true,true,true,0.125,12.25,0.0,0,0,0,0.125,12.25,0.0,0,0,0,0.125,12.25,0.0,0,0,0,0.125,12.25,0.0,0,0,0,0.0,12.25,0.0,0,0,0,0.0,12.25,0.0,0,0,0,0.125,12.35,0.0,0,0,0,kReverse,kOff,-86.95,2.28,2.26,-0.024902344,-1.0755005,0.5299072,30.68,0.0,-72.0,-4.259491,-3.9965057,
192.756363,true,true,true,0.125,12.25,0.0,0,0,0,0.125,12.25,0.0,0,0,0,0.125,12.25,0.0,0,0,0,0.125,12.25,0.0,0,0,0,0.0,12.25,0.0,0,0,0,0.0,12.25,0.0,0,0,0,0.125,12.35,0.0,0,0,0,kReverse,kOff,-86.91,2.3,2.28,-0.039733887,-1.1152344,0.1906128,30.68,0.0,-85.0,-4.260208,-3.984192,
192.78385799999998,true,true,true,0.125,12.25,0.0,0,0,0,0.125,12.25,0.0,0,0,0,0.125,12.25,0.0,0,0,0,0.125,12.25,0.0,0,0,0,0.0,12.25,0.0,0,0,0,0.0,12.25,0.0,0,0,0,0.125,12.35,0.0,0,0,0,kReverse,kOff,-86.87,2.35,2.33,-0.08062744,-1.0371704,-0.21331787,30.68,0.0,-120.0,-4.2614594,-3.9716797,
192.804656,true,true,true,0.125,12.25,0.0,0,0,0,0.125,12.25,0.0,0,0,0,0.125,12.25,0.0,0,0,0,0.125,12.25,0.0,0,0,0,0.0,12.25,0.0,0,0,0,0.0,12.25,0.0,0,0,0,0.125,12.35,0.0,0,0,0,kReverse,kOff,-86.85,2.37,2.35,-0.12207031,-0.8539429,-0.35717773,30.68,0.0,-153.0,-4.2633667,-3.9606934,
192.83168099999997,true,true,true,0.125,12.25,0.0,0,0,0,0.125,12.25,0.0,0,0,0,0.125,12.25,0.0,0,0,0,0.125,12.25,0.0,0,0,0,0.0,12.25,0.0,0,0,0,0.0,12.25,0.0,0,0,0,0.0,12.35,0.0,0,0,0,kReverse,kOff,-86.82,2.37,2.36,-0.14312744,-0.7727051,-0.43743896,30.68,0.0,-170.0,-4.264633,-3.9560242,
192.85868,true,true,true,0.125,12.25,0.0,0,0,0,0.125,12.25,0.0,0,0,0,0.125,12.25,0.0,0,0,0,0.125,12.25,0.0,0,0,0,0.0,12.25,0.0,0,0,0,0.0,12.25,0.0,0,0,0,0.0,12.35,0.0,0,0,0,kReverse,kOff,-86.84,2.34,2.33,-0.10620117,-0.7341919,-0.41656494,30.68,0.0,-132.0,-4.267868,-3.948578,
192.885131,true,true,true,0.125,12.25,0.0,0,0,0,0.125,12.25,0.0,0,0,0,0.125,12.25,0.0,0,0,0,0.125,12.25,0.0,0,0,0,0.0,12.25,0.0,0,0,0,0.0,12.25,0.0,0,0,0,0.125,12.35,0.0,0,0,0,kReverse,kOff,-86.83,2.33,2.31,0.012390137,-0.8735962,-0.3550415,30.68,0.0,-19.0,-4.271652,-3.9434662,
192.90857299999996,true,true,true,0.125,12.25,0.0,0,0,0,0.125,12.25,0.0,0,0,0,0.125,12.25,0.0,0,0,0,0.125,12.25,0.0,0,0,0,0.0,12.25,0.0,0,0,0,0.0,12.25,0.0,0,0,0,0.125,12.35,0.0,0,0,0,kReverse,kOff,-86.82,2.34,2.32,0.13977051,-1.0484619,-0.18292236,30.68,0.0,98.0,-4.2753754,-3.940277,
192.93915399999997,true,true,true,0.125,12.25,0.0,0,0,0,0.125,12.25,0.0,0,0,0,0.125,12.25,0.0,0,0,0,0.125,12.25,0.0,0,0,0,0.0,12.25,0.0,0,0,0,0.0,12.25,0.0,0,0,0,0.0,12.35,0.0,0,0,0,kReverse,kOff,-86.82,2.33,2.31,0.16473389,-0.9329834,-0.10119629,30.68,0.0,127.0,-4.2785187,-3.938202,
192.96438799999999,true,true,true,0.125,12.25,0.0,0,0,0,0.125,12.25,0.0,0,0,0,0.125,12.25,0.0,0,0,0,0.125,12.25,0.0,0,0,0,0.0,12.25,0.0,0,0,0,0.0,12.25,0.0,0,0,0,0.0,12.35,0.0,0,0,0,kReverse,kOff,-86.81,2.32,2.3,0.1484375,-0.8449707,-0.09625244,30.68,0.0,115.0,-4.279831,-3.937439,
192.98647599999998,true,true,true,0.125,12.25,0.0,0,0,0,0.125,12.25,0.0,0,0,0,0.125,12.25,0.0,0,0,0,0.125,12.25,0.0,0,0,0,0.0,12.25,0.0,0,0,0,0.0,12.25,0.0,0,0,0,0.0,12.35,0.0,0,0,0,kReverse,kOff,-86.85,2.27,2.25,0.15460205,-0.87390137,-0.05230713,30.68,0.0,120.0,-4.2819824,-3.9363708,
193.008326,true,true,true,0.125,12.25,0.0,0,0,0,0.125,12.25,0.0,0,0,0,0.125,12.25,0.0,0,0,0,0.125,12.25,0.0,0,0,0,0.0,12.25,0.0,0,0,0,0.0,12.25,0.0,0,0,0,0.125,12.35,0.0,0,0,0,kReverse,kOff,-86.89,2.27,2.25,0.16571045,-1.1955566,0.222229,30.68,0.0,116.0,-4.2838745,-3.9351044,
193.078432,true,true,true,0.125,12.25,0.0,0,0,0,0.125,12.25,0.0,0,0,0,0.125,12.25,0.0,0,0,0,0.125,12.25,0.0,0,0,0,0.0,12.25,0.0,0,0,0,0.0,12.25,0.0,0,0,0,0.0,12.3,0.0,0,0,0,kReverse,kOff,-86.92,2.31,2.29,0.042053223,-1.059082,0.6420288,30.68,0.0,-6.0,-4.2845917,-3.9283142,
193.13027699999998,true,true,true,0.125,12.25,0.0,0,0,0,0.125,12.25,0.0,0,0,0,0.125,12.25,0.0,0,0,0,0.125,12.25,0.0,0,0,0,0.0,12.25,0.0,0,0,0,0.0,12.25,0.0,0,0,0,0.0,12.3,0.0,0,0,0,kReverse,kOff,-86.92,2.3,2.28,-0.0040893555,-1.0274048,0.61798096,30.68,0.0,-51.0,-4.284622,-3.9248047,
193.15403899999998,true,true,true,0.125,12.25,0.0,0,0,0,0.125,12.25,0.0,0,0,0,0.125,12.25,0.0,0,0,0,0.125,12.25,0.0,0,0,0,0.0,12.25,0.0,0,0,0,0.0,12.25,0.0,0,0,0,0.0,12.3,0.0,0,0,0,kReverse,kOff,-86.95,2.27,2.25,-0.009887695,-1.0944214,0.49414062,30.68,0.0,-57.0,-4.284912,-3.915512,
193.178128,true,true,true,0.125,12.25,0.0,0,0,0,0.125,12.25,0.0,0,0,0,0.125,12.25,0.0,0,0,0,0.125,12.25,0.0,0,0,0,0.0,12.25,0.0,0,0,0,0.0,12.25,0.0,0,0,0,0.0,12.3,0.0,0,0,0,kReverse,kOff,-86.95,2.27,2.25,-0.013977051,-1.0801392,0.3947754,30.68,0.0,-60.0,-4.285187,-3.9099731,
193.20115099999998,true,true,true,0.125,12.25,0.0,0,0,0,0.125,12.25,0.0,0,0,0,0.125,12.25,0.0,0,0,0,0.125,12.25,0.0,0,0,0,0.0,12.25,0.0,0,0,0,0.0,12.25,0.0,0,0,0,0.0,12.3,0.0,0,0,0,kReverse,kOff,-86.89,2.32,2.3,-0.037963867,-1.043396,-0.0076904297,30.68,0.0,-79.0,-4.28598,-3.8981018,
193.224019,true,true,true,0.125,12.25,0.0,0,0,0,0.125,12.25,0.0,0,0,0,0.125,12.25,0.0,0,0,0,0.125,12.25,0.0,0,0,0,0.0,12.25,0.0,0,0,0,0.0,12.25,0.0,0,0,0,0.0,12.3,0.0,0,0,0,kReverse,kOff,-86.85,2.34,2.33,-0.09301758,-0.95111084,-0.27905273,30.68,0.0,-129.0,-4.2872925,-3.886856,
193.246579,true,true,true,0.125,12.25,0.0,0,0,0,0.125,12.25,0.0,0,0,0,0.125,12.25,0.0,0,0,0,0.125,12.25,0.0,0,0,0,0.0,12.25,0.0,0,0,0,0.0,12.25,0.0,0,0,0,0.0,12.3,0.0,0,0,0,kReverse,kOff,-86.86,2.33,2.32,-0.14550781,-0.83288574,-0.32019043,30.68,0.0,-176.0,-4.2882385,-3.8818665,
193.26932499999998,true,true,true,0.125,12.25,0.0,0,0,0,0.125,12.25,0.0,0,0,0,0.125,12.25,0.0,0,0,0,0.125,12.25,0.0,0,0,0,0.0,12.25,0.0,0,0,0,0.0,12.25,0.0,0,0,0,0.0,12.3,0.0,0,0,0,kReverse,kOff,-86.87,2.29,2.27,-0.13861084,-0.7617798,-0.52301025,30.68,0.0,-163.0,-4.2908173,-3.8737183,
193.294449,true,true,true,0.125,12.25,0.0,0,0,0,0.125,12.25,0.0,0,0,0,0.125,12.25,0.0,0,0,0,0.125,12.25,0.0,0,0,0,0.0,12.25,0.0,0,0,0,0.0,12.25,0.0,0,0,0,0.0,12.3,0.0,0,0,0,kReverse,kOff,-86.89,2.27,2.25,-0.09399414,-0.74298096,-0.43481445,30.68,0.0,-119.0,-4.2924194,-3.870697,
193.319563,true,true,true,0.125,12.25,0.0,0,0,0,0.125,12.25,0.0,0,0,0,0.125,12.25,0.0,0,0,0,0.125,12.25,0.0,0,0,0,0.0,12.25,0.0,0,0,0,0.0,12.25,0.0,0,0,0,0.0,12.3,0.0,0,0,0,kReverse,kOff,-86.87,2.26,2.24,0.039123535,-0.88775635,-0.29516602,30.68,0.0,7.0,-4.2959137,-3.8662872,
193.34643,true,true,true,0.125,12.25,0.0,0,0,0,0.125,12.25,0.0,0,0,0,0.125,12.25,0.0,0,0,0,0.125,12.25,0.0,0,0,0,0.0,12.25,0.0,0,0,0,0.0,12.25,0.0,0,0,0,0.0,12.3,0.0,0,0,0,kReverse,kOff,-86.85,2.29,2.26,0.1583252,-1.0213013,-0.14868164,30.68,0.0,119.0,-4.2992096,-3.8634644,
193.37127399999997,true,true,true,0.125,12.25,0.0,0,0,0,0.125,12.25,0.0,0,0,0,0.125,12.25,0.0,0,0,0,0.125,12.25,0.0,0,0,0,0.0,12.25,0.0,0,0,0,0.0,12.25,0.0,0,0,0,0.0,12.3,0.0,0,0,0,kReverse,kOff,-86.83,2.29,2.27,0.1829834,-0.9031372,-0.036987305,30.68,0.0,147.0,-4.3018646,-3.8614044,
193.39747,true,true,true,0.125,12.25,0.0,0,0,0,0.125,12.25,0.0,0,0,0,0.125,12.25,0.0,0,0,0,0.125,12.25,0.0,0,0,0,0.0,12.25,0.0,0,0,0,0.0,12.25,0.0,0,0,0,0.0,12.3,0.0,0,0,0,kReverse,kOff,-86.82,2.28,2.26,0.14538574,-0.81073,-0.07897949,30.68,0.0,114.0,-4.3029175,-3.8605347,
193.417832,true,true,true,0.125,12.25,0.0,0,0,0,0.125,12.25,0.0,0,0,0,0.125,12.25,0.0,0,0,0,0.125,12.25,0.0,0,0,0,0.0,12.25,0.0,0,0,0,0.0,12.25,0.0,0,0,0,0.0,12.3,0.0,0,0,0,kReverse,kOff,-86.86,2.25,2.22,0.17144775,-0.92041016,0.0018920898,30.68,0.0,135.0,-4.304474,-3.8592224,
193.44113,true,true,true,0.125,12.25,0.0,0,0,0,0.125,12.25,0.0,0,0,0,0.125,12.25,0.0,0,0,0,0.125,12.25,0.0,0,0,0,0.0,12.25,0.0,0,0,0,0.0,12.25,0.0,0,0,0,0.0,12.3,0.0,0,0,0,kReverse,kOff,-86.87,2.25,2.22,0.21588135,-1.0586548,0.11669922,30.68,0.0,173.0,-4.304947,-3.8585815,
193.46531299999998,true,true,true,0.125,12.25,0.0,0,0,0,0.125,12.25,0.0,0,0,0,0.125,12.25,0.0,0,0,0,0.125,12.25,0.0,0,0,0,0.0,12.25,0.0,0,0,0,0.0,12.25,0.0,0,0,0,0.0,12.3,0.0,0,0,0,kReverse,kOff,-86.87,2.28,2.25,0.15545654,-1.1962891,0.28704834,30.68,0.0,105.0,-4.305298,-3.8566895,
193.49980899999997,true,true,true,0.125,12.25,0.0,0,0,0,0.125,12.25,0.0,0,0,0,0.125,12.25,0.0,0,0,0,0.125,12.25,0.0,0,0,0,0.0,12.25,0.0,0,0,0,0.0,12.25,0.0,0,0,0,0.0,12.3,0.0,0,0,0,kReverse,kOff,-86.87,2.32,2.29,0.05230713,-1.1663818,0.50335693,30.68,0.0,0.0,-4.3052063,-3.8532104,
193.52374099999997,true,true,true,0.125,12.25,0.0,0,0,0,0.125,12.25,0.0,0,0,0,0.125,12.25,0.0,0,0,0,0.125,12.25,0.0,0,0,0,0.0,12.25,0.0,0,0,0,0.0,12.25,0.0,0,0,0,0.125,12.3,0.0,0,0,0,kReverse,kOff,-86.89,2.3,2.28,0.0057373047,-1.0319214,0.6245117,30.66,0.0,-42.0,-4.3051147,-3.8470612,
193.54669799999996,true,true,true,0.125,12.25,0.0,0,0,0,0.125,12.25,0.0,0,0,0,0.125,12.25,0.0,0,0,0,0.125,12.25,0.0,0,0,0,0.0,12.25,0.0,0,0,0,0.0,12.25,0.0,0,0,0,0.125,12.3,0.0,0,0,0,kReverse,kOff,-86.92,2.27,2.25,-0.015136719,-1.069458,0.57855225,30.66,0.0,-63.0,-4.3052673,-3.8377686,
193.568038,true,true,true,0.125,12.25,0.0,0,0,0,0.125,12.25,0.0,0,0,0,0.125,12.25,0.0,0,0,0,0.125,12.25,0.0,0,0,0,0.0,12.25,0.0,0,0,0,0.0,12.25,0.0,0,0,0,0.125,12.3,0.0,0,0,0,kReverse,kOff,-86.91,2.26,2.24,-0.03289795,-1.1071777,0.40551758,30.66,0.0,-80.0,-4.3054657,-3.832138,
193.588754,true,true,true,0.125,12.25,0.0,0,0,0,0.125,12.25,0.0,0,0,0,0.125,12.25,0.0,0,0,0,0.125,12.25,0.0,0,0,0,0.0,12.25,0.0,0,0,0,0.0,12.25,0.0,0,0,0,0.0,12.3,0.0,0,0,0,kReverse,kOff,-86.89,2.27,2.25,-0.0335083,-1.1060791,0.21917725,30.66,0.0,-79.0,-4.305786,-3.826126,
193.600721,true,true,true,0.125,12.25,0.0,0,0,0,0.125,12.25,0.0,0,0,0,0.125,12.25,0.0,0,0,0,0.125,12.25,0.0,0,0,0,0.0,12.25,0.0,0,0,0,0.0,12.25,0.0,0,0,0,0.0,12.3,0.0,0,0,0,kReverse,kOff,-86.87,2.29,2.27,-0.056640625,-1.0597534,9.765625E-4,30.66,0.0,-98.0,-4.3062134,-3.8200226,
193.61512199999999,true,true,true,0.125,12.25,0.0,0,0,0,0.125,12.25,0.0,0,0,0,0.125,12.25,0.0,0,0,0,0.125,12.25,0.0,0,0,0,0.0,12.25,0.0,0,0,0,0.0,12.25,0.0,0,0,0,0.0,12.3,0.0,0,0,0,kReverse,kOff,-86.86,2.31,2.29,-0.07720947,-1.0266724,-0.20819092,30.66,0.0,-116.0,-4.306793,-3.8141022,
193.62896099999998,true,true,true,0.125,12.25,0.0,0,0,0,0.125,12.25,0.0,0,0,0,0.125,12.25,0.0,0,0,0,0.125,12.25,0.0,0,0,0,0.0,12.25,0.0,0,0,0,0.0,12.25,0.0,0,0,0,0.0,12.3,0.0,0,0,0,kReverse,kOff,-86.83,2.33,2.31,-0.10272217,-0.9735718,-0.35351562,30.66,0.0,-138.0,-4.307556,-3.8086243,
193.643341,true,true,true,0.125,12.25,0.0,0,0,0,0.125,12.25,0.0,0,0,0,0.125,12.25,0.0,0,0,0,0.125,12.25,0.0,0,0,0,0.0,12.25,0.0,0,0,0,0.0,12.25,0.0,0,0,0,0.125,12.3,0.0,0,0,0,kReverse,kOff,-86.81,2.33,2.31,-0.14953613,-0.8553467,-0.4727173,30.66,0.0,-179.0,-4.3085175,-3.803772,
193.664327,true,true,true,0.125,12.25,0.0,0,0,0,0.125,12.25,0.0,0,0,0,0.125,12.25,0.0,0,0,0,0.125,12.25,0.0,0,0,0,0.0,12.25,0.0,0,0,0,0.0,12.25,0.0,0,0,0,0.0,12.3,0.0,0,0,0,kReverse,kOff,-86.8,2.32,2.3,-0.13995361,-0.7340088,-0.5414429,30.66,0.0,-167.0,-4.311157,-3.7962189,
193.68705599999998,true,true,true,0.125,12.25,0.0,0,0,0,0.125,12.25,0.0,0,0,0,0.125,12.25,0.0,0,0,0,0.125,12.25,0.0,0,0,0,0.0,12.25,0.0,0,0,0,0.0,12.25,0.0,0,0,0,0.0,12.3,0.0,0,0,0,kReverse,kOff,-86.84,2.29,2.27,-0.11315918,-0.7504883,-0.4439087,30.66,0.0,-138.0,-4.312805,-3.7935333,
193.711693,true,true,true,0.125,12.25,0.0,0,0,0,0.125,12.25,0.0,0,0,0,0.125,12.25,0.0,0,0,0,0.125,12.25,0.0,0,0,0,0.0,12.25,0.0,0,0,0,0.0,12.25,0.0,0,0,0,0.0,12.3,0.0,0,0,0,kReverse,kOff,-86.85,2.28,2.26,-0.024841309,-0.8383179,-0.35406494,30.66,0.0,-54.0,-4.314575,-3.7914276,
193.73224699999997,true,true,true,0.125,12.25,0.0,0,0,0,0.125,12.25,0.0,0,0,0,0.125,12.25,0.0,0,0,0,0.125,12.25,0.0,0,0,0,0.0,12.25,0.0,0,0,0,0.0,12.25,0.0,0,0,0,0.0,12.3,0.0,0,0,0,kReverse,kOff,-86.84,2.3,2.28,0.09124756,-1.0192871,-0.18664551,30.66,0.0,52.0,-4.3181458,-3.7885132,
193.75796599999998,true,true,true,0.125,12.25,0.0,0,0,0,0.125,12.25,0.0,0,0,0,0.125,12.25,0.0,0,0,0,0.125,12.25,0.0,0,0,0,0.0,12.25,0.0,0,0,0,0.0,12.25,0.0,0,0,0,0.0,12.3,0.0,0,0,0,kReverse,kOff,-86.84,2.32,2.29,0.18048096,-0.9690552,-0.07281494,30.66,0.0,142.0,-4.3212433,-3.7866516,
193.783648,true,true,true,0.125,12.25,0.0,0,0,0,0.125,12.25,0.0,0,0,0,0.125,12.25,0.0,0,0,0,0.125,12.25,0.0,0,0,0,0.0,12.25,0.0,0,0,0,0.0,12.25,0.0,0,0,0,0.125,12.3,0.0,0,0,0,kReverse,kOff,-86.83,2.32,2.3,0.19824219,-0.90722656,-0.021911621,30.66,0.0,161.0,-4.3224945,-3.7859192,
193.80595499999998,true,true,true,0.125,12.25,0.0,0,0,0,0.125,12.25,0.0,0,0,0,0.125,12.25,0.0,0,0,0,0.125,12.25,0.0,0,0,0,0.0,12.25,0.0,0,0,0,0.0,12.25,0.0,0,0,0,0.125,12.3,0.0,0,0,0,kReverse,kOff,-86.83,2.28,2.26,0.18096924,-0.8723755,-0.09777832,30.66,0.0,147.0,-4.3243866,-3.78479,
193.82752399999998,true,true,true,0.125,12.25,0.0,0,0,0,0.125,12.25,0.0,0,0,0,0.125,12.25,0.0,0,0,0,0.125,12.25,0.0,0,0,0,0.0,12.25,0.0,0,0,0,0.0,12.25,0.0,0,0,0,0.125,12.3,0.0,0,0,0,kReverse,kOff,-86.88,2.25,2.22,0.20617676,-1.0708008,0.11047363,30.66,0.0,163.0,-4.3255157,-3.7840576,
193.851545,true,true,true,0.125,12.25,0.0,0,0,0,0.125,12.25,0.0,0,0,0,0.125,12.25,0.0,0,0,0,0.125,12.25,0.0,0,0,0,0.0,12.25,0.0,0,0,0,0.0,12.25,0.0,0,0,0,0.125,12.3,0.0,0,0,0,kReverse,kOff,-86.88,2.26,2.23,0.16485596,-1.1643066,0.19232178,30.66,0.0,117.0,-4.3257904,-3.7835388,
193.87888499999997,true,true,true,0.125,12.25,0.0,0,0,0,0.125,12.25,0.0,0,0,0,0.125,12.25,0.0,0,0,0,0.125,12.25,0.0,0,0,0,0.0,12.25,0.0,0,0,0,0.0,12.25,0.0,0,0,0,0.125,12.3,0.0,0,0,0,kReverse,kOff,-86.91,2.28,2.26,0.091674805,-1.1575317,0.45593262,30.66,0.0,40.0,-4.3259583,-3.781479,
193.91149299999998,true,true,true,0.125,12.25,0.0,0,0,0,0.125,12.25,0.0,0,0,0,0.125,12.25,0.0,0,0,0,0.0,12.25,0.0,0,0,0,0.0,12.25,0.0,0,0,0,0.0,12.25,0.0,0,0,0,0.0,12.3,0.0,0,0,0,kReverse,kOff,-86.92,2.28,2.26,0.044799805,-1.0239868,0.7225952,30.66,0.0,-3.0,-4.325989,-3.7767944,
193.941479,true,true,true,0.125,12.25,0.0,0,0,0,0.125,12.25,0.0,0,0,0,0.125,12.25,0.0,0,0,0,0.0,12.25,0.0,0,0,0,0.0,12.25,0.0,0,0,0,0.0,12.25,0.0,0,0,0,0.125,12.3,0.0,0,0,0,kReverse,kOff,-86.93,2.26,2.24,0.008728027,-1.0739136,0.67315674,30.66,0.0,-40.0,-4.3260956,-3.7684784,
193.967469,true,true,true,0.125,12.25,0.0,0,0,0,0.125,12.25,0.0,0,0,0,0.125,12.25,0.0,0,0,0,0.0,12.25,0.0,0,0,0,0.0,12.25,0.0,0,0,0,0.0,12.25,0.0,0,0,0,0.0,12.3,0.0,0,0,0,kReverse,kOff,-86.91,2.27,2.25,-0.042053223,-1.1018677,0.36468506,30.66,0.0,-89.0,-4.3265076,-3.7570953,
193.98970799999998,true,true,true,0.125,12.25,0.0,0,0,0,0.125,12.25,0.0,0,0,0,0.125,12.25,0.0,0,0,0,0.125,12.25,0.0,0,0,0,0.0,12.25,0.0,0,0,0,0.0,12.25,0.0,0,0,0,0.0,12.3,0.0,0,0,0,kReverse,kOff,-86.88,2.3,2.28,-0.038085938,-1.0803223,0.07763672,30.66,0.0,-81.0,-4.326874,-3.7508698,
194.01575599999998,true,true,true,0.125,12.25,0.0,0,0,0,0.125,12.25,0.0,0,0,0,0.125,12.200000000000001,0.0,0,0,0,0.125,12.25,0.0,0,0,0,0.0,12.25,0.0,0,0,0,0.0,12.25,0.0,0,0,0,0.0,12.3,0.0,0,0,0,kReverse,kOff,-86.83,2.35,2.33,-0.103027344,-0.9666748,-0.32562256,30.66,0.0,-139.0,-4.3280945,-3.73909,
194.039822,true,true,true,0.125,12.25,0.0,0,0,0,0.125,12.25,0.0,0,0,0,0.125,12.200000000000001,0.0,0,0,0,0.125,12.25,0.0,0,0,0,0.0,12.25,0.0,0,0,0,0.0,12.25,0.0,0,0,0,0.0,12.3,0.0,0,0,0,kReverse,kOff,-86.82,2.35,2.33,-0.13653564,-0.8760376,-0.41326904,30.7,0.0,-168.0,-4.3289948,-3.733963,
194.059241,true,true,true,0.125,12.25,0.0,0,0,0,0.125,12.25,0.0,0,0,0,0.125,12.200000000000001,0.0,0,0,0,0.125,12.25,0.0,0,0,0,0.0,12.25,0.0,0,0,0,0.0,12.25,0.0,0,0,0,0.0,12.3,0.0,0,0,0,kReverse,kOff,-86.81,2.34,2.32,-0.1515503,-0.73968506,-0.46954346,30.7,0.0,-176.0,-4.331558,-3.7257233,
194.08252,true,true,true,0.125,12.25,0.0,0,0,0,0.125,12.25,0.0,0,0,0,0.125,12.200000000000001,0.0,0,0,0,0.125,12.25,0.0,0,0,0,0.0,12.25,0.0,0,0,0,0.0,12.25,0.0,0,0,0,0.125,12.3,0.0,0,0,0,kReverse,kOff,-86.82,2.32,2.3,-0.10559082,-0.73553467,-0.45562744,30.7,0.0,-130.0,-4.334915,-3.7201538,
194.10422999999997,true,true,true,0.125,12.25,0.0,0,0,0,0.125,12.25,0.0,0,0,0,0.125,12.200000000000001,0.0,0,0,0,0.125,12.25,0.0,0,0,0,0.0,12.25,0.0,0,0,0,0.0,12.25,0.0,0,0,0,0.125,12.3,0.0,0,0,0,kReverse,kOff,-86.81,2.31,2.29,0.024536133,-0.8895874,-0.31054688,30.7,0.0,-7.0,-4.336731,-3.7182007,
194.125646,true,true,true,0.125,12.25,0.0,0,0,0,0.125,12.25,0.0,0,0,0,0.125,12.200000000000001,0.0,0,0,0,0.125,12.25,0.0,0,0,0,0.0,12.25,0.0,0,0,0,0.0,12.25,0.0,0,0,0,0.125,12.3,0.0,0,0,0,kReverse,kOff,-86.81,2.32,2.3,0.16345215,-1.0543213,-0.14227295,30.7,0.0,122.0,-4.340164,-3.715454,
194.14823199999998,true,true,true,0.125,12.25,0.0,0,0,0,0.125,12.25,0.0,0,0,0,0.125,12.200000000000001,0.0,0,0,0,0.125,12.25,0.0,0,0,0,0.0,12.25,0.0,0,0,0,0.0,12.25,0.0,0,0,0,0.125,12.3,0.0,0,0,0,kReverse,kOff,-86.81,2.32,2.3,0.18206787,-1.0047607,-0.05456543,30.7,0.0,142.0,-4.3416443,-3.7144165,
194.17227799999998,true,true,true,0.125,12.25,0.0,0,0,0,0.125,12.25,0.0,0,0,0,0.125,12.200000000000001,0.0,0,0,0,0.125,12.25,0.0,0,0,0,0.0,12.25,0.0,0,0,0,0.0,12.25,0.0,0,0,0,0.125,12.3,0.0,0,0,0,kReverse,kOff,-86.79,2.3,2.28,0.15570068,-0.8411255,-0.105407715,30.7,0.0,123.0,-4.3440247,-3.7126923,
194.193443,true,true,true,0.125,12.25,0.0,0,0,0,0.125,12.25,0.0,0,0,0,0.125,12.200000000000001,0.0,0,0,0,0.125,12.25,0.0,0,0,0,0.0,12.25,0.0,0,0,0,0.0,12.25,0.0,0,0,0,0.125,12.3,0.0,0,0,0,kReverse,kOff,-86.81,2.28,2.26,0.15405273,-0.8473511,-0.14141846,30.7,0.0,121.0,-4.3449707,-3.7121277,
