timer,lineLeft,lineCenter,lineRight,LeftFrontCurrent,LeftFrontVoltage,LeftFrontValue,LeftFrontPosition,LeftFrontVelocity,LeftFrontFaults,LeftRearCurrent,LeftRearVoltage,LeftRearValue,LeftRearPosition,LeftRearVelocity,LeftRearFaults,RightFrontCurrent,RightFrontVoltage,RightFrontValue,RightFrontPosition,RightFrontVelocity,RightFrontFaults,RightRearCurrent,RightRearVoltage,RightRearValue,RightRearPosition,RightRearVelocity,RightRearFaults,LiftCurrent,LiftVoltage,LiftValue,LiftPosition,LiftVelocity,LiftFaults,WristCurrent,WristVoltage,WristValue,WristPosition,WristVelocity,WristFaults,RollerCurrent,RollerVoltage,RollerValue,RollerPosition,RollerVelocity,RollerFaults,PushersState,PivotsState,navx_Pitch,navx_Roll,navx_Yaw,navx_XAcc,navx_YAcc,navx_ZAcc,navx_Temp,navx_Bar,navx_Alt,navx_XDis,navx_YDis,
803.0260069999999,true,true,true,0.125,12.65,0.0,-34449,0,0,0.125,12.65,0.0,0,0,0,0.125,12.6,0.0,2780,0,0,0.125,12.65,0.0,0,0,0,0.125,12.6,0.0,4,0,0,0.0,12.6,0.0,0,0,0,0.125,12.700000000000001,0.0,0,0,0,kOff,kOff,-87.22,2.06,2.66,0.033447266,-0.9844971,0.03692627,35.09,0.0,0.0,-8.144165,11.853043,
803.055213,true,true,true,0.125,12.6,0.0,-34449,0,0,0.125,12.65,0.0,0,0,0,0.125,12.6,0.0,2780,0,0,0.125,12.65,0.0,0,0,0,0.125,12.65,0.0,4,0,0,0.0,12.6,0.0,0,0,0,0.125,12.700000000000001,0.0,0,0,0,kReverse,kOff,-87.22,2.06,2.66,0.03515625,-0.98358154,0.028686523,35.09,0.0,-1.0,-8.144165,11.853043,
803.077368,true,true,true,0.125,12.6,0.0,-34449,0,0,0.125,12.65,0.0,0,0,0,0.25,12.6,0.0,2780,0,0,0.125,12.65,0.0,0,0,0,0.125,12.65,0.0,4,0,0,0.0,12.6,0.0,0,0,0,0.125,12.65,0.0,0,0,0,kReverse,kOff,-87.22,2.06,2.66,0.032714844,-0.9837036,0.034973145,35.09,0.0,-1.0,-8.144165,11.853043,
803.099806,true,true,true,0.125,12.6,0.0,-34449,0,0,0.125,12.65,0.0,0,0,0,0.25,12.6,0.0,2780,0,0,0.125,12.65,0.0,0,0,0,0.125,12.65,0.0,4,0,0,0.0,12.6,0.0,0,0,0,0.125,12.65,0.0,0,0,0,kReverse,kOff,-87.23,2.06,2.66,0.035888672,-0.98291016,0.030700684,35.09,0.0,0.0,-8.144165,11.853043,
803.120638,true,true,true,0.125,12.6,0.0,-34449,0,0,0.125,12.65,0.0,0,0,0,0.25,12.6,0.0,2780,0,0,0.125,12.65,0.0,0,0,0,0.125,12.65,0.0,4,0,0,0.0,12.6,0.0,0,0,0,0.125,12.65,0.0,0,0,0,kReverse,kOff,-87.23,2.05,2.65,0.03527832,-0.98217773,0.031066895,35.12,0.0,0.0,-8.144165,11.853043,
803.140306,true,true,true,0.125,12.6,0.0,-34449,0,0,0.125,12.65,0.0,0,0,0,0.25,12.6,0.0,2780,0,0,0.125,12.65,0.0,0,0,0,0.125,12.65,0.0,4,0,0,0.0,12.6,0.0,0,0,0,0.125,12.65,0.0,0,0,0,kReverse,kOff,-87.23,2.06,2.66,0.037841797,-0.98327637,0.030639648,35.12,0.0,1.0,-8.144165,11.853043,
803.1622510000001,true,true,true,0.125,12.6,0.0,-34449,0,0,0.125,12.65,0.0,0,0,0,0.25,12.6,0.0,2780,0,0,0.125,12.65,0.0,0,0,0,0.125,12.65,0.0,4,0,0,0.0,12.6,0.0,0,0,0,0.125,12.65,0.0,0,0,0,kReverse,kOff,-87.23,2.06,2.66,0.036010742,-0.9802246,0.030517578,35.12,0.0,0.0,-8.144165,11.853043,
803.183237,true,true,true,0.125,12.6,0.0,-34449,0,0,0.125,12.65,0.0,0,0,0,0.25,12.6,0.0,2780,0,0,0.125,12.65,0.0,0,0,0,0.125,12.65,0.0,4,0,0,0.0,12.6,0.0,0,0,0,0.125,12.65,0.0,0,0,0,kReverse,kOff,-87.23,2.05,2.65,0.034729004,-0.98376465,0.035095215,35.12,0.0,0.0,-8.144165,11.853043,
803.210197,true,true,true,0.125,12.65,0.0,-34449,0,0,0.125,12.65,0.0,0,0,0,0.25,12.6,0.0,2780,0,0,0.125,12.65,0.0,0,0,0,0.125,12.65,0.0,4,0,0,0.0,12.6,0.0,0,0,0,0.125,12.65,0.0,0,0,0,kReverse,kOff,-87.23,2.05,2.65,0.03552246,-0.9833374,0.0345459,35.12,0.0,1.0,-8.144165,11.853043,
803.228724,true,true,true,0.125,12.65,0.0,-34449,0,0,0.125,12.65,0.0,0,0,0,0.25,12.6,0.0,2780,0,0,0.125,12.65,0.0,0,0,0,0.125,12.65,0.0,4,0,0,0.0,12.6,0.0,0,0,0,0.125,12.700000000000001,0.0,0,0,0,kReverse,kOff,-87.23,2.05,2.65,0.036376953,-0.9838257,0.030822754,35.12,0.0,0.0,-8.144165,11.853043,
803.2498519999999,true,true,true,0.125,12.65,0.0,-34449,0,0,0.125,12.65,0.0,0,0,0,0.25,12.6,0.0,2780,0,0,0.125,12.65,0.0,0,0,0,0.125,12.65,0.0,4,0,0,0.0,12.6,0.0,0,0,0,0.125,12.700000000000001,0.0,0,0,0,kReverse,kOff,-87.23,2.05,2.65,0.0357666,-0.98461914,0.035583496,35.12,0.0,1.0,-8.144165,11.853043,
803.267791,true,true,true,0.125,12.65,0.0,-34449,0,0,0.125,12.65,0.0,0,0,0,0.25,12.6,0.0,2780,0,0,0.125,12.65,0.0,0,0,0,0.125,12.65,0.0,4,0,0,0.0,12.6,0.0,0,0,0,0.125,12.700000000000001,0.0,0,0,0,kReverse,kOff,-87.23,2.06,2.65,0.032714844,-0.9829712,0.032104492,35.12,0.0,-2.0,-8.144165,11.853043,
803.289662,true,true,true,0.125,12.65,0.0,-34449,0,0,0.125,12.65,0.0,0,0,0,0.25,12.6,0.0,2780,0,0,0.125,12.65,0.0,0,0,0,0.125,12.65,0.0,4,0,0,0.0,12.6,0.0,0,0,0,0.125,12.700000000000001,0.0,0,0,0,kReverse,kOff,-87.23,2.05,2.65,0.03363037,-0.982666,0.034362793,35.12,0.0,0.0,-8.144165,11.853043,
803.3146859999999,true,true,true,0.125,12.65,0.0,-34449,0,0,0.125,12.65,0.0,0,0,0,0.25,12.6,0.0,2780,0,0,0.125,12.65,0.0,0,0,0,0.125,12.65,0.0,4,0,0,0.0,12.6,0.0,0,0,0,0.125,12.700000000000001,0.0,0,0,0,kReverse,kOff,-87.23,2.05,2.65,0.037597656,-0.98339844,0.03277588,35.12,0.0,2.0,-8.144165,11.853043,
803.333752,true,true,true,0.125,12.65,0.0,-34449,0,0,0.125,12.65,0.0,0,0,0,0.25,12.6,0.0,2780,0,0,0.125,12.65,0.0,0,0,0,0.125,12.65,0.0,4,0,0,0.0,12.6,0.0,0,0,0,0.125,12.700000000000001,0.0,0,0,0,kReverse,kOff,-87.23,2.05,2.65,0.03503418,-0.98498535,0.02758789,35.12,0.0,-1.0,-8.144165,11.853043,
803.359988,true,true,true,0.125,12.65,0.0,-34449,0,0,0.125,12.65,0.0,0,0,0,0.25,12.6,0.0,2780,0,0,0.125,12.65,0.0,0,0,0,0.125,12.65,0.0,4,0,0,0.0,12.6,0.0,0,0,0,0.125,12.700000000000001,0.0,0,0,0,kReverse,kOff,-87.23,2.06,2.66,0.033325195,-0.9831543,0.030090332,35.12,0.0,-2.0,-8.144165,11.853043,
803.381562,true,true,true,0.125,12.65,0.0,-34449,0,0,0.125,12.65,0.0,0,0,0,0.25,12.6,0.0,2780,0,0,0.125,12.65,0.0,0,0,0,0.125,12.65,0.0,4,0,0,0.0,12.6,0.0,0,0,0,0.125,12.700000000000001,0.0,0,0,0,kReverse,kOff,-87.23,2.05,2.65,0.036254883,-0.9816284,0.035827637,35.12,0.0,2.0,-8.144165,11.853043,
803.4037850000001,true,true,true,0.125,12.65,0.0,-34449,0,0,0.125,12.65,0.0,0,0,0,0.25,12.6,0.0,2780,0,0,0.125,12.65,0.0,0,0,0,0.125,12.65,0.0,4,0,0,0.0,12.6,0.0,0,0,0,0.125,12.700000000000001,0.0,0,0,0,kReverse,kOff,-87.23,2.05,2.65,0.035705566,-0.9842529,0.02923584,35.12,0.0,0.0,-8.144165,11.853043,
803.4229640000001,true,true,true,0.125,12.65,0.0,-34449,0,0,0.125,12.65,0.0,0,0,0,0.25,12.6,0.0,2780,0,0,0.125,12.65,0.0,0,0,0,0.125,12.65,0.0,4,0,0,0.0,12.6,0.0,0,0,0,0.125,12.700000000000001,0.0,0,0,0,kReverse,kOff,-87.23,2.05,2.65,0.037597656,-0.98321533,0.024902344,35.12,0.0,0.0,-8.144165,11.853043,
803.443713,true,true,true,0.125,12.65,0.0,-34449,0,0,0.125,12.65,0.0,0,0,0,0.25,12.6,0.0,2780,0,0,0.125,12.65,0.0,0,0,0,0.125,12.65,0.0,4,0,0,0.0,12.6,0.0,0,0,0,0.125,12.700000000000001,0.0,0,0,0,kReverse,kOff,-87.23,2.05,2.65,0.034362793,-0.982666,0.029968262,35.12,0.0,-1.0,-8.144165,11.853043,
803.467875,true,true,true,0.125,12.65,0.0,-34449,0,0,0.125,12.65,0.0,0,0,0,0.25,12.6,0.0,2780,0,0,0.125,12.65,0.0,0,0,0,0.125,12.65,0.0,4,0,0,0.0,12.6,0.0,0,0,0,0.125,12.700000000000001,0.0,0,0,0,kReverse,kOff,-87.23,2.06,2.66,0.03894043,-0.98516846,0.038513184,35.12,0.0,5.0,-8.144165,11.853043,
803.490294,true,true,true,0.125,12.65,0.0,-34449,0,0,0.125,12.65,0.0,0,0,0,0.25,12.6,0.0,2780,0,0,0.125,12.65,0.0,0,0,0,0.125,12.65,0.0,4,0,0,0.0,12.6,0.0,0,0,0,0.125,12.700000000000001,0.0,0,0,0,kReverse,kOff,-87.23,2.06,2.66,0.03753662,-0.9848633,0.030700684,35.12,0.0,1.0,-8.144165,11.853043,
803.5147539999999,true,true,true,0.125,12.65,0.0,-34449,0,0,0.125,12.65,0.0,0,0,0,0.25,12.6,0.0,2780,0,0,0.125,12.65,0.0,0,0,0,0.125,12.65,0.0,4,0,0,0.0,12.6,0.0,0,0,0,0.125,12.700000000000001,0.0,0,0,0,kReverse,kOff,-87.23,2.06,2.66,0.03289795,-0.98205566,0.03100586,35.12,0.0,-2.0,-8.144165,11.853043,
803.536478,true,true,true,0.125,12.65,0.0,-34449,0,0,0.125,12.65,0.0,0,0,0,0.25,12.6,0.0,2780,0,0,0.125,12.65,0.0,0,0,0,0.125,12.65,0.0,4,0,0,0.0,12.6,0.0,0,0,0,0.125,12.700000000000001,0.0,0,0,0,kReverse,kOff,-87.23,2.06,2.66,0.036987305,-0.9822998,0.03704834,35.12,0.0,3.0,-8.144165,11.853043,
803.556823,true,true,true,0.125,12.65,0.0,-34449,0,0,0.125,12.65,0.0,0,0,0,0.25,12.6,0.0,2780,0,0,0.125,12.65,0.0,0,0,0,0.125,12.65,0.0,4,0,0,0.0,12.65,0.0,0,0,0,0.125,12.700000000000001,0.0,0,0,0,kReverse,kOff,-87.22,2.06,2.66,0.03314209,-0.98327637,0.03326416,35.12,0.0,-1.0,-8.144165,11.853043,
803.579057,true,true,true,0.125,12.65,0.0,-34449,0,0,0.125,12.65,0.0,0,0,0,0.25,12.6,0.0,2780,0,0,0.125,12.65,0.0,0,0,0,0.125,12.65,0.0,4,0,0,0.0,12.65,0.0,0,0,0,0.125,12.700000000000001,0.0,0,0,0,kReverse,kOff,-87.22,2.06,2.66,0.03515625,-0.98547363,0.032958984,35.12,0.0,0.0,-8.144165,11.853043,
803.598684,true,true,true,0.125,12.65,0.0,-34449,0,0,0.125,12.65,0.0,0,0,0,0.25,12.6,0.0,2780,0,0,0.125,12.65,0.0,0,0,0,0.125,12.65,0.0,4,0,0,0.0,12.65,0.0,0,0,0,0.125,12.700000000000001,0.0,0,0,0,kReverse,kOff,-87.23,2.06,2.66,0.03503418,-0.9842529,0.031311035,35.12,0.0,0.0,-8.144165,11.853043,
803.618874,true,true,true,0.125,12.65,0.0,-34449,0,0,0.125,12.65,0.0,0,0,0,0.25,12.6,0.0,2780,0,0,0.125,12.65,0.0,0,0,0,0.125,12.65,0.0,4,0,0,0.0,12.65,0.0,0,0,0,0.125,12.700000000000001,0.0,0,0,0,kReverse,kOff,-87.23,2.06,2.66,0.038024902,-0.9836426,0.029296875,35.14,0.0,1.0,-8.144165,11.853043,
803.639555,true,true,true,0.125,12.65,0.0,-34449,0,0,0.125,12.65,0.0,0,0,0,0.25,12.6,0.0,2780,0,0,0.125,12.65,0.0,0,0,0,0.125,12.65,0.0,4,0,0,0.0,12.65,0.0,0,0,0,0.125,12.700000000000001,0.0,0,0,0,kReverse,kOff,-87.22,2.06,2.66,0.037231445,-0.9848633,0.026855469,35.14,0.0,0.0,-8.144165,11.853043,
803.659821,true,true,true,0.125,12.65,0.0,-34449,0,0,0.125,12.65,0.0,0,0,0,0.25,12.6,0.0,2780,0,0,0.125,12.65,0.0,0,0,0,0.125,12.65,0.0,4,0,0,0.0,12.65,0.0,0,0,0,0.125,12.700000000000001,0.0,0,0,0,kReverse,kOff,-87.23,2.06,2.66,0.033691406,-0.9819336,0.029846191,35.14,0.0,-2.0,-8.144165,11.853043,
803.681073,true,true,true,0.125,12.65,0.0,-34449,0,0,0.125,12.65,0.0,0,0,0,0.25,12.6,0.0,2780,0,0,0.125,12.65,0.0,0,0,0,0.125,12.65,0.0,4,0,0,0.0,12.65,0.0,0,0,0,0.125,12.700000000000001,0.0,0,0,0,kReverse,kOff,-87.23,2.05,2.65,0.033691406,-0.9813843,0.03125,35.14,0.0,-1.0,-8.144165,11.853043,
803.7007829999999,true,true,true,0.125,12.65,0.0,-34449,0,0,0.125,12.65,0.0,0,0,0,0.25,12.65,0.0,2780,0,0,0.125,12.65,0.0,0,0,0,0.125,12.65,0.0,4,0,0,0.0,12.65,0.0,0,0,0,0.125,12.700000000000001,0.0,0,0,0,kReverse,kOff,-87.23,2.05,2.65,0.034729004,-0.9836426,0.030761719,35.14,0.0,0.0,-8.144165,11.853043,
803.7219299999999,true,true,true,0.125,12.65,0.0,-34449,0,0,0.125,12.65,0.0,0,0,0,0.25,12.65,0.0,2780,0,0,0.125,12.65,0.0,0,0,0,0.125,12.65,0.0,4,0,0,0.0,12.65,0.0,0,0,0,0.125,12.700000000000001,0.0,0,0,0,kReverse,kOff,-87.23,2.05,2.65,0.035583496,-0.9830322,0.030212402,35.14,0.0,0.0,-8.144165,11.853043,
803.740976,true,true,true,0.125,12.65,0.0,-34449,0,0,0.125,12.65,0.0,0,0,0,0.25,12.65,0.0,2780,0,0,0.125,12.65,0.0,0,0,0,0.125,12.65,0.0,4,0,0,0.0,12.65,0.0,0,0,0,0.125,12.700000000000001,0.0,0,0,0,kReverse,kOff,-87.23,2.05,2.65,0.038330078,-0.9857788,0.03479004,35.14,0.0,3.0,-8.144165,11.853043,
803.762372,true,true,true,0.125,12.65,0.0,-34449,0,0,0.125,12.65,0.0,0,0,0,0.25,12.65,0.0,2780,0,0,0.125,12.65,0.0,0,0,0,0.125,12.65,0.0,4,0,0,0.0,12.65,0.0,0,0,0,0.125,12.700000000000001,0.0,0,0,0,kReverse,kOff,-87.23,2.05,2.65,0.037597656,-0.9828491,0.029724121,35.14,0.0,1.0,-8.144165,11.853043,
803.785334,true,true,true,0.125,12.65,0.0,-34449,0,0,0.125,12.65,0.0,0,0,0,0.25,12.65,0.0,2780,0,0,0.125,12.65,0.0,0,0,0,0.125,12.65,0.0,4,0,0,0.0,12.65,0.0,0,0,0,0.125,12.700000000000001,0.0,0,0,0,kReverse,kOff,-87.23,2.05,2.65,0.03479004,-0.982666,0.028930664,35.14,0.0,-1.0,-8.144165,11.853043,
803.8068390000001,true,true,true,0.125,12.65,0.0,-34449,0,0,0.125,12.65,0.0,0,0,0,0.25,12.65,0.0,2780,0,0,0.125,12.65,0.0,0,0,0,0.125,12.65,0.0,4,0,0,0.0,12.65,0.0,0,0,0,0.125,12.700000000000001,0.0,0,0,0,kReverse,kOff,-87.23,2.05,2.65,0.03930664,-0.9840088,0.030761719,35.14,0.0,3.0,-8.144165,11.853043,
803.8315379999999,true,true,true,0.125,12.65,0.0,-34449,0,0,0.125,12.65,0.0,0,0,0,0.25,12.65,0.0,2780,0,0,0.125,12.65,0.0,0,0,0,0.125,12.65,0.0,4,0,0,0.0,12.65,0.0,0,0,0,0.125,12.700000000000001,0.0,0,0,0,kReverse,kOff,-87.22,2.06,2.66,0.036132812,-0.98480225,0.033691406,35.14,0.0,1.0,-8.144165,11.853043,
803.856708,true,true,true,0.125,12.65,0.0,-34449,0,0,0.125,12.65,0.0,0,0,0,0.25,12.6,0.0,2780,0,0,0.125,12.65,0.0,0,0,0,0.125,12.65,0.0,4,0,0,0.0,12.65,0.0,0,0,0,0.125,12.700000000000001,0.0,0,0,0,kReverse,kOff,-87.22,2.06,2.66,0.033813477,-0.98376465,0.034851074,35.14,0.0,0.0,-8.144165,11.853043,
803.878694,true,true,true,0.125,12.65,0.0,-34449,0,0,0.125,12.65,0.0,0,0,0,0.25,12.6,0.0,2780,0,0,0.125,12.65,0.0,0,0,0,0.125,12.65,0.0,4,0,0,0.0,12.65,0.0,0,0,0,0.125,12.700000000000001,0.0,0,0,0,kReverse,kOff,-87.22,2.06,2.66,0.036010742,-0.9851074,0.028442383,35.14,0.0,0.0,-8.144165,11.853043,
803.900498,true,true,true,0.125,12.65,0.0,-34449,0,0,0.125,12.65,0.0,0,0,0,0.25,12.6,0.0,2780,0,0,0.125,12.65,0.0,0,0,0,0.125,12.65,0.0,4,0,0,0.0,12.65,0.0,0,0,0,0.125,12.700000000000001,0.0,0,0,0,kReverse,kOff,-87.22,2.06,2.66,0.0357666,-0.98254395,0.036193848,35.14,0.0,1.0,-8.144165,11.853043,
803.9213129999999,true,true,true,0.125,12.65,0.0,-34449,0,0,0.125,12.65,0.0,0,0,0,0.25,12.6,0.0,2780,0,0,0.125,12.65,0.0,0,0,0,0.125,12.65,0.0,4,0,0,0.0,12.65,0.0,0,0,0,0.125,12.700000000000001,0.0,0,0,0,kReverse,kOff,-87.22,2.06,2.66,0.03515625,-0.98321533,0.034484863,35.14,0.0,0.0,-8.144165,11.853043,
803.942417,true,true,true,0.125,12.65,0.0,-34449,0,0,0.125,12.65,0.0,0,0,0,0.25,12.6,0.0,2780,0,0,0.125,12.65,0.0,0,0,0,0.125,12.65,0.0,4,0,0,0.0,12.65,0.0,0,0,0,0.125,12.700000000000001,0.0,0,0,0,kReverse,kOff,-87.22,2.05,2.65,0.03656006,-0.9857788,0.03149414,35.14,0.0,0.0,-8.144165,11.853043,
803.964536,true,true,true,0.125,12.65,0.0,-34449,0,0,0.125,12.65,0.0,0,0,0,0.25,12.6,0.0,2780,0,0,0.125,12.65,0.0,0,0,0,0.125,12.65,0.0,4,0,0,0.0,12.65,0.0,0,0,0,0.125,12.700000000000001,0.0,0,0,0,kReverse,kOff,-87.23,2.05,2.65,0.035461426,-0.9818115,0.030456543,35.14,0.0,0.0,-8.144165,11.853043,
803.9895,true,true,true,0.125,12.65,0.0,-34449,0,0,0.125,12.65,0.0,0,0,0,0.25,12.6,0.0,2780,0,0,0.125,12.65,0.0,0,0,0,0.125,12.65,0.0,4,0,0,0.0,12.65,0.0,0,0,0,0.125,12.700000000000001,0.0,0,0,0,kReverse,kOff,-87.23,2.05,2.65,0.034057617,-0.9822998,0.037231445,35.14,0.0,0.0,-8.144165,11.853043,
804.008895,true,true,true,0.125,12.65,0.0,-34449,0,0,0.125,12.65,0.0,0,0,0,0.25,12.6,0.0,2780,0,0,0.125,12.65,0.0,0,0,0,0.125,12.65,0.0,4,0,0,0.0,12.65,0.0,0,0,0,0.125,12.700000000000001,0.0,0,0,0,kReverse,kOff,-87.22,2.06,2.66,0.03753662,-0.9862671,0.032714844,35.14,0.0,2.0,-8.144165,11.853043,
804.0303329999999,true,true,true,0.125,12.65,0.0,-34449,0,0,0.125,12.65,0.0,0,0,0,0.25,12.6,0.0,2780,0,0,0.125,12.65,0.0,0,0,0,0.125,12.65,0.0,4,0,0,0.0,12.65,0.0,0,0,0,0.125,12.700000000000001,0.0,0,0,0,kReverse,kOff,-87.22,2.06,2.66,0.03479004,-0.9829712,0.033447266,35.14,0.0,0.0,-8.144165,11.853043,
804.052442,true,true,true,0.125,12.65,0.0,-34449,0,0,0.125,12.65,0.0,0,0,0,0.25,12.6,0.0,2780,0,0,0.125,12.65,0.0,0,0,0,0.125,12.65,0.0,4,0,0,0.0,12.65,0.0,0,0,0,0.125,12.700000000000001,0.0,0,0,0,kReverse,kOff,-87.22,2.06,2.66,0.036499023,-0.98236084,0.02746582,35.14,0.0,0.0,-8.144165,11.853043,
804.073562,true,true,true,0.125,12.65,0.0,-34449,0,0,0.125,12.65,0.0,0,0,0,0.25,12.6,0.0,2780,0,0,0.125,12.65,0.0,0,0,0,0.125,12.65,0.0,4,0,0,0.0,12.65,0.0,0,0,0,0.125,12.700000000000001,0.0,0,0,0,kReverse,kOff,-87.23,2.06,2.66,0.03729248,-0.98480225,0.029846191,35.14,0.0,1.0,-8.144165,11.853043,
804.098853,true,true,true,0.125,12.65,0.0,-34449,0,0,0.125,12.65,0.0,0,0,0,0.25,12.6,0.0,2780,0,0,0.125,12.65,0.0,0,0,0,0.125,12.65,0.0,4,0,0,0.0,12.65,0.0,0,0,0,0.125,12.700000000000001,0.0,0,0,0,kReverse,kOff,-87.23,2.06,2.66,0.03479004,-0.98254395,0.03277588,35.14,0.0,0.0,-8.144165,11.853043,
804.11677,true,true,true,0.125,12.65,0.0,-34449,0,0,0.125,12.65,0.0,0,0,0,0.25,12.6,0.0,2780,0,0,0.125,12.65,0.0,0,0,0,0.125,12.65,0.0,4,0,0,0.0,12.65,0.0,0,0,0,0.125,12.700000000000001,0.0,0,0,0,kReverse,kOff,-87.22,2.06,2.66,0.03491211,-0.9850464,0.027954102,35.14,0.0,-1.0,-8.144165,11.853043,
804.1384009999999,true,true,true,0.125,12.65,0.0,-34449,0,0,0.125,12.65,0.0,0,0,0,0.25,12.6,0.0,2780,0,0,0.125,12.65,0.0,0,0,0,0.125,12.65,0.0,4,0,0,0.0,12.65,0.0,0,0,0,0.125,12.700000000000001,0.0,0,0,0,kReverse,kOff,-87.23,2.06,2.66,0.037109375,-0.9837036,0.032470703,35.12,0.0,1.0,-8.144165,11.853043,
804.16102,true,true,true,0.125,12.65,0.0,-34449,0,0,0.125,12.65,0.0,0,0,0,0.25,12.6,0.0,2780,0,0,0.125,12.65,0.0,0,0,0,0.125,12.65,0.0,4,0,0,0.0,12.65,0.0,0,0,0,0.125,12.700000000000001,0.0,0,0,0,kReverse,kOff,-87.22,2.06,2.66,0.034240723,-0.982666,0.033325195,35.12,0.0,0.0,-8.144165,11.853043,
804.180684,true,true,true,0.125,12.65,0.0,-34449,0,0,0.125,12.65,0.0,0,0,0,0.25,12.6,0.0,2780,0,0,0.125,12.65,0.0,0,0,0,0.125,12.65,0.0,4,0,0,0.0,12.65,0.0,0,0,0,0.125,12.700000000000001,0.0,0,0,0,kReverse,kOff,-87.22,2.05,2.65,0.034118652,-0.9873047,0.029541016,35.12,0.0,-2.0,-8.144165,11.853043,
804.2018419999999,true,true,true,0.125,12.65,0.0,-34449,0,0,0.125,12.65,0.0,0,0,0,0.25,12.6,0.0,2780,0,0,0.125,12.65,0.0,0,0,0,0.125,12.65,0.0,4,0,0,0.0,12.65,0.0,0,0,0,0.125,12.700000000000001,0.0,0,0,0,kReverse,kOff,-87.23,2.05,2.65,0.039001465,-0.9822998,0.034606934,35.12,0.0,4.0,-8.144165,11.853043,
804.2216500000001,true,true,true,0.125,12.65,0.0,-34449,0,0,0.125,12.65,0.0,0,0,0,0.25,12.6,0.0,2780,0,0,0.125,12.65,0.0,0,0,0,0.125,12.65,0.0,4,0,0,0.0,12.65,0.0,0,0,0,0.125,12.700000000000001,0.0,0,0,0,kReverse,kOff,-87.22,2.06,2.66,0.036315918,-0.98168945,0.030456543,35.12,0.0,0.0,-8.144165,11.853043,
804.250969,true,true,true,0.125,12.65,0.0,-34449,0,0,0.125,12.65,0.0,0,0,0,0.25,12.6,0.0,2780,0,0,0.125,12.65,0.0,0,0,0,0.125,12.65,0.0,4,0,0,0.0,12.65,0.0,0,0,0,0.125,12.700000000000001,0.0,0,0,0,kReverse,kOff,-87.23,2.06,2.66,0.037719727,-0.98431396,0.032287598,35.12,0.0,2.0,-8.144165,11.853043,
804.277652,true,true,true,0.125,12.65,0.0,-34449,0,0,0.125,12.65,0.0,0,0,0,0.25,12.6,0.0,2780,0,0,0.125,12.65,0.0,0,0,0,0.125,12.65,0.0,4,0,0,0.0,12.65,0.0,0,0,0,0.125,12.700000000000001,0.0,0,0,0,kReverse,kOff,-87.22,2.06,2.66,0.035461426,-0.9842529,0.03253174,35.12,0.0,0.0,-8.144165,11.853043,
804.299987,true,true,true,0.125,12.65,0.0,-34449,0,0,0.125,12.65,0.0,0,0,0,0.25,12.6,0.0,2780,0,0,0.125,12.65,0.0,0,0,0,0.125,12.65,0.0,4,0,0,0.0,12.65,0.0,0,0,0,0.125,12.700000000000001,0.0,0,0,0,kReverse,kOff,-87.23,2.06,2.66,0.034057617,-0.9862671,0.03515625,35.12,0.0,0.0,-8.144165,11.853043,
804.321482,true,true,true,0.125,12.65,0.0,-34449,0,0,0.125,12.65,0.0,0,0,0,0.25,12.6,0.0,2780,0,0,0.125,12.65,0.0,0,0,0,0.125,12.65,0.0,4,0,0,0.0,12.65,0.0,0,0,0,0.125,12.700000000000001,0.0,0,0,0,kReverse,kOff,-87.22,2.06,2.66,0.04058838,-0.98651123,0.028320312,35.12,0.0,3.0,-8.144165,11.853043,
804.342933,true,true,true,0.125,12.65,0.0,-34449,0,0,0.125,12.65,0.0,0,0,0,0.25,12.6,0.0,2780,0,0,0.125,12.65,0.0,0,0,0,0.0,12.65,0.0,4,0,0,0.0,12.65,0.0,0,0,0,0.125,12.700000000000001,0.0,0,0,0,kReverse,kOff,-87.23,2.06,2.66,0.0335083,-0.98254395,0.04522705,35.12,0.0,2.0,-8.144165,11.853043,
804.363952,true,true,true,0.125,12.65,0.0,-34449,0,0,0.125,12.65,0.0,0,0,0,0.25,12.6,0.0,2780,0,0,0.125,12.65,0.0,0,0,0,0.0,12.65,0.0,4,0,0,0.0,12.65,0.0,0,0,0,0.125,12.700000000000001,0.0,0,0,0,kReverse,kOff,-87.22,2.06,2.66,0.035461426,-0.9830322,0.03375244,35.12,0.0,0.0,-8.144165,11.853043,
804.385344,true,true,true,0.125,12.65,0.0,-34449,0,0,0.125,12.65,0.0,0,0,0,0.25,12.6,0.0,2780,0,0,0.125,12.65,0.0,0,0,0,0.0,12.65,0.0,4,0,0,0.0,12.65,0.0,0,0,0,0.125,12.700000000000001,0.0,0,0,0,kReverse,kOff,-87.23,2.05,2.65,0.03527832,-0.98394775,0.030517578,35.12,0.0,0.0,-8.144165,11.853043,
804.411603,true,true,true,0.125,12.65,0.0,-34449,0,0,0.125,12.65,0.0,0,0,0,0.25,12.6,0.0,2780,0,0,0.125,12.65,0.0,0,0,0,0.125,12.65,0.0,4,0,0,0.0,12.65,0.0,0,0,0,0.125,12.700000000000001,0.0,0,0,0,kReverse,kOff,-87.23,2.05,2.65,0.03466797,-0.9876709,0.036743164,35.12,0.0,0.0,-8.144165,11.853043,
804.432729,true,true,true,0.125,12.65,0.0,-34449,0,0,0.125,12.65,0.0,0,0,0,0.25,12.6,0.0,2780,0,0,0.125,12.65,0.0,0,0,0,0.125,12.65,0.0,4,0,0,0.0,12.65,0.0,0,0,0,0.125,12.700000000000001,0.0,0,0,0,kReverse,kOff,-87.22,2.06,2.66,0.034973145,-0.9833374,0.029968262,35.12,0.0,-1.0,-8.144165,11.853043,
804.454791,true,true,true,0.125,12.65,0.0,-34449,0,0,0.125,12.65,0.0,0,0,0,0.25,12.6,0.0,2780,0,0,0.125,12.65,0.0,0,0,0,0.0,12.65,0.0,4,0,0,0.0,12.65,0.0,0,0,0,0.125,12.700000000000001,0.0,0,0,0,kReverse,kOff,-87.22,2.06,2.66,0.033325195,-0.9812012,0.02722168,35.12,0.0,-3.0,-8.144165,11.853043,
804.477494,true,true,true,0.125,12.65,0.0,-34449,0,0,0.125,12.65,0.0,0,0,0,0.25,12.6,0.0,2780,0,0,0.125,12.65,0.0,0,0,0,0.0,12.65,0.0,4,0,0,0.0,12.65,0.0,0,0,0,0.125,12.700000000000001,0.0,0,0,0,kReverse,kOff,-87.22,2.05,2.65,0.03326416,-0.98498535,0.036315918,35.12,0.0,0.0,-8.144165,11.853043,
804.500979,true,true,true,0.125,12.65,0.0,-34449,0,0,0.125,12.65,0.0,0,0,0,0.25,12.6,0.0,2780,0,0,0.125,12.65,0.0,0,0,0,0.0,12.65,0.0,4,0,0,0.0,12.65,0.0,0,0,0,0.125,12.700000000000001,0.0,0,0,0,kReverse,kOff,-87.22,2.05,2.65,0.0390625,-0.982666,0.03326416,35.12,0.0,3.0,-8.144165,11.853043,
804.521513,true,true,true,0.125,12.65,0.0,-34449,0,0,0.125,12.65,0.0,0,0,0,0.25,12.6,0.0,2780,0,0,0.125,12.65,0.0,0,0,0,0.125,12.65,0.0,4,0,0,0.0,12.65,0.0,0,0,0,0.125,12.700000000000001,0.0,0,0,0,kReverse,kOff,-87.22,2.06,2.66,0.034240723,-0.98254395,0.029846191,35.12,0.0,-1.0,-8.144165,11.853043,
804.5413599999999,true,true,true,0.125,12.65,0.0,-34449,0,0,0.125,12.65,0.0,0,0,0,0.25,12.6,0.0,2780,0,0,0.125,12.65,0.0,0,0,0,0.125,12.65,0.0,4,0,0,0.0,12.65,0.0,0,0,0,0.125,12.700000000000001,0.0,0,0,0,kReverse,kOff,-87.22,2.05,2.65,0.034179688,-0.98217773,0.03515625,35.12,0.0,0.0,-8.144165,11.853043,
804.5613619999999,true,true,true,0.125,12.65,0.0,-34449,0,0,0.125,12.65,0.0,0,0,0,0.25,12.6,0.0,2780,0,0,0.125,12.65,0.0,0,0,0,0.125,12.65,0.0,4,0,0,0.0,12.65,0.0,0,0,0,0.125,12.700000000000001,0.0,0,0,0,kReverse,kOff,-87.22,2.06,2.66,0.035583496,-0.98358154,0.03387451,35.12,0.0,0.0,-8.144165,11.853043,
804.582185,true,true,true,0.125,12.65,0.0,-34449,0,0,0.125,12.65,0.0,0,0,0,0.25,12.6,0.0,2780,0,0,0.125,12.65,0.0,0,0,0,0.0,12.65,0.0,4,0,0,0.0,12.65,0.0,0,0,0,0.125,12.700000000000001,0.0,0,0,0,kReverse,kOff,-87.22,2.06,2.66,0.035095215,-0.9814453,0.033203125,35.12,0.0,0.0,-8.144165,11.853043,
804.6067119999999,true,true,true,0.125,12.65,0.0,-34449,0,0,0.125,12.65,0.0,0,0,0,0.25,12.6,0.0,2780,0,0,0.125,12.65,0.0,0,0,0,0.0,12.65,0.0,4,0,0,0.0,12.65,0.0,0,0,0,0.125,12.700000000000001,0.0,0,0,0,kReverse,kOff,-87.22,2.05,2.65,0.03527832,-0.9837036,0.034729004,35.12,0.0,0.0,-8.144165,11.853043,
804.625047,true,true,true,0.125,12.65,0.0,-34449,0,0,0.125,12.65,0.0,0,0,0,0.25,12.6,0.0,2780,0,0,0.125,12.65,0.0,0,0,0,0.125,12.65,0.0,4,0,0,0.0,12.65,0.0,0,0,0,0.125,12.700000000000001,0.0,0,0,0,kReverse,kOff,-87.22,2.06,2.66,0.03314209,-0.982666,0.03173828,35.12,0.0,-2.0,-8.144165,11.853043,
804.643184,true,true,true,0.125,12.65,0.0,-34449,0,0,0.125,12.65,0.0,0,0,0,0.25,12.6,0.0,2780,0,0,0.125,12.65,0.0,0,0,0,0.125,12.65,0.0,4,0,0,0.0,12.65,0.0,0,0,0,0.125,12.700000000000001,0.0,0,0,0,kReverse,kOff,-87.22,2.06,2.66,0.0368042,-0.98114014,0.033081055,35.14,0.0,1.0,-8.144165,11.853043,
804.664,true,true,true,0.125,12.65,0.0,-34449,0,0,0.125,12.65,0.0,0,0,0,0.25,12.6,0.0,2780,0,0,0.125,12.65,0.0,0,0,0,0.125,12.65,0.0,4,0,0,0.0,12.65,0.0,0,0,0,0.125,12.700000000000001,0.0,0,0,0,kReverse,kOff,-87.22,2.06,2.65,0.037231445,-0.98083496,0.030212402,35.14,0.0,1.0,-8.144165,11.853043,
804.6832469999999,true,true,true,0.125,12.65,0.0,-34449,0,0,0.125,12.65,0.0,0,0,0,0.25,12.6,0.0,2780,0,0,0.125,12.65,0.0,0,0,0,0.125,12.65,0.0,4,0,0,0.0,12.65,0.0,0,0,0,0.125,12.700000000000001,0.0,0,0,0,kReverse,kOff,-87.22,2.06,2.66,0.036621094,-0.9840088,0.036132812,35.14,0.0,2.0,-8.144165,11.853043,
804.7021,true,true,true,0.125,12.65,0.0,-34449,0,0,0.125,12.65,0.0,0,0,0,0.25,12.6,0.0,2780,0,0,0.125,12.65,0.0,0,0,0,0.125,12.65,0.0,4,0,0,0.0,12.65,0.0,0,0,0,0.125,12.700000000000001,0.0,0,0,0,kReverse,kOff,-87.22,2.06,2.66,0.03704834,-0.98150635,0.0289917,35.14,0.0,0.0,-8.144165,11.853043,
804.7238299999999,true,true,true,0.125,12.65,0.0,-34449,0,0,0.125,12.65,0.0,0,0,0,0.25,12.6,0.0,2780,0,0,0.125,12.65,0.0,0,0,0,0.125,12.65,0.0,4,0,0,0.0,12.65,0.0,0,0,0,0.125,12.700000000000001,0.0,0,0,0,kReverse,kOff,-87.22,2.06,2.66,0.036010742,-0.9813843,0.03314209,35.14,0.0,1.0,-8.144165,11.853043,
804.745128,true,true,true,0.125,12.65,0.0,-34449,0,0,0.125,12.65,0.0,0,0,0,0.25,12.6,0.0,2780,0,0,0.125,12.65,0.0,0,0,0,0.125,12.65,0.0,4,0,0,0.0,12.65,0.0,0,0,0,0.125,12.700000000000001,0.0,0,0,0,kReverse,kOff,-87.22,2.06,2.66,0.037475586,-0.98101807,0.032348633,35.14,0.0,2.0,-8.144165,11.853043,
804.7698660000001,true,true,true,0.125,12.65,0.0,-34449,0,0,0.125,12.65,0.0,0,0,0,0.25,12.6,0.0,2780,0,0,0.125,12.65,0.0,0,0,0,0.125,12.65,0.0,4,0,0,0.0,12.65,0.0,0,0,0,0.125,12.700000000000001,0.0,0,0,0,kReverse,kOff,-87.22,2.06,2.66,0.037719727,-0.9805298,0.034362793,35.14,0.0,3.0,-8.144165,11.853043,
804.791164,true,true,true,0.125,12.65,0.0,-34449,0,0,0.125,12.65,0.0,0,0,0,0.25,12.6,0.0,2780,0,0,0.125,12.65,0.0,0,0,0,0.125,12.65,0.0,4,0,0,0.0,12.65,0.0,0,0,0,0.125,12.700000000000001,0.0,0,0,0,kReverse,kOff,-87.22,2.06,2.66,0.036865234,-0.9830322,0.031921387,35.14,0.0,1.0,-8.144165,11.853043,
804.815211,true,true,true,0.125,12.65,0.0,-34449,0,0,0.125,12.65,0.0,0,0,0,0.25,12.6,0.0,2780,0,0,0.125,12.65,0.0,0,0,0,0.125,12.65,0.0,4,0,0,0.0,12.65,0.0,0,0,0,0.125,12.700000000000001,0.0,0,0,0,kReverse,kOff,-87.22,2.06,2.66,0.033691406,-0.98498535,0.037597656,35.14,0.0,0.0,-8.144165,11.853043,
804.839064,true,true,true,0.125,12.65,0.0,-34449,0,0,0.125,12.65,0.0,0,0,0,0.25,12.6,0.0,2780,0,0,0.125,12.65,0.0,0,0,0,0.125,12.65,0.0,4,0,0,0.0,12.65,0.0,0,0,0,0.125,12.700000000000001,0.0,0,0,0,kReverse,kOff,-87.22,2.06,2.66,0.034301758,-0.98565674,0.034362793,35.14,0.0,0.0,-8.144165,11.853043,
804.859679,true,true,true,0.125,12.65,0.0,-34449,0,0,0.125,12.65,0.0,0,0,0,0.25,12.6,0.0,2780,0,0,0.125,12.65,0.0,0,0,0,0.125,12.65,0.0,4,0,0,0.0,12.65,0.0,0,0,0,0.125,12.700000000000001,0.0,0,0,0,kReverse,kOff,-87.22,2.05,2.65,0.032470703,-0.98394775,0.030944824,35.14,0.0,1.0,-8.144165,11.853043,
804.8789409999999,true,true,true,0.125,12.65,0.0,-34449,0,0,0.125,12.65,0.0,0,0,0,0.25,12.6,0.0,2780,0,0,0.125,12.65,0.0,0,0,0,0.125,12.65,0.0,4,0,0,0.0,12.65,0.0,0,0,0,0.125,12.700000000000001,0.0,0,0,0,kReverse,kOff,-87.22,2.05,2.65,0.036193848,-0.9846802,0.028137207,35.14,0.0,0.0,-8.144165,11.853043,
804.902707,true,true,true,0.125,12.65,0.0,-34449,0,0,0.125,12.65,0.0,0,0,0,0.25,12.6,0.0,2780,0,0,0.125,12.65,0.0,0,0,0,0.125,12.65,0.0,4,0,0,0.0,12.65,0.0,0,0,0,0.125,12.700000000000001,0.0,0,0,0,kReverse,kOff,-87.22,2.06,2.66,0.037719727,-0.9834595,0.034606934,35.14,0.0,3.0,-8.144165,11.853043,
804.923498,true,true,true,0.125,12.65,0.0,-34449,0,0,0.125,12.65,0.0,0,0,0,0.25,12.6,0.0,2780,0,0,0.125,12.65,0.0,0,0,0,0.125,12.65,0.0,4,0,0,0.125,12.65,0.0,0,0,0,0.125,12.700000000000001,0.0,0,0,0,kReverse,kOff,-87.22,2.06,2.66,0.031433105,-0.98376465,0.03387451,35.14,0.0,-3.0,-8.144165,11.853043,
804.945054,true,true,true,0.125,12.65,0.0,-34449,0,0,0.125,12.65,0.0,0,0,0,0.25,12.6,0.0,2780,0,0,0.125,12.65,0.0,0,0,0,0.125,12.65,0.0,4,0,0,0.0,12.65,0.0,0,0,0,0.125,12.700000000000001,0.0,0,0,0,kReverse,kOff,-87.22,2.06,2.66,0.03765869,-0.9855957,0.036010742,35.14,0.0,3.0,-8.144165,11.853043,
804.966409,true,true,true,0.125,12.65,0.0,-34449,0,0,0.125,12.65,0.0,0,0,0,0.25,12.6,0.0,2780,0,0,0.125,12.65,0.0,0,0,0,0.125,12.65,0.0,4,0,0,0.0,12.65,0.0,0,0,0,0.125,12.700000000000001,0.0,0,0,0,kReverse,kOff,-87.22,2.06,2.66,0.0368042,-0.98620605,0.03265381,35.14,0.0,1.0,-8.144165,11.853043,
804.9882369999999,true,true,true,0.125,12.65,0.0,-34449,0,0,0.125,12.65,0.0,0,0,0,0.25,12.6,0.0,2780,0,0,0.125,12.65,0.0,0,0,0,0.125,12.65,0.0,4,0,0,0.0,12.65,0.0,0,0,0,0.125,12.700000000000001,0.0,0,0,0,kReverse,kOff,-87.21,2.05,2.66,0.03552246,-0.98065186,0.030944824,35.14,0.0,0.0,-8.144165,11.853043,
805.0125409999999,true,true,true,0.125,12.65,0.0,-34449,0,0,0.125,12.65,0.0,0,0,0,0.25,12.6,0.0,2780,0,0,0.125,12.65,0.0,0,0,0,0.125,12.65,0.0,4,0,0,0.0,12.65,0.0,0,0,0,0.125,12.700000000000001,0.0,0,0,0,kReverse,kOff,-87.21,2.06,2.66,0.034606934,-0.98480225,0.032287598,35.14,0.0,0.0,-8.144165,11.853043,
805.033369,true,true,true,0.125,12.65,0.0,-34449,0,0,0.125,12.65,0.0,0,0,0,0.25,12.6,0.0,2780,0,0,0.125,12.65,0.0,0,0,0,0.125,12.65,0.0,4,0,0,0.0,12.65,0.0,0,0,0,0.125,12.700000000000001,0.0,0,0,0,kReverse,kOff,-87.21,2.05,2.65,0.037841797,-0.984375,0.03552246,35.14,0.0,3.0,-8.144165,11.853043,
805.0566309999999,true,true,true,0.125,12.65,0.0,-34449,0,0,0.125,12.65,0.0,0,0,0,0.25,12.6,0.0,2780,0,0,0.125,12.65,0.0,0,0,0,0.125,12.65,0.0,4,0,0,0.0,12.65,0.0,0,0,0,0.125,12.700000000000001,0.0,0,0,0,kReverse,kOff,-87.22,2.05,2.65,0.032836914,-0.9845581,0.031311035,35.14,0.0,-2.0,-8.144165,11.853043,
805.079057,true,true,true,0.125,12.65,0.0,-34449,0,0,0.125,12.65,0.0,0,0,0,0.25,12.6,0.0,2780,0,0,0.125,12.65,0.0,0,0,0,0.125,12.65,0.0,4,0,0,0.0,12.65,0.0,0,0,0,0.125,12.700000000000001,0.0,0,0,0,kReverse,kOff,-87.22,2.05,2.65,0.03265381,-0.9838257,0.033325195,35.14,0.0,-2.0,-8.144165,11.853043,
805.100727,true,true,true,0.125,12.65,0.0,-34449,0,0,0.125,12.65,0.0,0,0,0,0.25,12.6,0.0,2780,0,0,0.125,12.65,0.0,0,0,0,0.125,12.65,0.0,4,0,0,0.0,12.65,0.0,0,0,0,0.125,12.700000000000001,0.0,0,0,0,kReverse,kOff,-87.22,2.05,2.65,0.03186035,-0.9830322,0.033569336,35.14,0.0,-2.0,-8.144165,11.853043,
805.1202480000001,true,true,true,0.125,12.65,0.0,-34449,0,0,0.125,12.65,0.0,0,0,0,0.25,12.6,0.0,2780,0,0,0.125,12.65,0.0,0,0,0,0.125,12.65,0.0,4,0,0,0.0,12.65,0.0,0,0,0,0.125,12.700000000000001,0.0,0,0,0,kReverse,kOff,-87.22,2.05,2.65,0.033569336,-0.9857788,0.037475586,35.14,0.0,0.0,-8.144165,11.853043,
805.1419579999999,true,true,true,0.125,12.65,0.0,-34449,0,0,0.125,12.65,0.0,0,0,0,0.25,12.6,0.0,2780,0,0,0.125,12.65,0.0,0,0,0,0.125,12.65,0.0,4,0,0,0.0,12.65,0.0,0,0,0,0.125,12.700000000000001,0.0,0,0,0,kReverse,kOff,-87.22,2.05,2.65,0.0345459,-0.98205566,0.030822754,35.11,0.0,-1.0,-8.144165,11.853043,
805.162365,true,true,true,0.125,12.65,0.0,-34449,0,0,0.125,12.65,0.0,0,0,0,0.25,12.6,0.0,2780,0,0,0.125,12.65,0.0,0,0,0,0.125,12.65,0.0,4,0,0,0.0,12.65,0.0,0,0,0,0.125,12.700000000000001,0.0,0,0,0,kReverse,kOff,-87.22,2.05,2.65,0.03869629,-0.9841919,0.024658203,35.11,0.0,0.0,-8.144165,11.853043,
805.183939,true,true,true,0.125,12.65,0.0,-34449,0,0,0.125,12.65,0.0,0,0,0,0.25,12.6,0.0,2780,0,0,0.125,12.65,0.0,0,0,0,0.125,12.65,0.0,4,0,0,0.0,12.65,0.0,0,0,0,0.125,12.700000000000001,0.0,0,0,0,kReverse,kOff,-87.22,2.06,2.66,0.037597656,-0.9812622,0.03503418,35.11,0.0,3.0,-8.144165,11.853043,
805.2051309999999,true,true,true,0.125,12.65,0.0,-34449,0,0,0.125,12.65,0.0,0,0,0,0.25,12.6,0.0,2780,0,0,0.125,12.65,0.0,0,0,0,0.125,12.65,0.0,4,0,0,0.0,12.65,0.0,0,0,0,0.125,12.700000000000001,0.0,0,0,0,kReverse,kOff,-87.22,2.06,2.66,0.037597656,-0.9812622,0.03503418,35.11,0.0,3.0,-8.144165,11.853043,
805.2248950000001,true,true,true,0.125,12.65,0.0,-34449,0,0,0.125,12.65,0.0,0,0,0,0.25,12.6,0.0,2780,0,0,0.125,12.65,0.0,0,0,0,0.125,12.65,0.0,4,0,0,0.0,12.65,0.0,0,0,0,0.125,12.700000000000001,0.0,0,0,0,kReverse,kOff,-87.21,2.06,2.66,0.03289795,-0.9855957,0.0335083,35.11,0.0,-2.0,-8.144165,11.853043,
805.245541,true,true,true,0.125,12.65,0.0,-34449,0,0,0.125,12.65,0.0,0,0,0,0.25,12.6,0.0,2780,0,0,0.125,12.65,0.0,0,0,0,0.125,12.65,0.0,4,0,0,0.0,12.65,0.0,0,0,0,0.125,12.700000000000001,0.0,0,0,0,kReverse,kOff,-87.21,2.06,2.66,0.03289795,-0.9855957,0.0335083,35.11,0.0,-2.0,-8.144165,11.853043,
805.268249,true,true,true,0.125,12.65,0.0,-34449,0,0,0.125,12.65,0.0,0,0,0,0.25,12.6,0.0,2780,0,0,0.125,12.65,0.0,0,0,0,0.125,12.65,0.0,4,0,0,0.0,12.65,0.0,0,0,0,0.125,12.700000000000001,0.0,0,0,0,kReverse,kOff,-87.22,2.06,2.66,0.036315918,-0.9842529,0.027893066,35.11,0.0,0.0,-8.144165,11.853043,
805.292628,true,true,true,0.125,12.65,0.0,-34449,0,0,0.125,12.65,0.0,0,0,0,0.25,12.6,0.0,2780,0,0,0.125,12.65,0.0,0,0,0,0.125,12.6,0.0,4,0,0,0.0,12.65,0.0,0,0,0,0.125,12.700000000000001,0.0,0,0,0,kReverse,kOff,-87.22,2.06,2.66,0.034057617,-0.9847412,0.03253174,35.11,0.0,-1.0,-8.144165,11.853043,
805.314387,true,true,true,0.125,12.65,0.0,-34449,0,0,0.125,12.65,0.0,0,0,0,0.25,12.6,0.0,2780,0,0,0.125,12.65,0.0,0,0,0,0.125,12.6,0.0,4,0,0,0.0,12.65,0.0,0,0,0,0.125,12.700000000000001,0.0,0,0,0,kReverse,kOff,-87.22,2.06,2.66,0.03314209,-0.9863281,0.03656006,35.11,0.0,0.0,-8.144165,11.853043,
805.335729,true,true,true,0.125,12.65,0.0,-34449,0,0,0.125,12.65,0.0,0,0,0,0.25,12.6,0.0,2780,0,0,0.125,12.65,0.0,0,0,0,0.125,12.6,0.0,4,0,0,0.0,12.65,0.0,0,0,0,0.125,12.700000000000001,0.0,0,0,0,kReverse,kOff,-87.22,2.06,2.66,0.035461426,-0.9837036,0.03289795,35.11,0.0,0.0,-8.144165,11.853043,
805.35423,true,true,true,0.125,12.65,0.0,-34449,0,0,0.125,12.65,0.0,0,0,0,0.25,12.6,0.0,2780,0,0,0.125,12.65,0.0,0,0,0,0.125,12.6,0.0,4,0,0,0.0,12.65,0.0,0,0,0,0.125,12.700000000000001,0.0,0,0,0,kReverse,kOff,-87.22,2.06,2.66,0.035949707,-0.9804077,0.029907227,35.11,0.0,0.0,-8.144165,11.853043,
805.3862260000001,true,true,true,0.125,12.65,0.0,-34449,0,0,0.125,12.65,0.0,0,0,0,0.25,12.6,0.0,2780,0,0,0.125,12.65,0.0,0,0,0,0.125,12.6,0.0,4,0,0,0.0,12.65,0.0,0,0,0,0.125,12.700000000000001,0.0,0,0,0,kReverse,kOff,-87.22,2.06,2.66,0.035339355,-0.9831543,0.03314209,35.11,0.0,0.0,-8.144165,11.853043,
805.413039,true,true,true,0.125,12.65,0.0,-34449,0,0,0.125,12.65,0.0,0,0,0,0.25,12.6,0.0,2780,0,0,0.125,12.65,0.0,0,0,0,0.125,12.6,0.0,4,0,0,0.0,12.65,0.0,0,0,0,0.125,12.700000000000001,0.0,0,0,0,kReverse,kOff,-87.22,2.06,2.66,0.033569336,-0.9827881,0.031188965,35.11,0.0,-2.0,-8.144165,11.853043,
805.43475,true,true,true,0.125,12.65,0.0,-34449,0,0,0.125,12.65,0.0,0,0,0,0.25,12.6,0.0,2780,0,0,0.125,12.65,0.0,0,0,0,0.125,12.6,0.0,4,0,0,0.0,12.65,0.0,0,0,0,0.125,12.700000000000001,0.0,0,0,0,kReverse,kOff,-87.22,2.06,2.66,0.037902832,-0.9849243,0.028869629,35.11,0.0,1.0,-8.144165,11.853043,
805.458,true,true,true,0.125,12.65,0.0,-34449,0,0,0.125,12.65,0.0,0,0,0,0.25,12.6,0.0,2780,0,0,0.125,12.65,0.0,0,0,0,0.125,12.65,0.0,4,0,0,0.0,12.65,0.0,0,0,0,0.125,12.700000000000001,0.0,0,0,0,kReverse,kOff,-87.22,2.06,2.66,0.037963867,-0.9821167,0.027038574,35.11,0.0,0.0,-8.144165,11.853043,
805.481819,true,true,true,0.125,12.65,0.0,-34449,0,0,0.125,12.65,0.0,0,0,0,0.25,12.6,0.0,2780,0,0,0.125,12.65,0.0,0,0,0,0.125,12.65,0.0,4,0,0,0.0,12.65,0.0,0,0,0,0.125,12.700000000000001,0.0,0,0,0,kReverse,kOff,-87.22,2.07,2.67,0.035888672,-0.9837036,0.036071777,35.11,0.0,1.0,-8.144165,11.853043,
805.502355,true,true,true,0.125,12.65,0.0,-34449,0,0,0.125,12.65,0.0,0,0,0,0.25,12.6,0.0,2780,0,0,0.125,12.65,0.0,0,0,0,0.125,12.65,0.0,4,0,0,0.0,12.65,0.0,0,0,0,0.125,12.700000000000001,0.0,0,0,0,kReverse,kOff,-87.21,2.07,2.67,0.034423828,-0.98358154,0.031188965,35.11,0.0,-1.0,-8.144165,11.853043,
805.523403,true,true,true,0.125,12.65,0.0,-34449,0,0,0.125,12.65,0.0,0,0,0,0.25,12.6,0.0,2780,0,0,0.125,12.65,0.0,0,0,0,0.125,12.65,0.0,4,0,0,0.0,12.65,0.0,0,0,0,0.125,12.700000000000001,0.0,0,0,0,kReverse,kOff,-87.22,2.06,2.66,0.031921387,-0.9844971,0.03552246,35.11,0.0,-2.0,-8.144165,11.853043,
805.544129,true,true,true,0.125,12.65,0.0,-34449,0,0,0.125,12.65,0.0,0,0,0,0.25,12.6,0.0,2780,0,0,0.125,12.65,0.0,0,0,0,0.125,12.65,0.0,4,0,0,0.0,12.65,0.0,0,0,0,0.125,12.700000000000001,0.0,0,0,0,kReverse,kOff,-87.22,2.07,2.67,0.03668213,-0.98620605,0.030212402,35.11,0.0,0.0,-8.144165,11.853043,
805.563183,true,true,true,0.125,12.65,0.0,-34449,0,0,0.125,12.65,0.0,0,0,0,0.25,12.6,0.0,2780,0,0,0.125,12.65,0.0,0,0,0,0.125,12.65,0.0,4,0,0,0.0,12.65,0.0,0,0,0,0.125,12.700000000000001,0.0,0,0,0,kReverse,kOff,-87.22,2.07,2.67,0.0345459,-0.98828125,0.032592773,35.11,0.0,0.0,-8.144165,11.853043,
805.585444,true,true,true,0.125,12.65,0.0,-34449,0,0,0.125,12.65,0.0,0,0,0,0.25,12.6,0.0,2780,0,0,0.125,12.65,0.0,0,0,0,0.125,12.65,0.0,4,0,0,0.0,12.65,0.0,0,0,0,0.125,12.700000000000001,0.0,0,0,0,kReverse,kOff,-87.22,2.07,2.67,0.037902832,-0.9824829,0.03540039,35.11,0.0,3.0,-8.144165,11.853043,
805.604606,true,true,true,0.125,12.65,0.0,-34449,0,0,0.125,12.65,0.0,0,0,0,0.25,12.65,0.0,2780,0,0,0.125,12.65,0.0,0,0,0,0.125,12.65,0.0,4,0,0,0.0,12.65,0.0,0,0,0,0.125,12.700000000000001,0.0,0,0,0,kReverse,kOff,-87.22,2.07,2.67,0.032714844,-0.9830322,0.029418945,35.11,0.0,-3.0,-8.144165,11.853043,
805.624235,true,true,true,0.125,12.65,0.0,-34449,0,0,0.125,12.65,0.0,0,0,0,0.25,12.65,0.0,2780,0,0,0.125,12.65,0.0,0,0,0,0.125,12.65,0.0,4,0,0,0.0,12.65,0.0,0,0,0,0.125,12.700000000000001,0.0,0,0,0,kReverse,kOff,-87.22,2.07,2.67,0.03314209,-0.9857178,0.02722168,35.11,0.0,-3.0,-8.144165,11.853043,
805.643207,true,true,true,0.125,12.65,0.0,-34449,0,0,0.125,12.65,0.0,0,0,0,0.25,12.65,0.0,2780,0,0,0.125,12.65,0.0,0,0,0,0.125,12.65,0.0,4,0,0,0.0,12.65,0.0,0,0,0,0.125,12.700000000000001,0.0,0,0,0,kReverse,kOff,-87.22,2.07,2.67,0.03503418,-0.98638916,0.031188965,35.11,0.0,0.0,-8.144165,11.853043,
805.664385,true,true,true,0.125,12.65,0.0,-34449,0,0,0.125,12.65,0.0,0,0,0,0.25,12.65,0.0,2780,0,0,0.125,12.65,0.0,0,0,0,0.125,12.65,0.0,4,0,0,0.0,12.65,0.0,0,0,0,0.125,12.700000000000001,0.0,0,0,0,kReverse,kOff,-87.22,2.07,2.67,0.03375244,-0.9836426,0.030944824,35.15,0.0,-2.0,-8.144165,11.853043,
805.6868390000001,true,true,true,0.125,12.65,0.0,-34449,0,0,0.125,12.65,0.0,0,0,0,0.25,12.65,0.0,2780,0,0,0.125,12.65,0.0,0,0,0,0.125,12.65,0.0,4,0,0,0.0,12.65,0.0,0,0,0,0.125,12.700000000000001,0.0,0,0,0,kReverse,kOff,-87.22,2.07,2.67,0.03656006,-0.98205566,0.034606934,35.15,0.0,1.0,-8.144165,11.853043,
805.712963,true,true,true,0.125,12.65,0.0,-34449,0,0,0.125,12.65,0.0,0,0,0,0.25,12.65,0.0,2780,0,0,0.125,12.65,0.0,0,0,0,0.125,12.65,0.0,4,0,0,0.0,12.65,0.0,0,0,0,0.125,12.700000000000001,0.0,0,0,0,kReverse,kOff,-87.22,2.07,2.67,0.0390625,-0.9849243,0.034606934,35.15,0.0,4.0,-8.144165,11.853043,
805.7318,true,true,true,0.125,12.65,0.0,-34449,0,0,0.125,12.65,0.0,0,0,0,0.25,12.65,0.0,2780,0,0,0.125,12.65,0.0,0,0,0,0.125,12.65,0.0,4,0,0,0.0,12.65,0.0,0,0,0,0.125,12.700000000000001,0.0,0,0,0,kReverse,kOff,-87.22,2.07,2.67,0.037719727,-0.98535156,0.03265381,35.15,0.0,3.0,-8.144165,11.853043,
805.754554,true,true,true,0.125,12.65,0.0,-34449,0,0,0.125,12.65,0.0,0,0,0,0.25,12.65,0.0,2780,0,0,0.125,12.65,0.0,0,0,0,0.125,12.65,0.0,4,0,0,0.0,12.65,0.0,0,0,0,0.125,12.700000000000001,0.0,0,0,0,kReverse,kOff,-87.22,2.07,2.67,0.036987305,-0.9852905,0.03552246,35.15,0.0,2.0,-8.144165,11.853043,
805.773813,true,true,true,0.125,12.65,0.0,-34449,0,0,0.125,12.65,0.0,0,0,0,0.25,12.6,0.0,2780,0,0,0.125,12.65,0.0,0,0,0,0.125,12.65,0.0,4,0,0,0.0,12.65,0.0,0,0,0,0.125,12.700000000000001,0.0,0,0,0,kReverse,kOff,-87.22,2.07,2.67,0.033691406,-0.9846802,0.03277588,35.15,0.0,-1.0,-8.144165,11.853043,
805.8005159999999,true,true,true,0.125,12.65,0.0,-34449,0,0,0.125,12.65,0.0,0,0,0,0.25,12.6,0.0,2780,0,0,0.125,12.65,0.0,0,0,0,0.125,12.65,0.0,4,0,0,0.0,12.65,0.0,0,0,0,0.125,12.700000000000001,0.0,0,0,0,kReverse,kOff,-87.22,2.07,2.67,0.03564453,-0.9819946,0.03692627,35.15,0.0,1.0,-8.144165,11.853043,
805.819466,true,true,true,0.125,12.65,0.0,-34449,0,0,0.125,12.65,0.0,0,0,0,0.25,12.6,0.0,2780,0,0,0.125,12.65,0.0,0,0,0,0.125,12.65,0.0,4,0,0,0.0,12.65,0.0,0,0,0,0.125,12.700000000000001,0.0,0,0,0,kReverse,kOff,-87.22,2.07,2.67,0.034240723,-0.98327637,0.033813477,35.15,0.0,0.0,-8.144165,11.853043,
805.841146,true,true,true,0.125,12.65,0.0,-34449,0,0,0.125,12.65,0.0,0,0,0,0.25,12.6,0.0,2780,0,0,0.125,12.65,0.0,0,0,0,0.125,12.65,0.0,4,0,0,0.0,12.65,0.0,0,0,0,0.125,12.700000000000001,0.0,0,0,0,kReverse,kOff,-87.22,2.07,2.67,0.033447266,-0.98168945,0.029663086,35.15,0.0,-2.0,-8.144165,11.853043,
805.8619100000001,true,true,true,0.125,12.65,0.0,-34449,0,0,0.125,12.65,0.0,0,0,0,0.25,12.6,0.0,2780,0,0,0.125,12.65,0.0,0,0,0,0.125,12.65,0.0,4,0,0,0.0,12.65,0.0,0,0,0,0.125,12.700000000000001,0.0,0,0,0,kReverse,kOff,-87.22,2.07,2.67,0.035827637,-0.9830322,0.02746582,35.15,0.0,-1.0,-8.144165,11.853043,
805.882759,true,true,true,0.125,12.65,0.0,-34449,0,0,0.125,12.65,0.0,0,0,0,0.25,12.6,0.0,2780,0,0,0.125,12.65,0.0,0,0,0,0.125,12.65,0.0,4,0,0,0.0,12.65,0.0,0,0,0,0.125,12.700000000000001,0.0,0,0,0,kReverse,kOff,-87.22,2.07,2.67,0.033813477,-0.98321533,0.033447266,35.15,0.0,-1.0,-8.144165,11.853043,
805.904495,true,true,true,0.125,12.65,0.0,-34449,0,0,0.125,12.65,0.0,0,0,0,0.25,12.6,0.0,2780,0,0,0.125,12.65,0.0,0,0,0,0.125,12.65,0.0,4,0,0,0.0,12.65,0.0,0,0,0,0.125,12.700000000000001,0.0,0,0,0,kReverse,kOff,-87.22,2.07,2.67,0.03314209,-0.9852295,0.04107666,35.15,0.0,0.0,-8.144165,11.853043,
805.927753,true,true,true,0.125,12.65,0.0,-34449,0,0,0.125,12.65,0.0,0,0,0,0.25,12.6,0.0,2780,0,0,0.125,12.65,0.0,0,0,0,0.125,12.65,0.0,4,0,0,0.0,12.65,0.0,0,0,0,0.125,12.700000000000001,0.0,0,0,0,kReverse,kOff,-87.22,2.07,2.67,0.03186035,-0.98309326,0.033081055,35.15,0.0,-3.0,-8.144165,11.853043,
805.952177,true,true,true,0.125,12.65,0.0,-34449,0,0,0.125,12.65,0.0,0,0,0,0.25,12.6,0.0,2780,0,0,0.125,12.65,0.0,0,0,0,0.125,12.65,0.0,4,0,0,0.0,12.65,0.0,0,0,0,0.125,12.700000000000001,0.0,0,0,0,kReverse,kOff,-87.22,2.07,2.67,0.037719727,-0.9864502,0.029785156,35.15,0.0,1.0,-8.144165,11.853043,
805.971458,true,true,true,0.125,12.65,0.0,-34449,0,0,0.125,12.65,0.0,0,0,0,0.25,12.6,0.0,2780,0,0,0.125,12.65,0.0,0,0,0,0.125,12.65,0.0,4,0,0,0.0,12.65,0.0,0,0,0,0.125,12.700000000000001,0.0,0,0,0,kReverse,kOff,-87.22,2.07,2.67,0.035888672,-0.9875488,0.032165527,35.15,0.0,0.0,-8.144165,11.853043,
805.992436,true,true,true,0.125,12.65,0.0,-34449,0,0,0.125,12.65,0.0,0,0,0,0.25,12.6,0.0,2780,0,0,0.125,12.65,0.0,0,0,0,0.125,12.65,0.0,4,0,0,0.0,12.65,0.0,0,0,0,0.125,12.700000000000001,0.0,0,0,0,kReverse,kOff,-87.22,2.07,2.67,0.039855957,-0.9830322,0.026733398,35.15,0.0,2.0,-8.144165,11.853043,
806.018586,true,true,true,0.125,12.65,0.0,-34449,0,0,0.125,12.65,0.0,0,0,0,0.25,12.6,0.0,2780,0,0,0.125,12.65,0.0,0,0,0,0.125,12.65,0.0,4,0,0,0.0,12.65,0.0,0,0,0,0.125,12.700000000000001,0.0,0,0,0,kReverse,kOff,-87.22,2.08,2.67,0.038024902,-0.9812012,0.0256958,35.15,0.0,0.0,-8.144165,11.853043,
806.037207,true,true,true,0.125,12.65,0.0,-34449,0,0,0.125,12.65,0.0,0,0,0,0.25,12.6,0.0,2780,0,0,0.125,12.65,0.0,0,0,0,0.125,12.65,0.0,4,0,0,0.0,12.65,0.0,0,0,0,0.125,12.700000000000001,0.0,0,0,0,kReverse,kOff,-87.21,2.09,2.68,0.0345459,-0.98150635,0.023742676,35.15,0.0,-3.0,-8.144165,11.853043,
806.0612759999999,true,true,true,0.125,12.65,0.0,-34449,0,0,0.125,12.65,0.0,0,0,0,0.25,12.6,0.0,2780,0,0,0.125,12.65,0.0,0,0,0,0.125,12.65,0.0,4,0,0,0.0,12.65,0.0,0,0,0,0.125,12.700000000000001,0.0,0,0,0,kReverse,kOff,-87.21,2.09,2.68,0.044311523,-0.9824829,0.036621094,35.15,0.0,9.0,-8.144165,11.853043,
806.081737,true,true,true,0.125,12.65,0.0,-34449,0,0,0.125,12.65,0.0,0,0,0,0.25,12.6,0.0,2780,0,0,0.125,12.65,0.0,0,0,0,0.125,12.65,0.0,4,0,0,0.0,12.65,0.0,0,0,0,0.125,12.700000000000001,0.0,0,0,0,kReverse,kOff,-87.21,2.09,2.68,0.03466797,-0.98132324,0.028076172,35.15,0.0,-2.0,-8.144165,11.853043,
806.1020579999999,true,true,true,0.125,12.65,0.0,-34449,0,0,0.125,12.65,0.0,0,0,0,0.25,12.65,0.0,2780,0,0,0.125,12.65,0.0,0,0,0,0.125,12.65,0.0,4,0,0,0.0,12.65,0.0,0,0,0,0.125,12.700000000000001,0.0,0,0,0,kReverse,kOff,-87.22,2.08,2.67,0.034851074,-0.9866333,0.030883789,35.15,0.0,-1.0,-8.144165,11.853043,
806.122515,true,true,true,0.125,12.65,0.0,-34449,0,0,0.125,12.65,0.0,0,0,0,0.25,12.65,0.0,2780,0,0,0.125,12.65,0.0,0,0,0,0.125,12.65,0.0,4,0,0,0.0,12.65,0.0,0,0,0,0.125,12.700000000000001,0.0,0,0,0,kReverse,kOff,-87.22,2.08,2.67,0.03186035,-0.9837036,0.0357666,35.15,0.0,-2.0,-8.144165,11.853043,
806.142321,true,true,true,0.125,12.65,0.0,-34449,0,0,0.125,12.65,0.0,0,0,0,0.25,12.65,0.0,2780,0,0,0.125,12.65,0.0,0,0,0,0.125,12.65,0.0,4,0,0,0.0,12.65,0.0,0,0,0,0.125,12.700000000000001,0.0,0,0,0,kReverse,kOff,-87.23,2.07,2.66,0.032592773,-0.9840088,0.033081055,35.15,0.0,-2.0,-8.144165,11.853043,
806.163774,true,true,true,0.125,12.65,0.0,-34449,0,0,0.125,12.65,0.0,0,0,0,0.25,12.65,0.0,2780,0,0,0.125,12.65,0.0,0,0,0,0.125,12.65,0.0,4,0,0,0.0,12.65,0.0,0,0,0,0.125,12.700000000000001,0.0,0,0,0,kReverse,kOff,-87.23,2.07,2.66,0.030273438,-0.9845581,0.033081055,35.17,0.0,-4.0,-8.144165,11.853043,
806.1855019999999,true,true,true,0.125,12.65,0.0,-34449,0,0,0.125,12.65,0.0,0,0,0,0.25,12.65,0.0,2780,0,0,0.125,12.65,0.0,0,0,0,0.125,12.65,0.0,4,0,0,0.0,12.65,0.0,0,0,0,0.125,12.700000000000001,0.0,0,0,0,kReverse,kOff,-87.23,2.06,2.66,0.032958984,-0.9871216,0.029724121,35.17,0.0,-3.0,-8.144165,11.853043,
806.2062970000001,true,true,true,0.125,12.65,0.0,-34449,0,0,0.125,12.65,0.0,0,0,0,0.25,12.65,0.0,2780,0,0,0.125,12.65,0.0,0,0,0,0.125,12.65,0.0,4,0,0,0.125,12.65,0.0,0,0,0,0.125,12.700000000000001,0.0,0,0,0,kReverse,kOff,-87.23,2.07,2.66,0.035095215,-0.98565674,0.028076172,35.17,0.0,-1.0,-8.144165,11.853043,
806.229386,true,true,true,0.125,12.65,0.0,-34449,0,0,0.125,12.65,0.0,0,0,0,0.25,12.65,0.0,2780,0,0,0.125,12.65,0.0,0,0,0,0.125,12.65,0.0,4,0,0,0.0,12.65,0.0,0,0,0,0.125,12.700000000000001,0.0,0,0,0,kReverse,kOff,-87.23,2.07,2.66,0.03765869,-0.9848633,0.027404785,35.17,0.0,0.0,-8.144165,11.853043,
806.248294,true,true,true,0.125,12.65,0.0,-34449,0,0,0.125,12.65,0.0,0,0,0,0.25,12.6,0.0,2780,0,0,0.125,12.65,0.0,0,0,0,0.125,12.65,0.0,4,0,0,0.0,12.65,0.0,0,0,0,0.125,12.700000000000001,0.0,0,0,0,kReverse,kOff,-87.23,2.07,2.66,0.040771484,-0.9824829,0.033447266,35.17,0.0,5.0,-8.144165,11.853043,
806.271601,true,true,true,0.125,12.65,0.0,-34449,0,0,0.125,12.65,0.0,0,0,0,0.25,12.6,0.0,2780,0,0,0.125,12.65,0.0,0,0,0,0.125,12.65,0.0,4,0,0,0.0,12.65,0.0,0,0,0,0.125,12.700000000000001,0.0,0,0,0,kReverse,kOff,-87.22,2.08,2.67,0.03765869,-0.9817505,0.030456543,35.17,0.0,1.0,-8.144165,11.853043,
806.295843,true,true,true,0.125,12.65,0.0,-34449,0,0,0.125,12.65,0.0,0,0,0,0.25,12.6,0.0,2780,0,0,0.125,12.65,0.0,0,0,0,0.125,12.65,0.0,4,0,0,0.0,12.65,0.0,0,0,0,0.125,12.700000000000001,0.0,0,0,0,kReverse,kOff,-87.21,2.09,2.68,0.038085938,-0.98114014,0.033081055,35.17,0.0,2.0,-8.144165,11.853043,
806.3185,true,true,true,0.125,12.65,0.0,-34449,0,0,0.125,12.65,0.0,0,0,0,0.25,12.6,0.0,2780,0,0,0.125,12.65,0.0,0,0,0,0.125,12.65,0.0,4,0,0,0.0,12.65,0.0,0,0,0,0.125,12.700000000000001,0.0,0,0,0,kReverse,kOff,-87.21,2.09,2.68,0.03729248,-0.9850464,0.032104492,35.17,0.0,1.0,-8.144165,11.853043,
806.340669,true,true,true,0.125,12.65,0.0,-34449,0,0,0.125,12.65,0.0,0,0,0,0.25,12.6,0.0,2780,0,0,0.125,12.65,0.0,0,0,0,0.125,12.65,0.0,4,0,0,0.0,12.65,0.0,0,0,0,0.125,12.700000000000001,0.0,0,0,0,kReverse,kOff,-87.21,2.09,2.68,0.035949707,-0.98236084,0.02911377,35.17,0.0,0.0,-8.144165,11.853043,
806.3615189999999,true,true,true,0.125,12.65,0.0,-34449,0,0,0.125,12.65,0.0,0,0,0,0.25,12.6,0.0,2780,0,0,0.125,12.65,0.0,0,0,0,0.125,12.65,0.0,4,0,0,0.0,12.65,0.0,0,0,0,0.125,12.700000000000001,0.0,0,0,0,kReverse,kOff,-87.22,2.08,2.67,0.032226562,-0.98620605,0.033813477,35.17,0.0,-2.0,-8.144165,11.853043,
806.382123,true,true,true,0.125,12.65,0.0,-34449,0,0,0.125,12.65,0.0,0,0,0,0.25,12.6,0.0,2780,0,0,0.125,12.65,0.0,0,0,0,0.125,12.65,0.0,4,0,0,0.0,12.65,0.0,0,0,0,0.125,12.700000000000001,0.0,0,0,0,kReverse,kOff,-87.23,2.07,2.66,0.03149414,-0.9814453,0.032104492,35.17,0.0,-3.0,-8.144165,11.853043,
806.4029889999999,true,true,true,0.125,12.65,0.0,-34449,0,0,0.125,12.65,0.0,0,0,0,0.25,12.6,0.0,2780,0,0,0.125,12.65,0.0,0,0,0,0.125,12.65,0.0,4,0,0,0.0,12.65,0.0,0,0,0,0.125,12.700000000000001,0.0,0,0,0,kReverse,kOff,-87.23,2.07,2.66,0.034423828,-0.98638916,0.032958984,35.17,0.0,0.0,-8.144165,11.853043,
806.424843,true,true,true,0.125,12.65,0.0,-34449,0,0,0.125,12.65,0.0,0,0,0,0.25,12.6,0.0,2780,0,0,0.125,12.65,0.0,0,0,0,0.125,12.65,0.0,4,0,0,0.0,12.65,0.0,0,0,0,0.125,12.700000000000001,0.0,0,0,0,kReverse,kOff,-87.23,2.06,2.66,0.028015137,-0.9849243,0.035949707,35.17,0.0,-1.0,-8.144165,11.853043,
806.4478859999999,true,true,true,0.125,12.65,0.0,-34449,0,0,0.125,12.65,0.0,0,0,0,0.25,12.6,0.0,2780,0,0,0.125,12.65,0.0,0,0,0,0.0,12.65,0.0,4,0,0,0.0,12.65,0.0,0,0,0,0.125,12.700000000000001,0.0,0,0,0,kReverse,kOff,-87.23,2.06,2.66,0.0357666,-0.98876953,0.03466797,35.17,0.0,0.0,-8.144165,11.853043,
806.470174,true,true,true,0.125,12.65,0.0,-34449,0,0,0.125,12.65,0.0,0,0,0,0.25,12.6,0.0,2780,0,0,0.125,12.65,0.0,0,0,0,0.0,12.65,0.0,4,0,0,0.0,12.65,0.0,0,0,0,0.125,12.700000000000001,0.0,0,0,0,kReverse,kOff,-87.23,2.06,2.66,0.0357666,-0.98876953,0.03466797,35.17,0.0,0.0,-8.144165,11.853043,
806.490324,true,true,true,0.125,12.65,0.0,-34449,0,0,0.125,12.65,0.0,0,0,0,0.25,12.6,0.0,2780,0,0,0.125,12.65,0.0,0,0,0,0.0,12.65,0.0,4,0,0,0.0,12.65,0.0,0,0,0,0.125,12.700000000000001,0.0,0,0,0,kReverse,kOff,-87.23,2.07,2.66,0.03692627,-0.98223877,0.033996582,35.17,0.0,2.0,-8.144165,11.853043,
806.5159189999999,true,true,true,0.125,12.65,0.0,-34449,0,0,0.125,12.65,0.0,0,0,0,0.25,12.6,0.0,2780,0,0,0.125,12.65,0.0,0,0,0,0.125,12.65,0.0,4,0,0,0.0,12.65,0.0,0,0,0,0.125,12.700000000000001,0.0,0,0,0,kReverse,kOff,-87.22,2.07,2.67,0.03778076,-0.98101807,0.02960205,35.17,0.0,1.0,-8.144165,11.853043,
806.535561,true,true,true,0.125,12.65,0.0,-34449,0,0,0.125,12.65,0.0,0,0,0,0.25,12.6,0.0,2780,0,0,0.125,12.65,0.0,0,0,0,0.125,12.65,0.0,4,0,0,0.0,12.65,0.0,0,0,0,0.125,12.700000000000001,0.0,0,0,0,kReverse,kOff,-87.22,2.07,2.67,0.041137695,-0.98101807,0.032287598,35.17,0.0,5.0,-8.144165,11.853043,
806.558586,true,true,true,0.125,12.65,0.0,-34449,0,0,0.125,12.65,0.0,0,0,0,0.25,12.6,0.0,2780,0,0,0.125,12.65,0.0,0,0,0,0.125,12.65,0.0,4,0,0,0.0,12.65,0.0,0,0,0,0.125,12.700000000000001,0.0,0,0,0,kReverse,kOff,-87.21,2.08,2.68,0.039001465,-0.98083496,0.03387451,35.17,0.0,3.0,-8.144165,11.853043,
806.5806530000001,true,true,true,0.125,12.65,0.0,-34449,0,0,0.125,12.65,0.0,0,0,0,0.25,12.6,0.0,2780,0,0,0.125,12.65,0.0,0,0,0,0.125,12.65,0.0,4,0,0,0.0,12.65,0.0,0,0,0,0.125,12.700000000000001,0.0,0,0,0,kReverse,kOff,-87.22,2.07,2.67,0.036132812,-0.98217773,0.028808594,35.17,0.0,0.0,-8.144165,11.853043,
806.600452,true,true,true,0.125,12.65,0.0,-34449,0,0,0.125,12.65,0.0,0,0,0,0.25,12.6,0.0,2780,0,0,0.125,12.65,0.0,0,0,0,0.125,12.65,0.0,4,0,0,0.0,12.65,0.0,0,0,0,0.125,12.700000000000001,0.0,0,0,0,kReverse,kOff,-87.22,2.07,2.67,0.031555176,-0.9847412,0.032958984,35.17,0.0,-3.0,-8.144165,11.853043,
806.6217809999999,true,true,true,0.125,12.65,0.0,-34449,0,0,0.125,12.65,0.0,0,0,0,0.25,12.6,0.0,2780,0,0,0.125,12.65,0.0,0,0,0,0.125,12.65,0.0,4,0,0,0.0,12.65,0.0,0,0,0,0.125,12.700000000000001,0.0,0,0,0,kReverse,kOff,-87.22,2.06,2.66,0.032714844,-0.98236084,0.0390625,35.17,0.0,0.0,-8.144165,11.853043,
806.641258,true,true,true,0.125,12.65,0.0,-34449,0,0,0.125,12.65,0.0,0,0,0,0.25,12.6,0.0,2780,0,0,0.125,12.65,0.0,0,0,0,0.125,12.65,0.0,4,0,0,0.0,12.65,0.0,0,0,0,0.125,12.700000000000001,0.0,0,0,0,kReverse,kOff,-87.23,2.06,2.66,0.032165527,-0.98431396,0.037719727,35.17,0.0,-1.0,-8.144165,11.853043,
806.6608279999999,true,true,true,0.125,12.65,0.0,-34449,0,0,0.125,12.65,0.0,0,0,0,0.25,12.6,0.0,2780,0,0,0.125,12.65,0.0,0,0,0,0.125,12.65,0.0,4,0,0,0.0,12.65,0.0,0,0,0,0.125,12.700000000000001,0.0,0,0,0,kReverse,kOff,-87.23,2.06,2.66,0.034973145,-0.98706055,0.033325195,35.17,0.0,0.0,-8.144165,11.853043,
806.680431,true,true,true,0.125,12.65,0.0,-34449,0,0,0.125,12.65,0.0,0,0,0,0.25,12.6,0.0,2780,0,0,0.125,12.65,0.0,0,0,0,0.125,12.65,0.0,4,0,0,0.0,12.65,0.0,0,0,0,0.125,12.700000000000001,0.0,0,0,0,kReverse,kOff,-87.23,2.06,2.66,0.03479004,-0.9807739,0.026977539,35.13,0.0,-1.0,-8.144165,11.853043,
806.7001089999999,true,true,true,0.125,12.65,0.0,-34449,0,0,0.125,12.65,0.0,0,0,0,0.25,12.6,0.0,2780,0,0,0.125,12.65,0.0,0,0,0,0.125,12.65,0.0,4,0,0,0.0,12.65,0.0,0,0,0,0.125,12.700000000000001,0.0,0,0,0,kReverse,kOff,-87.22,2.06,2.66,0.036254883,-0.97991943,0.030944824,35.13,0.0,0.0,-8.144165,11.853043,
806.719892,true,true,true,0.125,12.65,0.0,-34449,0,0,0.125,12.65,0.0,0,0,0,0.25,12.6,0.0,2780,0,0,0.125,12.65,0.0,0,0,0,0.125,12.65,0.0,4,0,0,0.0,12.65,0.0,0,0,0,0.125,12.700000000000001,0.0,0,0,0,kReverse,kOff,-87.22,2.06,2.66,0.036010742,-0.9842529,0.036071777,35.13,0.0,1.0,-8.144165,11.853043,
806.739819,true,true,true,0.125,12.65,0.0,-34449,0,0,0.125,12.65,0.0,0,0,0,0.25,12.6,0.0,2780,0,0,0.125,12.65,0.0,0,0,0,0.125,12.65,0.0,4,0,0,0.0,12.65,0.0,0,0,0,0.125,12.700000000000001,0.0,0,0,0,kReverse,kOff,-87.22,2.07,2.67,0.03942871,-0.98217773,0.033325195,35.13,0.0,4.0,-8.144165,11.853043,
806.759371,true,true,true,0.125,12.65,0.0,-34449,0,0,0.125,12.65,0.0,0,0,0,0.25,12.6,0.0,2780,0,0,0.125,12.65,0.0,0,0,0,0.125,12.65,0.0,4,0,0,0.0,12.65,0.0,0,0,0,0.125,12.700000000000001,0.0,0,0,0,kReverse,kOff,-87.22,2.07,2.67,0.034606934,-0.9819336,0.02709961,35.13,0.0,-2.0,-8.144165,11.853043,
806.7807419999999,true,true,true,0.125,12.65,0.0,-34449,0,0,0.125,12.65,0.0,0,0,0,0.25,12.6,0.0,2780,0,0,0.125,12.65,0.0,0,0,0,0.125,12.65,0.0,4,0,0,0.0,12.65,0.0,0,0,0,0.125,12.700000000000001,0.0,0,0,0,kReverse,kOff,-87.21,2.07,2.67,0.035888672,-0.9846802,0.024780273,35.13,0.0,-2.0,-8.144165,11.853043,
806.801056,true,true,true,0.125,12.65,0.0,-34449,0,0,0.125,12.65,0.0,0,0,0,0.25,12.6,0.0,2780,0,0,0.125,12.65,0.0,0,0,0,0.125,12.65,0.0,4,0,0,0.0,12.65,0.0,0,0,0,0.125,12.700000000000001,0.0,0,0,0,kReverse,kOff,-87.22,2.07,2.67,0.036132812,-0.9798584,0.03503418,35.13,0.0,1.0,-8.144165,11.853043,
806.8226629999999,true,true,true,0.125,12.65,0.0,-34449,0,0,0.125,12.65,0.0,0,0,0,0.25,12.6,0.0,2780,0,0,0.125,12.65,0.0,0,0,0,0.125,12.65,0.0,4,0,0,0.0,12.65,0.0,0,0,0,0.125,12.700000000000001,0.0,0,0,0,kReverse,kOff,-87.22,2.07,2.67,0.036376953,-0.98150635,0.03302002,35.13,0.0,1.0,-8.144165,11.853043,
806.8435910000001,true,true,true,0.125,12.65,0.0,-34449,0,0,0.125,12.65,0.0,0,0,0,0.25,12.6,0.0,2780,0,0,0.125,12.65,0.0,0,0,0,0.125,12.65,0.0,4,0,0,0.0,12.65,0.0,0,0,0,0.125,12.700000000000001,0.0,0,0,0,kReverse,kOff,-87.22,2.07,2.67,0.035217285,-0.98150635,0.033081055,35.13,0.0,0.0,-8.144165,11.853043,
806.864825,true,true,true,0.125,12.65,0.0,-34449,0,0,0.125,12.65,0.0,0,0,0,0.25,12.6,0.0,2780,0,0,0.125,12.65,0.0,0,0,0,0.125,12.65,0.0,4,0,0,0.0,12.65,0.0,0,0,0,0.125,12.700000000000001,0.0,0,0,0,kReverse,kOff,-87.22,2.06,2.66,0.034973145,-0.9833374,0.032958984,35.13,0.0,0.0,-8.144165,11.853043,
806.899587,true,true,true,0.125,12.65,0.0,-34449,0,0,0.125,12.65,0.0,0,0,0,0.25,12.65,0.0,2780,0,0,0.125,12.65,0.0,0,0,0,0.125,12.65,0.0,4,0,0,0.0,12.65,0.0,0,0,0,0.125,12.700000000000001,0.0,0,0,0,kReverse,kOff,-87.22,2.06,2.66,0.033203125,-0.98095703,0.034729004,35.13,0.0,-1.0,-8.144165,11.853043,
806.929994,true,true,true,0.125,12.65,0.0,-34449,0,0,0.125,12.65,0.0,0,0,0,0.25,12.65,0.0,2780,0,0,0.125,12.65,0.0,0,0,0,0.125,12.65,0.0,4,0,0,0.0,12.65,0.0,0,0,0,0.125,12.700000000000001,0.0,0,0,0,kReverse,kOff,-87.22,2.06,2.66,0.035217285,-0.98461914,0.030883789,35.13,0.0,0.0,-8.144165,11.853043,
806.9513589999999,true,true,true,0.125,12.65,0.0,-34449,0,0,0.125,12.65,0.0,0,0,0,0.25,12.65,0.0,2780,0,0,0.125,12.65,0.0,0,0,0,0.125,12.65,0.0,4,0,0,0.0,12.65,0.0,0,0,0,0.125,12.700000000000001,0.0,0,0,0,kReverse,kOff,-87.22,2.06,2.66,0.035949707,-0.98339844,0.030212402,35.13,0.0,0.0,-8.144165,11.853043,
806.9733279999999,true,true,true,0.125,12.65,0.0,-34449,0,0,0.125,12.65,0.0,0,0,0,0.25,12.65,0.0,2780,0,0,0.125,12.65,0.0,0,0,0,0.125,12.65,0.0,4,0,0,0.0,12.65,0.0,0,0,0,0.125,12.700000000000001,0.0,0,0,0,kReverse,kOff,-87.22,2.06,2.66,0.037475586,-0.9837036,0.02947998,35.13,0.0,1.0,-8.144165,11.853043,
806.995681,true,true,true,0.125,12.65,0.0,-34449,0,0,0.125,12.65,0.0,0,0,0,0.25,12.65,0.0,2780,0,0,0.125,12.65,0.0,0,0,0,0.125,12.65,0.0,4,0,0,0.0,12.65,0.0,0,0,0,0.125,12.700000000000001,0.0,0,0,0,kReverse,kOff,-87.21,2.07,2.67,0.0390625,-0.98010254,0.030578613,35.13,0.0,3.0,-8.144165,11.853043,
807.0196609999999,true,true,true,0.125,12.65,0.0,-34449,0,0,0.125,12.65,0.0,0,0,0,0.25,12.65,0.0,2780,0,0,0.125,12.65,0.0,0,0,0,0.125,12.65,0.0,4,0,0,0.0,12.65,0.0,0,0,0,0.125,12.700000000000001,0.0,0,0,0,kReverse,kOff,-87.21,2.07,2.67,0.036621094,-0.98339844,0.032104492,35.13,0.0,1.0,-8.144165,11.853043,
807.040723,true,true,true,0.125,12.65,0.0,-34449,0,0,0.125,12.65,0.0,0,0,0,0.25,12.65,0.0,2780,0,0,0.125,12.65,0.0,0,0,0,0.125,12.65,0.0,4,0,0,0.0,12.65,0.0,0,0,0,0.125,12.700000000000001,0.0,0,0,0,kReverse,kOff,-87.21,2.07,2.67,0.03338623,-0.98583984,0.03137207,35.13,0.0,-2.0,-8.144165,11.853043,
807.060726,true,true,true,0.125,12.65,0.0,-34449,0,0,0.125,12.65,0.0,0,0,0,0.25,12.6,0.0,2780,0,0,0.125,12.65,0.0,0,0,0,0.125,12.6,0.0,4,0,0,0.0,12.65,0.0,0,0,0,0.125,12.700000000000001,0.0,0,0,0,kReverse,kOff,-87.21,2.07,2.67,0.035217285,-0.98321533,0.028808594,35.13,0.0,-6.0,-8.144165,11.853043,
807.081524,true,true,true,0.125,12.65,0.0,-34449,0,0,0.125,12.65,0.0,0,0,0,0.25,12.6,0.0,2780,0,0,0.125,12.65,0.0,0,0,0,0.125,12.6,0.0,4,0,0,0.0,12.65,0.0,0,0,0,0.125,12.700000000000001,0.0,0,0,0,kReverse,kOff,-87.22,2.06,2.66,0.033081055,-0.98480225,0.031555176,35.13,0.0,-2.0,-8.144165,11.853043,
807.101309,true,true,true,0.125,12.65,0.0,-34449,0,0,0.125,12.65,0.0,0,0,0,0.25,12.6,0.0,2780,0,0,0.125,12.65,0.0,0,0,0,0.125,12.6,0.0,4,0,0,0.0,12.65,0.0,0,0,0,0.125,12.700000000000001,0.0,0,0,0,kReverse,kOff,-87.22,2.06,2.66,0.034973145,-0.984375,0.03186035,35.13,0.0,0.0,-8.144165,11.853043,
807.1220500000001,true,true,true,0.125,12.65,0.0,-34449,0,0,0.125,12.65,0.0,0,0,0,0.25,12.6,0.0,2780,0,0,0.125,12.65,0.0,0,0,0,0.125,12.6,0.0,4,0,0,0.0,12.65,0.0,0,0,0,0.125,12.700000000000001,0.0,0,0,0,kReverse,kOff,-87.22,2.06,2.66,0.035339355,-0.9821167,0.028442383,35.13,0.0,-1.0,-8.144165,11.853043,
807.143168,true,true,true,0.125,12.65,0.0,-34449,0,0,0.125,12.65,0.0,0,0,0,0.25,12.6,0.0,2780,0,0,0.125,12.65,0.0,0,0,0,0.125,12.6,0.0,4,0,0,0.0,12.65,0.0,0,0,0,0.125,12.700000000000001,0.0,0,0,0,kReverse,kOff,-87.22,2.06,2.66,0.03515625,-0.98358154,0.03112793,35.13,0.0,0.0,-8.144165,11.853043,
807.168373,true,true,true,0.125,12.65,0.0,-34449,0,0,0.125,12.65,0.0,0,0,0,0.25,12.6,0.0,2780,0,0,0.125,12.65,0.0,0,0,0,0.125,12.6,0.0,4,0,0,0.0,12.65,0.0,0,0,0,0.125,12.700000000000001,0.0,0,0,0,kReverse,kOff,-87.22,2.06,2.66,0.03643799,-0.9871216,0.02923584,35.13,0.0,0.0,-8.144165,11.853043,
807.1885990000001,true,true,true,0.125,12.65,0.0,-34449,0,0,0.125,12.65,0.0,0,0,0,0.25,12.6,0.0,2780,0,0,0.125,12.65,0.0,0,0,0,0.125,12.6,0.0,4,0,0,0.0,12.65,0.0,0,0,0,0.125,12.700000000000001,0.0,0,0,0,kReverse,kOff,-87.23,2.06,2.66,0.032165527,-0.98236084,0.030517578,35.14,0.0,-3.0,-8.144165,11.853043,
807.212353,true,true,true,0.125,12.65,0.0,-34449,0,0,0.125,12.65,0.0,0,0,0,0.25,12.65,0.0,2780,0,0,0.125,12.65,0.0,0,0,0,0.0,12.65,0.0,4,0,0,0.0,12.65,0.0,0,0,0,0.125,12.700000000000001,0.0,0,0,0,kReverse,kOff,-87.22,2.06,2.66,0.039489746,-0.9829712,0.032226562,35.14,0.0,3.0,-8.144165,11.853043,
807.2321089999999,true,true,true,0.125,12.65,0.0,-34449,0,0,0.125,12.65,0.0,0,0,0,0.25,12.65,0.0,2780,0,0,0.125,12.65,0.0,0,0,0,0.0,12.65,0.0,4,0,0,0.0,12.65,0.0,0,0,0,0.125,12.700000000000001,0.0,0,0,0,kReverse,kOff,-87.22,2.06,2.66,0.040100098,-0.9807129,0.028564453,35.14,0.0,3.0,-8.144165,11.853043,
807.2539129999999,true,true,true,0.125,12.65,0.0,-34449,0,0,0.125,12.65,0.0,0,0,0,0.25,12.65,0.0,2780,0,0,0.125,12.65,0.0,0,0,0,0.0,12.65,0.0,4,0,0,0.0,12.65,0.0,0,0,0,0.125,12.700000000000001,0.0,0,0,0,kReverse,kOff,-87.22,2.06,2.66,0.038757324,-0.9834595,0.03314209,35.14,0.0,3.0,-8.144165,11.853043,
807.274341,true,true,true,0.125,12.65,0.0,-34449,0,0,0.125,12.65,0.0,0,0,0,0.25,12.65,0.0,2780,0,0,0.125,12.65,0.0,0,0,0,0.125,12.65,0.0,4,0,0,0.0,12.65,0.0,0,0,0,0.125,12.700000000000001,0.0,0,0,0,kReverse,kOff,-87.23,2.06,2.66,0.03326416,-0.9840088,0.033813477,35.14,0.0,-1.0,-8.144165,11.853043,
807.2981219999999,true,true,true,0.125,12.65,0.0,-34449,0,0,0.125,12.65,0.0,0,0,0,0.25,12.65,0.0,2780,0,0,0.125,12.65,0.0,0,0,0,0.125,12.65,0.0,4,0,0,0.0,12.65,0.0,0,0,0,0.125,12.700000000000001,0.0,0,0,0,kReverse,kOff,-87.23,2.06,2.66,0.0368042,-0.98272705,0.029846191,35.14,0.0,0.0,-8.144165,11.853043,
