timer,lineLeft,lineCenter,lineRight,LeftFrontCurrent,LeftFrontVoltage,LeftFrontValue,LeftFrontPosition,LeftFrontVelocity,LeftFrontFaults,LeftRearCurrent,LeftRearVoltage,LeftRearValue,LeftRearPosition,LeftRearVelocity,LeftRearFaults,RightFrontCurrent,RightFrontVoltage,RightFrontValue,RightFrontPosition,RightFrontVelocity,RightFrontFaults,RightRearCurrent,RightRearVoltage,RightRearValue,RightRearPosition,RightRearVelocity,RightRearFaults,LiftCurrent,LiftVoltage,LiftValue,LiftPosition,LiftVelocity,LiftFaults,WristCurrent,WristVoltage,WristValue,WristPosition,WristVelocity,WristFaults,RollerCurrent,RollerVoltage,RollerValue,RollerPosition,RollerVelocity,RollerFaults,PushersState,PivotsState,navx_Pitch,navx_Roll,navx_Yaw,navx_XAcc,navx_YAcc,navx_ZAcc,navx_Temp,navx_Bar,navx_Alt,navx_XDis,navx_YDis,
619.085998,true,true,true,0.125,12.65,0.0,1128,0,0,0.125,12.65,0.0,0,0,0,0.125,12.65,0.0,0,0,0,0.125,12.65,0.0,0,0,0,0.125,12.65,0.0,4,0,0,0.0,12.65,0.0,0,0,0,0.125,12.700000000000001,0.0,0,0,0,kReverse,kOff,-87.2,2.06,2.65,0.036499023,-0.9804077,0.031555176,34.96,0.0,0.0,-8.089554,11.890961,
619.118154,true,true,true,0.125,12.65,0.0,1128,0,0,0.125,12.65,0.0,0,0,0,0.125,12.65,0.0,0,0,0,0.125,12.65,0.0,0,0,0,0.125,12.65,0.0,4,0,0,0.0,12.65,0.0,0,0,0,0.125,12.700000000000001,0.0,0,0,0,kReverse,kOff,-87.2,2.06,2.65,0.037902832,-0.9840698,0.03289795,34.96,0.0,2.0,-8.089554,11.890961,
619.144941,true,true,true,0.125,12.65,0.0,1128,0,0,0.125,12.65,0.0,0,0,0,0.125,12.65,0.0,0,0,0,0.125,12.65,0.0,0,0,0,0.125,12.65,0.0,4,0,0,0.0,12.65,0.0,0,0,0,0.125,12.700000000000001,0.0,0,0,0,kReverse,kOff,-87.2,2.06,2.65,0.036010742,-0.9824829,0.031799316,34.96,0.0,0.0,-8.089554,11.890961,
619.164986,true,true,true,0.125,12.65,0.0,1128,0,0,0.125,12.65,0.0,0,0,0,0.125,12.65,0.0,0,0,0,0.125,12.65,0.0,0,0,0,0.125,12.65,0.0,4,0,0,0.0,12.65,0.0,0,0,0,0.125,12.700000000000001,0.0,0,0,0,kReverse,kOff,-87.2,2.06,2.65,0.03930664,-0.9846802,0.0345459,34.96,0.0,4.0,-8.089554,11.890961,
619.188036,true,true,true,0.125,12.65,0.0,1128,0,0,0.125,12.65,0.0,0,0,0,0.125,12.65,0.0,0,0,0,0.125,12.65,0.0,0,0,0,0.125,12.65,0.0,4,0,0,0.0,12.65,0.0,0,0,0,0.125,12.700000000000001,0.0,0,0,0,kReverse,kOff,-87.2,2.06,2.64,0.036865234,-0.98376465,0.035217285,34.96,0.0,2.0,-8.089554,11.890961,
619.209492,true,true,true,0.125,12.65,0.0,1128,0,0,0.125,12.65,0.0,0,0,0,0.125,12.65,0.0,0,0,0,0.125,12.65,0.0,0,0,0,0.125,12.65,0.0,4,0,0,0.0,12.65,0.0,0,0,0,0.125,12.700000000000001,0.0,0,0,0,kReverse,kOff,-87.2,2.06,2.64,0.03656006,-0.98413086,0.028930664,34.96,0.0,0.0,-8.089554,11.890961,
619.233728,true,true,true,0.125,12.65,0.0,1128,0,0,0.125,12.65,0.0,0,0,0,0.125,12.65,0.0,0,0,0,0.125,12.65,0.0,0,0,0,0.125,12.65,0.0,4,0,0,0.0,12.65,0.0,0,0,0,0.125,12.700000000000001,0.0,0,0,0,kReverse,kOff,-87.2,2.06,2.64,0.03552246,-0.9807129,0.036376953,34.96,0.0,1.0,-8.089554,11.890961,
619.2578809999999,true,true,true,0.125,12.65,0.0,1128,0,0,0.125,12.65,0.0,0,0,0,0.125,12.65,0.0,0,0,0,0.125,12.65,0.0,0,0,0,0.125,12.65,0.0,4,0,0,0.0,12.65,0.0,0,0,0,0.125,12.700000000000001,0.0,0,0,0,kReverse,kOff,-87.2,2.06,2.64,0.034179688,-0.9822998,0.03668213,34.96,0.0,0.0,-8.089554,11.890961,
619.27825,true,true,true,0.125,12.65,0.0,1128,0,0,0.125,12.65,0.0,0,0,0,0.125,12.65,0.0,0,0,0,0.125,12.65,0.0,0,0,0,0.125,12.65,0.0,4,0,0,0.0,12.65,0.0,0,0,0,0.125,12.700000000000001,0.0,0,0,0,kReverse,kOff,-87.2,2.06,2.64,0.0357666,-0.98132324,0.029785156,34.96,0.0,0.0,-8.089554,11.890961,
619.300238,true,true,true,0.125,12.65,0.0,1128,0,0,0.125,12.65,0.0,0,0,0,0.125,12.65,0.0,0,0,0,0.125,12.65,0.0,0,0,0,0.125,12.65,0.0,4,0,0,0.0,12.65,0.0,0,0,0,0.125,12.700000000000001,0.0,0,0,0,kReverse,kOff,-87.2,2.06,2.64,0.0368042,-0.98394775,0.033691406,34.96,0.0,1.0,-8.089554,11.890961,
619.3242389999999,true,true,true,0.125,12.65,0.0,1128,0,0,0.125,12.65,0.0,0,0,0,0.125,12.65,0.0,0,0,0,0.125,12.65,0.0,0,0,0,0.125,12.65,0.0,4,0,0,0.0,12.65,0.0,0,0,0,0.125,12.700000000000001,0.0,0,0,0,kReverse,kOff,-87.2,2.06,2.64,0.03717041,-0.9834595,0.03289795,34.96,0.0,1.0,-8.089554,11.890961,
619.344703,true,true,true,0.125,12.65,0.0,1128,0,0,0.125,12.65,0.0,0,0,0,0.125,12.65,0.0,0,0,0,0.125,12.65,0.0,0,0,0,0.125,12.65,0.0,4,0,0,0.0,12.65,0.0,0,0,0,0.125,12.700000000000001,0.0,0,0,0,kReverse,kOff,-87.2,2.06,2.64,0.036376953,-0.9805908,0.034301758,34.96,0.0,1.0,-8.089554,11.890961,
619.367613,true,true,true,0.125,12.65,0.0,1128,0,0,0.125,12.65,0.0,0,0,0,0.125,12.65,0.0,0,0,0,0.125,12.65,0.0,0,0,0,0.125,12.65,0.0,4,0,0,0.0,12.65,0.0,0,0,0,0.125,12.700000000000001,0.0,0,0,0,kReverse,kOff,-87.2,2.06,2.64,0.038757324,-0.98339844,0.032287598,34.96,0.0,3.0,-8.089554,11.890961,
619.391062,true,true,true,0.125,12.65,0.0,1128,0,0,0.125,12.65,0.0,0,0,0,0.125,12.65,0.0,0,0,0,0.125,12.65,0.0,0,0,0,0.125,12.65,0.0,4,0,0,0.0,12.65,0.0,0,0,0,0.125,12.700000000000001,0.0,0,0,0,kReverse,kOff,-87.2,2.06,2.64,0.036743164,-0.98309326,0.03387451,34.96,0.0,1.0,-8.089554,11.890961,
619.4143399999999,true,true,true,0.125,12.65,0.0,1128,0,0,0.125,12.65,0.0,0,0,0,0.125,12.65,0.0,0,0,0,0.125,12.65,0.0,0,0,0,0.125,12.65,0.0,4,0,0,0.0,12.65,0.0,0,0,0,0.125,12.700000000000001,0.0,0,0,0,kReverse,kOff,-87.2,2.06,2.64,0.035583496,-0.9840088,0.030334473,34.96,0.0,0.0,-8.089554,11.890961,
619.435164,true,true,true,0.125,12.65,0.0,1128,0,0,0.125,12.65,0.0,0,0,0,0.125,12.65,0.0,0,0,0,0.125,12.65,0.0,0,0,0,0.125,12.65,0.0,4,0,0,0.0,12.65,0.0,0,0,0,0.125,12.700000000000001,0.0,0,0,0,kReverse,kOff,-87.2,2.06,2.64,0.03515625,-0.98516846,0.03857422,34.96,0.0,1.0,-8.089554,11.890961,
619.457621,true,true,true,0.125,12.65,0.0,1128,0,0,0.125,12.65,0.0,0,0,0,0.125,12.65,0.0,0,0,0,0.125,12.65,0.0,0,0,0,0.125,12.65,0.0,4,0,0,0.0,12.65,0.0,0,0,0,0.125,12.700000000000001,0.0,0,0,0,kReverse,kOff,-87.2,2.06,2.64,0.03564453,-0.98358154,0.032714844,34.94,0.0,0.0,-8.089554,11.890961,
619.481144,true,true,true,0.125,12.65,0.0,1128,0,0,0.125,12.65,0.0,0,0,0,0.125,12.65,0.0,0,0,0,0.125,12.65,0.0,0,0,0,0.125,12.65,0.0,4,0,0,0.0,12.65,0.0,0,0,0,0.125,12.700000000000001,0.0,0,0,0,kReverse,kOff,-87.2,2.06,2.64,0.033447266,-0.9845581,0.0357666,34.94,0.0,0.0,-8.089554,11.890961,
619.5020489999999,true,true,true,0.125,12.65,0.0,1128,0,0,0.125,12.65,0.0,0,0,0,0.125,12.65,0.0,0,0,0,0.125,12.65,0.0,0,0,0,0.125,12.65,0.0,4,0,0,0.0,12.65,0.0,0,0,0,0.125,12.700000000000001,0.0,0,0,0,kReverse,kOff,-87.2,2.06,2.64,0.035827637,-0.9819946,0.030944824,34.94,0.0,0.0,-8.089554,11.890961,
619.523496,true,true,true,0.125,12.65,0.0,1128,0,0,0.125,12.65,0.0,0,0,0,0.125,12.65,0.0,0,0,0,0.125,12.65,0.0,0,0,0,0.0,12.65,0.0,4,0,0,0.0,12.65,0.0,0,0,0,0.125,12.700000000000001,0.0,0,0,0,kReverse,kOff,-87.2,2.06,2.64,0.035949707,-0.98272705,0.030456543,34.94,0.0,0.0,-8.089554,11.890961,
619.5459159999999,true,true,true,0.125,12.65,0.0,1128,0,0,0.125,12.65,0.0,0,0,0,0.125,12.65,0.0,0,0,0,0.125,12.65,0.0,0,0,0,0.0,12.65,0.0,4,0,0,0.0,12.65,0.0,0,0,0,0.125,12.700000000000001,0.0,0,0,0,kReverse,kOff,-87.2,2.06,2.65,0.036193848,-0.9824219,0.030029297,34.94,0.0,0.0,-8.089554,11.890961,
619.566486,true,true,true,0.125,12.65,0.0,1128,0,0,0.125,12.65,0.0,0,0,0,0.125,12.65,0.0,0,0,0,0.125,12.65,0.0,0,0,0,0.125,12.65,0.0,4,0,0,0.0,12.65,0.0,0,0,0,0.125,12.700000000000001,0.0,0,0,0,kReverse,kOff,-87.2,2.06,2.64,0.03692627,-0.98272705,0.030822754,34.94,0.0,1.0,-8.089554,11.890961,
619.586768,true,true,true,0.125,12.65,0.0,1128,0,0,0.125,12.65,0.0,0,0,0,0.125,12.65,0.0,0,0,0,0.125,12.65,0.0,0,0,0,0.0,12.65,0.0,4,0,0,0.0,12.65,0.0,0,0,0,0.125,12.700000000000001,0.0,0,0,0,kReverse,kOff,-87.2,2.06,2.64,0.03729248,-0.9851074,0.03668213,34.94,0.0,2.0,-8.089554,11.890961,
619.607736,true,true,true,0.125,12.65,0.0,1128,0,0,0.125,12.65,0.0,0,0,0,0.125,12.65,0.0,0,0,0,0.125,12.65,0.0,0,0,0,0.0,12.65,0.0,4,0,0,0.0,12.65,0.0,0,0,0,0.125,12.700000000000001,0.0,0,0,0,kReverse,kOff,-87.2,2.06,2.65,0.035461426,-0.9848633,0.026428223,34.94,0.0,-1.0,-8.089554,11.890961,
619.6288989999999,true,true,true,0.125,12.65,0.0,1128,0,0,0.125,12.65,0.0,0,0,0,0.125,12.65,0.0,0,0,0,0.125,12.65,0.0,0,0,0,0.0,12.65,0.0,4,0,0,0.0,12.65,0.0,0,0,0,0.125,12.700000000000001,0.0,0,0,0,kReverse,kOff,-87.2,2.06,2.65,0.036132812,-0.98431396,0.03527832,34.94,0.0,1.0,-8.089554,11.890961,
619.655035,true,true,true,0.125,12.65,0.0,1128,0,0,0.125,12.65,0.0,0,0,0,0.125,12.65,0.0,0,0,0,0.125,12.65,0.0,0,0,0,0.125,12.65,0.0,4,0,0,0.0,12.65,0.0,0,0,0,0.125,12.700000000000001,0.0,0,0,0,kReverse,kOff,-87.2,2.06,2.64,0.03326416,-0.9842529,0.03314209,34.94,0.0,-1.0,-8.089554,11.890961,
619.679296,true,true,true,0.125,12.65,0.0,1128,0,0,0.125,12.65,0.0,0,0,0,0.125,12.65,0.0,0,0,0,0.125,12.65,0.0,0,0,0,0.125,12.65,0.0,4,0,0,0.0,12.65,0.0,0,0,0,0.125,12.700000000000001,0.0,0,0,0,kReverse,kOff,-87.2,2.06,2.64,0.037475586,-0.98516846,0.030212402,34.94,0.0,1.0,-8.089554,11.890961,
619.7030189999999,true,true,true,0.125,12.65,0.0,1128,0,0,0.125,12.65,0.0,0,0,0,0.125,12.65,0.0,0,0,0,0.125,12.65,0.0,0,0,0,0.125,12.65,0.0,4,0,0,0.0,12.65,0.0,0,0,0,0.125,12.700000000000001,0.0,0,0,0,kReverse,kOff,-87.2,2.06,2.64,0.03704834,-0.9846802,0.031433105,34.94,0.0,1.0,-8.089554,11.890961,
619.7228739999999,true,true,true,0.125,12.65,0.0,1128,0,0,0.125,12.65,0.0,0,0,0,0.125,12.65,0.0,0,0,0,0.125,12.65,0.0,0,0,0,0.125,12.65,0.0,4,0,0,0.0,12.65,0.0,0,0,0,0.125,12.700000000000001,0.0,0,0,0,kReverse,kOff,-87.2,2.06,2.64,0.034301758,-0.98187256,0.029724121,34.94,0.0,-1.0,-8.089554,11.890961,
619.7417929999999,true,true,true,0.125,12.65,0.0,1128,0,0,0.125,12.65,0.0,0,0,0,0.125,12.65,0.0,0,0,0,0.125,12.65,0.0,0,0,0,0.125,12.65,0.0,4,0,0,0.0,12.65,0.0,0,0,0,0.125,12.700000000000001,0.0,0,0,0,kReverse,kOff,-87.2,2.06,2.64,0.034301758,-0.98187256,0.029724121,34.94,0.0,-1.0,-8.089554,11.890961,
619.761544,true,true,true,0.125,12.65,0.0,1128,0,0,0.125,12.65,0.0,0,0,0,0.125,12.65,0.0,0,0,0,0.125,12.65,0.0,0,0,0,0.125,12.65,0.0,4,0,0,0.0,12.65,0.0,0,0,0,0.125,12.700000000000001,0.0,0,0,0,kReverse,kOff,-87.2,2.06,2.64,0.04046631,-0.98651123,0.033935547,34.94,0.0,5.0,-8.089554,11.890961,
619.782256,true,true,true,0.125,12.65,0.0,1128,0,0,0.125,12.65,0.0,0,0,0,0.125,12.65,0.0,0,0,0,0.125,12.65,0.0,0,0,0,0.125,12.65,0.0,4,0,0,0.0,12.65,0.0,0,0,0,0.125,12.700000000000001,0.0,0,0,0,kReverse,kOff,-87.2,2.06,2.64,0.03491211,-0.98461914,0.035095215,34.94,0.0,0.0,-8.089554,11.890961,
619.801931,true,true,true,0.125,12.65,0.0,1128,0,0,0.125,12.65,0.0,0,0,0,0.125,12.65,0.0,0,0,0,0.125,12.65,0.0,0,0,0,0.125,12.65,0.0,4,0,0,0.0,12.65,0.0,0,0,0,0.125,12.700000000000001,0.0,0,0,0,kReverse,kOff,-87.2,2.06,2.64,0.035949707,-0.9807129,0.03363037,34.94,0.0,0.0,-8.089554,11.890961,
619.822244,true,true,true,0.125,12.65,0.0,1128,0,0,0.125,12.65,0.0,0,0,0,0.125,12.65,0.0,0,0,0,0.125,12.65,0.0,0,0,0,0.125,12.65,0.0,4,0,0,0.0,12.65,0.0,0,0,0,0.125,12.700000000000001,0.0,0,0,0,kReverse,kOff,-87.19,2.06,2.65,0.034973145,-0.98223877,0.03100586,34.94,0.0,0.0,-8.089554,11.890961,
619.842319,true,true,true,0.125,12.65,0.0,1128,0,0,0.125,12.65,0.0,0,0,0,0.125,12.65,0.0,0,0,0,0.125,12.65,0.0,0,0,0,0.125,12.65,0.0,4,0,0,0.0,12.65,0.0,0,0,0,0.125,12.700000000000001,0.0,0,0,0,kReverse,kOff,-87.19,2.06,2.65,0.039001465,-0.9838867,0.030273438,34.94,0.0,2.0,-8.089554,11.890961,
619.863024,true,true,true,0.125,12.65,0.0,1128,0,0,0.125,12.65,0.0,0,0,0,0.125,12.65,0.0,0,0,0,0.125,12.65,0.0,0,0,0,0.125,12.65,0.0,4,0,0,0.0,12.65,0.0,0,0,0,0.125,12.700000000000001,0.0,0,0,0,kReverse,kOff,-87.19,2.06,2.65,0.034606934,-0.9840698,0.034179688,34.94,0.0,0.0,-8.089554,11.890961,
619.885326,true,true,true,0.125,12.65,0.0,1128,0,0,0.125,12.65,0.0,0,0,0,0.125,12.65,0.0,0,0,0,0.125,12.65,0.0,0,0,0,0.125,12.65,0.0,4,0,0,0.0,12.65,0.0,0,0,0,0.125,12.700000000000001,0.0,0,0,0,kReverse,kOff,-87.19,2.06,2.65,0.035583496,-0.9812622,0.030395508,34.94,0.0,0.0,-8.089554,11.890961,
619.90456,true,true,true,0.125,12.65,0.0,1128,0,0,0.125,12.65,0.0,0,0,0,0.125,12.65,0.0,0,0,0,0.125,12.65,0.0,0,0,0,0.125,12.65,0.0,4,0,0,0.0,12.65,0.0,0,0,0,0.125,12.700000000000001,0.0,0,0,0,kReverse,kOff,-87.19,2.06,2.65,0.03540039,-0.9814453,0.035827637,34.94,0.0,0.0,-8.089554,11.890961,
619.925808,true,true,true,0.125,12.65,0.0,1128,0,0,0.125,12.65,0.0,0,0,0,0.125,12.65,0.0,0,0,0,0.125,12.65,0.0,0,0,0,0.125,12.65,0.0,4,0,0,0.0,12.65,0.0,0,0,0,0.125,12.700000000000001,0.0,0,0,0,kReverse,kOff,-87.19,2.06,2.65,0.03375244,-0.9827881,0.035339355,34.94,0.0,0.0,-8.089554,11.890961,
619.947641,true,true,true,0.125,12.65,0.0,1128,0,0,0.125,12.65,0.0,0,0,0,0.125,12.65,0.0,0,0,0,0.125,12.65,0.0,0,0,0,0.125,12.65,0.0,4,0,0,0.0,12.65,0.0,0,0,0,0.125,12.700000000000001,0.0,0,0,0,kReverse,kOff,-87.19,2.06,2.65,0.034057617,-0.98687744,0.036376953,34.94,0.0,0.0,-8.089554,11.890961,
619.970707,true,true,true,0.125,12.65,0.0,1128,0,0,0.125,12.65,0.0,0,0,0,0.125,12.65,0.0,0,0,0,0.125,12.65,0.0,0,0,0,0.125,12.65,0.0,4,0,0,0.0,12.65,0.0,0,0,0,0.125,12.700000000000001,0.0,0,0,0,kReverse,kOff,-87.19,2.06,2.65,0.036621094,-0.9840698,0.032592773,34.96,0.0,1.0,-8.089554,11.890961,
619.994296,true,true,true,0.125,12.65,0.0,1128,0,0,0.125,12.65,0.0,0,0,0,0.125,12.65,0.0,0,0,0,0.125,12.65,0.0,0,0,0,0.125,12.65,0.0,4,0,0,0.0,12.65,0.0,0,0,0,0.125,12.700000000000001,0.0,0,0,0,kReverse,kOff,-87.19,2.06,2.65,0.037475586,-0.9822998,0.03125,34.96,0.0,1.0,-8.089554,11.890961,
620.021392,true,true,true,0.125,12.65,0.0,1128,0,0,0.125,12.65,0.0,0,0,0,0.125,12.65,0.0,0,0,0,0.125,12.65,0.0,0,0,0,0.125,12.65,0.0,4,0,0,0.0,12.65,0.0,0,0,0,0.125,12.700000000000001,0.0,0,0,0,kReverse,kOff,-87.19,2.06,2.65,0.0357666,-0.98480225,0.034729004,34.96,0.0,0.0,-8.089554,11.890961,
620.0424059999999,true,true,true,0.125,12.65,0.0,1128,0,0,0.125,12.65,0.0,0,0,0,0.125,12.65,0.0,0,0,0,0.125,12.65,0.0,0,0,0,0.125,12.65,0.0,4,0,0,0.0,12.65,0.0,0,0,0,0.125,12.700000000000001,0.0,0,0,0,kReverse,kOff,-87.19,2.06,2.65,0.039245605,-0.98254395,0.030761719,34.96,0.0,3.0,-8.089554,11.890961,
620.063036,true,true,true,0.125,12.65,0.0,1128,0,0,0.125,12.65,0.0,0,0,0,0.125,12.65,0.0,0,0,0,0.125,12.65,0.0,0,0,0,0.125,12.65,0.0,4,0,0,0.0,12.65,0.0,0,0,0,0.125,12.700000000000001,0.0,0,0,0,kReverse,kOff,-87.19,2.06,2.65,0.039733887,-0.9835205,0.034484863,34.96,0.0,4.0,-8.089554,11.890961,
620.085648,true,true,true,0.125,12.65,0.0,1128,0,0,0.125,12.65,0.0,0,0,0,0.125,12.65,0.0,0,0,0,0.125,12.65,0.0,0,0,0,0.125,12.65,0.0,4,0,0,0.0,12.65,0.0,0,0,0,0.125,12.700000000000001,0.0,0,0,0,kReverse,kOff,-87.19,2.06,2.65,0.034179688,-0.9816284,0.032348633,34.96,0.0,-1.0,-8.089554,11.890961,
620.1099320000001,true,true,true,0.125,12.65,0.0,1128,0,0,0.125,12.65,0.0,0,0,0,0.125,12.65,0.0,0,0,0,0.125,12.65,0.0,0,0,0,0.125,12.65,0.0,4,0,0,0.0,12.65,0.0,0,0,0,0.125,12.700000000000001,0.0,0,0,0,kReverse,kOff,-87.19,2.06,2.65,0.035095215,-0.98443604,0.03338623,34.96,0.0,0.0,-8.089554,11.890961,
620.1310119999999,true,true,true,0.125,12.65,0.0,1128,0,0,0.125,12.65,0.0,0,0,0,0.125,12.65,0.0,0,0,0,0.125,12.65,0.0,0,0,0,0.125,12.65,0.0,4,0,0,0.0,12.65,0.0,0,0,0,0.125,12.700000000000001,0.0,0,0,0,kReverse,kOff,-87.19,2.06,2.65,0.036865234,-0.9838867,0.034423828,34.96,0.0,1.0,-8.089554,11.890961,
620.153051,true,true,true,0.125,12.65,0.0,1128,0,0,0.125,12.65,0.0,0,0,0,0.125,12.65,0.0,0,0,0,0.125,12.65,0.0,0,0,0,0.125,12.65,0.0,4,0,0,0.0,12.65,0.0,0,0,0,0.125,12.700000000000001,0.0,0,0,0,kReverse,kOff,-87.19,2.06,2.65,0.03564453,-0.982666,0.031982422,34.96,0.0,0.0,-8.089554,11.890961,
620.176235,true,true,true,0.125,12.65,0.0,1128,0,0,0.125,12.65,0.0,0,0,0,0.125,12.65,0.0,0,0,0,0.125,12.65,0.0,0,0,0,0.125,12.65,0.0,4,0,0,0.0,12.65,0.0,0,0,0,0.125,12.700000000000001,0.0,0,0,0,kReverse,kOff,-87.19,2.06,2.65,0.033813477,-0.9810791,0.036010742,34.96,0.0,0.0,-8.089554,11.890961,
620.199261,true,true,true,0.125,12.65,0.0,1128,0,0,0.125,12.65,0.0,0,0,0,0.125,12.65,0.0,0,0,0,0.125,12.65,0.0,0,0,0,0.125,12.65,0.0,4,0,0,0.0,12.65,0.0,0,0,0,0.125,12.700000000000001,0.0,0,0,0,kReverse,kOff,-87.19,2.06,2.65,0.034179688,-0.9834595,0.033325195,34.96,0.0,-1.0,-8.089554,11.890961,
620.2169150000001,true,true,true,0.125,12.65,0.0,1128,0,0,0.125,12.65,0.0,0,0,0,0.125,12.65,0.0,0,0,0,0.125,12.65,0.0,0,0,0,0.125,12.65,0.0,4,0,0,0.0,12.65,0.0,0,0,0,0.125,12.700000000000001,0.0,0,0,0,kReverse,kOff,-87.19,2.06,2.65,0.039978027,-0.9857788,0.032714844,34.96,0.0,4.0,-8.089554,11.890961,
620.2403049999999,true,true,true,0.125,12.65,0.0,1128,0,0,0.125,12.65,0.0,0,0,0,0.125,12.65,0.0,0,0,0,0.125,12.65,0.0,0,0,0,0.125,12.65,0.0,4,0,0,0.0,12.65,0.0,0,0,0,0.125,12.700000000000001,0.0,0,0,0,kReverse,kOff,-87.19,2.06,2.65,0.035461426,-0.98657227,0.034423828,34.96,0.0,0.0,-8.089554,11.890961,
620.261285,true,true,true,0.125,12.65,0.0,1128,0,0,0.125,12.65,0.0,0,0,0,0.125,12.65,0.0,0,0,0,0.125,12.65,0.0,0,0,0,0.125,12.65,0.0,4,0,0,0.0,12.65,0.0,0,0,0,0.125,12.700000000000001,0.0,0,0,0,kReverse,kOff,-87.19,2.06,2.65,0.038085938,-0.9812012,0.03503418,34.96,0.0,3.0,-8.089554,11.890961,
620.281003,true,true,true,0.125,12.65,0.0,1128,0,0,0.125,12.65,0.0,0,0,0,0.125,12.65,0.0,0,0,0,0.125,12.65,0.0,0,0,0,0.125,12.65,0.0,4,0,0,0.0,12.65,0.0,0,0,0,0.125,12.700000000000001,0.0,0,0,0,kReverse,kOff,-87.19,2.06,2.65,0.035095215,-0.98394775,0.031311035,34.96,0.0,0.0,-8.089554,11.890961,
620.302289,true,true,true,0.125,12.65,0.0,1128,0,0,0.125,12.65,0.0,0,0,0,0.125,12.65,0.0,0,0,0,0.125,12.65,0.0,0,0,0,0.125,12.65,0.0,4,0,0,0.0,12.65,0.0,0,0,0,0.125,12.700000000000001,0.0,0,0,0,kReverse,kOff,-87.18,2.06,2.65,0.037353516,-0.9835205,0.03375244,34.96,0.0,2.0,-8.089554,11.890961,
620.3228469999999,true,true,true,0.125,12.65,0.0,1128,0,0,0.125,12.65,0.0,0,0,0,0.125,12.65,0.0,0,0,0,0.125,12.65,0.0,0,0,0,0.125,12.65,0.0,4,0,0,0.0,12.65,0.0,0,0,0,0.125,12.700000000000001,0.0,0,0,0,kReverse,kOff,-87.19,2.06,2.65,0.04046631,-0.98602295,0.03265381,34.96,0.0,1.0,-8.089554,11.890961,
620.357072,true,true,true,0.125,12.65,0.0,1128,0,0,0.125,12.65,0.0,0,0,0,0.125,12.65,0.0,0,0,0,0.125,12.65,0.0,0,0,0,0.125,12.65,0.0,4,0,0,0.0,12.65,0.0,0,0,0,0.125,12.700000000000001,0.0,0,0,0,kReverse,kOff,-87.18,2.06,2.65,0.034851074,-0.98168945,0.033081055,34.96,0.0,0.0,-8.089554,11.890961,
620.384714,true,true,true,0.125,12.65,0.0,1128,0,0,0.25,12.65,0.0,0,0,0,0.125,12.65,0.0,0,0,0,0.125,12.65,0.0,0,0,0,0.125,12.65,0.0,4,0,0,0.0,12.65,0.0,0,0,0,0.125,12.700000000000001,0.0,0,0,0,kReverse,kOff,-87.18,2.07,2.66,0.028381348,-0.994812,0.023986816,34.96,0.0,-10.0,-8.089554,11.890961,
620.405971,true,true,true,0.125,12.65,0.0,1128,0,0,0.625,12.65,0.0,0,0,0,0.125,12.65,0.0,0,0,0,0.125,12.65,0.0,0,0,0,0.125,12.65,0.0,4,0,0,0.0,12.65,0.0,0,0,0,0.125,12.700000000000001,0.0,0,0,0,kReverse,kOff,-87.18,2.07,2.66,0.03173828,-0.9715576,0.051452637,34.96,0.0,2.0,-8.089554,11.890961,
620.426103,true,true,true,0.125,12.65,0.0,1124,0,0,5.125,12.65,0.0,0,0,0,0.125,12.65,0.0,0,0,0,0.125,12.65,0.0,0,0,0,0.125,12.65,0.0,4,0,0,0.0,12.65,0.0,0,0,0,0.125,12.700000000000001,0.0,0,0,0,kReverse,kOff,-87.18,2.06,2.66,-0.01776123,-0.9107666,0.02178955,34.96,0.0,-50.0,-8.0896,11.890961,
620.454171,true,true,true,0.25,12.65,0.0,1081,-15,0,12.0,12.65,0.0,0,0,0,0.125,12.65,0.0,0,0,0,0.125,12.65,0.0,0,0,0,0.125,12.65,0.0,4,0,0,0.0,12.65,0.0,0,0,0,0.125,12.700000000000001,0.0,0,0,0,kReverse,kOff,-87.23,2.05,2.62,0.24798584,-0.9387207,0.23120117,34.96,0.0,263.0,-8.08931,11.891006,
620.476539,true,true,true,0.25,12.65,0.0,1044,-35,0,13.375,12.15,0.0,0,0,0,0.125,12.65,0.0,0,0,0,0.125,12.65,0.0,0,0,0,0.125,12.65,0.0,4,0,0,0.0,12.65,0.0,0,0,0,0.125,12.700000000000001,0.0,0,0,0,kReverse,kOff,-87.17,2.04,2.64,0.12835693,-1.170227,-0.25048828,34.96,0.0,-3.0,-8.08873,11.891144,
620.503963,true,true,true,0.25,12.25,0.0,998,-66,0,13.5,12.15,0.0,0,0,0,0.125,12.25,0.0,0,0,0,0.125,12.3,0.0,0,0,0,0.125,12.25,0.0,4,0,0,0.0,12.65,0.0,0,0,0,0.125,12.3,0.0,0,0,0,kReverse,kOff,-87.18,2.1,2.68,-0.020202637,-1.0609131,0.11065674,34.96,0.0,-34.0,-8.088089,11.890961,
620.524826,true,true,true,0.25,12.25,0.0,945,-105,0,13.5,12.15,0.0,0,0,0,0.125,12.25,0.0,0,0,0,0.125,12.3,0.0,0,0,0,0.125,12.25,0.0,4,0,0,0.0,12.25,0.0,0,0,0,0.125,12.3,0.0,0,0,0,kReverse,kOff,-87.15,2.1,2.69,0.019348145,-1.0091553,-0.1663208,34.96,0.0,-76.0,-8.08783,11.890884,
620.546614,true,true,true,0.25,12.25,0.0,885,-150,0,14.625,12.15,0.0,0,0,0,0.125,12.25,0.0,0,0,0,0.125,12.3,0.0,0,0,0,0.125,12.25,0.0,4,0,0,0.0,12.25,0.0,0,0,0,0.125,12.3,0.0,0,0,0,kReverse,kOff,-87.18,2.11,2.68,0.079833984,-0.8847046,-0.027404785,34.96,0.0,28.0,-8.087585,11.89064,
620.566915,true,true,true,0.25,12.25,0.0,817,-195,0,16.25,12.15,0.0,0,0,0,0.125,12.25,0.0,0,0,0,0.125,12.3,0.0,0,0,0,0.125,12.25,0.0,4,0,0,0.0,12.25,0.0,0,0,0,0.125,12.3,0.0,0,0,0,kReverse,kOff,-87.15,2.11,2.7,-0.026306152,-0.80358887,0.008300781,34.96,0.0,-58.0,-8.086945,11.890442,
620.588396,true,true,true,0.25,12.25,0.0,741,-238,0,20.25,12.15,0.0,0,0,0,0.125,12.25,0.0,0,0,0,0.125,12.3,0.0,0,0,0,0.125,12.25,0.0,4,0,0,0.0,12.25,0.0,0,0,0,0.125,12.3,0.0,0,0,0,kReverse,kOff,-87.16,2.12,2.7,0.013305664,-1.0367432,-0.11425781,34.96,0.0,-67.0,-8.0867,11.890335,
620.613294,true,true,true,0.125,12.25,0.0,559,-320,0,24.125,12.15,0.0,0,0,0,0.125,12.25,0.0,0,0,0,0.125,12.3,0.0,0,0,0,0.125,12.25,0.0,4,0,0,0.0,12.25,0.0,0,0,0,0.125,12.3,0.0,0,0,0,kReverse,kOff,-87.18,2.09,2.67,0.01373291,-0.94836426,0.054138184,34.96,0.0,-13.0,-8.086273,11.890152,
620.6382510000001,true,true,true,0.125,12.25,0.0,457,-361,0,22.125,11.850000000000001,0.0,0,0,0,0.125,12.25,0.0,0,0,0,0.125,12.3,0.0,0,0,0,0.125,12.25,0.0,4,0,0,0.0,12.25,0.0,0,0,0,0.125,12.3,0.0,0,0,0,kReverse,kOff,-87.22,2.04,2.62,0.06121826,-0.9369507,0.113098145,34.96,0.0,50.0,-8.085999,11.890091,
620.661292,true,true,true,0.125,12.05,0.0,350,-403,0,19.5,11.850000000000001,0.0,0,0,0,0.125,12.05,0.0,0,0,0,0.125,12.1,0.0,0,0,0,0.125,12.1,0.0,4,0,0,0.0,12.25,0.0,0,0,0,0.125,12.200000000000001,0.0,0,0,0,kReverse,kOff,-87.2,2.04,2.63,0.089660645,-0.90148926,0.12249756,34.96,0.0,82.0,-8.085785,11.8901825,
620.68121,true,true,true,0.125,12.05,0.0,239,-443,0,17.5,11.850000000000001,0.0,0,0,0,0.125,12.05,0.0,0,0,0,0.125,12.1,0.0,0,0,0,0.125,12.1,0.0,4,0,0,0.0,12.15,0.0,0,0,0,0.125,12.200000000000001,0.0,0,0,0,kReverse,kOff,-87.18,2.06,2.65,0.02947998,-0.89642334,-0.038085938,34.96,0.0,-22.0,-8.0855255,11.890274,
620.701337,true,true,true,0.125,12.05,0.0,124,-480,0,15.875,11.850000000000001,0.0,0,0,0,0.125,12.05,0.0,0,0,0,0.125,12.1,0.0,0,0,0,0.125,12.1,0.0,4,0,0,0.0,12.15,0.0,0,0,0,0.125,12.200000000000001,0.0,0,0,0,kReverse,kOff,-87.19,2.03,2.63,0.15600586,-1.0397339,0.05419922,34.96,0.0,119.0,-8.0850525,11.89061,
620.722272,true,true,true,0.125,12.05,0.0,7,-512,0,14.375,11.850000000000001,0.0,0,0,0,0.125,12.05,0.0,0,0,0,0.125,12.1,0.0,0,0,0,0.125,12.1,0.0,4,0,0,0.0,12.15,0.0,0,0,0,0.125,12.200000000000001,0.0,0,0,0,kReverse,kOff,-87.19,2.06,2.65,0.018676758,-0.93096924,-0.049072266,34.96,0.0,-37.0,-8.084732,11.890747,
620.74278,true,true,true,0.125,12.05,0.0,-112,-537,0,12.875,11.850000000000001,0.0,0,0,0,0.125,12.05,0.0,0,0,0,0.125,12.1,0.0,0,0,0,0.125,12.1,0.0,4,0,0,0.0,12.15,0.0,0,0,0,0.125,12.200000000000001,0.0,0,0,0,kReverse,kOff,-87.16,2.06,2.66,-0.014221191,-0.9154053,-0.013977051,34.96,0.0,-58.0,-8.083984,11.891464,
620.764569,true,true,true,0.125,12.05,0.0,-232,-557,0,11.875,11.850000000000001,0.0,0,0,0,0.125,12.05,0.0,0,0,0,0.125,12.1,0.0,0,0,0,0.0,12.1,0.0,4,0,0,0.0,12.15,0.0,0,0,0,0.125,12.200000000000001,0.0,0,0,0,kReverse,kOff,-87.2,2.04,2.63,-0.015258789,-0.97406006,-0.09173584,34.96,0.0,-84.0,-8.08371,11.891815,
620.789437,true,true,true,0.125,12.05,0.0,-476,-585,0,11.125,11.850000000000001,0.0,0,0,0,0.125,12.05,0.0,0,0,0,0.125,12.1,0.0,0,0,0,0.0,12.1,0.0,4,0,0,0.0,12.15,0.0,0,0,0,0.125,12.200000000000001,0.0,0,0,0,kReverse,kOff,-87.22,1.99,2.59,0.028808594,-0.9483032,0.0256958,34.96,0.0,-5.0,-8.083359,11.892395,
620.811941,true,true,true,0.125,12.25,0.0,-599,-594,0,10.5,12.200000000000001,0.0,0,0,0,0.125,12.25,0.0,0,0,0,0.125,12.3,0.0,0,0,0,0.0,12.3,0.0,4,0,0,0.0,12.15,0.0,0,0,0,0.125,12.200000000000001,0.0,0,0,0,kReverse,kOff,-87.21,2.01,2.61,0.061462402,-0.88494873,-0.03387451,34.96,0.0,10.0,-8.083206,11.892639,
620.835164,true,true,true,0.125,12.25,0.0,-723,-602,0,10.0,12.200000000000001,0.0,0,0,0,0.125,12.25,0.0,0,0,0,0.125,12.3,0.0,0,0,0,0.125,12.3,0.0,4,0,0,0.0,12.3,0.0,0,0,0,0.125,12.35,0.0,0,0,0,kReverse,kOff,-87.23,2.0,2.59,0.017456055,-1.0464478,0.11383057,34.96,0.0,5.0,-8.082977,11.892899,
620.855714,true,true,true,0.125,12.25,0.0,-848,-608,0,9.875,12.200000000000001,0.0,0,0,0,0.125,12.25,0.0,0,0,0,0.125,12.3,0.0,0,0,0,0.125,12.3,0.0,4,0,0,0.0,12.3,0.0,0,0,0,0.125,12.35,0.0,0,0,0,kReverse,kOff,-87.2,2.02,2.62,0.10644531,-0.83636475,0.053710938,34.96,0.0,80.0,-8.082825,11.893066,
620.876028,true,true,true,0.125,12.25,0.0,-972,-612,0,9.375,12.200000000000001,0.0,0,0,0,0.125,12.25,0.0,0,0,0,0.125,12.3,0.0,0,0,0,0.125,12.3,0.0,4,0,0,0.0,12.3,0.0,0,0,0,0.125,12.35,0.0,0,0,0,kReverse,kOff,-87.2,2.02,2.62,0.10644531,-0.83636475,0.053710938,34.96,0.0,80.0,-8.082825,11.893066,
620.8956929999999,true,true,true,0.125,12.25,0.0,-1097,-616,0,9.125,12.200000000000001,0.0,0,0,0,0.125,12.25,0.0,0,0,0,0.125,12.3,0.0,0,0,0,0.125,12.3,0.0,4,0,0,0.0,12.3,0.0,0,0,0,0.125,12.35,0.0,0,0,0,kReverse,kOff,-87.18,2.01,2.62,0.0045166016,-0.98669434,-0.14019775,34.96,0.0,-80.0,-8.08255,11.893341,
620.920336,true,true,true,0.125,12.25,0.0,-1223,-619,0,9.0,12.200000000000001,0.0,0,0,0,0.125,12.25,0.0,0,0,0,0.125,12.3,0.0,0,0,0,0.125,12.3,0.0,4,0,0,0.0,12.3,0.0,0,0,0,0.125,12.35,0.0,0,0,0,kReverse,kOff,-87.26,1.99,2.57,0.036071777,-1.1239014,0.10235596,34.96,0.0,16.0,-8.082443,11.893341,
620.94174,true,true,true,0.125,12.25,0.0,-1348,-622,0,9.0,12.200000000000001,0.0,0,0,0,0.125,12.25,0.0,0,0,0,0.125,12.3,0.0,0,0,0,0.125,12.3,0.0,4,0,0,0.0,12.3,0.0,0,0,0,0.125,12.35,0.0,0,0,0,kReverse,kOff,-87.23,1.98,2.58,-0.015136719,-1.0360107,0.029174805,34.96,0.0,-50.0,-8.082397,11.893417,
620.963315,true,true,true,0.125,12.25,0.0,-1473,-624,0,9.125,12.25,0.0,0,0,0,0.125,12.25,0.0,0,0,0,0.125,12.3,0.0,0,0,0,0.125,12.3,0.0,4,0,0,0.0,12.3,0.0,0,0,0,0.125,12.35,0.0,0,0,0,kReverse,kOff,-87.26,1.98,2.56,0.17828369,-1.0455933,0.13269043,34.96,0.0,164.0,-8.0820465,11.893631,
620.9843989999999,true,true,true,0.125,12.35,0.0,-1600,-625,0,8.875,12.25,0.0,0,0,0,0.125,12.35,0.0,0,0,0,0.125,12.35,0.0,0,0,0,0.125,12.35,0.0,4,0,0,0.0,12.3,0.0,0,0,0,0.125,12.4,0.0,0,0,0,kReverse,kOff,-87.22,2.01,2.6,-0.02178955,-0.97961426,0.03729248,34.95,0.0,-52.0,-8.081833,11.893707,
621.0057049999999,true,true,true,0.125,12.35,0.0,-1726,-626,0,9.0,12.25,0.0,0,0,0,0.125,12.35,0.0,0,0,0,0.125,12.35,0.0,0,0,0,0.125,12.35,0.0,4,0,0,0.0,12.35,0.0,0,0,0,0.125,12.4,0.0,0,0,0,kReverse,kOff,-87.24,2.02,2.6,0.0602417,-1.019104,0.10247803,34.95,0.0,43.0,-8.081451,11.893616,
621.027789,true,true,true,0.125,12.35,0.0,-1851,-627,0,8.75,12.25,0.0,0,0,0,0.125,12.35,0.0,0,0,0,0.125,12.35,0.0,0,0,0,0.125,12.35,0.0,4,0,0,0.0,12.35,0.0,0,0,0,0.125,12.4,0.0,0,0,0,kReverse,kOff,-87.18,2.04,2.64,0.041259766,-0.9772949,0.059265137,34.95,0.0,13.0,-8.081223,11.8936,
621.051756,true,true,true,0.125,12.35,0.0,-2104,-628,0,8.75,12.25,0.0,0,0,0,0.125,12.35,0.0,0,0,0,0.125,12.35,0.0,0,0,0,0.125,12.35,0.0,4,0,0,0.0,12.35,0.0,0,0,0,0.125,12.4,0.0,0,0,0,kReverse,kOff,-87.2,2.05,2.64,-0.0056152344,-0.99664307,-0.010314941,34.95,0.0,-52.0,-8.081009,11.89357,
621.074725,true,true,true,0.125,12.35,0.0,-2229,-629,0,9.0,12.25,0.0,0,0,0,0.125,12.35,0.0,0,0,0,0.125,12.35,0.0,0,0,0,0.125,12.35,0.0,4,0,0,0.0,12.35,0.0,0,0,0,0.125,12.4,0.0,0,0,0,kReverse,kOff,-87.22,2.02,2.61,0.019836426,-0.9761963,0.04498291,34.95,0.0,-10.0,-8.080673,11.8936615,
621.0961040000001,true,true,true,0.125,12.35,0.0,-2355,-629,0,9.0,12.25,0.0,0,0,0,0.125,12.35,0.0,0,0,0,0.125,12.35,0.0,0,0,0,0.125,12.35,0.0,4,0,0,0.0,12.35,0.0,0,0,0,0.125,12.4,0.0,0,0,0,kReverse,kOff,-87.22,2.01,2.6,0.0826416,-1.015686,0.002746582,34.95,0.0,35.0,-8.08049,11.893723,
621.118878,true,true,true,0.125,12.35,0.0,-2480,-629,0,8.875,12.25,0.0,0,0,0,0.125,12.35,0.0,0,0,0,0.125,12.35,0.0,0,0,0,0.125,12.35,0.0,4,0,0,0.0,12.35,0.0,0,0,0,0.125,12.4,0.0,0,0,0,kReverse,kOff,-87.24,2.02,2.6,0.048034668,-1.0169678,0.21502686,34.95,0.0,65.0,-8.080032,11.893738,
621.14221,true,true,true,0.125,12.35,0.0,-2607,-629,0,8.875,12.25,0.0,0,0,0,0.125,12.35,0.0,0,0,0,0.125,12.35,0.0,0,0,0,0.125,12.35,0.0,4,0,0,0.0,12.35,0.0,0,0,0,0.125,12.4,0.0,0,0,0,kReverse,kOff,-87.18,2.05,2.65,-0.0390625,-1.0204468,-0.06011963,34.95,0.0,-100.0,-8.079376,11.893829,
621.163685,true,true,true,0.125,12.35,0.0,-2732,-629,0,8.5,12.25,0.0,0,0,0,0.125,12.35,0.0,0,0,0,0.125,12.35,0.0,0,0,0,0.125,12.35,0.0,4,0,0,0.0,12.35,0.0,0,0,0,0.125,12.4,0.0,0,0,0,kReverse,kOff,-87.15,2.05,2.66,0.070007324,-1.1050415,-0.0029296875,34.95,0.0,16.0,-8.079117,11.893753,
621.183653,true,true,true,0.125,12.35,0.0,-2858,-629,0,8.75,12.25,0.0,0,0,0,0.125,12.35,0.0,0,0,0,0.125,12.35,0.0,0,0,0,0.125,12.35,0.0,4,0,0,0.0,12.35,0.0,0,0,0,0.125,12.4,0.0,0,0,0,kReverse,kOff,-87.17,2.08,2.67,0.013000488,-0.95147705,-0.0014648438,34.95,0.0,-30.0,-8.078873,11.893616,
621.203055,true,true,true,0.125,12.35,0.0,-2983,-629,0,8.75,12.25,0.0,0,0,0,0.125,12.35,0.0,0,0,0,0.125,12.35,0.0,0,0,0,0.125,12.35,0.0,4,0,0,0.0,12.35,0.0,0,0,0,0.125,12.4,0.0,0,0,0,kReverse,kOff,-87.2,2.03,2.63,0.022399902,-0.9468384,0.12927246,34.95,0.0,18.0,-8.07843,11.893646,
621.2234569999999,true,true,true,0.125,12.35,0.0,-3110,-628,0,8.875,12.25,0.0,0,0,0,0.125,12.35,0.0,0,0,0,0.125,12.35,0.0,0,0,0,0.125,12.35,0.0,4,0,0,0.0,12.35,0.0,0,0,0,0.125,12.4,0.0,0,0,0,kReverse,kOff,-87.19,2.02,2.62,0.11663818,-1.1168823,-0.022033691,34.95,0.0,55.0,-8.078171,11.893753,
621.2457119999999,true,true,true,0.125,12.35,0.0,-3236,-628,0,8.875,12.25,0.0,0,0,0,0.125,12.35,0.0,0,0,0,0.125,12.35,0.0,0,0,0,0.125,12.35,0.0,4,0,0,0.0,12.35,0.0,0,0,0,0.125,12.4,0.0,0,0,0,kReverse,kOff,-87.22,2.05,2.63,0.022705078,-1.0314331,0.12109375,34.95,0.0,12.0,-8.077576,11.893723,
621.2669129999999,true,true,true,0.125,12.35,0.0,-3361,-628,0,8.875,12.25,0.0,0,0,0,0.125,12.35,0.0,0,0,0,0.125,12.35,0.0,0,0,0,0.125,12.35,0.0,4,0,0,0.0,12.35,0.0,0,0,0,0.125,12.4,0.0,0,0,0,kReverse,kOff,-87.16,2.06,2.66,0.085754395,-0.9967041,0.010253906,34.95,0.0,40.0,-8.077255,11.893738,
621.29246,true,true,true,0.125,12.35,0.0,-3614,-629,0,8.875,12.25,0.0,0,0,0,0.125,12.3,0.0,0,0,0,0.125,12.35,0.0,0,0,0,0.125,12.35,0.0,4,0,0,0.0,12.35,0.0,0,0,0,0.125,12.4,0.0,0,0,0,kReverse,kOff,-87.17,2.05,2.65,0.10192871,-0.98760986,0.10784912,34.95,0.0,85.0,-8.076492,11.893906,
621.313441,true,true,true,0.125,12.35,0.0,-3740,-630,0,8.875,12.25,0.0,0,0,0,0.125,12.3,0.0,0,0,0,0.125,12.35,0.0,0,0,0,0.125,12.35,0.0,4,0,0,0.0,12.35,0.0,0,0,0,0.125,12.4,0.0,0,0,0,kReverse,kOff,-87.15,2.09,2.69,-0.044677734,-1.0202637,-0.20184326,34.95,0.0,-148.0,-8.076111,11.893936,
621.333526,true,true,true,0.125,12.35,0.0,-3867,-630,0,8.5,12.25,0.0,0,0,0,0.125,12.3,0.0,0,0,0,0.125,12.35,0.0,0,0,0,0.125,12.35,0.0,4,0,0,0.0,12.35,0.0,0,0,0,0.125,12.4,0.0,0,0,0,kReverse,kOff,-87.21,2.05,2.63,0.010253906,-0.91833496,0.12860107,34.95,0.0,7.0,-8.075821,11.893631,
621.3582339999999,true,true,true,0.125,12.35,0.0,-3992,-631,0,8.75,12.25,0.0,0,0,0,0.125,12.3,0.0,0,0,0,0.125,12.35,0.0,0,0,0,0.125,12.35,0.0,4,0,0,0.0,12.35,0.0,0,0,0,0.125,12.4,0.0,0,0,0,kReverse,kOff,-87.21,2.04,2.62,0.101623535,-0.9049072,0.07885742,34.95,0.0,80.0,-8.075653,11.89357,
621.3794270000001,true,true,true,0.125,12.35,0.0,-4118,-630,0,8.875,12.25,0.0,0,0,0,0.125,12.3,0.0,0,0,0,0.125,12.35,0.0,0,0,0,0.125,12.35,0.0,4,0,0,0.0,12.35,0.0,0,0,0,0.125,12.4,0.0,0,0,0,kReverse,kOff,-87.22,2.05,2.63,0.03540039,-1.0290527,0.117248535,34.95,0.0,23.0,-8.075226,11.893433,
621.401342,true,true,true,0.125,12.35,0.0,-4244,-630,0,8.875,12.25,0.0,0,0,0,0.125,12.3,0.0,0,0,0,0.125,12.35,0.0,0,0,0,0.125,12.35,0.0,4,0,0,0.0,12.35,0.0,0,0,0,0.125,12.4,0.0,0,0,0,kReverse,kOff,-87.16,2.07,2.67,0.059936523,-0.9467163,-0.037231445,34.95,0.0,3.0,-8.074982,11.893372,
621.422478,true,true,true,0.125,12.35,0.0,-4369,-630,0,8.75,12.25,0.0,0,0,0,0.125,12.3,0.0,0,0,0,0.125,12.35,0.0,0,0,0,0.125,12.35,0.0,4,0,0,0.0,12.35,0.0,0,0,0,0.125,12.4,0.0,0,0,0,kReverse,kOff,-87.18,2.06,2.66,0.09680176,-1.0437622,0.2434082,34.95,0.0,117.0,-8.074524,11.893402,
621.455063,true,true,true,0.125,12.35,0.0,-4622,-629,0,8.5,12.25,0.0,0,0,0,0.125,12.35,0.0,0,0,0,0.125,12.35,0.0,0,0,0,0.125,12.35,0.0,4,0,0,0.0,12.35,0.0,0,0,0,0.125,12.4,0.0,0,0,0,kReverse,kOff,-87.2,2.07,2.65,0.010375977,-0.9248657,0.16802979,34.95,0.0,18.0,-8.074036,11.893753,
621.4832269999999,true,true,true,0.125,12.35,0.0,-4747,-629,0,8.75,12.25,0.0,0,0,0,0.125,12.35,0.0,0,0,0,0.125,12.35,0.0,0,0,0,0.125,12.35,0.0,4,0,0,0.0,12.35,0.0,0,0,0,0.125,12.4,0.0,0,0,0,kReverse,kOff,-87.17,2.04,2.64,-0.009887695,-0.9541626,0.15881348,34.97,0.0,9.0,-8.073807,11.894592,
621.5028159999999,true,true,true,0.125,12.35,0.0,-4872,-629,0,9.0,12.25,0.0,0,0,0,0.125,12.35,0.0,0,0,0,0.125,12.35,0.0,0,0,0,0.125,12.35,0.0,4,0,0,0.0,12.35,0.0,0,0,0,0.125,12.4,0.0,0,0,0,kReverse,kOff,-87.14,2.07,2.68,-6.1035156E-5,-0.92388916,-0.15856934,34.97,0.0,-88.0,-8.073853,11.894897,
621.524419,true,true,true,0.125,12.35,0.0,-4998,-628,0,9.0,12.25,0.0,0,0,0,0.125,12.35,0.0,0,0,0,0.125,12.35,0.0,0,0,0,0.125,12.35,0.0,4,0,0,0.0,12.35,0.0,0,0,0,0.125,12.4,0.0,0,0,0,kReverse,kOff,-87.17,2.03,2.64,0.1541748,-0.9958496,0.11639404,34.97,0.0,137.0,-8.073959,11.895691,
621.547433,true,true,true,0.125,12.35,0.0,-5124,-628,0,9.0,12.25,0.0,0,0,0,0.125,12.35,0.0,0,0,0,0.125,12.35,0.0,0,0,0,0.125,12.35,0.0,4,0,0,0.0,12.35,0.0,0,0,0,0.125,12.4,0.0,0,0,0,kReverse,kOff,-87.15,2.07,2.68,-0.031433105,-1.0170898,-0.09509277,34.97,0.0,-103.0,-8.073944,11.896133,
621.567645,true,true,true,0.125,12.35,0.0,-5250,-628,0,8.875,12.25,0.0,0,0,0,0.125,12.35,0.0,0,0,0,0.125,12.35,0.0,0,0,0,0.125,12.35,0.0,4,0,0,0.0,12.35,0.0,0,0,0,0.125,12.4,0.0,0,0,0,kReverse,kOff,-87.16,2.06,2.66,0.06286621,-0.9552002,0.11975098,34.97,0.0,52.0,-8.073959,11.896561,
621.590259,true,true,true,0.125,12.35,0.0,-5503,-629,0,8.75,12.25,0.0,0,0,0,0.125,12.35,0.0,0,0,0,0.125,12.35,0.0,0,0,0,0.125,12.35,0.0,4,0,0,0.0,12.35,0.0,0,0,0,0.125,12.4,0.0,0,0,0,kReverse,kOff,-87.19,2.05,2.64,-0.040893555,-1.0219727,-0.0904541,34.97,0.0,-110.0,-8.074081,11.897186,
621.613273,true,true,true,0.125,12.3,0.0,-5629,-630,0,8.5,12.25,0.0,0,0,0,0.125,12.3,0.0,0,0,0,0.125,12.35,0.0,0,0,0,0.125,12.35,0.0,4,0,0,0.0,12.35,0.0,0,0,0,0.125,12.4,0.0,0,0,0,kReverse,kOff,-87.21,2.02,2.61,0.05444336,-0.9178467,0.15667725,34.97,0.0,58.0,-8.074219,11.897446,
621.634784,true,true,true,0.125,12.3,0.0,-5755,-630,0,8.75,12.25,0.0,0,0,0,0.125,12.3,0.0,0,0,0,0.125,12.35,0.0,0,0,0,0.125,12.35,0.0,4,0,0,0.0,12.3,0.0,0,0,0,0.125,12.4,0.0,0,0,0,kReverse,kOff,-87.16,2.06,2.66,0.034851074,-1.0481567,-0.09979248,34.97,0.0,-42.0,-8.074249,11.898148,
621.655876,true,true,true,0.125,12.3,0.0,-5880,-630,0,8.75,12.25,0.0,0,0,0,0.125,12.3,0.0,0,0,0,0.125,12.35,0.0,0,0,0,0.125,12.35,0.0,4,0,0,0.0,12.3,0.0,0,0,0,0.125,12.4,0.0,0,0,0,kReverse,kOff,-87.21,2.04,2.63,-0.019958496,-0.9725952,0.03656006,34.97,0.0,-50.0,-8.07431,11.898407,
621.678452,true,true,true,0.125,12.3,0.0,-6006,-630,0,8.875,12.25,0.0,0,0,0,0.125,12.3,0.0,0,0,0,0.125,12.35,0.0,0,0,0,0.125,12.35,0.0,4,0,0,0.0,12.3,0.0,0,0,0,0.125,12.4,0.0,0,0,0,kReverse,kOff,-87.17,2.07,2.66,-0.0048217773,-1.0662231,-0.019897461,34.97,0.0,-57.0,-8.074326,11.898926,
621.69923,true,true,true,0.125,12.3,0.0,-6132,-629,0,8.75,12.25,0.0,0,0,0,0.125,12.3,0.0,0,0,0,0.125,12.35,0.0,0,0,0,0.125,12.35,0.0,4,0,0,0.0,12.3,0.0,0,0,0,0.125,12.4,0.0,0,0,0,kReverse,kOff,-87.19,2.05,2.64,0.11566162,-0.9486084,0.23266602,34.97,0.0,137.0,-8.074265,11.899261,
621.719985,true,true,true,0.125,12.3,0.0,-6259,-629,0,8.875,12.25,0.0,0,0,0,0.125,12.3,0.0,0,0,0,0.125,12.35,0.0,0,0,0,0.125,12.35,0.0,4,0,0,0.0,12.3,0.0,0,0,0,0.125,12.4,0.0,0,0,0,kReverse,kOff,-87.2,2.07,2.66,0.010070801,-1.0911865,-0.109313965,34.97,0.0,-71.0,-8.074097,11.899719,
621.742485,true,true,true,0.125,12.3,0.0,-6384,-629,0,8.75,12.25,0.0,0,0,0,0.125,12.3,0.0,0,0,0,0.125,12.35,0.0,0,0,0,0.125,12.35,0.0,4,0,0,0.0,12.3,0.0,0,0,0,0.125,12.4,0.0,0,0,0,kReverse,kOff,-87.21,2.05,2.64,0.03466797,-0.94085693,0.051574707,34.97,0.0,6.0,-8.074081,11.899765,
621.7640729999999,true,true,true,0.125,12.3,0.0,-6510,-629,0,8.875,12.25,0.0,0,0,0,0.125,12.3,0.0,0,0,0,0.125,12.35,0.0,0,0,0,0.125,12.35,0.0,4,0,0,0.0,12.3,0.0,0,0,0,0.125,12.4,0.0,0,0,0,kReverse,kOff,-87.18,2.06,2.65,0.11505127,-1.1342163,0.021606445,34.97,0.0,65.0,-8.074051,11.899963,
621.7832219999999,true,true,true,0.125,12.3,0.0,-6636,-629,0,9.0,12.25,0.0,0,0,0,0.125,12.3,0.0,0,0,0,0.125,12.35,0.0,0,0,0,0.125,12.35,0.0,4,0,0,0.0,12.3,0.0,0,0,0,0.125,12.35,0.0,0,0,0,kReverse,kOff,-87.23,2.06,2.63,0.015136719,-0.8389282,0.06707764,34.97,0.0,-2.0,-8.073975,11.90007,
621.802662,true,true,true,0.125,12.3,0.0,-6763,-629,0,8.75,12.25,0.0,0,0,0,0.125,12.3,0.0,0,0,0,0.125,12.35,0.0,0,0,0,0.125,12.35,0.0,4,0,0,0.0,12.3,0.0,0,0,0,0.125,12.35,0.0,0,0,0,kReverse,kOff,-87.18,2.06,2.65,0.054138184,-1.0684204,0.083862305,34.97,0.0,29.0,-8.073883,11.900223,
621.8215329999999,true,true,true,0.125,12.3,0.0,-6888,-629,0,8.875,12.25,0.0,0,0,0,0.125,12.3,0.0,0,0,0,0.125,12.35,0.0,0,0,0,0.125,12.35,0.0,4,0,0,0.0,12.3,0.0,0,0,0,0.125,12.35,0.0,0,0,0,kReverse,kOff,-87.21,2.06,2.64,0.13464355,-1.0297241,0.21789551,34.97,0.0,147.0,-8.073853,11.900269,
621.842902,true,true,true,0.125,12.3,0.0,-7015,-630,0,8.75,12.25,0.0,0,0,0,0.125,12.3,0.0,0,0,0,0.125,12.35,0.0,0,0,0,0.125,12.35,0.0,4,0,0,0.0,12.3,0.0,0,0,0,0.125,12.35,0.0,0,0,0,kReverse,kOff,-87.15,2.1,2.69,0.058532715,-0.9334717,0.032836914,34.97,0.0,23.0,-8.07373,11.90036,
621.862304,true,true,true,0.125,12.3,0.0,-7141,-630,0,8.875,12.25,0.0,0,0,0,0.125,12.3,0.0,0,0,0,0.125,12.35,0.0,0,0,0,0.125,12.35,0.0,4,0,0,0.0,12.3,0.0,0,0,0,0.125,12.35,0.0,0,0,0,kReverse,kOff,-87.17,2.07,2.66,0.009155273,-1.0153198,0.06958008,34.97,0.0,-15.0,-8.073578,11.900391,
621.885343,true,true,true,0.125,12.3,0.0,-7268,-630,0,8.5,12.25,0.0,0,0,0,0.125,12.3,0.0,0,0,0,0.125,12.35,0.0,0,0,0,0.125,12.35,0.0,4,0,0,0.0,12.3,0.0,0,0,0,0.125,12.35,0.0,0,0,0,kReverse,kOff,-87.18,2.06,2.66,0.014099121,-0.899353,0.045288086,34.97,0.0,-13.0,-8.073547,11.900421,
621.906884,true,true,true,0.125,12.3,0.0,-7393,-631,0,8.75,12.25,0.0,0,0,0,0.125,12.3,0.0,0,0,0,0.125,12.35,0.0,0,0,0,0.125,12.35,0.0,4,0,0,0.0,12.3,0.0,0,0,0,0.125,12.35,0.0,0,0,0,kReverse,kOff,-87.2,2.07,2.65,-0.024047852,-0.90448,0.11895752,34.97,0.0,-27.0,-8.073563,11.900406,
621.9320280000001,true,true,true,0.125,12.3,0.0,-7647,-631,0,8.75,12.200000000000001,0.0,0,0,0,0.125,12.3,0.0,0,0,0,0.125,12.35,0.0,0,0,0,0.125,12.3,0.0,4,0,0,0.0,12.3,0.0,0,0,0,0.125,12.35,0.0,0,0,0,kReverse,kOff,-87.2,2.07,2.65,-0.024047852,-0.90448,0.11895752,34.97,0.0,-27.0,-8.073563,11.900406,
621.955964,true,true,true,0.125,12.3,0.0,-7773,-631,0,9.0,12.200000000000001,0.0,0,0,0,0.125,12.3,0.0,0,0,0,0.125,12.35,0.0,0,0,0,0.125,12.3,0.0,4,0,0,0.0,12.3,0.0,0,0,0,0.125,12.35,0.0,0,0,0,kReverse,kOff,-87.15,2.07,2.67,0.07366943,-0.9934082,0.21014404,34.97,0.0,88.0,-8.073547,11.900589,
621.976579,true,true,true,0.125,12.3,0.0,-7899,-631,0,8.75,12.200000000000001,0.0,0,0,0,0.125,12.3,0.0,0,0,0,0.125,12.35,0.0,0,0,0,0.125,12.3,0.0,4,0,0,0.0,12.3,0.0,0,0,0,0.125,12.35,0.0,0,0,0,kReverse,kOff,-87.15,2.09,2.69,0.03692627,-1.1038208,0.10064697,34.97,0.0,15.0,-8.073456,11.900742,
621.999698,true,true,true,0.125,12.3,0.0,-8025,-631,0,8.75,12.200000000000001,0.0,0,0,0,0.125,12.3,0.0,0,0,0,0.125,12.35,0.0,0,0,0,0.125,12.3,0.0,4,0,0,0.0,12.3,0.0,0,0,0,0.125,12.35,0.0,0,0,0,kReverse,kOff,-87.11,2.07,2.67,0.035339355,-0.9574585,-0.013183594,34.97,0.0,-12.0,-8.073441,11.900757,
622.0213660000001,true,true,true,0.125,12.3,0.0,-8152,-631,0,8.5,12.200000000000001,0.0,0,0,0,0.125,12.3,0.0,0,0,0,0.125,12.35,0.0,0,0,0,0.125,12.3,0.0,4,0,0,0.0,12.3,0.0,0,0,0,0.125,12.35,0.0,0,0,0,kReverse,kOff,-87.16,2.04,2.65,0.0031738281,-1.083435,0.08111572,34.97,0.0,-20.0,-8.073456,11.900742,
622.0436589999999,true,true,true,0.125,12.3,0.0,-8278,-631,0,8.875,12.200000000000001,0.0,0,0,0,0.125,12.3,0.0,0,0,0,0.125,12.35,0.0,0,0,0,0.125,12.3,0.0,4,0,0,0.0,12.3,0.0,0,0,0,0.125,12.35,0.0,0,0,0,kReverse,kOff,-87.14,2.07,2.68,0.0949707,-0.8699341,-5.493164E-4,34.97,0.0,51.0,-8.073395,11.900665,
622.0649719999999,true,true,true,0.125,12.3,0.0,-8404,-631,0,8.75,12.200000000000001,0.0,0,0,0,0.125,12.3,0.0,0,0,0,0.125,12.35,0.0,0,0,0,0.125,12.3,0.0,4,0,0,0.0,12.3,0.0,0,0,0,0.125,12.35,0.0,0,0,0,kReverse,kOff,-87.18,2.07,2.66,-0.06774902,-1.0560303,-0.09008789,34.97,0.0,-138.0,-8.0733795,11.900513,
622.087551,true,true,true,0.125,12.3,0.0,-8529,-630,0,8.75,12.25,0.0,0,0,0,0.125,12.3,0.0,0,0,0,0.125,12.35,0.0,0,0,0,0.125,12.3,0.0,4,0,0,0.0,12.3,0.0,0,0,0,0.125,12.35,0.0,0,0,0,kReverse,kOff,-87.13,2.09,2.7,0.0032958984,-1.015625,-0.13983154,34.97,0.0,-83.0,-8.073441,11.900101,
622.111697,true,true,true,0.125,12.3,0.0,-8781,-629,0,8.75,12.25,0.0,0,0,0,0.125,12.3,0.0,0,0,0,0.125,12.35,0.0,0,0,0,0.125,12.3,0.0,4,0,0,0.0,12.3,0.0,0,0,0,0.125,12.35,0.0,0,0,0,kReverse,kOff,-87.19,2.07,2.65,0.06640625,-1.0217896,0.28668213,34.97,0.0,102.0,-8.073456,11.899902,
622.140032,true,true,true,0.125,12.3,0.0,-8908,-629,0,8.75,12.25,0.0,0,0,0,0.125,12.3,0.0,0,0,0,0.125,12.35,0.0,0,0,0,0.125,12.3,0.0,4,0,0,0.0,12.3,0.0,0,0,0,0.125,12.35,0.0,0,0,0,kReverse,kOff,-87.17,2.07,2.67,0.022338867,-0.93585205,-0.016662598,34.97,0.0,-25.0,-8.073334,11.899643,
622.164181,true,true,true,0.125,12.3,0.0,-9034,-630,0,8.5,12.25,0.0,0,0,0,0.125,12.3,0.0,0,0,0,0.125,12.35,0.0,0,0,0,0.125,12.3,0.0,4,0,0,0.0,12.3,0.0,0,0,0,0.125,12.35,0.0,0,0,0,kReverse,kOff,-87.16,2.02,2.63,-0.05126953,-0.880188,0.019348145,34.97,0.0,-81.0,-8.073441,11.899277,
622.184674,true,true,true,0.125,12.3,0.0,-9159,-630,0,8.875,12.25,0.0,0,0,0,0.125,12.3,0.0,0,0,0,0.125,12.35,0.0,0,0,0,0.125,12.3,0.0,4,0,0,0.0,12.3,0.0,0,0,0,0.125,12.35,0.0,0,0,0,kReverse,kOff,-87.15,2.03,2.65,0.111328125,-0.92578125,0.08117676,34.97,0.0,89.0,-8.073517,11.899139,
622.206584,true,true,true,0.125,12.3,0.0,-9286,-630,0,8.75,12.25,0.0,0,0,0,0.125,12.3,0.0,0,0,0,0.125,12.35,0.0,0,0,0,0.125,12.3,0.0,4,0,0,0.0,12.3,0.0,0,0,0,0.125,12.35,0.0,0,0,0,kReverse,kOff,-87.16,2.01,2.63,0.059631348,-1.0007935,0.14172363,34.97,0.0,54.0,-8.073654,11.898819,
622.228201,true,true,true,0.125,12.3,0.0,-9412,-630,0,8.75,12.25,0.0,0,0,0,0.125,12.3,0.0,0,0,0,0.125,12.35,0.0,0,0,0,0.125,12.3,0.0,4,0,0,0.0,12.3,0.0,0,0,0,0.125,12.35,0.0,0,0,0,kReverse,kOff,-87.12,2.05,2.67,-0.047607422,-0.9110718,-0.11810303,34.97,0.0,-121.0,-8.073761,11.898666,
622.2513839999999,true,true,true,0.125,12.3,0.0,-9664,-630,0,8.75,12.200000000000001,0.0,0,0,0,0.125,12.3,0.0,0,0,0,0.125,12.35,0.0,0,0,0,0.125,12.3,0.0,4,0,0,0.0,12.3,0.0,0,0,0,0.125,12.35,0.0,0,0,0,kReverse,kOff,-87.13,2.04,2.66,0.06951904,-0.9248047,0.0028686523,34.97,0.0,26.0,-8.074005,11.898392,
622.27895,true,true,true,0.125,12.3,0.0,-9790,-630,0,8.75,12.200000000000001,0.0,0,0,0,0.125,12.3,0.0,0,0,0,0.125,12.35,0.0,0,0,0,0.125,12.3,0.0,4,0,0,0.0,12.3,0.0,0,0,0,0.125,12.35,0.0,0,0,0,kReverse,kOff,-87.19,2.03,2.63,0.06402588,-0.97424316,0.14996338,34.97,0.0,62.0,-8.074051,11.898331,
622.2988379999999,true,true,true,0.125,12.3,0.0,-9915,-629,0,8.375,12.200000000000001,0.0,0,0,0,0.125,12.3,0.0,0,0,0,0.125,12.35,0.0,0,0,0,0.125,12.3,0.0,4,0,0,0.0,12.3,0.0,0,0,0,0.125,12.35,0.0,0,0,0,kReverse,kOff,-87.17,1.99,2.61,-0.026306152,-0.95458984,-0.02178955,34.97,0.0,-73.0,-8.074036,11.898468,
622.319578,true,true,true,0.125,12.3,0.0,-10041,-629,0,8.75,12.200000000000001,0.0,0,0,0,0.125,12.3,0.0,0,0,0,0.125,12.35,0.0,0,0,0,0.125,12.3,0.0,4,0,0,0.0,12.3,0.0,0,0,0,0.125,12.35,0.0,0,0,0,kReverse,kOff,-87.16,2.01,2.63,0.10223389,-1.1060181,0.09490967,34.97,0.0,77.0,-8.074036,11.898529,
622.340677,true,true,true,0.125,12.3,0.0,-10167,-629,0,8.75,12.200000000000001,0.0,0,0,0,0.125,12.3,0.0,0,0,0,0.125,12.35,0.0,0,0,0,0.125,12.3,0.0,4,0,0,0.0,12.3,0.0,0,0,0,0.125,12.35,0.0,0,0,0,kReverse,kOff,-87.18,2.01,2.62,-0.01171875,-1.0707397,-0.063964844,34.97,0.0,-76.0,-8.074036,11.898575,
622.360056,true,true,true,0.125,12.3,0.0,-10293,-629,0,8.875,12.200000000000001,0.0,0,0,0,0.125,12.3,0.0,0,0,0,0.125,12.35,0.0,0,0,0,0.125,12.3,0.0,4,0,0,0.0,12.3,0.0,0,0,0,0.125,12.35,0.0,0,0,0,kReverse,kOff,-87.13,2.05,2.67,0.046325684,-0.9595947,0.0017700195,34.97,0.0,2.0,-8.073975,11.898819,
622.382563,true,true,true,0.125,12.3,0.0,-10418,-629,0,8.75,12.200000000000001,0.0,0,0,0,0.125,12.3,0.0,0,0,0,0.125,12.35,0.0,0,0,0,0.125,12.3,0.0,4,0,0,0.0,12.3,0.0,0,0,0,0.125,12.35,0.0,0,0,0,kReverse,kOff,-87.14,2.05,2.67,0.066467285,-0.9123535,-0.008422852,34.97,0.0,20.0,-8.073898,11.899002,
622.40474,true,true,true,0.125,12.3,0.0,-10544,-628,0,8.75,12.25,0.0,0,0,0,0.125,12.3,0.0,0,0,0,0.125,12.35,0.0,0,0,0,0.125,12.3,0.0,4,0,0,0.0,12.3,0.0,0,0,0,0.125,12.35,0.0,0,0,0,kReverse,kOff,-87.19,2.05,2.64,0.06390381,-1.0045166,0.11395264,34.97,0.0,50.0,-8.073807,11.899078,
622.4265790000001,true,true,true,0.125,12.3,0.0,-10670,-628,0,8.75,12.25,0.0,0,0,0,0.125,12.3,0.0,0,0,0,0.125,12.35,0.0,0,0,0,0.125,12.3,0.0,4,0,0,0.0,12.3,0.0,0,0,0,0.125,12.35,0.0,0,0,0,kReverse,kOff,-87.19,2.01,2.62,-0.009094238,-0.9197998,-0.025817871,34.97,0.0,-56.0,-8.073776,11.899414,
622.452548,true,true,true,0.125,12.3,0.0,-10922,-628,0,8.75,12.25,0.0,0,0,0,0.125,12.3,0.0,0,0,0,0.125,12.35,0.0,0,0,0,0.125,12.3,0.0,4,0,0,0.0,12.3,0.0,0,0,0,0.125,12.35,0.0,0,0,0,kReverse,kOff,-87.18,2.02,2.62,0.17053223,-1.0332642,0.14465332,34.97,0.0,160.0,-8.07373,11.899597,
622.475931,true,true,true,0.125,12.3,0.0,-11047,-628,0,8.75,12.25,0.0,0,0,0,0.125,12.3,0.0,0,0,0,0.125,12.35,0.0,0,0,0,0.125,12.3,0.0,4,0,0,0.0,12.3,0.0,0,0,0,0.125,12.35,0.0,0,0,0,kReverse,kOff,-87.19,2.04,2.62,-0.00579834,-0.92004395,0.034729004,34.97,0.0,-35.0,-8.07373,11.899811,
622.496625,true,true,true,0.125,12.3,0.0,-11172,-628,0,9.125,12.25,0.0,0,0,0,0.125,12.3,0.0,0,0,0,0.125,12.35,0.0,0,0,0,0.125,12.3,0.0,4,0,0,0.0,12.3,0.0,0,0,0,0.125,12.35,0.0,0,0,0,kReverse,kOff,-87.16,2.05,2.66,0.048034668,-0.9760132,-0.062438965,34.97,0.0,-15.0,-8.073837,11.899841,
622.518983,true,true,true,0.125,12.3,0.0,-11298,-628,0,8.875,12.25,0.0,0,0,0,0.125,12.3,0.0,0,0,0,0.125,12.35,0.0,0,0,0,0.125,12.3,0.0,4,0,0,0.0,12.3,0.0,0,0,0,0.125,12.35,0.0,0,0,0,kReverse,kOff,-87.13,2.07,2.68,0.08074951,-1.0270386,-0.05078125,34.98,0.0,16.0,-8.073929,11.90007,
622.5416280000001,true,true,true,0.125,12.3,0.0,-11424,-628,0,8.875,12.25,0.0,0,0,0,0.125,12.3,0.0,0,0,0,0.125,12.35,0.0,0,0,0,0.125,12.3,0.0,4,0,0,0.0,12.3,0.0,0,0,0,0.125,12.35,0.0,0,0,0,kReverse,kOff,-87.19,2.07,2.66,0.04071045,-0.9585571,0.060791016,34.98,0.0,14.0,-8.073929,11.900177,
622.562239,true,true,true,0.125,12.3,0.0,-11551,-628,0,8.75,12.200000000000001,0.0,0,0,0,0.125,12.3,0.0,0,0,0,0.125,12.35,0.0,0,0,0,0.125,12.3,0.0,4,0,0,0.0,12.3,0.0,0,0,0,0.125,12.35,0.0,0,0,0,kReverse,kOff,-87.19,2.04,2.64,-0.004211426,-0.9290161,-0.10296631,34.98,0.0,-75.0,-8.07399,11.900452,
622.584311,true,true,true,0.125,12.25,0.0,-11677,-629,0,8.875,12.200000000000001,0.0,0,0,0,0.125,12.25,0.0,0,0,0,0.125,12.3,0.0,0,0,0,0.125,12.3,0.0,4,0,0,0.0,12.3,0.0,0,0,0,0.125,12.35,0.0,0,0,0,kReverse,kOff,-87.2,2.04,2.63,0.105773926,-0.94592285,0.14276123,34.98,0.0,101.0,-8.074036,11.900528,
622.6051970000001,true,true,true,0.125,12.25,0.0,-11802,-629,0,8.875,12.200000000000001,0.0,0,0,0,0.125,12.25,0.0,0,0,0,0.125,12.3,0.0,0,0,0,0.125,12.3,0.0,4,0,0,0.0,12.3,0.0,0,0,0,0.125,12.35,0.0,0,0,0,kReverse,kOff,-87.21,2.03,2.62,0.09106445,-0.9807739,0.07318115,34.98,0.0,65.0,-8.074051,11.900925,
622.625244,true,true,true,0.125,12.25,0.0,-11928,-629,0,8.875,12.200000000000001,0.0,0,0,0,0.125,12.25,0.0,0,0,0,0.125,12.3,0.0,0,0,0,0.125,12.3,0.0,4,0,0,0.0,12.3,0.0,0,0,0,0.125,12.35,0.0,0,0,0,kReverse,kOff,-87.16,2.07,2.67,0.009460449,-0.89849854,-0.07611084,34.98,0.0,-53.0,-8.074051,11.901077,
622.6599590000001,true,true,true,0.125,12.25,0.0,-12180,-630,0,8.75,12.200000000000001,0.0,0,0,0,0.125,12.25,0.0,0,0,0,0.125,12.3,0.0,0,0,0,0.125,12.3,0.0,4,0,0,0.0,12.3,0.0,0,0,0,0.125,12.35,0.0,0,0,0,kReverse,kOff,-87.21,2.06,2.64,0.05621338,-0.86505127,0.14056396,34.98,0.0,57.0,-8.074341,11.9015045,
622.689529,true,true,true,0.125,12.25,0.0,-12433,-630,0,8.75,12.200000000000001,0.0,0,0,0,0.125,12.25,0.0,0,0,0,0.125,12.3,0.0,0,0,0,0.125,12.3,0.0,4,0,0,0.0,12.3,0.0,0,0,0,0.125,12.35,0.0,0,0,0,kReverse,kOff,-87.22,2.03,2.62,0.074523926,-0.9968872,0.21386719,34.98,0.0,90.0,-8.074356,11.901779,
622.713756,true,true,true,0.125,12.25,0.0,-12559,-630,0,8.75,12.200000000000001,0.0,0,0,0,0.125,12.25,0.0,0,0,0,0.125,12.3,0.0,0,0,0,0.125,12.3,0.0,4,0,0,0.0,12.3,0.0,0,0,0,0.125,12.35,0.0,0,0,0,kReverse,kOff,-87.18,2.02,2.63,0.08984375,-0.93444824,0.010986328,34.98,0.0,48.0,-8.074234,11.902435,
622.740467,true,true,true,0.125,12.25,0.0,-12685,-630,0,8.75,12.200000000000001,0.0,0,0,0,0.125,12.25,0.0,0,0,0,0.125,12.3,0.0,0,0,0,0.125,12.25,0.0,4,0,0,0.0,12.3,0.0,0,0,0,0.125,12.35,0.0,0,0,0,kReverse,kOff,-87.19,2.05,2.64,-0.017211914,-0.9902344,-0.10040283,34.98,0.0,-89.0,-8.0742035,11.902618,
622.76166,true,true,true,0.125,12.25,0.0,-12811,-630,0,8.75,12.200000000000001,0.0,0,0,0,0.125,12.25,0.0,0,0,0,0.125,12.3,0.0,0,0,0,0.125,12.25,0.0,4,0,0,0.0,12.3,0.0,0,0,0,0.125,12.35,0.0,0,0,0,kReverse,kOff,-87.16,2.06,2.66,0.08325195,-0.8880005,0.024291992,34.98,0.0,47.0,-8.074142,11.903137,
622.781098,true,true,true,0.125,12.25,0.0,-12936,-629,0,8.75,12.200000000000001,0.0,0,0,0,0.125,12.25,0.0,0,0,0,0.125,12.3,0.0,0,0,0,0.125,12.25,0.0,4,0,0,0.0,12.3,0.0,0,0,0,0.125,12.35,0.0,0,0,0,kReverse,kOff,-87.2,2.04,2.63,-0.0036010742,-0.9920654,0.0982666,34.98,0.0,-17.0,-8.074051,11.903473,
622.801745,true,true,true,0.125,12.25,0.0,-13063,-629,0,8.75,12.200000000000001,0.0,0,0,0,0.125,12.25,0.0,0,0,0,0.125,12.3,0.0,0,0,0,0.0,12.25,0.0,4,0,0,0.0,12.3,0.0,0,0,0,0.125,12.35,0.0,0,0,0,kReverse,kOff,-87.14,2.03,2.62,0.021911621,-0.8151245,0.056640625,34.98,0.0,1.0,-8.07402,11.904007,
622.8231539999999,true,true,true,0.125,12.25,0.0,-13189,-629,0,8.75,12.200000000000001,0.0,0,0,0,0.125,12.25,0.0,0,0,0,0.125,12.3,0.0,0,0,0,0.0,12.25,0.0,4,0,0,0.0,12.3,0.0,0,0,0,0.125,12.35,0.0,0,0,0,kReverse,kOff,-87.23,2.0,2.59,0.0029907227,-1.0136719,0.10668945,34.98,0.0,-9.0,-8.07402,11.904312,
622.84326,true,true,true,0.125,12.25,0.0,-13315,-630,0,8.5,12.200000000000001,0.0,0,0,0,0.125,12.25,0.0,0,0,0,0.125,12.3,0.0,0,0,0,0.0,12.25,0.0,4,0,0,0.0,12.3,0.0,0,0,0,0.125,12.35,0.0,0,0,0,kReverse,kOff,-87.2,1.99,2.6,0.005432129,-1.067627,0.03302002,34.98,0.0,-31.0,-8.074066,11.904678,
622.8644939999999,true,true,true,0.125,12.25,0.0,-13442,-630,0,8.75,12.200000000000001,0.0,0,0,0,0.125,12.25,0.0,0,0,0,0.125,12.3,0.0,0,0,0,0.125,12.25,0.0,4,0,0,0.0,12.3,0.0,0,0,0,0.125,12.35,0.0,0,0,0,kReverse,kOff,-87.21,2.02,2.61,0.032958984,-0.9797363,-0.031433105,34.98,0.0,-20.0,-8.073853,11.905502,
622.885942,true,true,true,0.125,12.25,0.0,-13567,-630,0,8.75,12.200000000000001,0.0,0,0,0,0.125,12.25,0.0,0,0,0,0.125,12.3,0.0,0,0,0,0.125,12.3,0.0,4,0,0,0.0,12.3,0.0,0,0,0,0.125,12.35,0.0,0,0,0,kReverse,kOff,-87.16,2.02,2.63,0.0914917,-0.88623047,-0.07458496,34.98,0.0,26.0,-8.0737,11.9062195,
622.911544,true,true,true,0.125,12.3,0.0,-13819,-630,0,8.75,12.200000000000001,0.0,0,0,0,0.125,12.25,0.0,0,0,0,0.125,12.3,0.0,0,0,0,0.125,12.3,0.0,4,0,0,0.0,12.25,0.0,0,0,0,0.125,12.35,0.0,0,0,0,kReverse,kOff,-87.21,2.0,2.6,0.0099487305,-1.1011963,0.066223145,34.98,0.0,-18.0,-8.073639,11.906494,
622.935549,true,true,true,0.125,12.3,0.0,-13945,-630,0,8.5,12.200000000000001,0.0,0,0,0,0.125,12.25,0.0,0,0,0,0.125,12.3,0.0,0,0,0,0.125,12.3,0.0,4,0,0,0.0,12.25,0.0,0,0,0,0.125,12.35,0.0,0,0,0,kReverse,kOff,-87.15,2.02,2.64,0.09869385,-0.9852905,-0.025634766,34.98,0.0,43.0,-8.073563,11.906738,
622.953715,true,true,true,0.125,12.3,0.0,-14071,-630,0,8.75,12.200000000000001,0.0,0,0,0,0.125,12.25,0.0,0,0,0,0.125,12.3,0.0,0,0,0,0.125,12.3,0.0,4,0,0,0.0,12.25,0.0,0,0,0,0.125,12.35,0.0,0,0,0,kReverse,kOff,-87.22,2.0,2.6,-0.022644043,-1.0006104,0.10272217,34.98,0.0,-34.0,-8.07341,11.907211,
622.978547,true,true,true,0.125,12.3,0.0,-14197,-630,0,8.75,12.200000000000001,0.0,0,0,0,0.125,12.25,0.0,0,0,0,0.125,12.3,0.0,0,0,0,0.0,12.3,0.0,4,0,0,0.0,12.25,0.0,0,0,0,0.125,12.35,0.0,0,0,0,kReverse,kOff,-87.2,1.97,2.58,0.034973145,-1.0198975,-0.010620117,34.98,0.0,87.0,-8.073303,11.907761,
623.0006040000001,true,true,true,0.125,12.3,0.0,-14323,-630,0,8.75,12.200000000000001,0.0,0,0,0,0.125,12.25,0.0,0,0,0,0.125,12.3,0.0,0,0,0,0.0,12.3,0.0,4,0,0,0.0,12.25,0.0,0,0,0,0.125,12.35,0.0,0,0,0,kReverse,kOff,-87.2,2.01,2.61,0.02319336,-0.95373535,0.040161133,34.98,0.0,-7.0,-8.073181,11.907761,
623.022743,true,true,true,0.125,12.3,0.0,-14449,-630,0,8.75,12.200000000000001,0.0,0,0,0,0.125,12.25,0.0,0,0,0,0.125,12.3,0.0,0,0,0,0.0,12.3,0.0,4,0,0,0.0,12.25,0.0,0,0,0,0.125,12.35,0.0,0,0,0,kReverse,kOff,-87.16,2.0,2.62,0.09106445,-1.0010986,-0.01965332,34.95,0.0,37.0,-8.072739,11.907944,
623.0449470000001,true,true,true,0.125,12.3,0.0,-14575,-630,0,8.75,12.200000000000001,0.0,0,0,0,0.125,12.25,0.0,0,0,0,0.125,12.3,0.0,0,0,0,0.125,12.3,0.0,4,0,0,0.0,12.25,0.0,0,0,0,0.125,12.35,0.0,0,0,0,kReverse,kOff,-87.19,2.0,2.61,-0.047790527,-1.0057373,-0.026733398,34.95,0.0,-97.0,-8.07254,11.907974,
623.068155,true,true,true,0.125,12.25,0.0,-14701,-629,0,8.5,12.200000000000001,0.0,0,0,0,0.125,12.25,0.0,0,0,0,0.125,12.3,0.0,0,0,0,0.125,12.3,0.0,4,0,0,0.0,12.25,0.0,0,0,0,0.125,12.35,0.0,0,0,0,kReverse,kOff,-87.19,2.01,2.62,0.05895996,-1.199585,0.006652832,34.95,0.0,5.0,-8.072113,11.907928,
623.0894599999999,true,true,true,0.125,12.25,0.0,-14952,-629,0,8.5,12.200000000000001,0.0,0,0,0,0.125,12.25,0.0,0,0,0,0.125,12.3,0.0,0,0,0,0.125,12.3,0.0,4,0,0,0.0,12.3,0.0,0,0,0,0.125,12.35,0.0,0,0,0,kReverse,kOff,-87.23,2.0,2.59,0.021118164,-1.024231,0.19030762,34.95,0.0,32.0,-8.071838,11.907959,
623.110681,true,true,true,0.125,12.25,0.0,-15078,-628,0,8.75,12.200000000000001,0.0,0,0,0,0.125,12.25,0.0,0,0,0,0.125,12.3,0.0,0,0,0,0.125,12.3,0.0,4,0,0,0.0,12.3,0.0,0,0,0,0.125,12.35,0.0,0,0,0,kReverse,kOff,-87.21,1.99,2.6,0.05529785,-0.98809814,0.048828125,34.95,0.0,24.0,-8.071548,11.908096,
623.1335059999999,true,true,true,0.125,12.25,0.0,-15203,-628,0,8.75,12.200000000000001,0.0,0,0,0,0.125,12.25,0.0,0,0,0,0.125,12.3,0.0,0,0,0,0.125,12.3,0.0,4,0,0,0.0,12.3,0.0,0,0,0,0.125,12.35,0.0,0,0,0,kReverse,kOff,-87.2,2.04,2.63,0.032165527,-0.9614258,-0.09265137,34.95,0.0,-38.0,-8.070831,11.908203,
623.159858,true,true,true,0.125,12.25,0.0,-15329,-628,0,8.75,12.200000000000001,0.0,0,0,0,0.125,12.25,0.0,0,0,0,0.125,12.3,0.0,0,0,0,0.0,12.3,0.0,4,0,0,0.0,12.3,0.0,0,0,0,0.125,12.35,0.0,0,0,0,kReverse,kOff,-87.19,2.03,2.63,0.08276367,-1.0749512,0.044799805,34.95,0.0,45.0,-8.070145,11.908157,
623.180817,true,true,true,0.125,12.25,0.0,-15455,-628,0,8.875,12.200000000000001,0.0,0,0,0,0.125,12.25,0.0,0,0,0,0.125,12.3,0.0,0,0,0,0.0,12.3,0.0,4,0,0,0.0,12.3,0.0,0,0,0,0.125,12.35,0.0,0,0,0,kReverse,kOff,-87.23,2.04,2.62,0.053527832,-0.977417,0.12817383,34.95,0.0,46.0,-8.069702,11.908218,
623.199883,true,true,true,0.125,12.25,0.0,-15582,-628,0,8.75,12.200000000000001,0.0,0,0,0,0.125,12.25,0.0,0,0,0,0.125,12.3,0.0,0,0,0,0.0,12.3,0.0,4,0,0,0.0,12.3,0.0,0,0,0,0.125,12.35,0.0,0,0,0,kReverse,kOff,-87.18,2.05,2.65,0.103515625,-1.0591431,0.003479004,34.95,0.0,52.0,-8.069214,11.908295,
623.2209009999999,true,true,true,0.125,12.25,0.0,-15708,-629,0,8.875,12.200000000000001,0.0,0,0,0,0.125,12.25,0.0,0,0,0,0.125,12.3,0.0,0,0,0,0.0,12.3,0.0,4,0,0,0.0,12.3,0.0,0,0,0,0.125,12.35,0.0,0,0,0,kReverse,kOff,-87.21,2.07,2.64,-0.05645752,-1.036377,-0.04473877,34.95,0.0,-112.0,-8.06842,11.908035,
623.2432140000001,true,true,true,0.125,12.25,0.0,-15834,-629,0,8.75,12.200000000000001,0.0,0,0,0,0.125,12.25,0.0,0,0,0,0.125,12.3,0.0,0,0,0,0.0,12.3,0.0,4,0,0,0.0,12.25,0.0,0,0,0,0.125,12.35,0.0,0,0,0,kReverse,kOff,-87.22,2.03,2.62,0.0095825195,-0.9963989,0.053344727,34.95,0.0,-18.0,-8.068192,11.907822,
623.263777,true,true,true,0.125,12.25,0.0,-15960,-630,0,8.75,12.200000000000001,0.0,0,0,0,0.125,12.25,0.0,0,0,0,0.125,12.3,0.0,0,0,0,0.0,12.3,0.0,4,0,0,0.0,12.25,0.0,0,0,0,0.125,12.35,0.0,0,0,0,kReverse,kOff,-87.23,2.04,2.62,0.06964111,-0.930542,0.14056396,34.95,0.0,67.0,-8.067932,11.9077,
623.283157,true,true,true,0.125,12.25,0.0,-16086,-630,0,8.75,12.200000000000001,0.0,0,0,0,0.125,12.25,0.0,0,0,0,0.125,12.3,0.0,0,0,0,0.125,12.3,0.0,4,0,0,0.0,12.25,0.0,0,0,0,0.125,12.35,0.0,0,0,0,kReverse,kOff,-87.21,2.06,2.64,0.07739258,-0.88897705,0.011047363,34.95,0.0,37.0,-8.067596,11.907623,
623.304925,true,true,true,0.125,12.25,0.0,-16212,-630,0,8.5,12.200000000000001,0.0,0,0,0,0.125,12.25,0.0,0,0,0,0.125,12.3,0.0,0,0,0,0.125,12.3,0.0,4,0,0,0.0,12.25,0.0,0,0,0,0.125,12.35,0.0,0,0,0,kReverse,kOff,-87.19,2.06,2.65,0.038635254,-0.96484375,-0.03643799,34.95,0.0,-16.0,-8.066818,11.907547,
623.3257659999999,true,true,true,0.125,12.25,0.0,-16339,-630,0,8.5,12.200000000000001,0.0,0,0,0,0.125,12.25,0.0,0,0,0,0.125,12.3,0.0,0,0,0,0.125,12.3,0.0,4,0,0,0.0,12.25,0.0,0,0,0,0.125,12.35,0.0,0,0,0,kReverse,kOff,-87.23,2.06,2.63,-0.014831543,-0.88031006,0.026855469,34.95,0.0,-44.0,-8.066452,11.907486,
623.347831,true,true,true,0.125,12.25,0.0,-16465,-630,0,8.125,12.200000000000001,0.0,0,0,0,0.125,12.25,0.0,0,0,0,0.125,12.3,0.0,0,0,0,0.125,12.3,0.0,4,0,0,0.0,12.25,0.0,0,0,0,0.125,12.35,0.0,0,0,0,kReverse,kOff,-87.2,2.05,2.64,0.1326294,-1.1060181,0.23242188,34.95,0.0,146.0,-8.066025,11.907532,
623.372334,true,true,true,0.125,12.25,0.0,-16717,-630,0,8.5,12.200000000000001,0.0,0,0,0,0.125,12.25,0.0,0,0,0,0.125,12.3,0.0,0,0,0,0.125,12.25,0.0,4,0,0,0.0,12.25,0.0,0,0,0,0.125,12.35,0.0,0,0,0,kReverse,kOff,-87.23,2.07,2.64,-0.06591797,-0.8852539,-0.052734375,34.95,0.0,-117.0,-8.065155,11.907593,
623.396375,true,true,true,0.125,12.25,0.0,-16843,-630,0,8.75,12.200000000000001,0.0,0,0,0,0.125,12.25,0.0,0,0,0,0.125,12.3,0.0,0,0,0,0.125,12.25,0.0,4,0,0,0.0,12.25,0.0,0,0,0,0.125,12.35,0.0,0,0,0,kReverse,kOff,-87.21,2.04,2.63,0.005004883,-0.9795532,0.051513672,34.95,0.0,-22.0,-8.06488,11.907547,
623.415796,true,true,true,0.125,12.25,0.0,-16969,-630,0,8.75,12.200000000000001,0.0,0,0,0,0.125,12.25,0.0,0,0,0,0.125,12.3,0.0,0,0,0,0.125,12.25,0.0,4,0,0,0.0,12.25,0.0,0,0,0,0.125,12.35,0.0,0,0,0,kReverse,kOff,-87.2,2.06,2.64,0.043823242,-0.91571045,-0.052856445,34.95,0.0,-14.0,-8.064331,11.907349,
623.438361,true,true,true,0.125,12.25,0.0,-17095,-630,0,8.875,12.200000000000001,0.0,0,0,0,0.125,12.25,0.0,0,0,0,0.125,12.3,0.0,0,0,0,0.125,12.25,0.0,4,0,0,0.0,12.25,0.0,0,0,0,0.125,12.35,0.0,0,0,0,kReverse,kOff,-87.26,2.04,2.6,0.05407715,-1.0765381,0.29864502,34.95,0.0,93.0,-8.063995,11.907318,
623.4609250000001,true,true,true,0.125,12.25,0.0,-17222,-630,0,8.875,12.200000000000001,0.0,0,0,0,0.125,12.25,0.0,0,0,0,0.125,12.3,0.0,0,0,0,0.125,12.25,0.0,4,0,0,0.0,12.25,0.0,0,0,0,0.125,12.35,0.0,0,0,0,kReverse,kOff,-87.18,2.08,2.67,-0.0814209,-0.89886475,-0.07739258,34.95,0.0,-140.0,-8.063171,11.907486,
623.480879,true,true,true,0.125,12.25,0.0,-17348,-630,0,8.75,12.200000000000001,0.0,0,0,0,0.125,12.25,0.0,0,0,0,0.125,12.3,0.0,0,0,0,0.125,12.25,0.0,4,0,0,0.0,12.25,0.0,0,0,0,0.125,12.35,0.0,0,0,0,kReverse,kOff,-87.21,2.05,2.63,0.074157715,-0.8666382,0.23803711,34.95,0.0,103.0,-8.062805,11.907608,
623.50072,true,true,true,0.125,12.25,0.0,-17474,-630,0,8.75,12.200000000000001,0.0,0,0,0,0.125,12.25,0.0,0,0,0,0.125,12.3,0.0,0,0,0,0.125,12.25,0.0,4,0,0,0.0,12.25,0.0,0,0,0,0.125,12.35,0.0,0,0,0,kReverse,kOff,-87.2,2.06,2.64,-0.054870605,-0.9729614,-0.055664062,34.95,0.0,-111.0,-8.062225,11.907867,
623.520908,true,true,true,0.125,12.25,0.0,-17601,-631,0,8.375,12.200000000000001,0.0,0,0,0,0.125,12.25,0.0,0,0,0,0.125,12.3,0.0,0,0,0,0.125,12.25,0.0,4,0,0,0.0,12.25,0.0,0,0,0,0.125,12.35,0.0,0,0,0,kReverse,kOff,-87.22,2.02,2.61,0.070251465,-1.0010376,0.15612793,34.95,0.0,69.0,-8.062042,11.907974,
623.54223,true,true,true,0.125,12.25,0.0,-17728,-631,0,8.5,12.200000000000001,0.0,0,0,0,0.125,12.25,0.0,0,0,0,0.125,12.3,0.0,0,0,0,0.125,12.25,0.0,4,0,0,0.0,12.25,0.0,0,0,0,0.125,12.35,0.0,0,0,0,kReverse,kOff,-87.22,2.01,2.6,0.10406494,-0.96343994,0.042785645,34.95,0.0,70.0,-8.061752,11.908142,
