timer,lineLeft,lineCenter,lineRight,LeftFrontCurrent,LeftFrontVoltage,LeftFrontValue,LeftFrontPosition,LeftFrontVelocity,LeftFrontFaults,LeftRearCurrent,LeftRearVoltage,LeftRearValue,LeftRearPosition,LeftRearVelocity,LeftRearFaults,RightFrontCurrent,RightFrontVoltage,RightFrontValue,RightFrontPosition,RightFrontVelocity,RightFrontFaults,RightRearCurrent,RightRearVoltage,RightRearValue,RightRearPosition,RightRearVelocity,RightRearFaults,LiftCurrent,LiftVoltage,LiftValue,LiftPosition,LiftVelocity,LiftFaults,WristCurrent,WristVoltage,WristValue,WristPosition,WristVelocity,WristFaults,RollerCurrent,RollerVoltage,RollerValue,RollerPosition,RollerVelocity,RollerFaults,PushersState,PivotsState,navx_Pitch,navx_Roll,navx_Yaw,navx_XAcc,navx_YAcc,navx_ZAcc,navx_Temp,navx_Bar,navx_Alt,navx_XDis,navx_YDis,
472.701358,true,true,true,0.125,12.700000000000001,0.0,0,0,0,0.125,12.700000000000001,0.0,0,0,0,0.125,12.700000000000001,0.0,0,0,0,0.125,12.75,0.0,0,0,0,0.0,12.700000000000001,0.0,0,0,0,0.0,12.700000000000001,0.0,0,0,0,0.0,12.75,0.0,0,0,0,kReverse,kReverse,-86.94,2.2,2.26,0.036987305,-0.9828491,0.037902832,33.15,0.0,0.0,-7.98172,12.679367,
472.733408,true,true,true,0.125,12.700000000000001,0.0,0,0,0,0.125,12.700000000000001,0.0,0,0,0,0.125,12.700000000000001,0.0,0,0,0,0.125,12.75,0.0,0,0,0,0.0,12.700000000000001,0.0,0,0,0,0.0,12.700000000000001,0.0,0,0,0,0.125,12.75,0.0,0,0,0,kReverse,kReverse,-86.95,2.2,2.26,0.036987305,-0.9837036,0.03918457,33.15,0.0,0.0,-7.98172,12.679367,
472.757256,true,true,true,0.125,12.700000000000001,0.0,0,0,0,0.125,12.700000000000001,0.0,0,0,0,0.125,12.700000000000001,0.0,0,0,0,0.125,12.75,0.0,0,0,0,0.0,12.700000000000001,0.0,0,0,0,0.0,12.700000000000001,0.0,0,0,0,0.125,12.75,0.0,0,0,0,kReverse,kReverse,-86.95,2.2,2.26,0.035705566,-0.98602295,0.03503418,33.15,0.0,-2.0,-7.98172,12.679367,
472.780565,true,true,true,0.125,12.700000000000001,0.0,0,0,0,0.125,12.700000000000001,0.0,0,0,0,0.125,12.700000000000001,0.0,0,0,0,0.125,12.75,0.0,0,0,0,0.125,12.700000000000001,0.0,0,0,0,0.0,12.700000000000001,0.0,0,0,0,0.125,12.75,0.0,0,0,0,kReverse,kReverse,-86.95,2.2,2.26,0.038024902,-0.9866333,0.034301758,33.15,0.0,0.0,-7.98172,12.679367,
472.801161,true,true,true,0.125,12.700000000000001,0.0,0,0,0,0.125,12.700000000000001,0.0,0,0,0,0.125,12.700000000000001,0.0,0,0,0,0.125,12.75,0.0,0,0,0,0.0,12.700000000000001,0.0,0,0,0,0.0,12.700000000000001,0.0,0,0,0,0.125,12.75,0.0,0,0,0,kReverse,kReverse,-86.95,2.2,2.26,0.03668213,-0.9828491,0.036193848,33.15,0.0,-1.0,-7.98172,12.679367,
472.82540099999994,true,true,true,0.125,12.700000000000001,0.0,0,0,0,0.125,12.700000000000001,0.0,0,0,0,0.125,12.700000000000001,0.0,0,0,0,0.125,12.75,0.0,0,0,0,0.0,12.700000000000001,0.0,0,0,0,0.0,12.700000000000001,0.0,0,0,0,0.125,12.75,0.0,0,0,0,kReverse,kReverse,-86.95,2.2,2.26,0.040893555,-0.9819336,0.0335083,33.15,0.0,3.0,-7.98172,12.679367,
472.85182999999995,true,true,true,0.125,12.700000000000001,0.0,0,0,0,0.125,12.700000000000001,0.0,0,0,0,0.125,12.700000000000001,0.0,0,0,0,0.125,12.75,0.0,0,0,0,0.0,12.700000000000001,0.0,0,0,0,0.0,12.700000000000001,0.0,0,0,0,0.125,12.75,0.0,0,0,0,kReverse,kReverse,-86.95,2.2,2.26,0.038085938,-0.9830322,0.032287598,33.15,0.0,0.0,-7.98172,12.679367,
472.87425199999996,true,true,true,0.125,12.700000000000001,0.0,0,0,0,0.125,12.700000000000001,0.0,0,0,0,0.125,12.700000000000001,0.0,0,0,0,0.125,12.75,0.0,0,0,0,0.125,12.700000000000001,0.0,0,0,0,0.0,12.700000000000001,0.0,0,0,0,0.125,12.75,0.0,0,0,0,kReverse,kReverse,-86.95,2.2,2.26,0.040649414,-0.9829712,0.03137207,33.15,0.0,2.0,-7.98172,12.679367,
472.895735,true,true,true,0.125,12.700000000000001,0.0,0,0,0,0.125,12.700000000000001,0.0,0,0,0,0.125,12.700000000000001,0.0,0,0,0,0.125,12.75,0.0,0,0,0,0.125,12.700000000000001,0.0,0,0,0,0.0,12.700000000000001,0.0,0,0,0,0.125,12.75,0.0,0,0,0,kReverse,kReverse,-86.94,2.21,2.27,0.03881836,-0.9829712,0.038391113,33.15,0.0,0.0,-7.98172,12.679367,
472.916022,true,true,true,0.125,12.700000000000001,0.0,0,0,0,0.125,12.700000000000001,0.0,0,0,0,0.125,12.700000000000001,0.0,0,0,0,0.125,12.75,0.0,0,0,0,0.125,12.700000000000001,0.0,0,0,0,0.0,12.700000000000001,0.0,0,0,0,0.125,12.75,0.0,0,0,0,kReverse,kReverse,-86.94,2.21,2.27,0.038879395,-0.9830322,0.035095215,33.15,0.0,0.0,-7.98172,12.679367,
472.937768,true,true,true,0.125,12.700000000000001,0.0,0,0,0,0.125,12.700000000000001,0.0,0,0,0,0.125,12.700000000000001,0.0,0,0,0,0.125,12.75,0.0,0,0,0,0.125,12.700000000000001,0.0,0,0,0,0.0,12.700000000000001,0.0,0,0,0,0.125,12.75,0.0,0,0,0,kReverse,kReverse,-86.95,2.2,2.26,0.0345459,-0.98516846,0.036743164,33.15,0.0,-3.0,-7.98172,12.679367,
472.95827999999995,true,true,true,0.125,12.700000000000001,0.0,0,0,0,0.125,12.700000000000001,0.0,0,0,0,0.125,12.700000000000001,0.0,0,0,0,0.125,12.75,0.0,0,0,0,0.125,12.700000000000001,0.0,0,0,0,0.0,12.700000000000001,0.0,0,0,0,0.125,12.75,0.0,0,0,0,kReverse,kReverse,-86.95,2.2,2.26,0.035949707,-0.98443604,0.032165527,33.15,0.0,-2.0,-7.98172,12.679367,
472.97889499999997,true,true,true,0.125,12.700000000000001,0.0,0,0,0,0.125,12.700000000000001,0.0,0,0,0,0.125,12.700000000000001,0.0,0,0,0,0.125,12.75,0.0,0,0,0,0.125,12.700000000000001,0.0,0,0,0,0.0,12.700000000000001,0.0,0,0,0,0.125,12.75,0.0,0,0,0,kReverse,kReverse,-86.95,2.2,2.26,0.035583496,-0.98443604,0.031921387,33.18,0.0,-1.0,-7.98172,12.679367,
473.00755699999996,true,true,true,0.125,12.700000000000001,0.0,0,0,0,0.125,12.700000000000001,0.0,0,0,0,0.125,12.700000000000001,0.0,0,0,0,0.125,12.75,0.0,0,0,0,0.125,12.700000000000001,0.0,0,0,0,0.0,12.700000000000001,0.0,0,0,0,0.125,12.75,0.0,0,0,0,kReverse,kReverse,-86.95,2.2,2.26,0.03503418,-0.9835205,0.038879395,33.18,0.0,-2.0,-7.98172,12.679367,
473.03179,true,true,true,0.125,12.700000000000001,0.0,0,0,0,0.125,12.700000000000001,0.0,0,0,0,0.125,12.700000000000001,0.0,0,0,0,0.125,12.75,0.0,0,0,0,0.125,12.700000000000001,0.0,0,0,0,0.0,12.700000000000001,0.0,0,0,0,0.125,12.75,0.0,0,0,0,kReverse,kReverse,-86.95,2.2,2.26,0.037231445,-0.9845581,0.033996582,33.18,0.0,0.0,-7.98172,12.679367,
473.052669,true,true,true,0.125,12.700000000000001,0.0,0,0,0,0.125,12.700000000000001,0.0,0,0,0,0.125,12.700000000000001,0.0,0,0,0,0.125,12.75,0.0,0,0,0,0.125,12.700000000000001,0.0,0,0,0,0.0,12.700000000000001,0.0,0,0,0,0.125,12.75,0.0,0,0,0,kReverse,kReverse,-86.95,2.2,2.26,0.037109375,-0.9822998,0.033569336,33.18,0.0,0.0,-7.98172,12.679367,
473.076551,true,true,true,0.125,12.700000000000001,0.0,0,0,0,0.125,12.700000000000001,0.0,0,0,0,0.125,12.700000000000001,0.0,0,0,0,0.125,12.75,0.0,0,0,0,0.125,12.700000000000001,0.0,0,0,0,0.0,12.700000000000001,0.0,0,0,0,0.125,12.75,0.0,0,0,0,kReverse,kReverse,-86.95,2.2,2.26,0.039245605,-0.9845581,0.03955078,33.18,0.0,1.0,-7.98172,12.679367,
473.09836199999995,true,true,true,0.125,12.700000000000001,0.0,0,0,0,0.125,12.700000000000001,0.0,0,0,0,0.125,12.700000000000001,0.0,0,0,0,0.125,12.75,0.0,0,0,0,0.0,12.700000000000001,0.0,0,0,0,0.0,12.700000000000001,0.0,0,0,0,0.125,12.75,0.0,0,0,0,kReverse,kReverse,-86.95,2.2,2.26,0.039245605,-0.9840088,0.035339355,33.18,0.0,2.0,-7.98172,12.679367,
473.124979,true,true,true,0.125,12.700000000000001,0.0,0,0,0,0.125,12.700000000000001,0.0,0,0,0,0.125,12.700000000000001,0.0,0,0,0,0.125,12.75,0.0,0,0,0,0.0,12.700000000000001,0.0,0,0,0,0.0,12.700000000000001,0.0,0,0,0,0.125,12.75,0.0,0,0,0,kReverse,kReverse,-86.95,2.2,2.26,0.040405273,-0.9840088,0.037597656,33.18,0.0,2.0,-7.98172,12.679367,
473.149788,true,true,true,0.125,12.700000000000001,0.0,0,0,0,0.125,12.700000000000001,0.0,0,0,0,0.125,12.700000000000001,0.0,0,0,0,0.125,12.75,0.0,0,0,0,0.0,12.700000000000001,0.0,0,0,0,0.0,12.700000000000001,0.0,0,0,0,0.125,12.75,0.0,0,0,0,kReverse,kReverse,-86.95,2.2,2.26,0.03942871,-0.9786377,0.035705566,33.18,0.0,1.0,-7.98172,12.679367,
473.17342699999995,true,true,true,0.125,12.700000000000001,0.0,0,0,0,0.125,12.700000000000001,0.0,0,0,0,0.125,12.700000000000001,0.0,0,0,0,0.125,12.75,0.0,0,0,0,0.0,12.700000000000001,0.0,0,0,0,0.0,12.700000000000001,0.0,0,0,0,0.125,12.75,0.0,0,0,0,kReverse,kReverse,-86.95,2.2,2.26,0.03668213,-0.98461914,0.03955078,33.18,0.0,-1.0,-7.98172,12.679367,
473.195273,true,true,true,0.125,12.700000000000001,0.0,0,0,0,0.125,12.700000000000001,0.0,0,0,0,0.125,12.700000000000001,0.0,0,0,0,0.125,12.75,0.0,0,0,0,0.0,12.700000000000001,0.0,0,0,0,0.0,12.700000000000001,0.0,0,0,0,0.125,12.75,0.0,0,0,0,kReverse,kReverse,-86.95,2.19,2.25,0.033081055,-0.98358154,0.037353516,33.18,0.0,-4.0,-7.98172,12.679367,
473.21583499999997,true,true,true,0.125,12.700000000000001,0.0,0,0,0,0.125,12.700000000000001,0.0,0,0,0,0.125,12.700000000000001,0.0,0,0,0,0.125,12.75,0.0,0,0,0,0.0,12.700000000000001,0.0,0,0,0,0.0,12.700000000000001,0.0,0,0,0,0.125,12.75,0.0,0,0,0,kReverse,kReverse,-86.95,2.19,2.25,0.040039062,-0.98114014,0.034973145,33.18,0.0,2.0,-7.98172,12.679367,
473.238876,true,true,true,0.125,12.700000000000001,0.0,0,0,0,0.125,12.700000000000001,0.0,0,0,0,0.125,12.700000000000001,0.0,0,0,0,0.125,12.75,0.0,0,0,0,0.125,12.700000000000001,0.0,0,0,0,0.0,12.700000000000001,0.0,0,0,0,0.125,12.75,0.0,0,0,0,kReverse,kReverse,-86.95,2.2,2.26,0.03942871,-0.9847412,0.034973145,33.18,0.0,1.0,-7.98172,12.679367,
473.260359,true,true,true,0.125,12.700000000000001,0.0,0,0,0,0.125,12.700000000000001,0.0,0,0,0,0.125,12.700000000000001,0.0,0,0,0,0.125,12.75,0.0,0,0,0,0.125,12.700000000000001,0.0,0,0,0,0.0,12.700000000000001,0.0,0,0,0,0.125,12.75,0.0,0,0,0,kReverse,kReverse,-86.95,2.2,2.26,0.040100098,-0.98394775,0.038085938,33.18,0.0,2.0,-7.98172,12.679367,
473.28268199999997,true,true,true,0.125,12.700000000000001,0.0,0,0,0,0.125,12.700000000000001,0.0,0,0,0,0.125,12.700000000000001,0.0,0,0,0,0.125,12.75,0.0,0,0,0,0.125,12.700000000000001,0.0,0,0,0,0.0,12.700000000000001,0.0,0,0,0,0.125,12.75,0.0,0,0,0,kReverse,kReverse,-86.95,2.2,2.26,0.04046631,-0.9814453,0.03515625,33.18,0.0,2.0,-7.98172,12.679367,
473.306675,true,true,true,0.125,12.700000000000001,0.0,0,0,0,0.125,12.700000000000001,0.0,0,0,0,0.125,12.700000000000001,0.0,0,0,0,0.125,12.75,0.0,0,0,0,0.125,12.700000000000001,0.0,0,0,0,0.0,12.700000000000001,0.0,0,0,0,0.125,12.75,0.0,0,0,0,kReverse,kReverse,-86.95,2.2,2.26,0.039367676,-0.9841919,0.033081055,33.18,0.0,1.0,-7.98172,12.679367,
473.32908499999996,true,true,true,0.125,12.700000000000001,0.0,0,0,0,0.125,12.700000000000001,0.0,0,0,0,0.125,12.700000000000001,0.0,0,0,0,0.125,12.75,0.0,0,0,0,0.125,12.700000000000001,0.0,0,0,0,0.0,12.700000000000001,0.0,0,0,0,0.125,12.75,0.0,0,0,0,kReverse,kReverse,-86.95,2.2,2.26,0.03955078,-0.9842529,0.03564453,33.18,0.0,1.0,-7.98172,12.679367,
473.353559,true,true,true,0.125,12.700000000000001,0.0,0,0,0,0.125,12.700000000000001,0.0,0,0,0,0.125,12.700000000000001,0.0,0,0,0,0.125,12.75,0.0,0,0,0,0.125,12.700000000000001,0.0,0,0,0,0.0,12.700000000000001,0.0,0,0,0,0.125,12.75,0.0,0,0,0,kReverse,kReverse,-86.95,2.2,2.26,0.036071777,-0.9854126,0.03741455,33.18,0.0,-1.0,-7.98172,12.679367,
473.375365,true,true,true,0.125,12.700000000000001,0.0,0,0,0,0.125,12.700000000000001,0.0,0,0,0,0.125,12.700000000000001,0.0,0,0,0,0.125,12.75,0.0,0,0,0,0.125,12.700000000000001,0.0,0,0,0,0.0,12.700000000000001,0.0,0,0,0,0.0,12.75,0.0,0,0,0,kReverse,kReverse,-86.94,2.2,2.26,0.03717041,-0.9833374,0.036376953,33.18,0.0,0.0,-7.98172,12.679367,
473.39635,true,true,true,0.125,12.700000000000001,0.0,0,0,0,0.125,12.700000000000001,0.0,0,0,0,0.125,12.700000000000001,0.0,0,0,0,0.125,12.75,0.0,0,0,0,0.0,12.700000000000001,0.0,0,0,0,0.0,12.700000000000001,0.0,0,0,0,0.0,12.75,0.0,0,0,0,kReverse,kReverse,-86.94,2.2,2.26,0.034057617,-0.9838257,0.04119873,33.18,0.0,-3.0,-7.98172,12.679367,
473.418114,true,true,true,0.125,12.700000000000001,0.0,0,0,0,0.125,12.700000000000001,0.0,0,0,0,0.125,12.700000000000001,0.0,0,0,0,0.125,12.75,0.0,0,0,0,0.0,12.700000000000001,0.0,0,0,0,0.0,12.700000000000001,0.0,0,0,0,0.125,12.75,0.0,0,0,0,kReverse,kReverse,-86.94,2.19,2.25,0.033447266,-0.9840088,0.032348633,33.18,0.0,-4.0,-7.98172,12.679367,
473.440098,true,true,true,0.125,12.700000000000001,0.0,0,0,0,0.125,12.700000000000001,0.0,0,0,0,0.125,12.700000000000001,0.0,0,0,0,0.125,12.75,0.0,0,0,0,0.0,12.700000000000001,0.0,0,0,0,5.25,12.700000000000001,0.0,0,0,0,0.125,12.75,0.0,0,0,0,kReverse,kReverse,-86.94,2.19,2.25,0.040283203,-0.9845581,0.034606934,33.18,0.0,0.0,-7.98172,12.679367,
473.462859,true,true,true,0.125,12.450000000000001,0.0,0,0,0,0.125,12.450000000000001,0.0,0,0,0,0.125,12.4,0.0,0,0,0,0.125,12.450000000000001,0.0,0,0,0,0.125,12.450000000000001,0.0,0,0,0,6.875,12.4,0.0,0,0,0,0.125,12.5,0.0,0,0,0,kReverse,kReverse,-86.95,2.19,2.25,0.035888672,-0.97717285,0.0026245117,33.18,0.0,-2.0,-7.98172,12.679352,
473.487864,true,true,true,0.125,12.450000000000001,0.0,0,0,0,0.125,12.450000000000001,0.0,0,0,0,0.125,12.4,0.0,0,0,0,0.125,12.450000000000001,0.0,0,0,0,0.125,12.450000000000001,0.0,0,0,0,8.5,12.4,0.0,0,0,0,0.125,12.5,0.0,0,0,0,kReverse,kReverse,-86.96,2.19,2.25,0.041503906,-1.0284424,0.014831543,33.18,0.0,1.0,-7.98172,12.679291,
473.50849900000003,true,true,true,0.125,12.450000000000001,0.0,0,0,0,0.125,12.450000000000001,0.0,0,0,0,0.125,12.4,0.0,0,0,0,0.125,12.450000000000001,0.0,0,0,0,0.125,12.450000000000001,0.0,0,0,0,8.125,12.4,0.0,0,0,0,0.125,12.5,0.0,0,0,0,kReverse,kReverse,-86.91,2.21,2.27,0.014221191,-1.0089722,0.023254395,33.17,0.0,-25.0,-7.9816895,12.679306,
473.529913,true,true,true,0.125,12.450000000000001,0.0,0,0,0,0.125,12.450000000000001,0.0,0,0,0,0.125,12.4,0.0,0,0,0,0.125,12.450000000000001,0.0,0,0,0,0.125,12.450000000000001,0.0,0,0,0,9.25,12.4,0.0,0,0,0,0.125,12.5,0.0,0,0,0,kReverse,kReverse,-86.93,2.21,2.27,0.072387695,-0.9597168,0.012390137,33.17,0.0,34.0,-7.981598,12.679306,
473.556277,true,true,true,0.125,12.450000000000001,0.0,0,0,0,0.125,12.450000000000001,0.0,0,0,0,0.125,12.4,0.0,0,0,0,0.125,12.450000000000001,0.0,0,0,0,0.0,12.450000000000001,0.0,0,0,0,6.625,12.4,0.0,0,0,0,0.125,12.5,0.0,0,0,0,kReverse,kReverse,-86.94,2.2,2.26,0.039855957,-1.0223999,0.0020751953,33.17,0.0,0.0,-7.9815216,12.679199,
473.57946100000004,true,true,true,0.125,12.450000000000001,0.0,0,0,0,0.125,12.450000000000001,0.0,0,0,0,0.125,12.4,0.0,0,0,0,0.125,12.450000000000001,0.0,0,0,0,0.0,12.450000000000001,0.0,0,0,0,4.375,12.4,0.0,0,0,0,0.125,12.5,0.0,0,0,0,kReverse,kReverse,-86.96,2.18,2.24,0.058044434,-0.9807129,0.09411621,33.17,0.0,22.0,-7.981415,12.679199,
473.592935,true,true,true,0.125,12.450000000000001,0.0,0,0,0,0.125,12.450000000000001,0.0,0,0,0,0.125,12.4,0.0,0,0,0,0.125,12.450000000000001,0.0,0,0,0,0.0,12.450000000000001,0.0,0,0,0,1.625,12.4,0.0,0,0,0,0.125,12.5,0.0,0,0,0,kReverse,kReverse,-86.95,2.16,2.22,-3.6621094E-4,-0.9845581,0.037475586,33.17,0.0,-37.0,-7.9813385,12.679199,
473.60610099999997,true,true,true,0.125,12.450000000000001,0.0,0,0,0,0.125,12.450000000000001,0.0,0,0,0,0.125,12.4,0.0,0,0,0,0.125,12.450000000000001,0.0,0,0,0,0.0,12.450000000000001,0.0,0,0,0,0.0,12.4,0.0,0,0,0,0.125,12.5,0.0,0,0,0,kReverse,kReverse,-86.98,2.12,2.18,0.016479492,-1.0339966,0.024108887,33.17,0.0,-22.0,-7.9812927,12.679199,
473.618856,true,true,true,0.125,12.450000000000001,0.0,0,0,0,0.125,12.65,0.0,0,0,0,0.125,12.65,0.0,0,0,0,0.125,12.700000000000001,0.0,0,0,0,0.0,12.450000000000001,0.0,0,0,0,0.0,12.4,0.0,0,0,0,0.125,12.75,0.0,0,0,0,kReverse,kReverse,-87.0,2.09,2.15,-0.010864258,-0.99664307,0.033691406,33.17,0.0,-47.0,-7.9812927,12.679199,
473.63280299999997,true,true,true,0.125,12.65,0.0,0,0,0,0.125,12.65,0.0,0,0,0,0.125,12.65,0.0,0,0,0,0.125,12.700000000000001,0.0,0,0,0,0.0,12.65,0.0,0,0,0,0.0,12.65,0.0,0,0,0,0.125,12.75,0.0,0,0,0,kReverse,kReverse,-87.0,2.07,2.13,-0.026184082,-0.99316406,0.07141113,33.17,0.0,-61.0,-7.9813538,12.6792145,
473.64552399999997,true,true,true,0.125,12.65,0.0,0,0,0,0.125,12.65,0.0,0,0,0,0.125,12.65,0.0,0,0,0,0.125,12.700000000000001,0.0,0,0,0,0.0,12.65,0.0,0,0,0,0.0,12.65,0.0,0,0,0,0.125,12.75,0.0,0,0,0,kReverse,kReverse,-87.02,2.06,2.12,0.05029297,-0.97753906,0.020812988,33.17,0.0,14.0,-7.9814606,12.679245,
473.669718,true,true,true,0.125,12.65,0.0,0,0,0,0.125,12.65,0.0,0,0,0,0.125,12.65,0.0,0,0,0,0.125,12.700000000000001,0.0,0,0,0,0.125,12.65,0.0,0,0,0,0.0,12.65,0.0,0,0,0,0.125,12.75,0.0,0,0,0,kReverse,kReverse,-86.98,2.11,2.17,0.0038452148,-1.0054932,0.076416016,33.17,0.0,-32.0,-7.9816284,12.679443,
473.700583,true,true,true,0.125,12.65,0.0,0,0,0,0.125,12.65,0.0,0,0,0,0.125,12.65,0.0,0,0,0,0.125,12.700000000000001,0.0,0,0,0,0.125,12.65,0.0,0,0,0,0.0,12.65,0.0,0,0,0,0.125,12.75,0.0,0,0,0,kReverse,kReverse,-86.97,2.16,2.22,0.047607422,-0.9743042,0.03704834,33.17,0.0,10.0,-7.98172,12.679672,
473.73292799999996,true,true,true,0.125,12.65,0.0,0,0,0,0.125,12.65,0.0,0,0,0,0.125,12.65,0.0,0,0,0,0.125,12.700000000000001,0.0,0,0,0,0.125,12.65,0.0,0,0,0,0.0,12.65,0.0,0,0,0,0.125,12.75,0.0,0,0,0,kReverse,kReverse,-86.92,2.24,2.29,0.053894043,-0.97546387,0.017211914,33.17,0.0,15.0,-7.981598,12.679779,
473.758872,true,true,true,0.125,12.65,0.0,0,0,0,0.125,12.65,0.0,0,0,0,0.125,12.65,0.0,0,0,0,0.125,12.700000000000001,0.0,0,0,0,0.125,12.65,0.0,0,0,0,0.0,12.65,0.0,0,0,0,0.125,12.75,0.0,0,0,0,kReverse,kReverse,-86.92,2.25,2.3,0.101745605,-0.9949951,0.027404785,33.17,0.0,62.0,-7.981476,12.679779,
473.782139,true,true,true,0.125,12.700000000000001,0.0,0,0,0,0.125,12.700000000000001,0.0,0,0,0,0.125,12.65,0.0,0,0,0,0.125,12.700000000000001,0.0,0,0,0,0.0,12.700000000000001,0.0,0,0,0,0.0,12.65,0.0,0,0,0,0.125,12.75,0.0,0,0,0,kReverse,kReverse,-86.86,2.25,2.31,-0.013977051,-1.2302856,0.07910156,33.17,0.0,-61.0,-7.98143,12.679291,
473.803864,true,true,true,0.125,12.700000000000001,0.0,0,0,0,0.125,12.700000000000001,0.0,0,0,0,0.125,12.65,0.0,0,0,0,0.125,12.700000000000001,0.0,0,0,0,0.0,12.700000000000001,0.0,0,0,0,0.0,12.65,0.0,0,0,0,0.125,12.75,0.0,0,0,0,kReverse,kReverse,-86.9,2.22,2.28,-0.04937744,-0.9477539,-0.049804688,33.17,0.0,-88.0,-7.9815674,12.67894,
473.823489,true,true,true,0.125,12.700000000000001,0.0,0,0,0,0.125,12.700000000000001,0.0,0,0,0,0.125,12.65,0.0,0,0,0,0.125,12.700000000000001,0.0,0,0,0,0.0,12.700000000000001,0.0,0,0,0,0.0,12.65,0.0,0,0,0,0.125,12.75,0.0,0,0,0,kReverse,kReverse,-86.95,2.23,2.29,0.06726074,-0.8319702,-0.026245117,33.17,0.0,33.0,-7.9817505,12.678497,
473.847021,true,true,true,0.125,12.700000000000001,0.0,0,0,0,0.125,12.700000000000001,0.0,0,0,0,0.125,12.65,0.0,0,0,0,0.125,12.700000000000001,0.0,0,0,0,0.0,12.700000000000001,0.0,0,0,0,0.0,12.65,0.0,0,0,0,0.125,12.75,0.0,0,0,0,kReverse,kReverse,-86.89,2.21,2.27,0.008850098,-0.9700928,-0.018493652,33.17,0.0,-30.0,-7.982025,12.677673,
473.869829,true,true,true,0.125,12.700000000000001,0.0,0,0,0,0.125,12.700000000000001,0.0,0,0,0,0.125,12.65,0.0,0,0,0,0.125,12.700000000000001,0.0,0,0,0,0.0,12.700000000000001,0.0,0,0,0,0.0,12.65,0.0,0,0,0,0.125,12.75,0.0,0,0,0,kReverse,kReverse,-86.98,2.15,2.21,-0.04840088,-0.9898071,-0.1375122,33.17,0.0,-90.0,-7.982254,12.677109,
473.892074,true,true,true,0.125,12.700000000000001,0.0,0,0,0,0.125,12.700000000000001,0.0,0,0,0,0.125,12.65,0.0,0,0,0,0.125,12.700000000000001,0.0,0,0,0,0.0,12.700000000000001,0.0,0,0,0,0.0,12.65,0.0,0,0,0,0.125,12.75,0.0,0,0,0,kReverse,kReverse,-86.91,2.16,2.22,0.06915283,-0.9951172,0.11254883,33.17,0.0,33.0,-7.9826508,12.676178,
473.91320299999995,true,true,true,0.125,12.700000000000001,0.0,0,0,0,0.125,12.700000000000001,0.0,0,0,0,0.125,12.65,0.0,0,0,0,0.125,12.700000000000001,0.0,0,0,0,0.125,12.700000000000001,0.0,0,0,0,0.0,12.65,0.0,0,0,0,0.0,12.75,0.0,0,0,0,kReverse,kReverse,-86.96,2.14,2.2,-0.07659912,-1.0351562,-0.08874512,33.17,0.0,-118.0,-7.9828796,12.675751,
473.93580099999997,true,true,true,0.125,12.700000000000001,0.0,0,0,0,0.125,12.700000000000001,0.0,0,0,0,0.125,12.65,0.0,0,0,0,0.125,12.700000000000001,0.0,0,0,0,0.125,12.700000000000001,0.0,0,0,0,0.0,12.65,0.0,0,0,0,0.0,12.75,0.0,0,0,0,kReverse,kReverse,-86.94,2.14,2.2,-0.0036621094,-0.9671631,-0.009338379,33.17,0.0,-41.0,-7.9835205,12.674988,
473.956315,true,true,true,0.125,12.700000000000001,0.0,0,0,0,0.125,12.700000000000001,0.0,0,0,0,0.125,12.65,0.0,0,0,0,0.125,12.700000000000001,0.0,0,0,0,0.125,12.65,0.0,0,0,0,0.0,12.700000000000001,0.0,0,0,0,0.0,12.75,0.0,0,0,0,kReverse,kReverse,-86.98,2.15,2.21,0.03668213,-1.0198364,-0.0390625,33.17,0.0,-3.0,-7.9838715,12.674561,
473.977873,true,true,true,0.125,12.700000000000001,0.0,0,0,0,0.125,12.700000000000001,0.0,0,0,0,0.125,12.65,0.0,0,0,0,0.125,12.700000000000001,0.0,0,0,0,0.125,12.65,0.0,0,0,0,0.0,12.700000000000001,0.0,0,0,0,0.125,12.75,0.0,0,0,0,kReverse,kReverse,-86.95,2.17,2.23,0.046447754,-0.93652344,0.08972168,33.17,0.0,12.0,-7.984665,12.673676,
473.99780499999997,true,true,true,0.125,12.700000000000001,0.0,0,0,0,0.125,12.700000000000001,0.0,0,0,0,0.125,12.65,0.0,0,0,0,0.125,12.700000000000001,0.0,0,0,0,0.0,12.65,0.0,0,0,0,0.0,12.700000000000001,0.0,0,0,0,0.125,12.75,0.0,0,0,0,kReverse,kReverse,-86.92,2.21,2.27,0.08770752,-1.0430298,0.0848999,33.17,0.0,48.0,-7.985016,12.67334,
474.018687,true,true,true,0.125,12.700000000000001,0.0,0,0,0,0.125,12.700000000000001,0.0,0,0,0,0.125,12.65,0.0,0,0,0,0.125,12.700000000000001,0.0,0,0,0,0.0,12.65,0.0,0,0,0,0.0,12.700000000000001,0.0,0,0,0,0.125,12.75,0.0,0,0,0,kReverse,kReverse,-86.93,2.23,2.29,0.051513672,-0.96087646,0.041625977,33.15,0.0,14.0,-7.985672,12.672577,
474.041624,true,true,true,0.125,12.700000000000001,0.0,0,0,0,0.125,12.700000000000001,0.0,0,0,0,0.125,12.65,0.0,0,0,0,0.125,12.700000000000001,0.0,0,0,0,0.0,12.65,0.0,0,0,0,0.0,12.700000000000001,0.0,0,0,0,0.125,12.75,0.0,0,0,0,kReverse,kReverse,-86.9,2.25,2.31,0.051818848,-1.0108643,0.04486084,33.15,0.0,12.0,-7.985672,12.672195,
474.062825,true,true,true,0.125,12.700000000000001,0.0,0,0,0,0.125,12.700000000000001,0.0,0,0,0,0.125,12.65,0.0,0,0,0,0.125,12.700000000000001,0.0,0,0,0,0.0,12.65,0.0,0,0,0,0.0,12.700000000000001,0.0,0,0,0,0.125,12.75,0.0,0,0,0,kReverse,kReverse,-86.93,2.22,2.28,0.03881836,-0.98583984,0.08581543,33.15,0.0,1.0,-7.985672,12.671356,
474.087071,true,true,true,0.125,12.700000000000001,0.0,0,0,0,0.125,12.700000000000001,0.0,0,0,0,0.125,12.65,0.0,0,0,0,0.125,12.700000000000001,0.0,0,0,0,0.125,12.65,0.0,0,0,0,0.0,12.700000000000001,0.0,0,0,0,0.125,12.75,0.0,0,0,0,kReverse,kReverse,-86.91,2.22,2.27,0.04626465,-0.9920654,0.018371582,33.15,0.0,7.0,-7.985672,12.670944,
474.11351,true,true,true,0.125,12.700000000000001,0.0,0,0,0,0.125,12.700000000000001,0.0,0,0,0,0.125,12.65,0.0,0,0,0,0.125,12.700000000000001,0.0,0,0,0,0.125,12.700000000000001,0.0,0,0,0,0.0,12.700000000000001,0.0,0,0,0,0.125,12.75,0.0,0,0,0,kReverse,kReverse,-86.94,2.19,2.25,0.0013427734,-0.97491455,0.032226562,33.15,0.0,-36.0,-7.9856873,12.670059,
474.137452,true,true,true,0.125,12.700000000000001,0.0,0,0,0,0.125,12.700000000000001,0.0,0,0,0,0.125,12.65,0.0,0,0,0,0.125,12.700000000000001,0.0,0,0,0,0.125,12.700000000000001,0.0,0,0,0,0.0,12.700000000000001,0.0,0,0,0,0.125,12.75,0.0,0,0,0,kReverse,kReverse,-86.96,2.16,2.22,0.0126953125,-0.9829712,0.036010742,33.15,0.0,-24.0,-7.985794,12.669617,
474.15833299999997,true,true,true,0.125,12.700000000000001,0.0,0,0,0,0.125,12.700000000000001,0.0,0,0,0,0.125,12.65,0.0,0,0,0,0.125,12.700000000000001,0.0,0,0,0,0.0,12.700000000000001,0.0,0,0,0,0.0,12.700000000000001,0.0,0,0,0,0.125,12.75,0.0,0,0,0,kReverse,kReverse,-86.97,2.15,2.21,0.029785156,-0.97766113,0.04437256,33.15,0.0,-6.0,-7.985855,12.669617,
474.182208,true,true,true,0.125,12.700000000000001,0.0,0,0,0,0.125,12.700000000000001,0.0,0,0,0,0.125,12.65,0.0,0,0,0,0.125,12.700000000000001,0.0,0,0,0,0.0,12.700000000000001,0.0,0,0,0,0.0,12.700000000000001,0.0,0,0,0,0.125,12.75,0.0,0,0,0,kReverse,kReverse,-86.97,2.15,2.21,0.041625977,-0.9892578,0.022460938,33.15,0.0,4.0,-7.9859467,12.669678,
474.20683399999996,true,true,true,0.125,12.700000000000001,0.0,0,0,0,0.125,12.700000000000001,0.0,0,0,0,0.125,12.65,0.0,0,0,0,0.125,12.700000000000001,0.0,0,0,0,0.0,12.700000000000001,0.0,0,0,0,0.0,12.700000000000001,0.0,0,0,0,0.125,12.75,0.0,0,0,0,kReverse,kReverse,-86.96,2.16,2.22,0.024902344,-0.9838867,0.0592041,33.15,0.0,-11.0,-7.9859467,12.669708,
474.23042399999997,true,true,true,0.125,12.700000000000001,0.0,0,0,0,0.125,12.700000000000001,0.0,0,0,0,0.125,12.65,0.0,0,0,0,0.125,12.700000000000001,0.0,0,0,0,0.0,12.700000000000001,0.0,0,0,0,4.5,12.700000000000001,0.0,0,0,0,0.125,12.75,0.0,0,0,0,kReverse,kReverse,-86.95,2.19,2.25,0.041809082,-0.96984863,0.045776367,33.15,0.0,4.0,-7.9859467,12.669754,
474.255976,true,true,true,0.125,12.700000000000001,0.0,0,0,0,0.125,12.450000000000001,0.0,0,0,0,0.125,12.65,0.0,0,0,0,0.125,12.5,0.0,0,0,0,0.0,12.5,0.0,0,0,0,5.5,12.700000000000001,0.0,0,0,0,0.125,12.55,0.0,0,0,0,kReverse,kReverse,-86.94,2.22,2.28,0.03527832,-0.9700928,-0.009521484,33.15,0.0,-3.0,-7.9859467,12.6697235,
474.27898799999997,true,true,true,0.125,12.5,0.0,0,0,0,0.125,12.450000000000001,0.0,0,0,0,0.125,12.450000000000001,0.0,0,0,0,0.125,12.5,0.0,0,0,0,0.0,12.5,0.0,0,0,0,6.75,12.450000000000001,0.0,0,0,0,0.125,12.55,0.0,0,0,0,kReverse,kReverse,-86.94,2.22,2.28,0.07196045,-0.9633179,0.091674805,33.15,0.0,35.0,-7.9859314,12.669693,
474.299692,true,true,true,0.125,12.5,0.0,0,0,0,0.125,12.450000000000001,0.0,0,0,0,0.125,12.450000000000001,0.0,0,0,0,0.125,12.5,0.0,0,0,0,0.0,12.5,0.0,0,0,0,7.75,12.450000000000001,0.0,0,0,0,0.125,12.55,0.0,0,0,0,kReverse,kReverse,-86.92,2.23,2.29,0.019104004,-0.93927,-0.07879639,33.15,0.0,-20.0,-7.9858093,12.669739,
474.322527,true,true,true,0.125,12.5,0.0,0,0,0,0.125,12.450000000000001,0.0,0,0,0,0.125,12.450000000000001,0.0,0,0,0,0.125,12.5,0.0,0,0,0,0.125,12.5,0.0,0,0,0,9.25,12.450000000000001,0.0,0,0,0,0.125,12.55,0.0,0,0,0,kReverse,kReverse,-86.94,2.22,2.28,0.10266113,-0.9624634,0.079711914,33.15,0.0,66.0,-7.985718,12.669678,
474.34758999999997,true,true,true,0.125,12.5,0.0,0,0,0,0.125,12.450000000000001,0.0,0,0,0,0.125,12.450000000000001,0.0,0,0,0,0.125,12.5,0.0,0,0,0,0.125,12.5,0.0,0,0,0,10.625,12.450000000000001,0.0,0,0,0,0.125,12.55,0.0,0,0,0,kReverse,kReverse,-86.95,2.21,2.27,0.044921875,-0.99261475,0.07086182,33.15,0.0,7.0,-7.9855804,12.669525,
474.371261,true,true,true,0.125,12.5,0.0,0,0,0,0.125,12.450000000000001,0.0,0,0,0,0.125,12.450000000000001,0.0,0,0,0,0.125,12.5,0.0,0,0,0,0.125,12.5,0.0,0,0,0,11.625,12.450000000000001,0.0,0,0,0,0.125,12.55,0.0,0,0,0,kReverse,kReverse,-86.94,2.19,2.25,0.024230957,-0.9765625,0.05657959,33.15,0.0,-12.0,-7.9855804,12.669464,
474.39417799999995,true,true,true,0.125,12.5,0.0,0,0,0,0.125,12.450000000000001,0.0,0,0,0,0.125,12.450000000000001,0.0,0,0,0,0.125,12.5,0.0,0,0,0,0.0,12.5,0.0,0,0,0,12.125,12.450000000000001,0.0,0,0,0,0.125,12.55,0.0,0,0,0,kReverse,kReverse,-86.97,2.15,2.21,-0.017150879,-1.0157471,-0.013427734,33.15,0.0,-56.0,-7.985626,12.669403,
474.41856299999995,true,true,true,0.125,12.5,0.0,0,0,0,0.125,12.4,0.0,0,0,0,0.125,12.35,0.0,0,0,0,0.125,12.4,0.0,0,0,0,0.0,12.4,0.0,0,0,0,11.125,12.450000000000001,0.0,0,0,0,0.125,12.450000000000001,0.0,0,0,0,kReverse,kReverse,-87.01,2.07,2.13,0.011962891,-1.0483398,0.037109375,33.15,0.0,-26.0,-7.985962,12.669281,
474.44514499999997,true,true,true,0.125,12.4,0.0,0,0,0,0.125,12.4,0.0,0,0,0,0.125,12.35,0.0,0,0,0,0.125,12.4,0.0,0,0,0,0.0,12.4,0.0,0,0,0,10.5,12.200000000000001,0.0,0,0,0,0.125,12.450000000000001,0.0,0,0,0,kReverse,kReverse,-87.01,2.07,2.13,0.011962891,-1.0483398,0.037109375,33.15,0.0,-26.0,-7.985962,12.669281,
474.474748,true,true,true,0.125,12.4,0.0,0,0,0,0.125,12.4,0.0,0,0,0,0.125,12.35,0.0,0,0,0,0.125,12.4,0.0,0,0,0,0.125,12.4,0.0,0,0,0,11.125,12.200000000000001,0.0,0,0,0,0.125,12.450000000000001,0.0,0,0,0,kReverse,kReverse,-87.01,2.08,2.14,-0.015014648,-0.97650146,0.029174805,33.15,0.0,-50.0,-7.9865723,12.669266,
474.497,true,true,true,0.125,12.4,0.0,0,0,0,0.125,12.4,0.0,0,0,0,0.125,12.35,0.0,0,0,0,0.125,12.4,0.0,0,0,0,0.125,12.4,0.0,0,0,0,10.0,12.200000000000001,0.0,0,0,0,0.125,12.450000000000001,0.0,0,0,0,kReverse,kReverse,-86.99,2.12,2.18,0.08428955,-0.97387695,0.041931152,33.15,0.0,48.0,-7.9870453,12.669327,
474.520685,true,true,true,0.125,12.4,0.0,0,0,0,0.125,12.4,0.0,0,0,0,0.125,12.35,0.0,0,0,0,0.125,12.4,0.0,0,0,0,0.125,12.4,0.0,0,0,0,9.75,12.200000000000001,0.0,0,0,0,0.125,12.450000000000001,0.0,0,0,0,kReverse,kReverse,-86.97,2.15,2.21,0.038635254,-0.9729614,0.024719238,33.16,0.0,1.0,-7.9872284,12.669357,
474.54549,true,true,true,0.125,12.4,0.0,0,0,0,0.125,12.4,0.0,0,0,0,0.125,12.35,0.0,0,0,0,0.125,12.4,0.0,0,0,0,0.125,12.4,0.0,0,0,0,9.75,12.200000000000001,0.0,0,0,0,0.125,12.450000000000001,0.0,0,0,0,kReverse,kReverse,-86.93,2.21,2.27,0.050842285,-0.9647827,0.025756836,33.16,0.0,13.0,-7.987503,12.669357,
474.56755699999997,true,true,true,0.125,12.4,0.0,0,0,0,0.125,12.4,0.0,0,0,0,0.125,12.35,0.0,0,0,0,0.125,12.4,0.0,0,0,0,0.125,12.4,0.0,0,0,0,9.875,12.200000000000001,0.0,0,0,0,0.125,12.450000000000001,0.0,0,0,0,kReverse,kReverse,-86.94,2.22,2.28,0.045715332,-0.99261475,0.022644043,33.16,0.0,6.0,-7.98761,12.669327,
474.59226499999994,true,true,true,0.125,12.35,0.0,0,0,0,0.125,12.35,0.0,0,0,0,0.125,12.35,0.0,0,0,0,0.125,12.35,0.0,0,0,0,0.125,12.35,0.0,0,0,0,9.625,12.35,0.0,0,0,0,0.125,12.4,0.0,0,0,0,kReverse,kReverse,-86.92,2.23,2.29,0.04107666,-0.94281006,0.055725098,33.16,0.0,4.0,-7.9877777,12.669342,
474.616205,true,true,true,0.125,12.35,0.0,0,0,0,0.125,12.35,0.0,0,0,0,0.125,12.35,0.0,0,0,0,0.125,12.35,0.0,0,0,0,0.125,12.35,0.0,0,0,0,9.375,12.35,0.0,0,0,0,0.125,12.4,0.0,0,0,0,kReverse,kReverse,-86.92,2.23,2.29,0.05883789,-0.9785156,0.026123047,33.16,0.0,20.0,-7.9878235,12.669373,
474.636532,true,true,true,0.125,12.35,0.0,0,0,0,0.125,12.35,0.0,0,0,0,0.125,12.35,0.0,0,0,0,0.125,12.35,0.0,0,0,0,0.125,12.35,0.0,0,0,0,9.125,12.35,0.0,0,0,0,0.125,12.4,0.0,0,0,0,kReverse,kReverse,-86.93,2.21,2.27,0.051086426,-0.994751,0.025268555,33.16,0.0,12.0,-7.987854,12.669373,
474.65696999999994,true,true,true,0.125,12.35,0.0,0,0,0,0.125,12.35,0.0,0,0,0,0.125,12.35,0.0,0,0,0,0.125,12.35,0.0,0,0,0,0.125,12.35,0.0,0,0,0,9.0,12.35,0.0,0,0,0,0.125,12.4,0.0,0,0,0,kReverse,kReverse,-86.95,2.18,2.24,0.0067749023,-0.9798584,0.017700195,33.16,0.0,-31.0,-7.987915,12.669373,
474.677735,true,true,true,0.125,12.35,0.0,0,0,0,0.125,12.35,0.0,0,0,0,0.125,12.35,0.0,0,0,0,0.125,12.35,0.0,0,0,0,0.0,12.35,0.0,0,0,0,9.0,12.35,0.0,0,0,0,0.125,12.4,0.0,0,0,0,kReverse,kReverse,-86.97,2.16,2.22,0.021850586,-0.9854126,0.03479004,33.16,0.0,-15.0,-7.987976,12.669373,
474.69843199999997,true,true,true,0.125,12.35,0.0,0,0,0,0.125,12.35,0.0,0,0,0,0.125,12.35,0.0,0,0,0,0.125,12.35,0.0,0,0,0,0.0,12.35,0.0,0,0,0,8.875,12.35,0.0,0,0,0,0.125,12.4,0.0,0,0,0,kReverse,kReverse,-86.97,2.14,2.2,0.030883789,-1.0087891,0.082092285,33.16,0.0,-5.0,-7.9880676,12.669403,
474.72013,true,true,true,0.125,12.35,0.0,0,0,0,0.125,12.35,0.0,0,0,0,0.125,12.35,0.0,0,0,0,0.125,12.35,0.0,0,0,0,0.0,12.35,0.0,0,0,0,8.625,12.35,0.0,0,0,0,0.125,12.4,0.0,0,0,0,kReverse,kReverse,-86.99,2.11,2.17,0.028320312,-1.0169067,0.022583008,33.16,0.0,-9.0,-7.9880676,12.669525,
474.74449799999996,true,true,true,0.125,12.35,0.0,0,0,0,0.125,12.35,0.0,0,0,0,0.125,12.35,0.0,0,0,0,0.125,12.4,0.0,0,0,0,0.125,12.35,0.0,0,0,0,6.875,12.35,0.0,0,0,0,0.125,12.450000000000001,0.0,0,0,0,kReverse,kReverse,-87.0,2.1,2.16,0.020935059,-0.9847412,0.028564453,33.16,0.0,-15.0,-7.9880676,12.669525,
474.76872,true,true,true,0.125,12.35,0.0,0,0,0,0.125,12.35,0.0,0,0,0,0.125,12.35,0.0,0,0,0,0.125,12.4,0.0,0,0,0,0.125,12.35,0.0,0,0,0,8.125,12.35,0.0,0,0,0,0.125,12.450000000000001,0.0,0,0,0,kReverse,kReverse,-87.0,2.11,2.17,0.019165039,-1.0079956,0.031433105,33.16,0.0,-18.0,-7.9880676,12.669525,
474.801522,true,true,true,0.125,12.35,0.0,0,0,0,0.125,12.35,0.0,0,0,0,0.125,12.35,0.0,0,0,0,0.125,12.4,0.0,0,0,0,0.125,12.35,0.0,0,0,0,8.25,12.35,0.0,0,0,0,0.125,12.450000000000001,0.0,0,0,0,kReverse,kReverse,-86.97,2.11,2.17,-0.02758789,-0.9845581,0.26940918,33.16,0.0,-57.0,-7.9882507,12.669739,
474.82611299999996,true,true,true,0.125,12.35,0.0,0,0,0,0.125,12.35,0.0,0,0,0,0.125,12.35,0.0,0,0,0,0.125,12.4,0.0,0,0,0,0.125,12.35,0.0,0,0,0,9.0,12.35,0.0,0,0,0,0.125,12.450000000000001,0.0,0,0,0,kReverse,kReverse,-86.94,2.19,2.25,0.15338135,-0.9402466,-0.3161621,33.16,0.0,107.0,-7.9882355,12.670563,
474.850715,true,true,true,0.125,12.35,0.0,0,0,0,0.125,12.35,0.0,0,0,0,0.125,12.35,0.0,0,0,0,0.125,12.4,0.0,0,0,0,0.125,12.35,0.0,0,0,0,9.125,12.35,0.0,0,0,0,0.125,12.450000000000001,0.0,0,0,0,kReverse,kReverse,-86.96,2.23,2.29,0.051818848,-0.9603882,5.493164E-4,33.16,0.0,13.0,-7.9880676,12.670639,
474.87100799999996,true,true,true,0.125,12.35,0.0,0,0,0,0.125,12.35,0.0,0,0,0,0.125,12.35,0.0,0,0,0,0.125,12.4,0.0,0,0,0,0.125,12.35,0.0,0,0,0,9.125,12.35,0.0,0,0,0,0.125,12.450000000000001,0.0,0,0,0,kReverse,kReverse,-86.98,2.18,2.24,0.12890625,-1.0070801,0.3737793,33.16,0.0,99.0,-7.987808,12.671448,
474.895019,true,true,true,0.125,12.35,0.0,0,0,0,0.125,12.4,0.0,0,0,0,0.125,12.35,0.0,0,0,0,0.125,12.4,0.0,0,0,0,0.125,12.35,0.0,0,0,0,8.75,12.35,0.0,0,0,0,0.125,12.450000000000001,0.0,0,0,0,kReverse,kReverse,-86.89,2.23,2.29,0.13140869,-1.2750244,0.14172363,33.16,0.0,83.0,-7.9871674,12.673172,
474.917777,true,true,true,0.125,12.4,0.0,0,0,0,0.125,12.4,0.0,0,0,0,0.125,12.35,0.0,0,0,0,0.125,12.4,0.0,0,0,0,0.125,12.4,0.0,0,0,0,8.5,12.200000000000001,0.0,0,0,0,0.125,12.450000000000001,0.0,0,0,0,kReverse,kReverse,-86.92,2.26,2.32,-0.02355957,-1.0565186,-0.18017578,33.16,0.0,-70.0,-7.9867706,12.673981,
474.938936,true,true,true,0.125,12.4,0.0,0,0,0,0.125,12.4,0.0,0,0,0,0.125,12.35,0.0,0,0,0,0.125,12.4,0.0,0,0,0,0.125,12.4,0.0,0,0,0,8.375,12.200000000000001,0.0,0,0,0,0.125,12.450000000000001,0.0,0,0,0,kReverse,kReverse,-86.93,2.14,2.21,0.08123779,-0.8673096,-0.19927979,33.16,0.0,41.0,-7.986328,12.674774,
474.959918,true,true,true,0.125,12.4,0.0,0,0,0,0.125,12.4,0.0,0,0,0,0.125,12.35,0.0,0,0,0,0.125,12.4,0.0,0,0,0,0.125,12.4,0.0,0,0,0,8.5,12.200000000000001,0.0,0,0,0,0.125,12.450000000000001,0.0,0,0,0,kReverse,kReverse,-86.97,2.2,2.26,-0.018310547,-0.92523193,0.12890625,33.16,0.0,-51.0,-7.9861603,12.674927,
474.98502499999995,true,true,true,0.125,12.4,0.0,0,0,0,0.125,12.4,0.0,0,0,0,0.125,12.35,0.0,0,0,0,0.125,12.4,0.0,0,0,0,0.125,12.4,0.0,0,0,0,8.25,12.200000000000001,0.0,0,0,0,0.125,12.450000000000001,0.0,0,0,0,kReverse,kReverse,-87.07,2.16,2.21,0.0018310547,-1.1080933,0.08520508,33.16,0.0,-38.0,-7.986038,12.675171,
475.005953,true,true,true,0.125,12.4,0.0,0,0,0,0.125,12.4,0.0,0,0,0,0.125,12.35,0.0,0,0,0,0.125,12.4,0.0,0,0,0,0.125,12.4,0.0,0,0,0,8.0,12.200000000000001,0.0,0,0,0,0.125,12.450000000000001,0.0,0,0,0,kReverse,kReverse,-87.04,2.13,2.18,-0.040161133,-0.9953613,-0.010192871,33.16,0.0,-78.0,-7.9860992,12.675446,
475.031093,true,true,true,0.125,12.4,0.0,0,0,0,0.125,12.4,0.0,0,0,0,0.125,12.35,0.0,0,0,0,0.125,12.4,0.0,0,0,0,0.125,12.4,0.0,0,0,0,7.625,12.200000000000001,0.0,0,0,0,0.125,12.450000000000001,0.0,0,0,0,kReverse,kReverse,-86.99,2.12,2.18,-0.036499023,-1.0028687,0.0064697266,33.19,0.0,-74.0,-7.986389,12.675735,
475.054112,true,true,true,0.125,12.4,0.0,0,0,0,0.125,12.4,0.0,0,0,0,0.125,12.35,0.0,0,0,0,0.125,12.4,0.0,0,0,0,0.125,12.4,0.0,0,0,0,7.25,12.200000000000001,0.0,0,0,0,0.125,12.450000000000001,0.0,0,0,0,kReverse,kReverse,-87.01,2.11,2.17,0.08148193,-0.9796753,0.0138549805,33.19,0.0,44.0,-7.9865723,12.675873,
475.077668,true,true,true,0.125,12.450000000000001,0.0,0,0,0,0.125,12.4,0.0,0,0,0,0.125,12.4,0.0,0,0,0,0.125,12.450000000000001,0.0,0,0,0,0.125,12.450000000000001,0.0,0,0,0,6.125,12.4,0.0,0,0,0,0.125,12.55,0.0,0,0,0,kReverse,kReverse,-87.0,2.18,2.24,-0.00592041,-0.93859863,-0.060302734,33.19,0.0,-44.0,-7.9868164,12.676163,
475.098883,true,true,true,0.125,12.450000000000001,0.0,0,0,0,0.125,12.4,0.0,0,0,0,0.125,12.4,0.0,0,0,0,0.125,12.450000000000001,0.0,0,0,0,0.125,12.450000000000001,0.0,0,0,0,5.875,12.4,0.0,0,0,0,0.125,12.55,0.0,0,0,0,kReverse,kReverse,-87.03,2.18,2.23,0.0625,-0.9747925,0.077697754,33.19,0.0,26.0,-7.9869537,12.676254,
475.12025399999993,true,true,true,0.125,12.450000000000001,0.0,0,0,0,0.125,12.4,0.0,0,0,0,0.125,12.4,0.0,0,0,0,0.125,12.450000000000001,0.0,0,0,0,0.125,12.450000000000001,0.0,0,0,0,6.25,12.4,0.0,0,0,0,0.125,12.55,0.0,0,0,0,kReverse,kReverse,-86.96,2.19,2.25,0.029174805,-0.95599365,-0.016906738,33.19,0.0,-8.0,-7.987198,12.67659,
475.144995,true,true,true,0.125,12.450000000000001,0.0,0,0,0,0.125,12.4,0.0,0,0,0,0.125,12.4,0.0,0,0,0,0.125,12.450000000000001,0.0,0,0,0,0.125,12.450000000000001,0.0,0,0,0,3.25,12.4,0.0,0,0,0,0.125,12.55,0.0,0,0,0,kReverse,kReverse,-87.02,2.17,2.23,0.047668457,-1.0407715,0.036987305,33.19,0.0,8.0,-7.987198,12.676743,
475.168812,true,true,true,0.125,12.450000000000001,0.0,0,0,0,0.125,12.4,0.0,0,0,0,0.125,12.4,0.0,0,0,0,0.125,12.450000000000001,0.0,0,0,0,0.125,12.450000000000001,0.0,0,0,0,1.875,12.4,0.0,0,0,0,0.125,12.55,0.0,0,0,0,kReverse,kReverse,-86.98,2.17,2.23,0.02154541,-0.9603882,0.029968262,33.19,0.0,-15.0,-7.987198,12.677078,
475.194795,true,true,true,0.125,12.450000000000001,0.0,0,0,0,0.125,12.4,0.0,0,0,0,0.125,12.4,0.0,0,0,0,0.125,12.450000000000001,0.0,0,0,0,0.125,12.450000000000001,0.0,0,0,0,0.875,12.4,0.0,0,0,0,0.125,12.55,0.0,0,0,0,kReverse,kReverse,-86.99,2.18,2.23,0.03137207,-1.0042114,0.067993164,33.19,0.0,-6.0,-7.987198,12.677521,
475.216142,true,true,true,0.125,12.450000000000001,0.0,0,0,0,0.125,12.6,0.0,0,0,0,0.125,12.4,0.0,0,0,0,0.125,12.450000000000001,0.0,0,0,0,0.125,12.6,0.0,0,0,0,0.0,12.4,0.0,0,0,0,0.125,12.65,0.0,0,0,0,kReverse,kReverse,-86.96,2.19,2.25,0.048828125,-1.1517334,0.024536133,33.19,0.0,4.0,-7.987198,12.67778,
475.24195399999996,true,true,true,0.125,12.6,0.0,0,0,0,0.125,12.6,0.0,0,0,0,0.125,12.6,0.0,0,0,0,0.125,12.65,0.0,0,0,0,0.0,12.6,0.0,0,0,0,0.0,12.6,0.0,0,0,0,0.125,12.65,0.0,0,0,0,kReverse,kReverse,-86.89,2.22,2.27,0.049865723,-0.6188965,0.47503662,33.19,0.0,37.0,-7.9870453,12.679428,
475.26161699999994,true,true,true,0.125,12.6,0.0,0,0,0,0.125,12.6,0.0,0,0,0,0.125,12.6,0.0,0,0,0,0.125,12.65,0.0,0,0,0,0.0,12.6,0.0,0,0,0,0.0,12.6,0.0,0,0,0,0.0,12.65,0.0,0,0,0,kReverse,kReverse,-86.99,2.18,2.24,0.17614746,-0.93707275,-0.25091553,33.19,0.0,132.0,-7.9868164,12.680649,
475.28138299999995,true,true,true,0.125,12.6,0.0,0,0,0,0.125,12.6,0.0,0,0,0,0.125,12.6,0.0,0,0,0,0.125,12.65,0.0,0,0,0,0.0,12.6,0.0,0,0,0,0.0,12.6,0.0,0,0,0,0.0,12.65,0.0,0,0,0,kReverse,kReverse,-86.89,2.29,2.36,0.06915283,-1.0529175,-0.234375,33.19,0.0,18.0,-7.9857635,12.682159,
475.30225199999995,true,true,true,0.125,12.6,0.0,0,0,0,0.125,12.6,0.0,0,0,0,0.125,12.6,0.0,0,0,0,0.125,12.65,0.0,0,0,0,0.0,12.6,0.0,0,0,0,0.0,12.6,0.0,0,0,0,0.0,12.65,0.0,0,0,0,kReverse,kReverse,-87.0,2.27,2.32,0.15075684,-0.85931396,0.26660156,33.19,0.0,123.0,-7.985077,12.682724,
475.325039,true,true,true,0.125,12.6,0.0,0,0,0,0.125,12.6,0.0,0,0,0,0.125,12.6,0.0,0,0,0,0.125,12.65,0.0,0,0,0,0.0,12.6,0.0,0,0,0,0.0,12.6,0.0,0,0,0,0.125,12.65,0.0,0,0,0,kReverse,kReverse,-87.01,2.26,2.32,-0.01940918,-0.8280029,0.011474609,33.19,0.0,-52.0,-7.9843445,12.683441,
475.34871599999997,true,true,true,0.125,12.6,0.0,0,0,0,0.125,12.6,0.0,0,0,0,0.125,12.6,0.0,0,0,0,0.125,12.65,0.0,0,0,0,0.0,12.6,0.0,0,0,0,0.0,12.6,0.0,0,0,0,0.125,12.65,0.0,0,0,0,kReverse,kReverse,-87.0,2.25,2.3,0.046813965,-0.97784424,0.15057373,33.19,0.0,11.0,-7.983032,12.684845,
475.371755,true,true,true,0.125,12.6,0.0,0,0,0,0.125,12.6,0.0,0,0,0,0.125,12.6,0.0,0,0,0,0.125,12.65,0.0,0,0,0,0.0,12.6,0.0,0,0,0,0.0,12.6,0.0,0,0,0,0.125,12.65,0.0,0,0,0,kReverse,kReverse,-87.03,2.16,2.21,-0.03100586,-0.9255371,0.3140869,33.19,0.0,-58.0,-7.9819794,12.686386,
475.393919,true,true,true,0.125,12.65,0.0,0,0,0,0.125,12.65,0.0,0,0,0,0.125,12.65,0.0,0,0,0,0.125,12.65,0.0,0,0,0,0.0,12.65,0.0,0,0,0,0.0,12.65,0.0,0,0,0,0.125,12.700000000000001,0.0,0,0,0,kReverse,kReverse,-86.97,2.13,2.19,0.06109619,-1.0651855,0.0546875,33.19,0.0,21.0,-7.9815216,12.687424,
475.41674900000004,true,true,true,0.125,12.65,0.0,0,0,0,0.125,12.65,0.0,0,0,0,0.125,12.65,0.0,0,0,0,0.125,12.65,0.0,0,0,0,0.0,12.65,0.0,0,0,0,0.0,12.65,0.0,0,0,0,0.125,12.700000000000001,0.0,0,0,0,kReverse,kReverse,-87.04,2.15,2.2,0.033203125,-0.96917725,0.022949219,33.19,0.0,-3.0,-7.980606,12.688965,
475.436427,true,true,true,0.125,12.65,0.0,0,0,0,0.125,12.65,0.0,0,0,0,0.125,12.65,0.0,0,0,0,0.125,12.65,0.0,0,0,0,0.0,12.65,0.0,0,0,0,0.0,12.65,0.0,0,0,0,0.125,12.700000000000001,0.0,0,0,0,kReverse,kReverse,-87.02,2.16,2.21,6.1035156E-4,-1.0046997,-0.05847168,33.19,0.0,-39.0,-7.9801636,12.689575,
475.45806699999997,true,true,true,0.125,12.65,0.0,0,0,0,0.125,12.65,0.0,0,0,0,0.125,12.65,0.0,0,0,0,0.125,12.65,0.0,0,0,0,0.0,12.65,0.0,0,0,0,0.0,12.65,0.0,0,0,0,0.125,12.700000000000001,0.0,0,0,0,kReverse,kReverse,-86.99,2.2,2.25,0.0569458,-0.98254395,0.080200195,33.19,0.0,20.0,-7.979187,12.690842,
475.47991099999996,true,true,true,0.125,12.65,0.0,0,0,0,0.125,12.65,0.0,0,0,0,0.125,12.65,0.0,0,0,0,0.125,12.65,0.0,0,0,0,0.0,12.65,0.0,0,0,0,0.0,12.65,0.0,0,0,0,0.125,12.700000000000001,0.0,0,0,0,kReverse,kReverse,-87.01,2.17,2.23,-0.041931152,-0.9902954,0.004272461,33.19,0.0,-80.0,-7.9786987,12.691528,
475.50273599999997,true,true,true,0.125,12.65,0.0,0,0,0,0.125,12.65,0.0,0,0,0,0.125,12.65,0.0,0,0,0,0.125,12.65,0.0,0,0,0,0.0,12.65,0.0,0,0,0,0.0,12.65,0.0,0,0,0,0.125,12.700000000000001,0.0,0,0,0,kReverse,kReverse,-86.99,2.15,2.21,0.009460449,-0.96643066,-0.018432617,33.19,0.0,-28.0,-7.9777985,12.692963,
475.527534,true,true,true,0.125,12.65,0.0,0,0,0,0.125,12.65,0.0,0,0,0,0.125,12.65,0.0,0,0,0,0.125,12.65,0.0,0,0,0,0.0,12.65,0.0,0,0,0,0.0,12.65,0.0,0,0,0,0.125,12.700000000000001,0.0,0,0,0,kReverse,kReverse,-87.04,2.13,2.19,0.028076172,-1.0307007,0.013305664,33.19,0.0,-11.0,-7.977356,12.693634,
475.55195,true,true,true,0.125,12.65,0.0,0,0,0,0.125,12.65,0.0,0,0,0,0.125,12.65,0.0,0,0,0,0.125,12.65,0.0,0,0,0,0.0,12.65,0.0,0,0,0,0.0,12.65,0.0,0,0,0,0.125,12.700000000000001,0.0,0,0,0,kReverse,kReverse,-87.04,2.15,2.21,0.023803711,-0.9637451,0.04675293,33.18,0.0,-12.0,-7.977356,12.6949005,
475.57442199999997,true,true,true,0.125,12.65,0.0,0,0,0,0.125,12.65,0.0,0,0,0,0.125,12.65,0.0,0,0,0,0.125,12.65,0.0,0,0,0,0.0,12.65,0.0,0,0,0,0.0,12.65,0.0,0,0,0,0.125,12.700000000000001,0.0,0,0,0,kReverse,kReverse,-87.03,2.17,2.22,0.040405273,-0.98999023,0.062072754,33.18,0.0,3.0,-7.977356,12.695557,
475.59531,true,true,true,0.125,12.65,0.0,0,0,0,0.125,12.65,0.0,0,0,0,0.125,12.65,0.0,0,0,0,0.125,12.65,0.0,0,0,0,0.125,12.65,0.0,0,0,0,0.0,12.65,0.0,0,0,0,0.125,12.700000000000001,0.0,0,0,0,kReverse,kReverse,-86.99,2.2,2.25,0.037963867,-0.97509766,0.012451172,33.18,0.0,0.0,-7.977356,12.69696,
475.617806,true,true,true,0.125,12.65,0.0,0,0,0,0.125,12.65,0.0,0,0,0,0.125,12.65,0.0,0,0,0,0.125,12.65,0.0,0,0,0,0.125,12.65,0.0,0,0,0,0.0,12.65,0.0,0,0,0,0.125,12.700000000000001,0.0,0,0,0,kReverse,kReverse,-86.99,2.2,2.26,0.06561279,-0.9711304,0.04937744,33.18,0.0,28.0,-7.9773407,12.697647,
475.641081,true,true,true,0.125,12.65,0.0,0,0,0,0.125,12.65,0.0,0,0,0,0.125,12.65,0.0,0,0,0,0.125,12.65,0.0,0,0,0,0.125,12.65,0.0,0,0,0,0.0,12.65,0.0,0,0,0,0.125,12.700000000000001,0.0,0,0,0,kReverse,kReverse,-86.99,2.22,2.27,0.047851562,-0.98095703,0.02545166,33.18,0.0,9.0,-7.9772186,12.69902,
475.660215,true,true,true,0.125,12.65,0.0,0,0,0,0.125,12.65,0.0,0,0,0,0.125,12.65,0.0,0,0,0,0.125,12.65,0.0,0,0,0,0.125,12.65,0.0,0,0,0,0.0,12.65,0.0,0,0,0,0.125,12.700000000000001,0.0,0,0,0,kReverse,kReverse,-86.99,2.21,2.27,0.039733887,-0.9760742,0.022033691,33.18,0.0,1.0,-7.9772186,12.6996765,
475.684999,true,true,true,0.125,12.65,0.0,0,0,0,0.125,12.65,0.0,0,0,0,0.125,12.65,0.0,0,0,0,0.125,12.65,0.0,0,0,0,0.125,12.65,0.0,0,0,0,0.0,12.65,0.0,0,0,0,0.125,12.700000000000001,0.0,0,0,0,kReverse,kReverse,-87.0,2.2,2.25,0.020385742,-0.9850464,0.07098389,33.18,0.0,-16.0,-7.9772186,12.699707,
475.70946999999995,true,true,true,0.125,12.65,0.0,0,0,0,0.125,12.65,0.0,0,0,0,0.125,12.65,0.0,0,0,0,0.125,12.65,0.0,0,0,0,0.125,12.65,0.0,0,0,0,0.0,12.65,0.0,0,0,0,0.125,12.700000000000001,0.0,0,0,0,kReverse,kReverse,-87.0,2.18,2.24,0.043823242,-0.9772949,0.0546875,33.18,0.0,7.0,-7.9772186,12.699768,
475.73357799999997,true,true,true,0.125,12.65,0.0,0,0,0,0.125,12.65,0.0,0,0,0,0.125,12.65,0.0,0,0,0,0.125,12.65,0.0,0,0,0,0.125,12.65,0.0,0,0,0,0.0,12.65,0.0,0,0,0,0.125,12.700000000000001,0.0,0,0,0,kReverse,kReverse,-87.0,2.17,2.23,0.04260254,-0.9956665,0.016418457,33.18,0.0,4.0,-7.9772186,12.699844,
475.760074,true,true,true,0.125,12.65,0.0,0,0,0,0.125,12.65,0.0,0,0,0,0.125,12.65,0.0,0,0,0,0.125,12.65,0.0,0,0,0,0.0,12.65,0.0,0,0,0,0.0,12.65,0.0,0,0,0,0.125,12.700000000000001,0.0,0,0,0,kReverse,kReverse,-87.02,2.17,2.23,0.035339355,-0.9812622,0.027954102,33.18,0.0,-2.0,-7.9772186,12.699844,
475.78336199999995,true,true,true,0.125,12.65,0.0,0,0,0,0.125,12.65,0.0,0,0,0,0.125,12.65,0.0,0,0,0,0.125,12.65,0.0,0,0,0,0.0,12.65,0.0,0,0,0,0.0,12.65,0.0,0,0,0,0.125,12.700000000000001,0.0,0,0,0,kReverse,kReverse,-87.01,2.17,2.23,0.0423584,-0.97839355,0.06707764,33.18,0.0,6.0,-7.9772186,12.69986,
475.81524299999995,true,true,true,0.125,12.65,0.0,0,0,0,0.125,12.65,0.0,0,0,0,0.125,12.65,0.0,0,0,0,0.125,12.65,0.0,0,0,0,0.125,12.65,0.0,0,0,0,0.0,12.65,0.0,0,0,0,0.125,12.700000000000001,0.0,0,0,0,kReverse,kReverse,-87.0,2.16,2.22,0.033569336,-0.9848633,0.054992676,33.18,0.0,-3.0,-7.9772186,12.699982,
475.843141,true,true,true,0.125,12.65,0.0,0,0,0,0.125,12.65,0.0,0,0,0,0.125,12.65,0.0,0,0,0,0.125,12.65,0.0,0,0,0,0.125,12.65,0.0,0,0,0,0.0,12.65,0.0,0,0,0,0.125,12.700000000000001,0.0,0,0,0,kReverse,kReverse,-87.01,2.16,2.22,0.028137207,-0.98687744,0.019104004,33.18,0.0,-9.0,-7.9772186,12.699982,
475.870989,true,true,true,0.125,12.65,0.0,0,0,0,0.125,12.65,0.0,0,0,0,0.125,12.65,0.0,0,0,0,0.125,12.65,0.0,0,0,0,0.125,12.65,0.0,0,0,0,0.0,12.65,0.0,0,0,0,0.125,12.75,0.0,0,0,0,kReverse,kReverse,-87.01,2.16,2.22,0.032470703,-0.99139404,0.019348145,33.18,0.0,-5.0,-7.9772186,12.699982,
475.896207,true,true,true,0.125,12.65,0.0,0,0,0,0.125,12.65,0.0,0,0,0,0.125,12.65,0.0,0,0,0,0.125,12.65,0.0,0,0,0,0.125,12.65,0.0,0,0,0,0.0,12.65,0.0,0,0,0,0.125,12.75,0.0,0,0,0,kReverse,kReverse,-87.01,2.17,2.23,0.031982422,-0.9795532,0.04083252,33.18,0.0,-5.0,-7.9772186,12.699982,
475.91757299999995,true,true,true,0.125,12.65,0.0,0,0,0,0.125,12.65,0.0,0,0,0,0.125,12.65,0.0,0,0,0,0.125,12.65,0.0,0,0,0,0.0,12.65,0.0,0,0,0,0.0,12.65,0.0,0,0,0,0.125,12.75,0.0,0,0,0,kReverse,kReverse,-86.98,2.19,2.25,0.05102539,-0.98498535,0.032836914,33.18,0.0,13.0,-7.9772186,12.700043,
475.938512,true,true,true,0.125,12.65,0.0,0,0,0,0.125,12.65,0.0,0,0,0,0.125,12.65,0.0,0,0,0,0.125,12.65,0.0,0,0,0,0.0,12.65,0.0,0,0,0,0.0,12.65,0.0,0,0,0,0.125,12.75,0.0,0,0,0,kReverse,kReverse,-86.98,2.2,2.26,0.04827881,-0.98065186,0.019348145,33.18,0.0,9.0,-7.9772186,12.700058,
475.960278,true,true,true,0.125,12.65,0.0,0,0,0,0.125,12.65,0.0,0,0,0,0.125,12.65,0.0,0,0,0,0.125,12.65,0.0,0,0,0,0.0,12.65,0.0,0,0,0,0.0,12.65,0.0,0,0,0,0.125,12.75,0.0,0,0,0,kReverse,kReverse,-86.98,2.2,2.26,0.042053223,-0.9819946,0.027648926,33.18,0.0,3.0,-7.9772186,12.700058,
475.985781,true,true,true,0.125,12.65,0.0,0,0,0,0.125,12.65,0.0,0,0,0,0.125,12.65,0.0,0,0,0,0.125,12.65,0.0,0,0,0,0.0,12.65,0.0,0,0,0,0.0,12.65,0.0,0,0,0,0.125,12.75,0.0,0,0,0,kReverse,kReverse,-86.98,2.21,2.27,0.03375244,-0.9804077,0.03894043,33.18,0.0,-4.0,-7.9772186,12.700058,
476.012516,true,true,true,0.125,12.65,0.0,0,0,0,0.125,12.65,0.0,0,0,0,0.125,12.65,0.0,0,0,0,0.125,12.65,0.0,0,0,0,0.0,12.65,0.0,0,0,0,0.0,12.65,0.0,0,0,0,0.125,12.75,0.0,0,0,0,kReverse,kReverse,-86.98,2.19,2.25,0.029052734,-0.98986816,0.042236328,33.18,0.0,-8.0,-7.9772186,12.700058,
476.034943,true,true,true,0.125,12.65,0.0,0,0,0,0.125,12.65,0.0,0,0,0,0.125,12.65,0.0,0,0,0,0.125,12.65,0.0,0,0,0,0.0,12.65,0.0,0,0,0,0.0,12.65,0.0,0,0,0,0.125,12.75,0.0,0,0,0,kReverse,kReverse,-86.99,2.18,2.24,0.032958984,-0.98321533,0.029724121,33.18,0.0,-4.0,-7.9772186,12.700058,
476.05652599999996,true,true,true,0.125,12.65,0.0,0,0,0,0.125,12.65,0.0,0,0,0,0.125,12.65,0.0,0,0,0,0.125,12.65,0.0,0,0,0,0.0,12.65,0.0,0,0,0,0.0,12.65,0.0,0,0,0,0.125,12.75,0.0,0,0,0,kReverse,kReverse,-87.0,2.17,2.23,0.036499023,-0.9845581,0.024658203,33.18,0.0,-1.0,-7.9772186,12.700058,
476.079728,true,true,true,0.125,12.65,0.0,0,0,0,0.125,12.65,0.0,0,0,0,0.125,12.65,0.0,0,0,0,0.125,12.65,0.0,0,0,0,0.0,12.65,0.0,0,0,0,0.0,12.65,0.0,0,0,0,0.125,12.75,0.0,0,0,0,kReverse,kReverse,-87.01,2.17,2.23,0.03149414,-0.9796753,0.03717041,33.18,0.0,-5.0,-7.9772186,12.700058,
476.105215,true,true,true,0.125,12.65,0.0,0,0,0,0.125,12.65,0.0,0,0,0,0.125,12.65,0.0,0,0,0,0.125,12.65,0.0,0,0,0,0.0,12.65,0.0,0,0,0,0.0,12.65,0.0,0,0,0,0.125,12.75,0.0,0,0,0,kReverse,kReverse,-87.01,2.16,2.22,0.035583496,-0.9830322,0.047546387,33.18,0.0,-1.0,-7.9772186,12.700058,
476.128432,true,true,true,0.125,12.65,0.0,0,0,0,0.125,12.65,0.0,0,0,0,0.125,12.65,0.0,0,0,0,0.125,12.65,0.0,0,0,0,0.0,12.65,0.0,0,0,0,0.0,12.65,0.0,0,0,0,0.125,12.75,0.0,0,0,0,kReverse,kReverse,-87.01,2.16,2.22,0.030273438,-0.98809814,0.036193848,33.18,0.0,-7.0,-7.9772186,12.700058,
476.15185599999995,true,true,true,0.125,12.65,0.0,0,0,0,0.125,12.65,0.0,0,0,0,0.125,12.65,0.0,0,0,0,0.125,12.65,0.0,0,0,0,0.0,12.65,0.0,0,0,0,0.0,12.65,0.0,0,0,0,0.125,12.75,0.0,0,0,0,kReverse,kReverse,-87.01,2.15,2.21,0.03289795,-0.9829712,0.020690918,33.18,0.0,-4.0,-7.9772186,12.700058,
476.175696,true,true,true,0.125,12.65,0.0,0,0,0,0.125,12.65,0.0,0,0,0,0.125,12.65,0.0,0,0,0,0.125,12.65,0.0,0,0,0,0.0,12.65,0.0,0,0,0,0.0,12.65,0.0,0,0,0,0.125,12.75,0.0,0,0,0,kReverse,kReverse,-87.02,2.16,2.22,0.036865234,-0.9840088,0.042419434,33.18,0.0,0.0,-7.9772186,12.700058,
476.19787899999994,true,true,true,0.125,12.65,0.0,0,0,0,0.125,12.65,0.0,0,0,0,0.125,12.65,0.0,0,0,0,0.125,12.65,0.0,0,0,0,0.0,12.65,0.0,0,0,0,0.0,12.65,0.0,0,0,0,0.125,12.75,0.0,0,0,0,kReverse,kReverse,-86.99,2.18,2.24,0.042541504,-0.9838257,0.050109863,33.18,0.0,5.0,-7.9772186,12.700058,
476.220876,true,true,true,0.125,12.65,0.0,0,0,0,0.125,12.65,0.0,0,0,0,0.125,12.65,0.0,0,0,0,0.125,12.65,0.0,0,0,0,0.0,12.65,0.0,0,0,0,0.0,12.65,0.0,0,0,0,0.125,12.75,0.0,0,0,0,kReverse,kReverse,-86.99,2.18,2.24,0.042541504,-0.98168945,0.03265381,33.18,0.0,4.0,-7.9772186,12.700058,
476.23900699999996,true,true,true,0.125,12.65,0.0,0,0,0,0.125,12.65,0.0,0,0,0,0.125,12.65,0.0,0,0,0,0.125,12.65,0.0,0,0,0,0.125,12.65,0.0,0,0,0,0.0,12.65,0.0,0,0,0,0.125,12.75,0.0,0,0,0,kReverse,kReverse,-86.99,2.19,2.25,0.046081543,-0.9785156,0.026855469,33.18,0.0,8.0,-7.9772186,12.700058,
476.26624400000003,true,true,true,0.125,12.65,0.0,0,0,0,0.125,12.65,0.0,0,0,0,0.125,12.65,0.0,0,0,0,0.125,12.65,0.0,0,0,0,0.125,12.65,0.0,0,0,0,0.0,12.65,0.0,0,0,0,0.125,12.75,0.0,0,0,0,kReverse,kReverse,-86.99,2.19,2.25,0.043395996,-0.9838257,0.039123535,33.18,0.0,5.0,-7.9772186,12.700058,
476.290759,true,true,true,0.125,12.65,0.0,0,0,0,0.125,12.65,0.0,0,0,0,0.125,12.65,0.0,0,0,0,0.125,12.65,0.0,0,0,0,0.125,12.65,0.0,0,0,0,0.0,12.65,0.0,0,0,0,0.125,12.75,0.0,0,0,0,kReverse,kReverse,-86.99,2.19,2.25,0.03668213,-0.9800415,0.045715332,33.18,0.0,0.0,-7.9772186,12.700058,
476.315468,true,true,true,0.125,12.65,0.0,0,0,0,0.125,12.65,0.0,0,0,0,0.125,12.65,0.0,0,0,0,0.125,12.65,0.0,0,0,0,0.0,12.65,0.0,0,0,0,0.0,12.65,0.0,0,0,0,0.125,12.75,0.0,0,0,0,kReverse,kReverse,-86.99,2.18,2.24,0.038330078,-0.98431396,0.033813477,33.18,0.0,0.0,-7.9772186,12.700058,
476.33651399999997,true,true,true,0.125,12.65,0.0,0,0,0,0.125,12.65,0.0,0,0,0,0.125,12.65,0.0,0,0,0,0.125,12.65,0.0,0,0,0,0.0,12.65,0.0,0,0,0,0.0,12.65,0.0,0,0,0,0.125,12.75,0.0,0,0,0,kReverse,kReverse,-87.0,2.17,2.23,0.03741455,-0.98742676,0.03137207,33.18,0.0,0.0,-7.9772186,12.700058,
476.358594,true,true,true,0.125,12.65,0.0,0,0,0,0.125,12.65,0.0,0,0,0,0.125,12.65,0.0,0,0,0,0.125,12.700000000000001,0.0,0,0,0,0.0,12.65,0.0,0,0,0,0.0,12.65,0.0,0,0,0,0.125,12.75,0.0,0,0,0,kReverse,kReverse,-87.0,2.17,2.23,0.033081055,-0.9880371,0.033325195,33.18,0.0,-4.0,-7.9772186,12.700058,
476.378599,true,true,true,0.125,12.65,0.0,0,0,0,0.125,12.65,0.0,0,0,0,0.125,12.65,0.0,0,0,0,0.125,12.700000000000001,0.0,0,0,0,0.125,12.65,0.0,0,0,0,0.0,12.65,0.0,0,0,0,0.125,12.75,0.0,0,0,0,kReverse,kReverse,-87.0,2.16,2.22,0.034118652,-0.98291016,0.03656006,33.18,0.0,-3.0,-7.9772186,12.700058,
476.399423,true,true,true,0.125,12.65,0.0,0,0,0,0.125,12.65,0.0,0,0,0,0.125,12.65,0.0,0,0,0,0.125,12.700000000000001,0.0,0,0,0,0.0,12.65,0.0,0,0,0,0.0,12.65,0.0,0,0,0,0.125,12.75,0.0,0,0,0,kReverse,kReverse,-87.0,2.16,2.22,0.033325195,-0.9824219,0.038757324,33.18,0.0,-3.0,-7.9772186,12.700058,
476.42443099999997,true,true,true,0.125,12.65,0.0,0,0,0,0.125,12.65,0.0,0,0,0,0.125,12.65,0.0,0,0,0,0.125,12.700000000000001,0.0,0,0,0,0.0,12.65,0.0,0,0,0,0.0,12.65,0.0,0,0,0,0.125,12.75,0.0,0,0,0,kReverse,kReverse,-87.0,2.16,2.22,0.032348633,-0.9866333,0.03375244,33.18,0.0,-5.0,-7.9772186,12.700058,
476.44854699999996,true,true,true,0.125,12.65,0.0,0,0,0,0.125,12.65,0.0,0,0,0,0.125,12.65,0.0,0,0,0,0.125,12.700000000000001,0.0,0,0,0,0.0,12.65,0.0,0,0,0,0.0,12.65,0.0,0,0,0,0.125,12.75,0.0,0,0,0,kReverse,kReverse,-87.0,2.16,2.22,0.034301758,-0.9866333,0.037353516,33.18,0.0,-2.0,-7.9772186,12.700058,
476.472706,true,true,true,0.125,12.65,0.0,0,0,0,0.125,12.65,0.0,0,0,0,0.125,12.65,0.0,0,0,0,0.125,12.700000000000001,0.0,0,0,0,0.0,12.65,0.0,0,0,0,0.0,12.65,0.0,0,0,0,0.125,12.75,0.0,0,0,0,kReverse,kReverse,-87.0,2.16,2.22,0.03314209,-0.982605,0.037719727,33.18,0.0,-4.0,-7.9772186,12.700058,
476.495098,true,true,true,0.125,12.65,0.0,0,0,0,0.125,12.65,0.0,0,0,0,0.125,12.65,0.0,0,0,0,0.125,12.700000000000001,0.0,0,0,0,0.0,12.65,0.0,0,0,0,0.0,12.65,0.0,0,0,0,0.125,12.75,0.0,0,0,0,kReverse,kReverse,-86.99,2.17,2.23,0.035888672,-0.980896,0.034240723,33.18,0.0,-1.0,-7.9772186,12.700058,
476.516576,true,true,true,0.125,12.65,0.0,0,0,0,0.125,12.65,0.0,0,0,0,0.125,12.65,0.0,0,0,0,0.125,12.700000000000001,0.0,0,0,0,0.0,12.65,0.0,0,0,0,0.0,12.65,0.0,0,0,0,0.125,12.75,0.0,0,0,0,kReverse,kReverse,-86.99,2.17,2.23,0.046691895,-0.9816284,0.039123535,33.18,0.0,9.0,-7.9772186,12.700058,
476.538418,true,true,true,0.125,12.65,0.0,0,0,0,0.125,12.65,0.0,0,0,0,0.125,12.65,0.0,0,0,0,0.125,12.700000000000001,0.0,0,0,0,0.0,12.65,0.0,0,0,0,0.0,12.65,0.0,0,0,0,0.125,12.75,0.0,0,0,0,kReverse,kReverse,-86.98,2.18,2.24,0.04333496,-0.9824219,0.036315918,33.18,0.0,5.0,-7.9772186,12.700058,
476.55873199999996,true,true,true,0.125,12.65,0.0,0,0,0,0.125,12.65,0.0,0,0,0,0.125,12.65,0.0,0,0,0,0.125,12.700000000000001,0.0,0,0,0,0.0,12.65,0.0,0,0,0,0.0,12.65,0.0,0,0,0,0.125,12.75,0.0,0,0,0,kReverse,kReverse,-86.98,2.19,2.25,0.0413208,-0.9824219,0.03125,33.21,0.0,3.0,-7.9772186,12.700058,
476.58097699999996,true,true,true,0.125,12.65,0.0,0,0,0,0.125,12.65,0.0,0,0,0,0.125,12.65,0.0,0,0,0,0.125,12.700000000000001,0.0,0,0,0,0.0,12.65,0.0,0,0,0,0.0,12.65,0.0,0,0,0,0.125,12.75,0.0,0,0,0,kReverse,kReverse,-86.98,2.19,2.25,0.03741455,-0.9810791,0.039367676,33.21,0.0,0.0,-7.9772186,12.700058,
476.603172,true,true,true,0.125,12.65,0.0,0,0,0,0.125,12.65,0.0,0,0,0,0.125,12.65,0.0,0,0,0,0.125,12.700000000000001,0.0,0,0,0,0.0,12.65,0.0,0,0,0,0.0,12.65,0.0,0,0,0,0.125,12.75,0.0,0,0,0,kReverse,kReverse,-86.98,2.18,2.24,0.037719727,-0.98254395,0.034362793,33.21,0.0,0.0,-7.9772186,12.700058,
476.63009999999997,true,true,true,0.125,12.65,0.0,0,0,0,0.125,12.65,0.0,0,0,0,0.125,12.65,0.0,0,0,0,0.125,12.700000000000001,0.0,0,0,0,0.0,12.65,0.0,0,0,0,0.0,12.65,0.0,0,0,0,0.125,12.75,0.0,0,0,0,kReverse,kReverse,-86.98,2.17,2.23,0.037475586,-0.9840088,0.03125,33.21,0.0,0.0,-7.9772186,12.700058,
476.65574699999996,true,true,true,0.125,12.65,0.0,0,0,0,0.125,12.65,0.0,0,0,0,0.125,12.65,0.0,0,0,0,0.125,12.700000000000001,0.0,0,0,0,0.0,12.65,0.0,0,0,0,0.0,12.65,0.0,0,0,0,0.125,12.75,0.0,0,0,0,kReverse,kReverse,-86.99,2.17,2.23,0.032348633,-0.9824829,0.038269043,33.21,0.0,-4.0,-7.9772186,12.700058,
476.682739,true,true,true,0.125,12.65,0.0,0,0,0,0.125,12.65,0.0,0,0,0,0.125,12.65,0.0,0,0,0,0.125,12.700000000000001,0.0,0,0,0,0.0,12.65,0.0,0,0,0,0.0,12.65,0.0,0,0,0,0.125,12.75,0.0,0,0,0,kReverse,kReverse,-86.99,2.16,2.22,0.03967285,-0.9812012,0.036987305,33.21,0.0,2.0,-7.9772186,12.700058,
476.704539,true,true,true,0.125,12.65,0.0,0,0,0,0.125,12.65,0.0,0,0,0,0.125,12.65,0.0,0,0,0,0.125,12.700000000000001,0.0,0,0,0,0.0,12.65,0.0,0,0,0,0.0,12.65,0.0,0,0,0,0.125,12.75,0.0,0,0,0,kReverse,kReverse,-86.99,2.16,2.22,0.03717041,-0.98461914,0.034606934,33.21,0.0,0.0,-7.9772186,12.700058,
476.723027,true,true,true,0.125,12.65,0.0,0,0,0,0.125,12.65,0.0,0,0,0,0.125,12.65,0.0,0,0,0,0.125,12.700000000000001,0.0,0,0,0,0.0,12.65,0.0,0,0,0,0.0,12.65,0.0,0,0,0,0.125,12.75,0.0,0,0,0,kReverse,kReverse,-86.99,2.16,2.22,0.0357666,-0.9871826,0.032165527,33.21,0.0,-1.0,-7.9772186,12.700058,
476.744692,true,true,true,0.125,12.65,0.0,0,0,0,0.125,12.65,0.0,0,0,0,0.125,12.65,0.0,0,0,0,0.125,12.700000000000001,0.0,0,0,0,0.0,12.65,0.0,0,0,0,0.0,12.65,0.0,0,0,0,0.125,12.75,0.0,0,0,0,kReverse,kReverse,-86.99,2.16,2.22,0.029724121,-0.9818115,0.038391113,33.21,0.0,-7.0,-7.9772186,12.700058,
476.76768899999996,true,true,true,0.125,12.65,0.0,0,0,0,0.125,12.65,0.0,0,0,0,0.125,12.65,0.0,0,0,0,0.125,12.700000000000001,0.0,0,0,0,0.0,12.65,0.0,0,0,0,0.0,12.65,0.0,0,0,0,0.125,12.75,0.0,0,0,0,kReverse,kReverse,-86.99,2.16,2.22,0.03552246,-0.98321533,0.037231445,33.21,0.0,-1.0,-7.9772186,12.700058,
476.790467,true,true,true,0.125,12.65,0.0,0,0,0,0.125,12.65,0.0,0,0,0,0.125,12.65,0.0,0,0,0,0.125,12.700000000000001,0.0,0,0,0,0.0,12.65,0.0,0,0,0,0.0,12.65,0.0,0,0,0,0.125,12.75,0.0,0,0,0,kReverse,kReverse,-86.99,2.16,2.22,0.03326416,-0.9840698,0.04095459,33.21,0.0,-3.0,-7.9772186,12.700058,
476.813659,true,true,true,0.125,12.65,0.0,0,0,0,0.125,12.65,0.0,0,0,0,0.125,12.65,0.0,0,0,0,0.125,12.700000000000001,0.0,0,0,0,0.0,12.65,0.0,0,0,0,0.0,12.65,0.0,0,0,0,0.125,12.75,0.0,0,0,0,kReverse,kReverse,-86.98,2.17,2.23,0.043151855,-0.98254395,0.035339355,33.21,0.0,5.0,-7.9772186,12.700058,
476.835309,true,true,true,0.125,12.65,0.0,0,0,0,0.125,12.65,0.0,0,0,0,0.125,12.65,0.0,0,0,0,0.125,12.700000000000001,0.0,0,0,0,0.0,12.65,0.0,0,0,0,0.0,12.65,0.0,0,0,0,0.125,12.75,0.0,0,0,0,kReverse,kReverse,-86.98,2.18,2.24,0.04260254,-0.98431396,0.031066895,33.21,0.0,4.0,-7.9772186,12.700058,
476.867745,true,true,true,0.125,12.65,0.0,0,0,0,0.125,12.65,0.0,0,0,0,0.125,12.65,0.0,0,0,0,0.125,12.700000000000001,0.0,0,0,0,0.0,12.65,0.0,0,0,0,0.0,12.65,0.0,0,0,0,0.125,12.75,0.0,0,0,0,kReverse,kReverse,-86.97,2.19,2.25,0.038757324,-0.98443604,0.04071045,33.21,0.0,1.0,-7.9772186,12.700058,
476.891038,true,true,true,0.125,12.65,0.0,0,0,0,0.125,12.65,0.0,0,0,0,0.125,12.65,0.0,0,0,0,0.125,12.700000000000001,0.0,0,0,0,0.0,12.65,0.0,0,0,0,0.0,12.65,0.0,0,0,0,0.125,12.75,0.0,0,0,0,kReverse,kReverse,-86.97,2.19,2.25,0.038330078,-0.9848633,0.03930664,33.21,0.0,0.0,-7.9772186,12.700058,
476.91455299999996,true,true,true,0.125,12.65,0.0,0,0,0,0.125,12.65,0.0,0,0,0,0.125,12.65,0.0,0,0,0,0.125,12.700000000000001,0.0,0,0,0,0.0,12.65,0.0,0,0,0,0.0,12.65,0.0,0,0,0,0.125,12.75,0.0,0,0,0,kReverse,kReverse,-86.97,2.19,2.25,0.036193848,-0.9855957,0.032226562,33.21,0.0,-1.0,-7.9772186,12.700058,
476.93526,true,true,true,0.125,12.65,0.0,0,0,0,0.125,12.65,0.0,0,0,0,0.125,12.65,0.0,0,0,0,0.125,12.700000000000001,0.0,0,0,0,0.0,12.65,0.0,0,0,0,0.0,12.65,0.0,0,0,0,0.125,12.75,0.0,0,0,0,kReverse,kReverse,-86.98,2.18,2.24,0.038330078,-0.98376465,0.037475586,33.21,0.0,0.0,-7.9772186,12.700058,
476.957748,true,true,true,0.125,12.65,0.0,0,0,0,0.125,12.65,0.0,0,0,0,0.125,12.65,0.0,0,0,0,0.125,12.700000000000001,0.0,0,0,0,0.125,12.65,0.0,0,0,0,0.0,12.65,0.0,0,0,0,0.125,12.75,0.0,0,0,0,kReverse,kReverse,-86.97,2.18,2.24,0.036376953,-0.9812622,0.036254883,33.21,0.0,-1.0,-7.9772186,12.700058,
476.97765,true,true,true,0.125,12.65,0.0,0,0,0,0.125,12.65,0.0,0,0,0,0.125,12.65,0.0,0,0,0,0.125,12.700000000000001,0.0,0,0,0,0.125,12.65,0.0,0,0,0,0.0,12.65,0.0,0,0,0,0.125,12.75,0.0,0,0,0,kReverse,kReverse,-86.98,2.17,2.23,0.033447266,-0.98358154,0.041137695,33.21,0.0,-3.0,-7.9772186,12.700058,
477.001484,true,true,true,0.125,12.65,0.0,0,0,0,0.125,12.65,0.0,0,0,0,0.125,12.65,0.0,0,0,0,0.125,12.700000000000001,0.0,0,0,0,0.0,12.65,0.0,0,0,0,0.0,12.65,0.0,0,0,0,0.125,12.75,0.0,0,0,0,kReverse,kReverse,-86.98,2.17,2.23,0.033813477,-0.9836426,0.030273438,33.21,0.0,-3.0,-7.9772186,12.700058,
