timer,lineLeft,lineCenter,lineRight,LeftFrontCurrent,LeftFrontVoltage,LeftFrontValue,LeftFrontPosition,LeftFrontVelocity,LeftFrontFaults,LeftRearCurrent,LeftRearVoltage,LeftRearValue,LeftRearPosition,LeftRearVelocity,LeftRearFaults,RightFrontCurrent,RightFrontVoltage,RightFrontValue,RightFrontPosition,RightFrontVelocity,RightFrontFaults,RightRearCurrent,RightRearVoltage,RightRearValue,RightRearPosition,RightRearVelocity,RightRearFaults,LiftCurrent,LiftVoltage,LiftValue,LiftPosition,LiftVelocity,LiftFaults,WristCurrent,WristVoltage,WristValue,WristPosition,WristVelocity,WristFaults,RollerCurrent,RollerVoltage,RollerValue,RollerPosition,RollerVelocity,RollerFaults,PushersState,PivotsState,navx_Pitch,navx_Roll,navx_Yaw,navx_XAcc,navx_YAcc,navx_ZAcc,navx_Temp,navx_Bar,navx_Alt,navx_XDis,navx_YDis,
394.03025700000006,true,true,true,0.125,12.75,0.0,0,0,0,0.125,12.75,0.0,0,0,0,0.125,12.700000000000001,0.0,0,0,0,0.125,12.75,0.0,0,0,0,0.0,12.75,0.0,0,0,0,0.0,12.75,0.0,0,0,0,0.0,12.8,0.0,0,0,0,kReverse,kOff,-86.89,2.26,2.26,0.04046631,-0.9818115,0.037841797,31.42,0.0,1.0,-5.4497223,1.4622955,
394.061394,true,true,true,0.125,12.75,0.0,0,0,0,0.125,12.75,0.0,0,0,0,0.125,12.700000000000001,0.0,0,0,0,0.125,12.75,0.0,0,0,0,0.0,12.75,0.0,0,0,0,0.0,12.75,0.0,0,0,0,0.125,12.8,0.0,0,0,0,kReverse,kOff,-86.89,2.25,2.26,0.019958496,-0.9673462,0.026855469,31.45,0.0,-18.0,-5.4497223,1.4622955,
394.085033,true,true,true,0.125,12.75,0.0,0,0,0,0.125,12.75,0.0,0,0,0,0.125,12.700000000000001,0.0,0,0,0,0.125,12.75,0.0,0,0,0,0.0,12.75,0.0,0,0,0,0.0,12.75,0.0,0,0,0,0.0,12.8,0.0,0,0,0,kReverse,kOff,-86.91,2.25,2.26,-0.14447021,-0.5571289,0.09484863,31.45,0.0,-166.0,-5.4496155,1.4623413,
394.107361,true,true,true,0.125,12.75,0.0,0,0,0,0.125,12.75,0.0,0,0,0,0.125,12.700000000000001,0.0,0,0,0,0.125,12.75,0.0,0,0,0,0.0,12.75,0.0,0,0,0,0.0,12.75,0.0,0,0,0,0.0,12.8,0.0,0,0,0,kReverse,kOff,-86.86,2.27,2.28,-0.1784668,-0.94592285,-0.2529297,31.45,0.0,-216.0,-5.449829,1.4622498,
394.131212,true,true,true,0.125,12.75,0.0,0,0,0,0.125,12.75,0.0,0,0,0,0.125,12.700000000000001,0.0,0,0,0,0.125,12.75,0.0,0,0,0,0.0,12.75,0.0,0,0,0,0.0,12.75,0.0,0,0,0,0.0,12.8,0.0,0,0,0,kReverse,kOff,-86.87,2.26,2.26,-0.12835693,-0.80010986,-0.29467773,31.45,0.0,-161.0,-5.4507446,1.4608154,
394.155345,true,true,true,0.125,12.75,0.0,0,0,0,0.125,12.75,0.0,0,0,0,0.125,12.700000000000001,0.0,0,0,0,0.125,12.75,0.0,0,0,0,0.0,12.75,0.0,0,0,0,0.0,12.75,0.0,0,0,0,0.0,12.8,0.0,0,0,0,kReverse,kOff,-86.87,2.22,2.23,0.25958252,-0.97058105,0.073791504,31.45,0.0,221.0,-5.451233,1.4597015,
394.17998000000006,true,true,true,0.125,12.4,0.0,0,0,0,0.125,12.4,0.0,0,0,0,0.125,12.4,0.0,0,0,0,0.125,12.450000000000001,0.0,0,0,0,0.0,12.4,0.0,0,0,0,0.0,12.4,0.0,0,0,0,0.125,12.450000000000001,0.0,0,0,0,kReverse,kOff,-86.81,2.29,2.3,0.06781006,-0.8815918,-0.31445312,31.45,0.0,31.0,-5.4515686,1.4568176,
394.201433,true,true,true,0.125,12.4,0.0,0,0,0,0.125,12.4,0.0,0,0,0,0.125,12.4,0.0,0,0,0,0.125,12.450000000000001,0.0,0,0,0,0.0,12.4,0.0,0,0,0,0.0,12.4,0.0,0,0,0,0.125,12.450000000000001,0.0,0,0,0,kReverse,kOff,-86.8,2.3,2.31,0.08996582,-0.8231201,-0.20159912,31.45,0.0,56.0,-5.4516296,1.4548035,
394.221022,true,true,true,0.125,12.4,0.0,0,0,0,0.125,12.4,0.0,0,0,0,0.125,12.4,0.0,0,0,0,0.125,12.450000000000001,0.0,0,0,0,0.0,12.4,0.0,0,0,0,0.0,12.4,0.0,0,0,0,0.125,12.450000000000001,0.0,0,0,0,kReverse,kOff,-86.79,2.3,2.31,0.051086426,-1.0012207,-0.48498535,31.45,0.0,8.0,-5.451706,1.4491272,
394.24295300000006,true,true,true,0.125,12.4,0.0,0,0,0,0.125,12.4,0.0,0,0,0,0.125,12.4,0.0,0,0,0,0.125,12.450000000000001,0.0,0,0,0,0.0,12.4,0.0,0,0,0,0.0,12.4,0.0,0,0,0,0.125,12.450000000000001,0.0,0,0,0,kReverse,kOff,-86.81,2.32,2.33,0.13226318,-0.96746826,-0.13098145,31.45,0.0,92.0,-5.4516296,1.4414062,
394.26783900000004,true,true,true,0.125,12.4,0.0,0,0,0,0.125,12.4,0.0,0,0,0,0.125,12.4,0.0,0,0,0,0.125,12.450000000000001,0.0,0,0,0,0.0,12.4,0.0,0,0,0,0.0,12.4,0.0,0,0,0,0.0,12.450000000000001,0.0,0,0,0,kReverse,kOff,-86.83,2.35,2.35,0.17871094,-0.8647461,-0.031921387,31.45,0.0,142.0,-5.4514008,1.4372253,
394.29213300000004,true,true,true,0.125,12.4,0.0,0,0,0,0.125,12.4,0.0,0,0,0,0.125,12.4,0.0,0,0,0,0.125,12.450000000000001,0.0,0,0,0,0.0,12.4,0.0,0,0,0,0.0,12.4,0.0,0,0,0,0.0,12.450000000000001,0.0,0,0,0,kReverse,kOff,-86.78,2.38,2.39,-0.03112793,-0.75927734,-0.29016113,31.45,0.0,-63.0,-5.450531,1.4282684,
394.318087,true,true,true,0.125,12.4,0.0,0,0,0,0.125,12.4,0.0,0,0,0,0.125,12.4,0.0,0,0,0,0.125,12.450000000000001,0.0,0,0,0,0.0,12.4,0.0,0,0,0,0.0,12.4,0.0,0,0,0,0.0,12.450000000000001,0.0,0,0,0,kReverse,kOff,-86.8,2.35,2.36,0.08929443,-0.92297363,-0.19580078,31.45,0.0,50.0,-5.4500732,1.4232483,
394.341341,true,true,true,0.125,12.4,0.0,0,0,0,0.125,12.4,0.0,0,0,0,0.125,12.4,0.0,0,0,0,0.125,12.4,0.0,0,0,0,0.0,12.4,0.0,0,0,0,0.0,12.4,0.0,0,0,0,0.0,12.450000000000001,0.0,0,0,0,kReverse,kOff,-86.82,2.33,2.34,0.13018799,-0.84088135,-0.023254395,31.45,0.0,95.0,-5.4489746,1.4124451,
394.36408500000005,true,true,true,0.125,12.4,0.0,0,0,0,0.125,12.4,0.0,0,0,0,0.125,12.4,0.0,0,0,0,0.125,12.4,0.0,0,0,0,0.0,12.4,0.0,0,0,0,0.0,12.4,0.0,0,0,0,0.0,12.450000000000001,0.0,0,0,0,kReverse,kOff,-86.81,2.32,2.33,0.15710449,-0.81573486,0.11517334,31.45,0.0,124.0,-5.448227,1.4069672,
394.383927,true,true,true,0.125,12.4,0.0,0,0,0,0.125,12.4,0.0,0,0,0,0.125,12.4,0.0,0,0,0,0.125,12.4,0.0,0,0,0,0.0,12.4,0.0,0,0,0,0.0,12.4,0.0,0,0,0,0.0,12.450000000000001,0.0,0,0,0,kReverse,kOff,-86.77,2.31,2.32,0.12371826,-0.69647217,0.087646484,31.45,0.0,95.0,-5.4462585,1.3963928,
394.405051,true,true,true,0.125,12.4,0.0,0,0,0,0.125,12.4,0.0,0,0,0,0.125,12.4,0.0,0,0,0,0.125,12.4,0.0,0,0,0,0.0,12.4,0.0,0,0,0,0.0,12.4,0.0,0,0,0,0.125,12.450000000000001,0.0,0,0,0,kReverse,kOff,-86.75,2.3,2.31,0.04937744,-0.69226074,-0.13928223,31.45,0.0,20.0,-5.4451294,1.391098,
394.427089,true,true,true,0.125,12.4,0.0,0,0,0,0.125,12.4,0.0,0,0,0,0.125,12.4,0.0,0,0,0,0.125,12.4,0.0,0,0,0,0.0,12.4,0.0,0,0,0,0.0,12.4,0.0,0,0,0,0.125,12.450000000000001,0.0,0,0,0,kReverse,kOff,-86.8,2.24,2.25,0.12017822,-0.7327881,-0.057128906,31.45,0.0,91.0,-5.4426575,1.3798218,
394.44741700000003,true,true,true,0.125,12.4,0.0,0,0,0,0.125,12.4,0.0,0,0,0,0.125,12.4,0.0,0,0,0,0.125,12.4,0.0,0,0,0,0.0,12.4,0.0,0,0,0,0.0,12.4,0.0,0,0,0,0.0,12.450000000000001,0.0,0,0,0,kReverse,kOff,-86.81,2.23,2.24,0.12670898,-0.7998657,0.0015869141,31.45,0.0,95.0,-5.4412384,1.3740082,
394.47467100000006,true,true,true,0.125,12.4,0.0,0,0,0,0.125,12.4,0.0,0,0,0,0.125,12.4,0.0,0,0,0,0.125,12.4,0.0,0,0,0,0.0,12.4,0.0,0,0,0,0.0,12.4,0.0,0,0,0,0.0,12.450000000000001,0.0,0,0,0,kReverse,kOff,-86.84,2.2,2.21,0.15112305,-0.7515869,0.08416748,31.45,0.0,122.0,-5.4379425,1.3624878,
394.50099900000004,true,true,true,0.125,12.4,0.0,0,0,0,0.125,12.4,0.0,0,0,0,0.125,12.4,0.0,0,0,0,0.125,12.4,0.0,0,0,0,0.0,12.4,0.0,0,0,0,0.0,12.4,0.0,0,0,0,0.0,12.450000000000001,0.0,0,0,0,kReverse,kOff,-86.86,2.16,2.17,0.12512207,-0.77178955,-0.027282715,31.45,0.0,95.0,-5.4340363,1.3510132,
394.523484,true,true,true,0.125,12.4,0.0,0,0,0,0.125,12.4,0.0,0,0,0,0.125,12.4,0.0,0,0,0,0.125,12.4,0.0,0,0,0,0.0,12.4,0.0,0,0,0,0.0,12.4,0.0,0,0,0,0.0,12.450000000000001,0.0,0,0,0,kReverse,kOff,-86.87,2.14,2.15,0.1486206,-0.84246826,0.017028809,31.45,0.0,116.0,-5.4318542,1.3451843,
394.543835,true,true,true,0.125,12.4,0.0,0,0,0,0.125,12.4,0.0,0,0,0,0.125,12.4,0.0,0,0,0,0.125,12.4,0.0,0,0,0,0.0,12.4,0.0,0,0,0,0.0,12.4,0.0,0,0,0,0.0,12.450000000000001,0.0,0,0,0,kReverse,kOff,-86.88,2.12,2.13,0.16790771,-0.91619873,0.17181396,31.44,0.0,134.0,-5.4269714,1.3338776,
394.56544800000006,true,true,true,0.125,12.4,0.0,0,0,0,0.125,12.4,0.0,0,0,0,0.125,12.4,0.0,0,0,0,0.125,12.4,0.0,0,0,0,0.0,12.4,0.0,0,0,0,0.0,12.4,0.0,0,0,0,0.125,12.450000000000001,0.0,0,0,0,kReverse,kOff,-86.88,2.12,2.13,0.17529297,-0.9932251,0.21905518,31.44,0.0,138.0,-5.4242554,1.3285217,
394.589651,true,true,true,0.125,12.4,0.0,0,0,0,0.125,12.4,0.0,0,0,0,0.125,12.4,0.0,0,0,0,0.125,12.4,0.0,0,0,0,0.0,12.4,0.0,0,0,0,0.0,12.4,0.0,0,0,0,0.125,12.450000000000001,0.0,0,0,0,kReverse,kOff,-86.89,2.12,2.13,0.15814209,-1.0668335,0.20166016,31.44,0.0,118.0,-5.418289,1.3185425,
394.614213,true,true,true,0.125,12.4,0.0,0,0,0,0.125,12.4,0.0,0,0,0,0.125,12.4,0.0,0,0,0,0.125,12.4,0.0,0,0,0,0.0,12.4,0.0,0,0,0,0.0,12.4,0.0,0,0,0,0.125,12.450000000000001,0.0,0,0,0,kReverse,kOff,-86.89,2.14,2.14,0.17279053,-1.1535645,0.265625,31.44,0.0,118.0,-5.4116516,1.3095398,
394.63916600000005,true,true,true,0.125,12.4,0.0,0,0,0,0.125,12.4,0.0,0,0,0,0.125,12.4,0.0,0,0,0,0.125,12.4,0.0,0,0,0,0.0,12.4,0.0,0,0,0,0.0,12.4,0.0,0,0,0,0.125,12.450000000000001,0.0,0,0,0,kReverse,kOff,-86.9,2.16,2.17,0.15325928,-1.2338257,0.26849365,31.44,0.0,107.0,-5.4080963,1.3054657,
394.663679,true,true,true,0.125,12.4,0.0,0,0,0,0.125,12.4,0.0,0,0,0,0.125,12.4,0.0,0,0,0,0.125,12.4,0.0,0,0,0,0.0,12.4,0.0,0,0,0,0.0,12.4,0.0,0,0,0,0.0,12.450000000000001,0.0,0,0,0,kReverse,kOff,-86.94,2.2,2.2,0.0793457,-1.2197266,0.3720703,31.44,0.0,33.0,-5.400696,1.2984009,
394.685291,true,true,true,0.125,12.4,0.0,0,0,0,0.125,12.4,0.0,0,0,0,0.125,12.4,0.0,0,0,0,0.125,12.4,0.0,0,0,0,0.0,12.4,0.0,0,0,0,0.0,12.4,0.0,0,0,0,0.0,12.450000000000001,0.0,0,0,0,kReverse,kOff,-86.95,2.21,2.22,0.087646484,-1.2296753,0.46380615,31.44,0.0,41.0,-5.3969116,1.295578,
394.707036,true,true,true,0.125,12.4,0.0,0,0,0,0.125,12.4,0.0,0,0,0,0.125,12.4,0.0,0,0,0,0.125,12.4,0.0,0,0,0,0.0,12.4,0.0,0,0,0,0.0,12.4,0.0,0,0,0,0.0,12.450000000000001,0.0,0,0,0,kReverse,kOff,-86.93,2.26,2.26,0.0637207,-1.1747437,0.5022583,31.44,0.0,18.0,-5.389221,1.291687,
394.732203,true,true,true,0.125,12.4,0.0,0,0,0,0.125,12.4,0.0,0,0,0,0.125,12.4,0.0,0,0,0,0.125,12.4,0.0,0,0,0,0.0,12.4,0.0,0,0,0,0.0,12.4,0.0,0,0,0,0.0,12.450000000000001,0.0,0,0,0,kReverse,kOff,-86.91,2.28,2.28,0.07861328,-1.1815186,0.54901123,31.44,0.0,32.0,-5.38533,1.2906799,
394.75369,true,true,true,0.125,12.4,0.0,0,0,0,0.125,12.4,0.0,0,0,0,0.125,12.4,0.0,0,0,0,0.125,12.4,0.0,0,0,0,0.0,12.4,0.0,0,0,0,0.0,12.4,0.0,0,0,0,0.0,12.450000000000001,0.0,0,0,0,kReverse,kOff,-86.89,2.29,2.3,0.023071289,-1.0811157,0.6246948,31.44,0.0,-18.0,-5.3775635,1.290802,
394.775345,true,true,true,0.125,12.4,0.0,0,0,0,0.125,12.4,0.0,0,0,0,0.125,12.4,0.0,0,0,0,0.125,12.4,0.0,0,0,0,0.0,12.4,0.0,0,0,0,0.0,12.4,0.0,0,0,0,0.125,12.450000000000001,0.0,0,0,0,kReverse,kOff,-86.89,2.29,2.3,0.018981934,-1.0580444,0.67352295,31.44,0.0,-21.0,-5.373703,1.2920685,
394.79848300000003,true,true,true,0.125,12.4,0.0,0,0,0,0.125,12.4,0.0,0,0,0,0.125,12.4,0.0,0,0,0,0.125,12.4,0.0,0,0,0,0.0,12.4,0.0,0,0,0,0.0,12.4,0.0,0,0,0,0.0,12.450000000000001,0.0,0,0,0,kReverse,kOff,-86.87,2.28,2.29,0.040283203,-1.0547485,0.6157837,31.44,0.0,0.0,-5.366043,1.2970276,
394.81901400000004,true,true,true,0.125,12.4,0.0,0,0,0,0.125,12.4,0.0,0,0,0,0.125,12.35,0.0,0,0,0,0.125,12.4,0.0,0,0,0,0.0,12.4,0.0,0,0,0,0.0,12.4,0.0,0,0,0,0.0,12.450000000000001,0.0,0,0,0,kReverse,kOff,-86.87,2.28,2.29,0.040283203,-1.0547485,0.6157837,31.44,0.0,0.0,-5.366043,1.2970276,
394.835609,true,true,true,0.125,12.4,0.0,0,0,0,0.125,12.4,0.0,0,0,0,0.125,12.35,0.0,0,0,0,0.125,12.4,0.0,0,0,0,0.0,12.4,0.0,0,0,0,0.0,12.4,0.0,0,0,0,0.0,12.450000000000001,0.0,0,0,0,kReverse,kOff,-86.87,2.27,2.28,0.023132324,-1.0331421,0.6282959,31.44,0.0,-16.0,-5.366043,1.300705,
394.85600200000005,true,true,true,0.125,12.4,0.0,0,0,0,0.125,12.4,0.0,0,0,0,0.125,12.35,0.0,0,0,0,0.125,12.4,0.0,0,0,0,0.0,12.4,0.0,0,0,0,0.0,12.4,0.0,0,0,0,0.125,12.450000000000001,0.0,0,0,0,kReverse,kOff,-86.89,2.24,2.24,-0.013122559,-1.0559692,0.6027832,31.44,0.0,-52.0,-5.3661804,1.3103943,
394.88241800000003,true,true,true,0.125,12.4,0.0,0,0,0,0.125,12.4,0.0,0,0,0,0.125,12.35,0.0,0,0,0,0.125,12.4,0.0,0,0,0,0.0,12.4,0.0,0,0,0,0.0,12.4,0.0,0,0,0,0.125,12.450000000000001,0.0,0,0,0,kReverse,kOff,-86.92,2.21,2.22,0.0072631836,-1.0419312,0.58813477,31.44,0.0,-31.0,-5.366333,1.3163757,
394.89574600000003,true,true,true,0.125,12.4,0.0,0,0,0,0.125,12.4,0.0,0,0,0,0.125,12.35,0.0,0,0,0,0.125,12.4,0.0,0,0,0,0.0,12.4,0.0,0,0,0,0.0,12.4,0.0,0,0,0,0.125,12.450000000000001,0.0,0,0,0,kReverse,kOff,-86.94,2.18,2.19,0.0073242188,-1.0689087,0.62493896,31.44,0.0,-31.0,-5.3665314,1.3231354,
394.91083199999997,true,true,true,0.125,12.4,0.0,0,0,0,0.125,12.4,0.0,0,0,0,0.125,12.35,0.0,0,0,0,0.125,12.4,0.0,0,0,0,0.0,12.4,0.0,0,0,0,0.0,12.4,0.0,0,0,0,0.0,12.450000000000001,0.0,0,0,0,kReverse,kOff,-86.95,2.17,2.18,0.0063476562,-1.1105957,0.57922363,31.44,0.0,-33.0,-5.3667755,1.330658,
394.923628,true,true,true,0.125,12.4,0.0,0,0,0,0.125,12.4,0.0,0,0,0,0.125,12.35,0.0,0,0,0,0.125,12.4,0.0,0,0,0,0.0,12.4,0.0,0,0,0,0.0,12.4,0.0,0,0,0,0.0,12.450000000000001,0.0,0,0,0,kReverse,kOff,-86.93,2.17,2.18,-0.0053100586,-1.1113281,0.487854,31.44,0.0,-45.0,-5.3670807,1.3388519,
394.937649,true,true,true,0.125,12.4,0.0,0,0,0,0.125,12.4,0.0,0,0,0,0.125,12.35,0.0,0,0,0,0.125,12.4,0.0,0,0,0,0.0,12.4,0.0,0,0,0,0.0,12.4,0.0,0,0,0,0.0,12.450000000000001,0.0,0,0,0,kReverse,kOff,-86.92,2.16,2.17,-0.02368164,-1.1151733,0.38787842,31.44,0.0,-64.0,-5.367447,1.34758,
394.95132,true,true,true,0.125,12.4,0.0,0,0,0,0.125,12.4,0.0,0,0,0,0.125,12.35,0.0,0,0,0,0.125,12.4,0.0,0,0,0,0.0,12.4,0.0,0,0,0,0.0,12.4,0.0,0,0,0,0.0,12.450000000000001,0.0,0,0,0,kReverse,kOff,-86.93,2.17,2.18,-0.023803711,-1.1437378,0.28063965,31.44,0.0,-66.0,-5.3679047,1.3567047,
394.964873,true,true,true,0.125,12.4,0.0,0,0,0,0.125,12.35,0.0,0,0,0,0.125,12.35,0.0,0,0,0,0.125,12.4,0.0,0,0,0,0.0,12.35,0.0,0,0,0,0.0,12.35,0.0,0,0,0,0.0,12.4,0.0,0,0,0,kReverse,kOff,-86.92,2.17,2.18,-0.01751709,-1.1508179,0.19946289,31.44,0.0,-60.0,-5.368454,1.3661041,
394.99023600000004,true,true,true,0.125,12.35,0.0,0,0,0,0.125,12.35,0.0,0,0,0,0.125,12.35,0.0,0,0,0,0.125,12.4,0.0,0,0,0,0.0,12.35,0.0,0,0,0,0.0,12.35,0.0,0,0,0,0.0,12.4,0.0,0,0,0,kReverse,kOff,-86.92,2.21,2.22,-0.030822754,-1.1337891,-0.012878418,31.44,0.0,-74.0,-5.369812,1.3851929,
395.011794,true,true,true,0.125,12.35,0.0,0,0,0,0.125,12.35,0.0,0,0,0,0.125,12.35,0.0,0,0,0,0.125,12.4,0.0,0,0,0,0.0,12.35,0.0,0,0,0,0.0,12.35,0.0,0,0,0,0.0,12.4,0.0,0,0,0,kReverse,kOff,-86.92,2.23,2.24,-0.027648926,-1.1363525,-0.09680176,31.44,0.0,-72.0,-5.370636,1.3946075,
395.035701,true,true,true,0.125,12.35,0.0,0,0,0,0.125,12.35,0.0,0,0,0,0.125,12.35,0.0,0,0,0,0.125,12.4,0.0,0,0,0,0.0,12.35,0.0,0,0,0,0.0,12.35,0.0,0,0,0,0.0,12.4,0.0,0,0,0,kReverse,kOff,-86.9,2.27,2.28,-0.028686523,-1.0811157,-0.25097656,31.44,0.0,-72.0,-5.3726044,1.4126129,
395.058959,true,true,true,0.125,12.35,0.0,0,0,0,0.125,12.35,0.0,0,0,0,0.125,12.35,0.0,0,0,0,0.125,12.4,0.0,0,0,0,0.0,12.35,0.0,0,0,0,0.0,12.35,0.0,0,0,0,0.0,12.4,0.0,0,0,0,kReverse,kOff,-86.88,2.29,2.3,-0.032836914,-1.0512085,-0.29833984,31.44,0.0,-76.0,-5.373749,1.4210052,
395.081313,true,true,true,0.125,12.35,0.0,0,0,0,0.125,12.35,0.0,0,0,0,0.125,12.35,0.0,0,0,0,0.125,12.4,0.0,0,0,0,0.0,12.35,0.0,0,0,0,0.0,12.35,0.0,0,0,0,0.0,12.4,0.0,0,0,0,kReverse,kOff,-86.82,2.31,2.32,-0.06768799,-0.9719238,-0.43225098,31.46,0.0,-108.0,-5.376404,1.4361725,
395.10167600000005,true,true,true,0.125,12.35,0.0,0,0,0,0.125,12.35,0.0,0,0,0,0.125,12.35,0.0,0,0,0,0.125,12.4,0.0,0,0,0,0.0,12.35,0.0,0,0,0,0.0,12.35,0.0,0,0,0,0.0,12.4,0.0,0,0,0,kReverse,kOff,-86.81,2.31,2.32,-0.10681152,-0.93096924,-0.48828125,31.46,0.0,-159.0,-5.3797607,1.4486694,
395.123057,true,true,true,0.125,12.35,0.0,0,0,0,0.125,12.35,0.0,0,0,0,0.125,12.35,0.0,0,0,0,0.125,12.4,0.0,0,0,0,0.0,12.35,0.0,0,0,0,0.0,12.35,0.0,0,0,0,0.125,12.4,0.0,0,0,0,kReverse,kOff,-86.79,2.31,2.32,-0.11920166,-0.85809326,-0.5516968,31.46,0.0,-156.0,-5.3817596,1.4537811,
395.144467,true,true,true,0.125,12.35,0.0,0,0,0,0.125,12.35,0.0,0,0,0,0.125,12.35,0.0,0,0,0,0.125,12.4,0.0,0,0,0,0.0,12.35,0.0,0,0,0,0.0,12.35,0.0,0,0,0,0.125,12.4,0.0,0,0,0,kReverse,kOff,-86.8,2.29,2.3,-0.13342285,-0.788208,-0.56915283,31.46,0.0,-167.0,-5.3839874,1.4580841,
395.164901,true,true,true,0.125,12.35,0.0,0,0,0,0.125,12.35,0.0,0,0,0,0.125,12.35,0.0,0,0,0,0.125,12.4,0.0,0,0,0,0.0,12.35,0.0,0,0,0,0.0,12.35,0.0,0,0,0,0.125,12.4,0.0,0,0,0,kReverse,kOff,-86.84,2.24,2.25,-0.14483643,-0.74823,-0.5748291,31.46,0.0,-176.0,-5.3891144,1.4642029,
395.18509,true,true,true,0.125,12.35,0.0,0,0,0,0.125,12.35,0.0,0,0,0,0.125,12.35,0.0,0,0,0,0.125,12.4,0.0,0,0,0,0.0,12.35,0.0,0,0,0,0.0,12.35,0.0,0,0,0,0.125,12.4,0.0,0,0,0,kReverse,kOff,-86.84,2.23,2.24,-0.11462402,-0.71954346,-0.51379395,31.46,0.0,-144.0,-5.3920135,1.4660797,
395.21776800000004,true,true,true,0.125,12.35,0.0,0,0,0,0.125,12.35,0.0,0,0,0,0.125,12.35,0.0,0,0,0,0.125,12.4,0.0,0,0,0,0.0,12.35,0.0,0,0,0,0.0,12.35,0.0,0,0,0,0.0,12.4,0.0,0,0,0,kReverse,kOff,-86.87,2.19,2.21,-0.024475098,-0.7780762,-0.39434814,31.46,0.0,-56.0,-5.398239,1.4678345,
395.242653,true,true,true,0.125,12.35,0.0,0,0,0,0.125,12.35,0.0,0,0,0,0.125,12.35,0.0,0,0,0,0.125,12.4,0.0,0,0,0,0.0,12.35,0.0,0,0,0,0.0,12.35,0.0,0,0,0,0.0,12.4,0.0,0,0,0,kReverse,kOff,-86.87,2.2,2.21,0.041931152,-0.8366089,-0.31451416,31.46,0.0,8.0,-5.4046783,1.4674225,
395.263854,true,true,true,0.125,12.35,0.0,0,0,0,0.125,12.35,0.0,0,0,0,0.125,12.35,0.0,0,0,0,0.125,12.4,0.0,0,0,0,0.0,12.35,0.0,0,0,0,0.0,12.35,0.0,0,0,0,0.0,12.4,0.0,0,0,0,kReverse,kOff,-86.88,2.21,2.23,0.090148926,-0.9317627,-0.2841797,31.46,0.0,52.0,-5.4078674,1.4665222,
395.287072,true,true,true,0.125,12.35,0.0,0,0,0,0.125,12.35,0.0,0,0,0,0.125,12.35,0.0,0,0,0,0.125,12.4,0.0,0,0,0,0.0,12.35,0.0,0,0,0,0.0,12.35,0.0,0,0,0,0.125,12.4,0.0,0,0,0,kReverse,kOff,-86.91,2.24,2.25,0.17504883,-1.010376,-0.13641357,31.46,0.0,134.0,-5.41391,1.4636078,
395.31153500000005,true,true,true,0.125,12.35,0.0,0,0,0,0.125,12.35,0.0,0,0,0,0.125,12.35,0.0,0,0,0,0.125,12.4,0.0,0,0,0,0.0,12.35,0.0,0,0,0,0.0,12.35,0.0,0,0,0,0.125,12.4,0.0,0,0,0,kReverse,kOff,-86.9,2.26,2.27,0.19000244,-1.0127563,-0.08404541,31.46,0.0,149.0,-5.4166718,1.461792,
395.334219,true,true,true,0.125,12.35,0.0,0,0,0,0.125,12.35,0.0,0,0,0,0.125,12.35,0.0,0,0,0,0.125,12.4,0.0,0,0,0,0.0,12.35,0.0,0,0,0,0.0,12.35,0.0,0,0,0,0.125,12.4,0.0,0,0,0,kReverse,kOff,-86.87,2.28,2.28,0.19171143,-0.9711304,0.0791626,31.46,0.0,153.0,-5.42157,1.4578705,
395.358801,true,true,true,0.125,12.35,0.0,0,0,0,0.125,12.35,0.0,0,0,0,0.125,12.35,0.0,0,0,0,0.125,12.4,0.0,0,0,0,0.0,12.35,0.0,0,0,0,0.0,12.35,0.0,0,0,0,0.125,12.4,0.0,0,0,0,kReverse,kOff,-86.83,2.27,2.28,0.19329834,-0.85894775,0.06530762,31.46,0.0,159.0,-5.4256134,1.454071,
395.382913,true,true,true,0.125,12.35,0.0,0,0,0,0.125,12.35,0.0,0,0,0,0.125,12.35,0.0,0,0,0,0.125,12.4,0.0,0,0,0,0.0,12.35,0.0,0,0,0,0.0,12.35,0.0,0,0,0,0.125,12.4,0.0,0,0,0,kReverse,kOff,-86.82,2.26,2.27,0.17773438,-0.8062134,0.026611328,31.46,0.0,145.0,-5.427307,1.4522095,
395.40515400000004,true,true,true,0.125,12.35,0.0,0,0,0,0.125,12.35,0.0,0,0,0,0.125,12.35,0.0,0,0,0,0.125,12.4,0.0,0,0,0,0.0,12.35,0.0,0,0,0,0.0,12.35,0.0,0,0,0,0.125,12.4,0.0,0,0,0,kReverse,kOff,-86.84,2.22,2.23,0.1194458,-0.789978,0.0026855469,31.46,0.0,88.0,-5.430237,1.4484253,
395.426752,true,true,true,0.125,12.35,0.0,0,0,0,0.125,12.35,0.0,0,0,0,0.125,12.35,0.0,0,0,0,0.125,12.4,0.0,0,0,0,0.0,12.35,0.0,0,0,0,0.0,12.35,0.0,0,0,0,0.125,12.4,0.0,0,0,0,kReverse,kOff,-86.85,2.2,2.21,0.15618896,-0.7975464,0.023498535,31.46,0.0,125.0,-5.431488,1.4464874,
395.45241200000004,true,true,true,0.125,12.35,0.0,0,0,0,0.125,12.35,0.0,0,0,0,0.125,12.35,0.0,0,0,0,0.125,12.35,0.0,0,0,0,0.0,12.35,0.0,0,0,0,0.0,12.35,0.0,0,0,0,0.125,12.4,0.0,0,0,0,kReverse,kOff,-86.88,2.18,2.18,0.13275146,-0.9671631,0.077697754,31.46,0.0,95.0,-5.433548,1.446518,
395.47698500000007,true,true,true,0.125,12.35,0.0,0,0,0,0.125,12.35,0.0,0,0,0,0.125,12.35,0.0,0,0,0,0.125,12.35,0.0,0,0,0,0.0,12.35,0.0,0,0,0,0.0,12.35,0.0,0,0,0,0.125,12.4,0.0,0,0,0,kReverse,kOff,-86.89,2.18,2.18,0.1671753,-1.0836792,0.109802246,31.46,0.0,125.0,-5.434372,1.4466095,
395.50002300000006,true,true,true,0.125,12.35,0.0,0,0,0,0.125,12.35,0.0,0,0,0,0.125,12.35,0.0,0,0,0,0.125,12.35,0.0,0,0,0,0.0,12.35,0.0,0,0,0,0.0,12.35,0.0,0,0,0,0.0,12.4,0.0,0,0,0,kReverse,kOff,-86.92,2.21,2.21,0.13409424,-1.2252197,0.27618408,31.46,0.0,87.0,-5.435501,1.4473724,
395.523011,true,true,true,0.125,12.35,0.0,0,0,0,0.125,12.35,0.0,0,0,0,0.125,12.35,0.0,0,0,0,0.125,12.35,0.0,0,0,0,0.0,12.35,0.0,0,0,0,0.0,12.35,0.0,0,0,0,0.0,12.4,0.0,0,0,0,kReverse,kOff,-86.95,2.23,2.24,0.09814453,-1.1696777,0.45440674,31.46,0.0,53.0,-5.436264,1.4496002,
395.545793,true,true,true,0.125,12.35,0.0,0,0,0,0.125,12.35,0.0,0,0,0,0.125,12.35,0.0,0,0,0,0.125,12.35,0.0,0,0,0,0.0,12.35,0.0,0,0,0,0.0,12.35,0.0,0,0,0,0.0,12.4,0.0,0,0,0,kReverse,kOff,-86.93,2.26,2.27,0.062072754,-1.1605225,0.539978,31.46,0.0,17.0,-5.436554,1.4515839,
395.57007500000003,true,true,true,0.125,12.35,0.0,0,0,0,0.125,12.35,0.0,0,0,0,0.125,12.35,0.0,0,0,0,0.125,12.35,0.0,0,0,0,0.0,12.35,0.0,0,0,0,0.0,12.35,0.0,0,0,0,0.0,12.4,0.0,0,0,0,kReverse,kOff,-86.9,2.27,2.28,0.00793457,-1.0527954,0.6660156,31.46,0.0,-32.0,-5.437256,1.4578552,
395.596988,true,true,true,0.125,12.35,0.0,0,0,0,0.125,12.35,0.0,0,0,0,0.125,12.35,0.0,0,0,0,0.125,12.35,0.0,0,0,0,0.0,12.35,0.0,0,0,0,0.0,12.35,0.0,0,0,0,0.0,12.4,0.0,0,0,0,kReverse,kOff,-86.9,2.26,2.26,-0.020385742,-1.0026855,0.6533203,31.46,0.0,-58.0,-5.4381256,1.4673157,
395.622099,true,true,true,0.125,12.35,0.0,0,0,0,0.125,12.35,0.0,0,0,0,0.125,12.35,0.0,0,0,0,0.125,12.35,0.0,0,0,0,0.0,12.35,0.0,0,0,0,0.0,12.35,0.0,0,0,0,0.125,12.4,0.0,0,0,0,kReverse,kOff,-86.92,2.23,2.24,-0.018493652,-1.0324097,0.66796875,31.46,0.0,-56.0,-5.438675,1.4732971,
395.64312700000005,true,true,true,0.125,12.35,0.0,0,0,0,0.125,12.35,0.0,0,0,0,0.125,12.35,0.0,0,0,0,0.125,12.35,0.0,0,0,0,0.0,12.35,0.0,0,0,0,0.0,12.35,0.0,0,0,0,0.125,12.4,0.0,0,0,0,kReverse,kOff,-86.93,2.2,2.21,-0.019042969,-1.0891724,0.5133667,31.46,0.0,-59.0,-5.4399567,1.4876404,
395.66359600000004,true,true,true,0.125,12.35,0.0,0,0,0,0.125,12.35,0.0,0,0,0,0.125,12.35,0.0,0,0,0,0.125,12.35,0.0,0,0,0,0.0,12.35,0.0,0,0,0,0.0,12.35,0.0,0,0,0,0.125,12.4,0.0,0,0,0,kReverse,kOff,-86.92,2.2,2.21,-0.036193848,-1.1340332,0.39312744,31.46,0.0,-78.0,-5.4407196,1.4957275,
395.685868,true,true,true,0.125,12.35,0.0,0,0,0,0.125,12.35,0.0,0,0,0,0.125,12.35,0.0,0,0,0,0.125,12.35,0.0,0,0,0,0.0,12.35,0.0,0,0,0,0.0,12.35,0.0,0,0,0,0.125,12.4,0.0,0,0,0,kReverse,kOff,-86.9,2.22,2.23,-0.05340576,-1.1456299,0.03765869,31.46,0.0,-97.0,-5.4426117,1.5128632,
395.70896700000003,true,true,true,0.125,12.35,0.0,0,0,0,0.125,12.35,0.0,0,0,0,0.125,12.35,0.0,0,0,0,0.125,12.35,0.0,0,0,0,0.0,12.35,0.0,0,0,0,0.0,12.35,0.0,0,0,0,0.125,12.4,0.0,0,0,0,kReverse,kOff,-86.9,2.24,2.25,-0.06970215,-1.1323853,-0.10864258,31.46,0.0,-114.0,-5.443756,1.5213928,
395.73326099999997,true,true,true,0.125,12.35,0.0,0,0,0,0.125,12.35,0.0,0,0,0,0.125,12.35,0.0,0,0,0,0.125,12.35,0.0,0,0,0,0.0,12.35,0.0,0,0,0,0.0,12.35,0.0,0,0,0,0.0,12.4,0.0,0,0,0,kReverse,kOff,-86.89,2.26,2.27,-0.064086914,-1.027771,-0.2845459,31.46,0.0,-105.0,-5.446533,1.5375519,
395.755845,true,true,true,0.125,12.35,0.0,0,0,0,0.125,12.35,0.0,0,0,0,0.125,12.35,0.0,0,0,0,0.125,12.35,0.0,0,0,0,0.0,12.35,0.0,0,0,0,0.0,12.35,0.0,0,0,0,0.0,12.4,0.0,0,0,0,kReverse,kOff,-86.87,2.27,2.29,-0.055236816,-0.9855957,-0.35369873,31.46,0.0,-95.0,-5.4481354,1.5449524,
395.777894,true,true,true,0.125,12.35,0.0,0,0,0,0.125,12.35,0.0,0,0,0,0.125,12.35,0.0,0,0,0,0.125,12.35,0.0,0,0,0,0.0,12.35,0.0,0,0,0,0.0,12.35,0.0,0,0,0,0.0,12.4,0.0,0,0,0,kReverse,kOff,-86.81,2.3,2.31,-0.11816406,-0.87213135,-0.4706421,31.46,0.0,-155.0,-5.451828,1.5579071,
395.799183,true,true,true,0.125,12.35,0.0,0,0,0,0.125,12.35,0.0,0,0,0,0.125,12.35,0.0,0,0,0,0.125,12.35,0.0,0,0,0,0.0,12.35,0.0,0,0,0,0.0,12.35,0.0,0,0,0,0.0,12.4,0.0,0,0,0,kReverse,kOff,-86.8,2.29,2.3,-0.11236572,-0.7996216,-0.50909424,31.46,0.0,-146.0,-5.4539795,1.5633392,
395.820267,true,true,true,0.125,12.35,0.0,0,0,0,0.125,12.35,0.0,0,0,0,0.125,12.35,0.0,0,0,0,0.125,12.35,0.0,0,0,0,0.0,12.35,0.0,0,0,0,0.0,12.35,0.0,0,0,0,0.0,12.4,0.0,0,0,0,kReverse,kOff,-86.83,2.25,2.26,-0.122558594,-0.7227783,-0.5515137,31.46,0.0,-153.0,-5.4588623,1.5719299,
395.840658,true,true,true,0.125,12.35,0.0,0,0,0,0.125,12.35,0.0,0,0,0,0.125,12.35,0.0,0,0,0,0.125,12.35,0.0,0,0,0,0.0,12.35,0.0,0,0,0,0.0,12.35,0.0,0,0,0,0.0,12.4,0.0,0,0,0,kReverse,kOff,-86.85,2.23,2.24,-0.06829834,-0.73028564,-0.46392822,31.46,0.0,-98.0,-5.4615784,1.5751038,
395.86312300000003,true,true,true,0.125,12.35,0.0,0,0,0,0.125,12.35,0.0,0,0,0,0.125,12.35,0.0,0,0,0,0.125,12.35,0.0,0,0,0,0.0,12.35,0.0,0,0,0,0.0,12.35,0.0,0,0,0,0.0,12.4,0.0,0,0,0,kReverse,kOff,-86.87,2.22,2.23,0.041748047,-0.8533325,-0.30889893,31.46,0.0,7.0,-5.467224,1.5796661,
395.883278,true,true,true,0.125,12.35,0.0,0,0,0,0.125,12.35,0.0,0,0,0,0.125,12.35,0.0,0,0,0,0.125,12.35,0.0,0,0,0,0.0,12.35,0.0,0,0,0,0.0,12.35,0.0,0,0,0,0.0,12.4,0.0,0,0,0,kReverse,kOff,-86.88,2.22,2.22,0.078308105,-0.8744507,-0.24707031,31.46,0.0,43.0,-5.4700165,1.581253,
395.90392,true,true,true,0.125,12.35,0.0,0,0,0,0.125,12.35,0.0,0,0,0,0.125,12.35,0.0,0,0,0,0.125,12.35,0.0,0,0,0,0.0,12.35,0.0,0,0,0,0.0,12.35,0.0,0,0,0,0.125,12.4,0.0,0,0,0,kReverse,kOff,-86.89,2.22,2.23,0.14361572,-0.97595215,-0.16680908,31.46,0.0,104.0,-5.472702,1.5825043,
395.925213,true,true,true,0.125,12.35,0.0,0,0,0,0.125,12.35,0.0,0,0,0,0.125,12.3,0.0,0,0,0,0.125,12.35,0.0,0,0,0,0.0,12.35,0.0,0,0,0,0.0,12.35,0.0,0,0,0,0.125,12.4,0.0,0,0,0,kReverse,kOff,-86.89,2.22,2.23,0.21374512,-0.9561157,0.0099487305,31.46,0.0,176.0,-5.477524,1.5845337,
395.94550200000003,true,true,true,0.125,12.35,0.0,0,0,0,0.125,12.35,0.0,0,0,0,0.125,12.3,0.0,0,0,0,0.125,12.35,0.0,0,0,0,0.0,12.35,0.0,0,0,0,0.0,12.35,0.0,0,0,0,0.125,12.4,0.0,0,0,0,kReverse,kOff,-86.88,2.24,2.24,0.21960449,-0.9678955,0.07171631,31.46,0.0,181.0,-5.4795685,1.5855103,
395.965028,true,true,true,0.125,12.35,0.0,0,0,0,0.125,12.35,0.0,0,0,0,0.125,12.3,0.0,0,0,0,0.125,12.35,0.0,0,0,0,0.0,12.35,0.0,0,0,0,0.0,12.35,0.0,0,0,0,0.125,12.4,0.0,0,0,0,kReverse,kOff,-86.85,2.23,2.23,0.18792725,-0.81188965,0.032714844,31.46,0.0,156.0,-5.482956,1.5876007,
395.985379,true,true,true,0.125,12.35,0.0,0,0,0,0.125,12.35,0.0,0,0,0,0.125,12.3,0.0,0,0,0,0.125,12.35,0.0,0,0,0,0.0,12.35,0.0,0,0,0,0.0,12.35,0.0,0,0,0,0.0,12.4,0.0,0,0,0,kReverse,kOff,-86.86,2.22,2.22,0.1461792,-0.82128906,-0.00579834,31.46,0.0,114.0,-5.4843445,1.5886536,
396.00800599999997,true,true,true,0.125,12.35,0.0,0,0,0,0.125,12.35,0.0,0,0,0,0.125,12.3,0.0,0,0,0,0.125,12.35,0.0,0,0,0,0.0,12.35,0.0,0,0,0,0.0,12.35,0.0,0,0,0,0.0,12.4,0.0,0,0,0,kReverse,kOff,-86.9,2.19,2.2,0.15722656,-0.9199829,0.020751953,31.46,0.0,121.0,-5.4866486,1.5905914,
396.030182,true,true,true,0.125,12.35,0.0,0,0,0,0.125,12.35,0.0,0,0,0,0.125,12.3,0.0,0,0,0,0.125,12.35,0.0,0,0,0,0.0,12.35,0.0,0,0,0,0.0,12.35,0.0,0,0,0,0.0,12.4,0.0,0,0,0,kReverse,kOff,-86.9,2.19,2.2,0.15722656,-0.9199829,0.020751953,31.46,0.0,121.0,-5.4866486,1.5905914,
396.053047,true,true,true,0.125,12.35,0.0,0,0,0,0.125,12.35,0.0,0,0,0,0.125,12.3,0.0,0,0,0,0.125,12.35,0.0,0,0,0,0.0,12.35,0.0,0,0,0,0.0,12.35,0.0,0,0,0,0.125,12.4,0.0,0,0,0,kReverse,kOff,-86.92,2.2,2.21,0.18591309,-1.138855,0.1619873,31.46,0.0,142.0,-5.488266,1.5926056,
396.074197,true,true,true,0.125,12.35,0.0,0,0,0,0.125,12.35,0.0,0,0,0,0.125,12.3,0.0,0,0,0,0.125,12.35,0.0,0,0,0,0.0,12.35,0.0,0,0,0,0.0,12.35,0.0,0,0,0,0.0,12.4,0.0,0,0,0,kReverse,kOff,-86.92,2.22,2.23,0.16210938,-1.227478,0.22668457,31.46,0.0,114.0,-5.4888,1.5938568,
396.09763300000003,true,true,true,0.125,12.35,0.0,0,0,0,0.125,12.35,0.0,0,0,0,0.125,12.3,0.0,0,0,0,0.125,12.35,0.0,0,0,0,0.0,12.35,0.0,0,0,0,0.0,12.35,0.0,0,0,0,0.0,12.4,0.0,0,0,0,kReverse,kOff,-86.94,2.23,2.24,0.1060791,-1.2008057,0.31860352,31.45,0.0,59.0,-5.4892273,1.5954285,
396.114845,true,true,true,0.125,12.35,0.0,0,0,0,0.125,12.35,0.0,0,0,0,0.125,12.3,0.0,0,0,0,0.125,12.35,0.0,0,0,0,0.0,12.35,0.0,0,0,0,0.0,12.35,0.0,0,0,0,0.0,12.4,0.0,0,0,0,kReverse,kOff,-86.96,2.23,2.24,0.09906006,-1.1866455,0.48303223,31.45,0.0,53.0,-5.489563,1.5974884,
396.135804,true,true,true,0.125,12.35,0.0,0,0,0,0.125,12.35,0.0,0,0,0,0.125,12.3,0.0,0,0,0,0.125,12.35,0.0,0,0,0,0.0,12.35,0.0,0,0,0,0.0,12.35,0.0,0,0,0,0.0,12.4,0.0,0,0,0,kReverse,kOff,-86.94,2.25,2.26,0.026062012,-1.0876465,0.64764404,31.45,0.0,-15.0,-5.4901123,1.603836,
396.159599,true,true,true,0.125,12.35,0.0,0,0,0,0.125,12.35,0.0,0,0,0,0.125,12.3,0.0,0,0,0,0.125,12.35,0.0,0,0,0,0.0,12.35,0.0,0,0,0,0.0,12.35,0.0,0,0,0,0.0,12.4,0.0,0,0,0,kReverse,kOff,-86.94,2.24,2.25,0.029846191,-1.0651245,0.633728,31.45,0.0,-10.0,-5.4901123,1.6082458,
396.180561,true,true,true,0.125,12.35,0.0,0,0,0,0.125,12.35,0.0,0,0,0,0.125,12.3,0.0,0,0,0,0.125,12.35,0.0,0,0,0,0.0,12.35,0.0,0,0,0,0.0,12.35,0.0,0,0,0,0.125,12.4,0.0,0,0,0,kReverse,kOff,-86.96,2.21,2.22,-0.0335083,-1.1057129,0.5593262,31.45,0.0,-74.0,-5.4902954,1.6194305,
396.202675,true,true,true,0.125,12.35,0.0,0,0,0,0.125,12.35,0.0,0,0,0,0.125,12.3,0.0,0,0,0,0.125,12.35,0.0,0,0,0,0.0,12.35,0.0,0,0,0,0.0,12.35,0.0,0,0,0,0.125,12.4,0.0,0,0,0,kReverse,kOff,-86.96,2.21,2.22,-0.047424316,-1.1575317,0.3690796,31.45,0.0,-91.0,-5.49086,1.6333771,
396.22359600000004,true,true,true,0.125,12.35,0.0,0,0,0,0.125,12.35,0.0,0,0,0,0.125,12.3,0.0,0,0,0,0.125,12.35,0.0,0,0,0,0.0,12.35,0.0,0,0,0,0.0,12.35,0.0,0,0,0,0.125,12.4,0.0,0,0,0,kReverse,kOff,-86.93,2.23,2.24,-0.06762695,-1.1156616,0.15197754,31.45,0.0,-110.0,-5.491333,1.6409302,
396.244548,true,true,true,0.125,12.35,0.0,0,0,0,0.125,12.3,0.0,0,0,0,0.125,12.3,0.0,0,0,0,0.125,12.35,0.0,0,0,0,0.0,12.3,0.0,0,0,0,0.0,12.3,0.0,0,0,0,0.125,12.35,0.0,0,0,0,kReverse,kOff,-86.89,2.28,2.29,-0.08709717,-1.0151367,-0.18048096,31.45,0.0,-128.0,-5.492737,1.6559296,
396.281319,true,true,true,0.125,12.3,0.0,0,0,0,0.125,12.3,0.0,0,0,0,0.125,12.3,0.0,0,0,0,0.125,12.35,0.0,0,0,0,0.0,12.3,0.0,0,0,0,0.0,12.3,0.0,0,0,0,0.0,12.35,0.0,0,0,0,kReverse,kOff,-86.84,2.32,2.32,-0.0982666,-0.9164429,-0.38635254,31.45,0.0,-136.0,-5.494812,1.6694489,
396.305147,true,true,true,0.125,12.3,0.0,0,0,0,0.125,12.3,0.0,0,0,0,0.125,12.3,0.0,0,0,0,0.125,12.35,0.0,0,0,0,0.0,12.3,0.0,0,0,0,0.0,12.3,0.0,0,0,0,0.0,12.35,0.0,0,0,0,kReverse,kOff,-86.83,2.31,2.32,-0.11633301,-0.8156738,-0.41503906,31.45,0.0,-150.0,-5.49765,1.6806335,
396.334191,true,true,true,0.125,12.3,0.0,0,0,0,0.125,12.3,0.0,0,0,0,0.125,12.3,0.0,0,0,0,0.125,12.35,0.0,0,0,0,0.0,12.3,0.0,0,0,0,0.0,12.3,0.0,0,0,0,0.0,12.35,0.0,0,0,0,kReverse,kOff,-86.84,2.28,2.29,-0.10601807,-0.7490845,-0.4230957,31.45,0.0,-137.0,-5.4993744,1.685318,
396.356414,true,true,true,0.125,12.3,0.0,0,0,0,0.125,12.3,0.0,0,0,0,0.125,12.3,0.0,0,0,0,0.125,12.35,0.0,0,0,0,0.0,12.3,0.0,0,0,0,0.0,12.3,0.0,0,0,0,0.125,12.35,0.0,0,0,0,kReverse,kOff,-86.89,2.24,2.25,-0.044799805,-0.72229004,-0.38562012,31.45,0.0,-74.0,-5.5032806,1.6928406,
396.38456,true,true,true,0.125,12.3,0.0,0,0,0,0.125,12.3,0.0,0,0,0,0.125,12.3,0.0,0,0,0,0.125,12.35,0.0,0,0,0,0.0,12.3,0.0,0,0,0,0.0,12.3,0.0,0,0,0,0.125,12.35,0.0,0,0,0,kReverse,kOff,-86.88,2.24,2.24,0.06939697,-0.83843994,-0.2915039,31.45,0.0,35.0,-5.5074005,1.6982574,
396.40990500000004,true,true,true,0.125,12.3,0.0,0,0,0,0.125,12.3,0.0,0,0,0,0.125,12.3,0.0,0,0,0,0.125,12.35,0.0,0,0,0,0.0,12.3,0.0,0,0,0,0.0,12.3,0.0,0,0,0,0.125,12.35,0.0,0,0,0,kReverse,kOff,-86.9,2.24,2.25,0.18737793,-1.0133667,-0.09838867,31.45,0.0,147.0,-5.5112,1.7022095,
396.438881,true,true,true,0.125,12.3,0.0,0,0,0,0.125,12.3,0.0,0,0,0,0.125,12.3,0.0,0,0,0,0.125,12.35,0.0,0,0,0,0.0,12.3,0.0,0,0,0,0.0,12.3,0.0,0,0,0,0.125,12.35,0.0,0,0,0,kReverse,kOff,-86.89,2.24,2.25,0.18469238,-0.9835205,0.012145996,31.45,0.0,145.0,-5.5128174,1.7039642,
396.459571,true,true,true,0.125,12.3,0.0,0,0,0,0.125,12.3,0.0,0,0,0,0.125,12.3,0.0,0,0,0,0.125,12.35,0.0,0,0,0,0.0,12.3,0.0,0,0,0,0.0,12.3,0.0,0,0,0,0.125,12.35,0.0,0,0,0,kReverse,kOff,-86.87,2.22,2.23,0.20855713,-0.91192627,0.014160156,31.45,0.0,172.0,-5.515442,1.7074127,
396.48350700000003,true,true,true,0.125,12.3,0.0,0,0,0,0.125,12.3,0.0,0,0,0,0.125,12.3,0.0,0,0,0,0.125,12.35,0.0,0,0,0,0.0,12.3,0.0,0,0,0,0.0,12.3,0.0,0,0,0,0.0,12.35,0.0,0,0,0,kReverse,kOff,-86.9,2.19,2.2,0.18450928,-0.85736084,-0.066101074,31.45,0.0,151.0,-5.5172577,1.710556,
396.504589,true,true,true,0.125,12.3,0.0,0,0,0,0.125,12.3,0.0,0,0,0,0.125,12.3,0.0,0,0,0,0.125,12.35,0.0,0,0,0,0.0,12.3,0.0,0,0,0,0.0,12.3,0.0,0,0,0,0.0,12.35,0.0,0,0,0,kReverse,kOff,-86.92,2.18,2.18,0.1928711,-0.9916992,0.004638672,31.45,0.0,154.0,-5.517868,1.7119598,
396.525895,true,true,true,0.125,12.3,0.0,0,0,0,0.125,12.3,0.0,0,0,0,0.125,12.3,0.0,0,0,0,0.125,12.35,0.0,0,0,0,0.0,12.3,0.0,0,0,0,0.0,12.3,0.0,0,0,0,0.0,12.35,0.0,0,0,0,kReverse,kOff,-86.94,2.19,2.2,0.16656494,-1.1638794,0.20050049,31.45,0.0,122.0,-5.518463,1.7149658,
396.54950700000006,true,true,true,0.125,12.3,0.0,0,0,0,0.125,12.3,0.0,0,0,0,0.125,12.3,0.0,0,0,0,0.125,12.35,0.0,0,0,0,0.0,12.3,0.0,0,0,0,0.0,12.3,0.0,0,0,0,0.125,12.35,0.0,0,0,0,kReverse,kOff,-86.94,2.21,2.21,0.14324951,-1.2546387,0.24951172,31.45,0.0,95.0,-5.5185394,1.7167816,
396.57376800000003,true,true,true,0.125,12.3,0.0,0,0,0,0.125,12.3,0.0,0,0,0,0.125,12.3,0.0,0,0,0,0.125,12.35,0.0,0,0,0,0.0,12.3,0.0,0,0,0,0.0,12.3,0.0,0,0,0,0.125,12.35,0.0,0,0,0,kReverse,kOff,-86.96,2.24,2.25,0.038513184,-1.1842041,0.494812,31.45,0.0,-6.0,-5.518448,1.7216492,
396.597244,true,true,true,0.125,12.3,0.0,0,0,0,0.125,12.3,0.0,0,0,0,0.125,12.3,0.0,0,0,0,0.125,12.35,0.0,0,0,0,0.0,12.3,0.0,0,0,0,0.0,12.3,0.0,0,0,0,0.125,12.35,0.0,0,0,0,kReverse,kOff,-86.97,2.23,2.24,-0.0020751953,-1.0927734,0.545166,31.45,0.0,-43.0,-5.5184326,1.7250061,
396.619913,true,true,true,0.125,12.3,0.0,0,0,0,0.125,12.3,0.0,0,0,0,0.125,12.3,0.0,0,0,0,0.125,12.35,0.0,0,0,0,0.0,12.3,0.0,0,0,0,0.0,12.3,0.0,0,0,0,0.125,12.35,0.0,0,0,0,kReverse,kOff,-87.0,2.19,2.2,-0.044799805,-1.0332642,0.6062012,31.45,0.0,-82.0,-5.518631,1.7340393,
396.64374,true,true,true,0.125,12.3,0.0,0,0,0,0.125,12.3,0.0,0,0,0,0.125,12.3,0.0,0,0,0,0.125,12.35,0.0,0,0,0,0.0,12.3,0.0,0,0,0,0.0,12.3,0.0,0,0,0,0.0,12.35,0.0,0,0,0,kReverse,kOff,-87.02,2.17,2.18,-0.057861328,-1.0599365,0.5773926,31.45,0.0,-96.0,-5.5189056,1.7397156,
396.664212,true,true,true,0.125,12.3,0.0,0,0,0,0.125,12.3,0.0,0,0,0,0.125,12.3,0.0,0,0,0,0.125,12.35,0.0,0,0,0,0.0,12.3,0.0,0,0,0,0.0,12.3,0.0,0,0,0,0.0,12.35,0.0,0,0,0,kReverse,kOff,-86.99,2.17,2.18,-0.06329346,-1.1682739,0.2798462,31.45,0.0,-106.0,-5.5198364,1.752945,
396.68386200000003,true,true,true,0.125,12.3,0.0,0,0,0,0.125,12.3,0.0,0,0,0,0.125,12.3,0.0,0,0,0,0.125,12.35,0.0,0,0,0,0.0,12.3,0.0,0,0,0,0.0,12.3,0.0,0,0,0,0.0,12.35,0.0,0,0,0,kReverse,kOff,-86.96,2.19,2.2,-0.052490234,-1.1690674,0.03302002,31.45,0.0,-97.0,-5.520508,1.759964,
396.704884,true,true,true,0.125,12.3,0.0,0,0,0,0.125,12.3,0.0,0,0,0,0.125,12.3,0.0,0,0,0,0.125,12.35,0.0,0,0,0,0.0,12.3,0.0,0,0,0,0.0,12.3,0.0,0,0,0,0.125,12.35,0.0,0,0,0,kReverse,kOff,-86.94,2.22,2.23,-0.12097168,-0.99102783,-0.36712646,31.45,0.0,-160.0,-5.522415,1.7732086,
396.727297,true,true,true,0.125,12.3,0.0,0,0,0,0.125,12.3,0.0,0,0,0,0.125,12.25,0.0,0,0,0,0.125,12.3,0.0,0,0,0,0.0,12.3,0.0,0,0,0,0.0,12.3,0.0,0,0,0,0.125,12.35,0.0,0,0,0,kReverse,kOff,-86.91,2.23,2.24,-0.15014648,-0.85046387,-0.46173096,31.45,0.0,-184.0,-5.523697,1.779007,
396.754009,true,true,true,0.125,12.3,0.0,0,0,0,0.125,12.3,0.0,0,0,0,0.125,12.25,0.0,0,0,0,0.125,12.3,0.0,0,0,0,0.0,12.3,0.0,0,0,0,0.0,12.3,0.0,0,0,0,0.125,12.35,0.0,0,0,0,kReverse,kOff,-86.91,2.2,2.21,-0.09967041,-0.70288086,-0.5864258,31.45,0.0,-128.0,-5.5270233,1.7883301,
396.775686,true,true,true,0.125,12.3,0.0,0,0,0,0.125,12.3,0.0,0,0,0,0.125,12.25,0.0,0,0,0,0.125,12.3,0.0,0,0,0,0.0,12.3,0.0,0,0,0,0.0,12.3,0.0,0,0,0,0.125,12.35,0.0,0,0,0,kReverse,kOff,-86.93,2.18,2.19,-0.07720947,-0.69299316,-0.5684204,31.45,0.0,-105.0,-5.528946,1.7917633,
396.79809600000004,true,true,true,0.125,12.3,0.0,0,0,0,0.125,12.3,0.0,0,0,0,0.125,12.25,0.0,0,0,0,0.125,12.3,0.0,0,0,0,0.0,12.3,0.0,0,0,0,0.0,12.3,0.0,0,0,0,0.125,12.35,0.0,0,0,0,kReverse,kOff,-86.94,2.17,2.18,0.014038086,-0.7338257,-0.42816162,31.45,0.0,-15.0,-5.53096,1.7944946,
396.81723700000003,true,true,true,0.125,12.3,0.0,0,0,0,0.125,12.3,0.0,0,0,0,0.125,12.25,0.0,0,0,0,0.125,12.3,0.0,0,0,0,0.0,12.3,0.0,0,0,0,0.0,12.3,0.0,0,0,0,0.0,12.35,0.0,0,0,0,kReverse,kOff,-86.95,2.19,2.2,0.10821533,-0.9093628,-0.27142334,31.45,0.0,72.0,-5.5348663,1.7983246,
396.84248500000007,true,true,true,0.125,12.3,0.0,0,0,0,0.125,12.3,0.0,0,0,0,0.125,12.25,0.0,0,0,0,0.125,12.3,0.0,0,0,0,0.0,12.3,0.0,0,0,0,0.0,12.3,0.0,0,0,0,0.0,12.35,0.0,0,0,0,kReverse,kOff,-86.96,2.19,2.2,0.2084961,-0.9937744,-9.765625E-4,31.45,0.0,170.0,-5.5381927,1.8009338,
396.863967,true,true,true,0.125,12.3,0.0,0,0,0,0.125,12.3,0.0,0,0,0,0.125,12.25,0.0,0,0,0,0.125,12.3,0.0,0,0,0,0.0,12.3,0.0,0,0,0,0.0,12.3,0.0,0,0,0,0.0,12.35,0.0,0,0,0,kReverse,kOff,-86.94,2.19,2.19,0.20007324,-0.8921509,0.060546875,31.45,0.0,165.0,-5.539505,1.8021545,
396.885913,true,true,true,0.125,12.3,0.0,0,0,0,0.125,12.3,0.0,0,0,0,0.125,12.25,0.0,0,0,0,0.125,12.3,0.0,0,0,0,0.0,12.3,0.0,0,0,0,0.0,12.3,0.0,0,0,0,0.0,12.35,0.0,0,0,0,kReverse,kOff,-86.94,2.15,2.15,0.13543701,-0.8468628,0.012573242,31.45,0.0,103.0,-5.541504,1.803421,
396.91086700000005,true,true,true,0.125,12.25,0.0,0,0,0,0.125,12.3,0.0,0,0,0,0.125,12.25,0.0,0,0,0,0.125,12.3,0.0,0,0,0,0.0,12.3,0.0,0,0,0,0.0,12.3,0.0,0,0,0,0.125,12.35,0.0,0,0,0,kReverse,kOff,-86.98,2.11,2.12,0.14691162,-0.8658447,0.09631348,31.45,0.0,114.0,-5.542267,1.8034515,
396.933136,true,true,true,0.125,12.25,0.0,0,0,0,0.125,12.3,0.0,0,0,0,0.125,12.25,0.0,0,0,0,0.125,12.3,0.0,0,0,0,0.0,12.3,0.0,0,0,0,0.0,12.3,0.0,0,0,0,0.125,12.35,0.0,0,0,0,kReverse,kOff,-87.02,2.07,2.08,0.1586914,-1.1644897,0.27520752,31.45,0.0,116.0,-5.5433197,1.8040161,
396.95475,true,true,true,0.125,12.25,0.0,0,0,0,0.125,12.3,0.0,0,0,0,0.125,12.25,0.0,0,0,0,0.125,12.3,0.0,0,0,0,0.0,12.3,0.0,0,0,0,0.0,12.3,0.0,0,0,0,0.125,12.35,0.0,0,0,0,kReverse,kOff,-87.03,2.08,2.09,0.1194458,-1.2332764,0.31970215,31.45,0.0,75.0,-5.54364,1.8047638,
396.976832,true,true,true,0.125,12.25,0.0,0,0,0,0.125,12.3,0.0,0,0,0,0.125,12.25,0.0,0,0,0,0.125,12.3,0.0,0,0,0,0.0,12.3,0.0,0,0,0,0.0,12.3,0.0,0,0,0,0.125,12.35,0.0,0,0,0,kReverse,kOff,-87.06,2.12,2.12,0.013549805,-1.1360474,0.510437,31.45,0.0,-27.0,-5.5441284,1.8076324,
396.999571,true,true,true,0.125,12.25,0.0,0,0,0,0.125,12.3,0.0,0,0,0,0.125,12.25,0.0,0,0,0,0.125,12.3,0.0,0,0,0,0.0,12.3,0.0,0,0,0,0.0,12.3,0.0,0,0,0,0.125,12.35,0.0,0,0,0,kReverse,kOff,-87.05,2.12,2.13,0.0053710938,-1.0376587,0.5788574,31.45,0.0,-31.0,-5.5444183,1.8100281,
397.01993,true,true,true,0.125,12.25,0.0,0,0,0,0.125,12.3,0.0,0,0,0,0.125,12.25,0.0,0,0,0,0.125,12.3,0.0,0,0,0,0.0,12.3,0.0,0,0,0,0.0,12.3,0.0,0,0,0,0.0,12.35,0.0,0,0,0,kReverse,kOff,-87.05,2.11,2.12,-0.039916992,-1.0044556,0.6010742,31.45,0.0,-75.0,-5.5452423,1.8171234,
397.042777,true,true,true,0.125,12.25,0.0,0,0,0,0.125,12.25,0.0,0,0,0,0.125,12.25,0.0,0,0,0,0.125,12.3,0.0,0,0,0,0.0,12.25,0.0,0,0,0,0.0,12.3,0.0,0,0,0,0.0,12.35,0.0,0,0,0,kReverse,kOff,-87.05,2.11,2.12,-0.036071777,-1.0952148,0.50561523,31.45,0.0,-75.0,-5.5457916,1.8217773,
397.065123,true,true,true,0.125,12.25,0.0,0,0,0,0.125,12.25,0.0,0,0,0,0.125,12.25,0.0,0,0,0,0.125,12.3,0.0,0,0,0,0.0,12.25,0.0,0,0,0,0.0,12.25,0.0,0,0,0,0.0,12.35,0.0,0,0,0,kReverse,kOff,-87.01,2.14,2.15,-0.037597656,-1.1384888,0.11608887,31.45,0.0,-80.0,-5.5472717,1.832428,
397.08519,true,true,true,0.125,12.25,0.0,0,0,0,0.125,12.25,0.0,0,0,0,0.125,12.25,0.0,0,0,0,0.125,12.3,0.0,0,0,0,0.0,12.25,0.0,0,0,0,0.0,12.25,0.0,0,0,0,0.125,12.35,0.0,0,0,0,kReverse,kOff,-86.99,2.19,2.2,-0.060913086,-0.9793091,-0.29211426,31.47,0.0,-99.0,-5.54924,1.8429108,
397.115047,true,true,true,0.125,12.25,0.0,0,0,0,0.125,12.25,0.0,0,0,0,0.125,12.25,0.0,0,0,0,0.125,12.3,0.0,0,0,0,0.0,12.25,0.0,0,0,0,0.0,12.25,0.0,0,0,0,0.125,12.35,0.0,0,0,0,kReverse,kOff,-86.95,2.19,2.2,-0.08526611,-0.84680176,-0.4258423,31.47,0.0,-119.0,-5.5504303,1.8474579,
397.13725200000005,true,true,true,0.125,12.25,0.0,0,0,0,0.125,12.25,0.0,0,0,0,0.125,12.25,0.0,0,0,0,0.125,12.3,0.0,0,0,0,0.0,12.25,0.0,0,0,0,0.0,12.25,0.0,0,0,0,0.0,12.35,0.0,0,0,0,kReverse,kOff,-86.94,2.19,2.2,-0.10510254,-0.79003906,-0.49456787,31.47,0.0,-137.0,-5.5518036,1.8513489,
397.156473,true,true,true,0.125,12.25,0.0,0,0,0,0.125,12.25,0.0,0,0,0,0.125,12.25,0.0,0,0,0,0.125,12.3,0.0,0,0,0,0.0,12.25,0.0,0,0,0,0.0,12.25,0.0,0,0,0,0.0,12.35,0.0,0,0,0,kReverse,kOff,-86.97,2.14,2.15,-0.08532715,-0.72436523,-0.5455322,31.47,0.0,-114.0,-5.555069,1.8568573,
397.18015,true,true,true,0.125,12.25,0.0,0,0,0,0.125,12.25,0.0,0,0,0,0.125,12.25,0.0,0,0,0,0.125,12.3,0.0,0,0,0,0.0,12.25,0.0,0,0,0,0.0,12.25,0.0,0,0,0,0.125,12.35,0.0,0,0,0,kReverse,kOff,-86.98,2.11,2.12,0.052978516,-0.8477783,-0.38720703,31.47,0.0,20.0,-5.5587616,1.8595123,
397.203581,true,true,true,0.125,12.25,0.0,0,0,0,0.125,12.25,0.0,0,0,0,0.125,12.25,0.0,0,0,0,0.125,12.3,0.0,0,0,0,0.0,12.25,0.0,0,0,0,0.0,12.25,0.0,0,0,0,0.0,12.35,0.0,0,0,0,kReverse,kOff,-86.98,2.11,2.12,0.10510254,-0.9842529,-0.28674316,31.47,0.0,67.0,-5.560562,1.8600311,
397.22848700000003,true,true,true,0.125,12.25,0.0,0,0,0,0.125,12.25,0.0,0,0,0,0.125,12.25,0.0,0,0,0,0.125,12.3,0.0,0,0,0,0.0,12.25,0.0,0,0,0,0.0,12.25,0.0,0,0,0,0.0,12.35,0.0,0,0,0,kReverse,kOff,-86.99,2.13,2.14,0.18347168,-0.92755127,0.046142578,31.47,0.0,148.0,-5.5637054,1.8601837,
397.249707,true,true,true,0.125,12.25,0.0,0,0,0,0.125,12.25,0.0,0,0,0,0.125,12.25,0.0,0,0,0,0.125,12.3,0.0,0,0,0,0.0,12.25,0.0,0,0,0,0.0,12.25,0.0,0,0,0,0.0,12.35,0.0,0,0,0,kReverse,kOff,-86.96,2.13,2.14,0.18225098,-0.9221802,0.097839355,31.47,0.0,147.0,-5.564987,1.8602448,
397.268012,true,true,true,0.125,12.25,0.0,0,0,0,0.125,12.25,0.0,0,0,0,0.125,12.25,0.0,0,0,0,0.125,12.3,0.0,0,0,0,0.0,12.25,0.0,0,0,0,0.0,12.25,0.0,0,0,0,0.125,12.35,0.0,0,0,0,kReverse,kOff,-86.94,2.13,2.13,0.14929199,-0.84472656,0.041748047,31.47,0.0,117.0,-5.566086,1.8603516,
397.301437,true,true,true,0.125,12.25,0.0,0,0,0,0.125,12.25,0.0,0,0,0,0.125,12.25,0.0,0,0,0,0.125,12.3,0.0,0,0,0,0.0,12.25,0.0,0,0,0,0.0,12.25,0.0,0,0,0,0.125,12.35,0.0,0,0,0,kReverse,kOff,-87.0,2.1,2.11,0.15997314,-1.15094,0.21697998,31.47,0.0,117.0,-5.5677795,1.8606567,
397.32511999999997,true,true,true,0.125,12.25,0.0,0,0,0,0.125,12.25,0.0,0,0,0,0.125,12.25,0.0,0,0,0,0.125,12.3,0.0,0,0,0,0.0,12.25,0.0,0,0,0,0.0,12.25,0.0,0,0,0,0.125,12.35,0.0,0,0,0,kReverse,kOff,-87.01,2.13,2.14,0.12615967,-1.2166748,0.31188965,31.47,0.0,81.0,-5.5688477,1.8616943,
397.349716,true,true,true,0.125,12.25,0.0,0,0,0,0.125,12.25,0.0,0,0,0,0.125,12.25,0.0,0,0,0,0.125,12.3,0.0,0,0,0,0.0,12.25,0.0,0,0,0,0.0,12.25,0.0,0,0,0,0.125,12.35,0.0,0,0,0,kReverse,kOff,-87.03,2.15,2.16,0.07696533,-1.2020264,0.42767334,31.47,0.0,32.0,-5.569229,1.8628082,
397.377759,true,true,true,0.125,12.25,0.0,0,0,0,0.125,12.25,0.0,0,0,0,0.125,12.25,0.0,0,0,0,0.125,12.3,0.0,0,0,0,0.0,12.25,0.0,0,0,0,0.0,12.25,0.0,0,0,0,0.125,12.35,0.0,0,0,0,kReverse,kOff,-87.02,2.17,2.18,0.0052490234,-1.0345459,0.5775757,31.47,0.0,-32.0,-5.5700226,1.8668823,
397.40063699999996,true,true,true,0.125,12.25,0.0,0,0,0,0.125,12.25,0.0,0,0,0,0.125,12.25,0.0,0,0,0,0.125,12.3,0.0,0,0,0,0.0,12.25,0.0,0,0,0,0.0,12.25,0.0,0,0,0,0.125,12.35,0.0,0,0,0,kReverse,kOff,-87.03,2.16,2.17,-0.030151367,-1.0157471,0.5706787,31.47,0.0,-66.0,-5.570511,1.8699799,
397.424344,true,true,true,0.125,12.25,0.0,0,0,0,0.125,12.25,0.0,0,0,0,0.125,12.25,0.0,0,0,0,0.125,12.3,0.0,0,0,0,0.0,12.25,0.0,0,0,0,0.0,12.25,0.0,0,0,0,0.125,12.35,0.0,0,0,0,kReverse,kOff,-87.06,2.13,2.13,-0.055419922,-1.062561,0.4991455,31.47,0.0,-93.0,-5.5717926,1.8783569,
397.44852000000003,true,true,true,0.125,12.25,0.0,0,0,0,0.125,12.25,0.0,0,0,0,0.125,12.25,0.0,0,0,0,0.125,12.3,0.0,0,0,0,0.0,12.25,0.0,0,0,0,0.0,12.25,0.0,0,0,0,0.125,12.35,0.0,0,0,0,kReverse,kOff,-87.0,2.15,2.16,-0.020019531,-1.1352539,0.05529785,31.47,0.0,-62.0,-5.5735016,1.8885345,
397.47343800000004,true,true,true,0.125,12.25,0.0,0,0,0,0.125,12.25,0.0,0,0,0,0.125,12.25,0.0,0,0,0,0.125,12.3,0.0,0,0,0,0.0,12.25,0.0,0,0,0,0.0,12.25,0.0,0,0,0,0.125,12.35,0.0,0,0,0,kReverse,kOff,-86.99,2.17,2.18,-0.040222168,-1.0690918,-0.1472168,31.47,0.0,-81.0,-5.5744934,1.8936005,
397.49557400000003,true,true,true,0.125,12.25,0.0,0,0,0,0.125,12.25,0.0,0,0,0,0.125,12.25,0.0,0,0,0,0.125,12.3,0.0,0,0,0,0.0,12.25,0.0,0,0,0,0.0,12.25,0.0,0,0,0,0.0,12.35,0.0,0,0,0,kReverse,kOff,-86.97,2.17,2.18,-0.12347412,-0.8173218,-0.38134766,31.47,0.0,-155.0,-5.576935,1.9025574,
397.52196299999997,true,true,true,0.125,12.25,0.0,0,0,0,0.125,12.25,0.0,0,0,0,0.125,12.25,0.0,0,0,0,0.125,12.3,0.0,0,0,0,0.0,12.25,0.0,0,0,0,0.0,12.25,0.0,0,0,0,0.0,12.35,0.0,0,0,0,kReverse,kOff,-86.98,2.14,2.15,-0.094177246,-0.7161865,-0.4850464,31.47,0.0,-122.0,-5.580139,1.9091034,
397.544419,true,true,true,0.125,12.25,0.0,0,0,0,0.125,12.25,0.0,0,0,0,0.125,12.25,0.0,0,0,0,0.125,12.3,0.0,0,0,0,0.0,12.25,0.0,0,0,0,0.0,12.25,0.0,0,0,0,0.0,12.35,0.0,0,0,0,kReverse,kOff,-86.98,2.12,2.13,-0.004333496,-0.7625122,-0.3927002,31.47,0.0,-33.0,-5.5819397,1.911377,
397.570104,true,true,true,0.125,12.25,0.0,0,0,0,0.125,12.25,0.0,0,0,0,0.125,12.25,0.0,0,0,0,0.125,12.3,0.0,0,0,0,0.0,12.25,0.0,0,0,0,0.0,12.25,0.0,0,0,0,0.0,12.35,0.0,0,0,0,kReverse,kOff,-86.97,2.14,2.15,0.16619873,-1.0170898,-0.19049072,31.47,0.0,127.0,-5.5854187,1.9145203,
397.59606099999996,true,true,true,0.125,12.25,0.0,0,0,0,0.125,12.25,0.0,0,0,0,0.125,12.25,0.0,0,0,0,0.125,12.3,0.0,0,0,0,0.0,12.25,0.0,0,0,0,0.0,12.25,0.0,0,0,0,0.0,12.35,0.0,0,0,0,kReverse,kOff,-86.98,2.14,2.15,0.19854736,-1.0507812,-0.10345459,31.47,0.0,177.0,-5.5881653,1.9166565,
397.618916,true,true,true,0.125,12.25,0.0,0,0,0,0.125,12.25,0.0,0,0,0,0.125,12.25,0.0,0,0,0,0.125,12.3,0.0,0,0,0,0.0,12.25,0.0,0,0,0,0.0,12.25,0.0,0,0,0,0.0,12.35,0.0,0,0,0,kReverse,kOff,-86.95,2.15,2.15,0.16687012,-0.8562012,0.010864258,31.44,0.0,134.0,-5.589218,1.9176178,
397.64263800000003,true,true,true,0.125,12.25,0.0,0,0,0,0.125,12.25,0.0,0,0,0,0.125,12.25,0.0,0,0,0,0.125,12.3,0.0,0,0,0,0.0,12.25,0.0,0,0,0,0.0,12.25,0.0,0,0,0,0.125,12.35,0.0,0,0,0,kReverse,kOff,-86.98,2.12,2.13,0.1741333,-0.9076538,0.099731445,31.44,0.0,140.0,-5.5907288,1.9194641,
397.663894,true,true,true,0.125,12.25,0.0,0,0,0,0.125,12.25,0.0,0,0,0,0.125,12.25,0.0,0,0,0,0.125,12.3,0.0,0,0,0,0.0,12.25,0.0,0,0,0,0.0,12.25,0.0,0,0,0,0.125,12.35,0.0,0,0,0,kReverse,kOff,-86.99,2.12,2.13,0.18817139,-1.0852051,0.17028809,31.44,0.0,148.0,-5.5911865,1.9205322,
397.686215,true,true,true,0.125,12.25,0.0,0,0,0,0.125,12.25,0.0,0,0,0,0.125,12.25,0.0,0,0,0,0.125,12.25,0.0,0,0,0,0.0,12.25,0.0,0,0,0,0.0,12.25,0.0,0,0,0,0.0,12.35,0.0,0,0,0,kReverse,kOff,-86.98,2.17,2.18,0.05822754,-1.2263184,0.29486084,31.44,0.0,12.0,-5.591751,1.9233704,
397.71198100000004,true,true,true,0.125,12.25,0.0,0,0,0,0.125,12.25,0.0,0,0,0,0.125,12.25,0.0,0,0,0,0.125,12.25,0.0,0,0,0,0.0,12.25,0.0,0,0,0,0.0,12.25,0.0,0,0,0,0.0,12.35,0.0,0,0,0,kReverse,kOff,-87.0,2.18,2.19,-0.014831543,-1.1362915,0.39868164,31.44,0.0,-57.0,-5.592041,1.9253387,
397.73473600000005,true,true,true,0.125,12.25,0.0,0,0,0,0.125,12.25,0.0,0,0,0,0.125,12.25,0.0,0,0,0,0.125,12.25,0.0,0,0,0,0.0,12.25,0.0,0,0,0,0.0,12.25,0.0,0,0,0,0.0,12.35,0.0,0,0,0,kReverse,kOff,-87.01,2.16,2.17,-0.050109863,-1.0166016,0.5371094,31.44,0.0,-87.0,-5.5928955,1.9310455,
397.759771,true,true,true,0.125,12.25,0.0,0,0,0,0.125,12.25,0.0,0,0,0,0.125,12.25,0.0,0,0,0,0.125,12.25,0.0,0,0,0,0.0,12.25,0.0,0,0,0,0.0,12.25,0.0,0,0,0,0.0,12.35,0.0,0,0,0,kReverse,kOff,-87.03,2.13,2.14,-0.03466797,-1.053833,0.5070801,31.44,0.0,-72.0,-5.5934753,1.9348755,
397.780297,true,true,true,0.125,12.25,0.0,0,0,0,0.125,12.25,0.0,0,0,0,0.125,12.25,0.0,0,0,0,0.125,12.25,0.0,0,0,0,0.0,12.25,0.0,0,0,0,0.0,12.25,0.0,0,0,0,0.125,12.35,0.0,0,0,0,kReverse,kOff,-87.0,2.14,2.15,-0.033935547,-1.1218872,0.21868896,31.44,0.0,-75.0,-5.594986,1.944107,
397.801998,true,true,true,0.125,12.25,0.0,0,0,0,0.125,12.25,0.0,0,0,0,0.125,12.25,0.0,0,0,0,0.125,12.25,0.0,0,0,0,0.0,12.25,0.0,0,0,0,0.0,12.25,0.0,0,0,0,0.125,12.35,0.0,0,0,0,kReverse,kOff,-86.98,2.16,2.17,-0.056762695,-1.0858154,-0.043762207,31.44,0.0,-98.0,-5.5959167,1.9489899,
397.823184,true,true,true,0.125,12.25,0.0,0,0,0,0.125,12.25,0.0,0,0,0,0.125,12.25,0.0,0,0,0,0.125,12.25,0.0,0,0,0,0.0,12.25,0.0,0,0,0,0.0,12.25,0.0,0,0,0,0.125,12.35,0.0,0,0,0,kReverse,kOff,-86.93,2.19,2.2,-0.10168457,-0.88946533,-0.37646484,31.44,0.0,-137.0,-5.59816,1.9578705,
397.844124,true,true,true,0.125,12.25,0.0,0,0,0,0.125,12.25,0.0,0,0,0,0.125,12.25,0.0,0,0,0,0.125,12.25,0.0,0,0,0,0.0,12.25,0.0,0,0,0,0.0,12.25,0.0,0,0,0,0.125,12.3,0.0,0,0,0,kReverse,kOff,-86.92,2.17,2.18,-0.1105957,-0.72021484,-0.48516846,31.44,0.0,-139.0,-5.60112,1.9644318,
397.866853,true,true,true,0.125,12.25,0.0,0,0,0,0.125,12.25,0.0,0,0,0,0.125,12.25,0.0,0,0,0,0.125,12.25,0.0,0,0,0,0.0,12.25,0.0,0,0,0,0.0,12.25,0.0,0,0,0,0.125,12.3,0.0,0,0,0,kReverse,kOff,-86.93,2.16,2.17,-0.03466797,-0.7289429,-0.43676758,31.44,0.0,-63.0,-5.602829,1.9667206,
397.885353,true,true,true,0.125,12.25,0.0,0,0,0,0.125,12.25,0.0,0,0,0,0.125,12.25,0.0,0,0,0,0.125,12.25,0.0,0,0,0,0.0,12.25,0.0,0,0,0,0.0,12.25,0.0,0,0,0,0.125,12.3,0.0,0,0,0,kReverse,kOff,-86.93,2.16,2.17,0.05279541,-0.85998535,-0.3647461,31.44,0.0,18.0,-5.6045837,1.9684143,
397.90545199999997,true,true,true,0.125,12.25,0.0,0,0,0,0.125,12.25,0.0,0,0,0,0.125,12.25,0.0,0,0,0,0.125,12.25,0.0,0,0,0,0.0,12.25,0.0,0,0,0,0.0,12.25,0.0,0,0,0,0.125,12.3,0.0,0,0,0,kReverse,kOff,-86.94,2.18,2.18,0.18249512,-1.0177002,-0.09350586,31.44,0.0,143.0,-5.6077576,1.9705658,
397.93386200000003,true,true,true,0.125,12.25,0.0,0,0,0,0.125,12.25,0.0,0,0,0,0.125,12.25,0.0,0,0,0,0.125,12.25,0.0,0,0,0,0.0,12.25,0.0,0,0,0,0.0,12.25,0.0,0,0,0,0.125,12.3,0.0,0,0,0,kReverse,kOff,-86.93,2.18,2.19,0.20288086,-0.97650146,-0.013244629,31.44,0.0,165.0,-5.6090393,1.9713593,
397.958911,true,true,true,0.125,12.25,0.0,0,0,0,0.125,12.25,0.0,0,0,0,0.125,12.25,0.0,0,0,0,0.125,12.25,0.0,0,0,0,0.0,12.25,0.0,0,0,0,0.0,12.25,0.0,0,0,0,0.125,12.3,0.0,0,0,0,kReverse,kOff,-86.94,2.15,2.16,0.18353271,-0.8572998,0.053955078,31.44,0.0,151.0,-5.611023,1.9728546,
397.97924,true,true,true,0.125,12.25,0.0,0,0,0,0.125,12.25,0.0,0,0,0,0.125,12.25,0.0,0,0,0,0.125,12.25,0.0,0,0,0,0.0,12.25,0.0,0,0,0,0.0,12.25,0.0,0,0,0,0.125,12.3,0.0,0,0,0,kReverse,kOff,-86.94,2.14,2.15,0.1776123,-0.9747925,0.10369873,31.44,0.0,141.0,-5.6117096,1.9736633,
398.000377,true,true,true,0.125,12.25,0.0,0,0,0,0.125,12.25,0.0,0,0,0,0.125,12.25,0.0,0,0,0,0.125,12.25,0.0,0,0,0,0.0,12.25,0.0,0,0,0,0.0,12.25,0.0,0,0,0,0.0,12.3,0.0,0,0,0,kReverse,kOff,-86.95,2.17,2.18,0.09753418,-1.1929932,0.22131348,31.44,0.0,52.0,-5.612625,1.9758148,
398.022305,true,true,true,0.125,12.25,0.0,0,0,0,0.125,12.25,0.0,0,0,0,0.125,12.25,0.0,0,0,0,0.125,12.25,0.0,0,0,0,0.0,12.25,0.0,0,0,0,0.0,12.25,0.0,0,0,0,0.0,12.3,0.0,0,0,0,kReverse,kOff,-86.96,2.18,2.19,0.030822754,-1.1882324,0.32073975,31.44,0.0,-13.0,-5.6129913,1.9772949,
398.044053,true,true,true,0.125,12.25,0.0,0,0,0,0.125,12.25,0.0,0,0,0,0.125,12.25,0.0,0,0,0,0.125,12.25,0.0,0,0,0,0.0,12.25,0.0,0,0,0,0.0,12.25,0.0,0,0,0,0.0,12.3,0.0,0,0,0,kReverse,kOff,-86.97,2.19,2.2,-0.03125,-1.0986328,0.425354,31.44,0.0,-72.0,-5.6134033,1.979248,
398.05738800000006,true,true,true,0.125,12.25,0.0,0,0,0,0.125,12.25,0.0,0,0,0,0.125,12.25,0.0,0,0,0,0.125,12.25,0.0,0,0,0,0.0,12.25,0.0,0,0,0,0.0,12.25,0.0,0,0,0,0.0,12.3,0.0,0,0,0,kReverse,kOff,-86.97,2.18,2.19,-0.0368042,-1.0185547,0.5054321,31.44,0.0,-74.0,-5.6139374,1.981781,
398.070973,true,true,true,0.125,12.25,0.0,0,0,0,0.125,12.25,0.0,0,0,0,0.125,12.25,0.0,0,0,0,0.125,12.25,0.0,0,0,0,0.0,12.25,0.0,0,0,0,0.0,12.25,0.0,0,0,0,0.125,12.3,0.0,0,0,0,kReverse,kOff,-86.98,2.17,2.18,-0.058288574,-1.0339966,0.53790283,31.44,0.0,-96.0,-5.6145782,1.9849701,
398.083151,true,true,true,0.125,12.25,0.0,0,0,0,0.125,12.25,0.0,0,0,0,0.125,12.25,0.0,0,0,0,0.125,12.25,0.0,0,0,0,0.0,12.25,0.0,0,0,0,0.0,12.25,0.0,0,0,0,0.125,12.3,0.0,0,0,0,kReverse,kOff,-86.99,2.15,2.16,-0.05529785,-1.0770264,0.47698975,31.44,0.0,-94.0,-5.615341,1.9887848,
398.095722,true,true,true,0.125,12.25,0.0,0,0,0,0.125,12.25,0.0,0,0,0,0.125,12.25,0.0,0,0,0,0.125,12.25,0.0,0,0,0,0.0,12.25,0.0,0,0,0,0.0,12.25,0.0,0,0,0,0.125,12.3,0.0,0,0,0,kReverse,kOff,-86.97,2.16,2.17,-0.045715332,-1.1218872,0.2921753,31.44,0.0,-87.0,-5.6162415,1.9930878,
398.109631,true,true,true,0.125,12.25,0.0,0,0,0,0.125,12.25,0.0,0,0,0,0.125,12.25,0.0,0,0,0,0.125,12.25,0.0,0,0,0,0.0,12.25,0.0,0,0,0,0.0,12.25,0.0,0,0,0,0.0,12.3,0.0,0,0,0,kReverse,kOff,-86.96,2.17,2.18,-0.052734375,-1.09375,0.08728027,31.44,0.0,-94.0,-5.617264,1.9975891,
398.130424,true,true,true,0.125,12.25,0.0,0,0,0,0.125,12.25,0.0,0,0,0,0.125,12.25,0.0,0,0,0,0.125,12.25,0.0,0,0,0,0.0,12.25,0.0,0,0,0,0.0,12.25,0.0,0,0,0,0.0,12.3,0.0,0,0,0,kReverse,kOff,-86.92,2.2,2.21,-0.101135254,-0.91741943,-0.32629395,31.44,0.0,-137.0,-5.61969,2.0060577,
398.16158300000006,true,true,true,0.125,12.25,0.0,0,0,0,0.125,12.25,0.0,0,0,0,0.125,12.25,0.0,0,0,0,0.125,12.25,0.0,0,0,0,0.0,12.25,0.0,0,0,0,0.0,12.25,0.0,0,0,0,0.0,12.3,0.0,0,0,0,kReverse,kOff,-86.91,2.19,2.2,-0.116882324,-0.7283325,-0.47546387,31.44,0.0,-146.0,-5.622818,2.0124512,
398.18329000000006,true,true,true,0.125,12.25,0.0,0,0,0,0.125,12.25,0.0,0,0,0,0.125,12.25,0.0,0,0,0,0.125,12.25,0.0,0,0,0,0.0,12.25,0.0,0,0,0,0.0,12.25,0.0,0,0,0,0.0,12.3,0.0,0,0,0,kReverse,kOff,-86.92,2.18,2.19,-0.049987793,-0.73217773,-0.4352417,31.44,0.0,-79.0,-5.6246185,2.014679,
398.20376400000004,true,true,true,0.125,12.25,0.0,0,0,0,0.125,12.25,0.0,0,0,0,0.125,12.25,0.0,0,0,0,0.125,12.25,0.0,0,0,0,0.0,12.25,0.0,0,0,0,0.0,12.25,0.0,0,0,0,0.0,12.3,0.0,0,0,0,kReverse,kOff,-86.91,2.19,2.19,0.13464355,-0.9612427,-0.27838135,31.44,0.0,96.0,-5.6282806,2.0174866,
398.224463,true,true,true,0.125,12.25,0.0,0,0,0,0.125,12.25,0.0,0,0,0,0.125,12.25,0.0,0,0,0,0.125,12.25,0.0,0,0,0,0.0,12.25,0.0,0,0,0,0.0,12.25,0.0,0,0,0,0.0,12.3,0.0,0,0,0,kReverse,kOff,-86.92,2.2,2.2,0.18615723,-1.0283203,-0.11328125,31.44,0.0,146.0,-5.629898,2.0183258,
398.24658900000003,true,true,true,0.125,12.25,0.0,0,0,0,0.125,12.25,0.0,0,0,0,0.125,12.25,0.0,0,0,0,0.125,12.25,0.0,0,0,0,0.0,12.25,0.0,0,0,0,0.0,12.25,0.0,0,0,0,0.0,12.3,0.0,0,0,0,kReverse,kOff,-86.91,2.19,2.19,0.18096924,-0.8740845,0.015808105,31.44,0.0,147.0,-5.6325073,2.0197296,
398.273054,true,true,true,0.125,12.25,0.0,0,0,0,0.125,12.25,0.0,0,0,0,0.125,12.25,0.0,0,0,0,0.125,12.25,0.0,0,0,0,0.0,12.25,0.0,0,0,0,0.0,12.25,0.0,0,0,0,0.0,12.3,0.0,0,0,0,kReverse,kOff,-86.92,2.17,2.17,0.17767334,-0.87005615,0.07525635,31.44,0.0,144.0,-5.633499,2.0204315,
398.30492300000003,true,true,true,0.125,12.25,0.0,0,0,0,0.125,12.25,0.0,0,0,0,0.125,12.25,0.0,0,0,0,0.125,12.25,0.0,0,0,0,0.0,12.25,0.0,0,0,0,0.0,12.25,0.0,0,0,0,0.0,12.3,0.0,0,0,0,kReverse,kOff,-86.95,2.17,2.17,0.08691406,-1.196106,0.270813,31.44,0.0,42.0,-5.6354523,2.0235138,
398.328939,true,true,true,0.125,12.25,0.0,0,0,0,0.125,12.25,0.0,0,0,0,0.125,12.25,0.0,0,0,0,0.125,12.25,0.0,0,0,0,0.0,12.25,0.0,0,0,0,0.0,12.25,0.0,0,0,0,0.0,12.3,0.0,0,0,0,kReverse,kOff,-86.96,2.18,2.19,0.0068969727,-1.1605225,0.3562622,31.44,0.0,-36.0,-5.6359863,2.0251312,
398.357875,true,true,true,0.125,12.25,0.0,0,0,0,0.125,12.25,0.0,0,0,0,0.125,12.25,0.0,0,0,0,0.125,12.25,0.0,0,0,0,0.0,12.25,0.0,0,0,0,0.0,12.25,0.0,0,0,0,0.125,12.3,0.0,0,0,0,kReverse,kOff,-86.99,2.16,2.17,-0.041625977,-1.0388794,0.5286255,31.44,0.0,-79.0,-5.6372833,2.030014,
398.37943100000007,true,true,true,0.125,12.25,0.0,0,0,0,0.125,12.25,0.0,0,0,0,0.125,12.25,0.0,0,0,0,0.125,12.25,0.0,0,0,0,0.0,12.25,0.0,0,0,0,0.0,12.25,0.0,0,0,0,0.125,12.3,0.0,0,0,0,kReverse,kOff,-87.0,2.15,2.16,-0.038269043,-1.0467529,0.508667,31.44,0.0,-104.0,-5.6390076,2.037384,
398.40332900000004,true,true,true,0.125,12.25,0.0,0,0,0,0.125,12.25,0.0,0,0,0,0.125,12.25,0.0,0,0,0,0.125,12.25,0.0,0,0,0,0.0,12.25,0.0,0,0,0,0.0,12.25,0.0,0,0,0,0.0,12.3,0.0,0,0,0,kReverse,kOff,-86.98,2.17,2.18,-0.029907227,-1.1062622,0.18487549,31.44,0.0,-71.0,-5.6400604,2.0417023,
398.426374,true,true,true,0.125,12.25,0.0,0,0,0,0.125,12.25,0.0,0,0,0,0.125,12.25,0.0,0,0,0,0.125,12.25,0.0,0,0,0,0.0,12.25,0.0,0,0,0,0.0,12.25,0.0,0,0,0,0.0,12.3,0.0,0,0,0,kReverse,kOff,-86.92,2.22,2.23,-0.041809082,-0.95788574,-0.20056152,31.44,0.0,-79.0,-5.6424866,2.0502472,
398.453817,true,true,true,0.125,12.25,0.0,0,0,0,0.125,12.25,0.0,0,0,0,0.125,12.25,0.0,0,0,0,0.125,12.25,0.0,0,0,0,0.0,12.25,0.0,0,0,0,0.0,12.25,0.0,0,0,0,0.0,12.3,0.0,0,0,0,kReverse,kOff,-86.9,2.24,2.24,-0.09710693,-0.8664551,-0.33306885,31.44,0.0,-132.0,-5.6439056,2.0540009,
398.476872,true,true,true,0.125,12.25,0.0,0,0,0,0.125,12.25,0.0,0,0,0,0.125,12.25,0.0,0,0,0,0.125,12.25,0.0,0,0,0,0.0,12.25,0.0,0,0,0,0.0,12.25,0.0,0,0,0,0.125,12.3,0.0,0,0,0,kReverse,kOff,-86.89,2.23,2.23,-0.11376953,-0.79229736,-0.40911865,31.44,0.0,-145.0,-5.645508,2.0572052,
398.502402,true,true,true,0.125,12.25,0.0,0,0,0,0.125,12.25,0.0,0,0,0,0.125,12.25,0.0,0,0,0,0.125,12.25,0.0,0,0,0,0.0,12.25,0.0,0,0,0,0.0,12.25,0.0,0,0,0,0.125,12.3,0.0,0,0,0,kReverse,kOff,-86.9,2.2,2.21,-0.009033203,-0.76623535,-0.4335327,31.44,0.0,-39.0,-5.6492004,2.0617676,
398.52288599999997,true,true,true,0.125,12.25,0.0,0,0,0,0.125,12.25,0.0,0,0,0,0.125,12.25,0.0,0,0,0,0.125,12.25,0.0,0,0,0,0.0,12.25,0.0,0,0,0,0.0,12.25,0.0,0,0,0,0.125,12.3,0.0,0,0,0,kReverse,kOff,-86.9,2.2,2.21,0.097595215,-0.9194946,-0.3378296,31.44,0.0,61.0,-5.6510925,2.0631561,
398.5437,true,true,true,0.125,12.25,0.0,0,0,0,0.125,12.25,0.0,0,0,0,0.125,12.25,0.0,0,0,0,0.125,12.25,0.0,0,0,0,0.0,12.25,0.0,0,0,0,0.0,12.25,0.0,0,0,0,0.125,12.3,0.0,0,0,0,kReverse,kOff,-86.93,2.2,2.21,0.21380615,-0.9772949,-0.0071411133,31.44,0.0,175.0,-5.6544037,2.064911,
398.56633500000004,true,true,true,0.125,12.25,0.0,0,0,0,0.125,12.25,0.0,0,0,0,0.125,12.25,0.0,0,0,0,0.125,12.25,0.0,0,0,0,0.0,12.25,0.0,0,0,0,0.0,12.25,0.0,0,0,0,0.125,12.3,0.0,0,0,0,kReverse,kOff,-86.93,2.19,2.19,0.17852783,-0.8864136,0.038757324,31.44,0.0,144.0,-5.6557465,2.0656738,
398.590196,true,true,true,0.125,12.25,0.0,0,0,0,0.125,12.25,0.0,0,0,0,0.125,12.25,0.0,0,0,0,0.125,12.25,0.0,0,0,0,0.0,12.25,0.0,0,0,0,0.0,12.25,0.0,0,0,0,0.125,12.3,0.0,0,0,0,kReverse,kOff,-86.94,2.15,2.16,0.1776123,-0.9536743,0.14196777,31.44,0.0,141.0,-5.6578217,2.0673218,
398.61559700000004,true,true,true,0.125,12.25,0.0,0,0,0,0.125,12.25,0.0,0,0,0,0.125,12.25,0.0,0,0,0,0.125,12.25,0.0,0,0,0,0.0,12.25,0.0,0,0,0,0.0,12.25,0.0,0,0,0,0.125,12.3,0.0,0,0,0,kReverse,kOff,-86.97,2.16,2.17,0.096191406,-1.1885986,0.27111816,31.44,0.0,51.0,-5.6592255,2.0696564,
398.642994,true,true,true,0.125,12.25,0.0,0,0,0,0.125,12.25,0.0,0,0,0,0.125,12.200000000000001,0.0,0,0,0,0.125,12.25,0.0,0,0,0,0.0,12.25,0.0,0,0,0,0.0,12.25,0.0,0,0,0,0.125,12.3,0.0,0,0,0,kReverse,kOff,-87.0,2.19,2.2,-0.034179688,-1.0549316,0.45373535,31.46,0.0,-73.0,-5.6605377,2.0735168,
398.669517,true,true,true,0.125,12.25,0.0,0,0,0,0.125,12.25,0.0,0,0,0,0.125,12.200000000000001,0.0,0,0,0,0.125,12.25,0.0,0,0,0,0.0,12.25,0.0,0,0,0,0.0,12.25,0.0,0,0,0,0.125,12.3,0.0,0,0,0,kReverse,kOff,-87.02,2.17,2.18,-0.04711914,-1.0339966,0.5571289,31.46,0.0,-84.0,-5.6613464,2.0763397,
398.689246,true,true,true,0.125,12.25,0.0,0,0,0,0.125,12.25,0.0,0,0,0,0.125,12.200000000000001,0.0,0,0,0,0.125,12.25,0.0,0,0,0,0.0,12.25,0.0,0,0,0,0.0,12.25,0.0,0,0,0,0.125,12.3,0.0,0,0,0,kReverse,kOff,-87.03,2.16,2.17,-0.033813477,-1.0827637,0.5130005,31.46,0.0,-73.0,-5.662262,2.079834,
398.710592,true,true,true,0.125,12.25,0.0,0,0,0,0.125,12.25,0.0,0,0,0,0.125,12.200000000000001,0.0,0,0,0,0.125,12.25,0.0,0,0,0,0.0,12.25,0.0,0,0,0,0.0,12.25,0.0,0,0,0,0.125,12.3,0.0,0,0,0,kReverse,kOff,-87.01,2.17,2.18,-0.020751953,-1.0979004,0.17095947,31.46,0.0,-62.0,-5.664398,2.088272,
398.734146,true,true,true,0.125,12.25,0.0,0,0,0,0.125,12.25,0.0,0,0,0,0.125,12.200000000000001,0.0,0,0,0,0.125,12.25,0.0,0,0,0,0.125,12.25,0.0,0,0,0,0.0,12.25,0.0,0,0,0,0.125,12.3,0.0,0,0,0,kReverse,kOff,-86.98,2.2,2.21,-0.044799805,-0.9892578,-0.060791016,31.46,0.0,-83.0,-5.6656036,2.0926666,
398.759081,true,true,true,0.125,12.25,0.0,0,0,0,0.125,12.25,0.0,0,0,0,0.125,12.200000000000001,0.0,0,0,0,0.125,12.25,0.0,0,0,0,0.0,12.25,0.0,0,0,0,0.0,12.25,0.0,0,0,0,0.125,12.3,0.0,0,0,0,kReverse,kOff,-86.94,2.22,2.23,-0.09863281,-0.8362427,-0.39630127,31.46,0.0,-132.0,-5.6684875,2.100418,
