timer,lineLeft,lineCenter,lineRight,LeftFrontCurrent,LeftFrontVoltage,LeftFrontValue,LeftFrontPosition,LeftFrontVelocity,LeftFrontFaults,LeftRearCurrent,LeftRearVoltage,LeftRearValue,LeftRearPosition,LeftRearVelocity,LeftRearFaults,RightFrontCurrent,RightFrontVoltage,RightFrontValue,RightFrontPosition,RightFrontVelocity,RightFrontFaults,RightRearCurrent,RightRearVoltage,RightRearValue,RightRearPosition,RightRearVelocity,RightRearFaults,LiftCurrent,LiftVoltage,LiftValue,LiftPosition,LiftVelocity,LiftFaults,WristCurrent,WristVoltage,WristValue,WristPosition,WristVelocity,WristFaults,RollerCurrent,RollerVoltage,RollerValue,RollerPosition,RollerVelocity,RollerFaults,PushersState,PivotsState,navx_Pitch,navx_Roll,navx_Yaw,navx_XAcc,navx_YAcc,navx_ZAcc,navx_Temp,navx_Bar,navx_Alt,navx_XDis,navx_YDis,
1914.3608639999998,true,true,true,0.125,12.65,0.0,0,0,0,0.125,12.700000000000001,0.0,0,0,0,0.125,12.65,0.0,0,0,0,0.125,12.700000000000001,0.0,0,0,0,0.125,12.700000000000001,0.0,0,0,0,0.0,12.65,0.0,0,0,0,0.125,12.75,0.0,0,0,0,kReverse,kReverse,-87.05,2.16,2.43,0.0357666,-0.98376465,0.037109375,33.88,0.0,-1.0,-7.938629,13.666718,
1914.378916,true,true,true,0.125,12.65,0.0,0,0,0,0.125,12.700000000000001,0.0,0,0,0,0.125,12.65,0.0,0,0,0,0.125,12.700000000000001,0.0,0,0,0,0.125,12.700000000000001,0.0,0,0,0,0.0,12.65,0.0,0,0,0,0.125,12.75,0.0,0,0,0,kReverse,kReverse,-87.05,2.16,2.43,0.025817871,-0.98083496,0.037963867,33.88,0.0,-10.0,-7.938629,13.666718,
1914.397676,true,true,true,0.125,12.65,0.0,0,0,0,0.125,12.700000000000001,0.0,0,0,0,0.125,12.65,0.0,0,0,0,0.125,12.700000000000001,0.0,0,0,0,0.125,12.700000000000001,0.0,0,0,0,0.0,12.65,0.0,0,0,0,0.125,12.75,0.0,0,0,0,kReverse,kReverse,-87.03,2.18,2.45,0.0038452148,-0.92211914,0.074645996,33.88,0.0,-25.0,-7.9385834,13.666748,
1914.420024,true,true,true,0.125,12.15,0.0,0,0,0,0.125,12.1,0.0,0,0,0,0.125,12.1,0.0,0,0,0,0.125,12.200000000000001,0.0,0,0,0,0.125,12.200000000000001,0.0,0,0,0,0.0,12.65,0.0,0,0,0,0.125,12.25,0.0,0,0,0,kReverse,kReverse,-87.05,2.16,2.42,0.1661377,-1.3207397,0.0368042,33.88,0.0,113.0,-7.938507,13.666779,
1914.438721,true,true,true,0.125,12.15,0.0,0,0,0,0.125,12.1,0.0,0,0,0,0.125,12.1,0.0,0,0,0,0.125,12.200000000000001,0.0,0,0,0,0.125,12.200000000000001,0.0,0,0,0,0.0,12.25,0.0,0,0,0,0.125,12.25,0.0,0,0,0,kReverse,kReverse,-87.06,2.2,2.46,-0.101379395,-0.72924805,0.11755371,33.88,0.0,-116.0,-7.9382477,13.667023,
1914.457535,true,true,true,0.125,12.15,0.0,0,0,0,0.125,12.1,0.0,0,0,0,0.125,12.1,0.0,0,0,0,0.125,12.200000000000001,0.0,0,0,0,0.125,12.200000000000001,0.0,0,0,0,0.0,12.25,0.0,0,0,0,0.125,12.25,0.0,0,0,0,kReverse,kReverse,-87.03,2.21,2.47,-0.010131836,-0.7716675,0.046875,33.88,0.0,-36.0,-7.938278,13.667282,
1914.47919,true,true,true,0.125,12.15,0.0,0,0,0,0.125,12.1,0.0,0,0,0,0.125,12.1,0.0,0,0,0,0.125,12.200000000000001,0.0,0,0,0,0.125,12.200000000000001,0.0,0,0,0,0.0,12.25,0.0,0,0,0,0.125,12.25,0.0,0,0,0,kReverse,kReverse,-87.08,2.18,2.44,0.029724121,-0.9008789,-0.37164307,33.88,0.0,-57.0,-7.9383545,13.667282,
1914.500139,true,true,true,0.125,12.15,0.0,0,0,0,0.125,12.1,0.0,0,0,0,0.125,12.1,0.0,0,0,0,0.125,12.200000000000001,0.0,0,0,0,0.125,12.200000000000001,0.0,0,0,0,0.0,12.25,0.0,0,0,0,0.125,12.25,0.0,0,0,0,kReverse,kReverse,-87.01,2.21,2.48,0.045410156,-1.0966797,-0.097229004,33.88,0.0,-14.0,-7.938553,13.666489,
1914.5189739999998,true,true,true,0.125,12.15,0.0,0,0,0,0.125,12.1,0.0,0,0,0,0.125,12.1,0.0,0,0,0,0.125,12.200000000000001,0.0,0,0,0,0.125,12.200000000000001,0.0,0,0,0,0.0,12.25,0.0,0,0,0,0.125,12.25,0.0,0,0,0,kReverse,kReverse,-87.1,2.18,2.43,0.17669678,-1.2277222,0.18591309,33.88,0.0,147.0,-7.938553,13.666,
1914.537986,true,true,true,0.125,12.15,0.0,0,0,0,0.125,12.1,0.0,0,0,0,0.125,12.1,0.0,0,0,0,0.125,12.200000000000001,0.0,0,0,0,0.125,12.200000000000001,0.0,0,0,0,0.0,12.25,0.0,0,0,0,0.125,12.25,0.0,0,0,0,kReverse,kReverse,-87.03,2.21,2.47,0.086364746,-1.2060547,0.09698486,33.88,0.0,46.0,-7.938431,13.665634,
1914.558343,true,true,true,0.125,12.15,0.0,0,0,0,0.125,12.1,0.0,0,0,0,0.125,12.1,0.0,0,0,0,0.125,12.200000000000001,0.0,0,0,0,0.0,12.200000000000001,0.0,0,0,0,0.0,12.25,0.0,0,0,0,0.125,12.25,0.0,0,0,0,kReverse,kReverse,-87.1,2.2,2.45,-0.0024414062,-1.085083,0.26727295,33.88,0.0,-13.0,-7.9380493,13.665176,
1914.579501,true,true,true,0.125,12.25,0.0,0,0,0,0.125,12.3,0.0,0,0,0,0.125,12.25,0.0,0,0,0,0.125,12.3,0.0,0,0,0,0.0,12.3,0.0,0,0,0,0.0,12.25,0.0,0,0,0,0.125,12.35,0.0,0,0,0,kReverse,kReverse,-87.09,2.21,2.46,-0.075683594,-1.0043335,0.12237549,33.88,0.0,-101.0,-7.9379272,13.665283,
1914.599978,true,true,true,0.125,12.25,0.0,0,0,0,0.125,12.3,0.0,0,0,0,0.125,12.25,0.0,0,0,0,0.125,12.3,0.0,0,0,0,0.0,12.3,0.0,0,0,0,0.0,12.3,0.0,0,0,0,0.125,12.35,0.0,0,0,0,kReverse,kReverse,-87.1,2.24,2.49,0.024719238,-0.83026123,0.03253174,33.88,0.0,-7.0,-7.937866,13.665924,
1914.617771,true,true,true,0.125,12.25,0.0,0,0,0,0.125,12.3,0.0,0,0,0,0.125,12.25,0.0,0,0,0,0.125,12.3,0.0,0,0,0,0.125,12.3,0.0,0,0,0,0.0,12.3,0.0,0,0,0,0.125,12.35,0.0,0,0,0,kReverse,kReverse,-87.06,2.23,2.48,0.03125,-0.56274414,-0.027832031,33.88,0.0,3.0,-7.937866,13.666275,
1914.640138,true,true,true,0.125,12.25,0.0,0,0,0,0.125,12.3,0.0,0,0,0,0.125,12.25,0.0,0,0,0,0.125,12.3,0.0,0,0,0,0.125,12.3,0.0,0,0,0,0.0,12.3,0.0,0,0,0,0.125,12.35,0.0,0,0,0,kReverse,kReverse,-87.03,2.23,2.49,0.040893555,-0.78430176,-0.08319092,33.88,0.0,-4.0,-7.937866,13.666519,
1914.659532,true,true,true,0.125,12.25,0.0,0,0,0,0.125,12.3,0.0,0,0,0,0.125,12.25,0.0,0,0,0,0.125,12.3,0.0,0,0,0,0.125,12.3,0.0,0,0,0,0.0,12.3,0.0,0,0,0,0.125,12.35,0.0,0,0,0,kReverse,kReverse,-87.06,2.23,2.48,0.08538818,-0.90093994,-0.03717041,33.88,0.0,40.0,-7.9379272,13.666122,
1914.6792389999998,true,true,true,0.125,12.25,0.0,0,0,0,0.125,12.3,0.0,0,0,0,0.125,12.25,0.0,0,0,0,0.125,12.3,0.0,0,0,0,0.125,12.3,0.0,0,0,0,0.0,12.3,0.0,0,0,0,0.125,12.35,0.0,0,0,0,kReverse,kReverse,-87.04,2.21,2.47,0.093811035,-1.0830688,0.028076172,33.88,0.0,50.0,-7.9378815,13.665741,
1914.699835,true,true,true,0.125,12.25,0.0,0,0,0,0.125,12.3,0.0,0,0,0,0.125,12.25,0.0,0,0,0,0.125,12.3,0.0,0,0,0,0.125,12.3,0.0,0,0,0,0.0,12.3,0.0,0,0,0,0.125,12.35,0.0,0,0,0,kReverse,kReverse,-87.09,2.19,2.44,0.14855957,-1.2805786,0.06762695,33.88,0.0,101.0,-7.937729,13.665741,
1914.7202149999998,true,true,true,0.125,12.25,0.0,0,0,0,0.125,12.3,0.0,0,0,0,0.125,12.25,0.0,0,0,0,0.125,12.3,0.0,0,0,0,0.125,12.3,0.0,0,0,0,0.0,12.3,0.0,0,0,0,0.125,12.35,0.0,0,0,0,kReverse,kReverse,-87.07,2.23,2.48,0.0028686523,-1.1016235,0.18981934,33.88,0.0,-19.0,-7.9372253,13.666061,
1914.737827,true,true,true,0.125,12.25,0.0,0,0,0,0.125,12.25,0.0,0,0,0,0.125,12.25,0.0,0,0,0,0.125,12.25,0.0,0,0,0,0.125,12.25,0.0,0,0,0,0.0,12.3,0.0,0,0,0,0.125,12.35,0.0,0,0,0,kReverse,kReverse,-87.06,2.22,2.47,-0.07849121,-1.09021,0.17694092,33.9,0.0,-101.0,-7.937042,13.666534,
1914.759541,true,true,true,0.125,12.25,0.0,0,0,0,0.125,12.25,0.0,0,0,0,0.125,12.25,0.0,0,0,0,0.125,12.25,0.0,0,0,0,0.125,12.25,0.0,0,0,0,0.0,12.25,0.0,0,0,0,0.125,12.35,0.0,0,0,0,kReverse,kReverse,-87.05,2.21,2.47,-0.04815674,-1.1067505,0.07318115,33.9,0.0,-85.0,-7.936981,13.6671295,
1914.779277,true,true,true,0.125,12.25,0.0,0,0,0,0.125,12.25,0.0,0,0,0,0.125,12.25,0.0,0,0,0,0.125,12.25,0.0,0,0,0,0.125,12.25,0.0,0,0,0,0.0,12.25,0.0,0,0,0,0.125,12.35,0.0,0,0,0,kReverse,kReverse,-87.05,2.22,2.48,-0.04144287,-0.6015625,-0.08685303,33.9,0.0,-78.0,-7.937042,13.668579,
1914.7988799999998,true,true,true,0.125,12.25,0.0,0,0,0,0.125,12.25,0.0,0,0,0,0.125,12.25,0.0,0,0,0,0.125,12.25,0.0,0,0,0,0.125,12.25,0.0,0,0,0,0.0,12.25,0.0,0,0,0,0.125,12.35,0.0,0,0,0,kReverse,kReverse,-87.04,2.21,2.47,0.040771484,-0.75897217,-0.09918213,33.9,0.0,-5.0,-7.9371643,13.669159,
1914.8194749999998,true,true,true,0.125,12.25,0.0,0,0,0,0.125,12.25,0.0,0,0,0,0.125,12.25,0.0,0,0,0,0.125,12.25,0.0,0,0,0,0.125,12.25,0.0,0,0,0,0.0,12.25,0.0,0,0,0,0.125,12.35,0.0,0,0,0,kReverse,kReverse,-87.03,2.21,2.47,0.06323242,-0.805542,-0.23278809,33.9,0.0,-2.0,-7.9372864,13.669479,
1914.8399339999999,true,true,true,0.125,12.25,0.0,0,0,0,0.125,12.25,0.0,0,0,0,0.125,12.25,0.0,0,0,0,0.125,12.25,0.0,0,0,0,0.125,12.25,0.0,0,0,0,0.0,12.25,0.0,0,0,0,0.125,12.35,0.0,0,0,0,kReverse,kReverse,-87.03,2.22,2.48,0.09918213,-1.1054688,-0.0015869141,33.9,0.0,50.0,-7.9372406,13.669403,
1914.8588369999998,true,true,true,0.125,12.25,0.0,0,0,0,0.125,12.25,0.0,0,0,0,0.125,12.25,0.0,0,0,0,0.125,12.25,0.0,0,0,0,0.125,12.25,0.0,0,0,0,0.0,12.25,0.0,0,0,0,0.125,12.35,0.0,0,0,0,kReverse,kReverse,-87.05,2.19,2.45,0.16430664,-1.2423706,0.12121582,33.9,0.0,125.0,-7.9370728,13.669296,
1914.879784,true,true,true,0.125,12.25,0.0,0,0,0,0.125,12.25,0.0,0,0,0,0.125,12.25,0.0,0,0,0,0.125,12.25,0.0,0,0,0,0.125,12.25,0.0,0,0,0,0.0,12.25,0.0,0,0,0,0.125,12.35,0.0,0,0,0,kReverse,kReverse,-87.05,2.23,2.48,0.028930664,-1.0958252,0.21002197,33.9,0.0,8.0,-7.936432,13.669281,
1914.900801,true,true,true,0.125,12.25,0.0,0,0,0,0.125,12.25,0.0,0,0,0,0.125,12.25,0.0,0,0,0,0.125,12.25,0.0,0,0,0,0.125,12.25,0.0,0,0,0,0.0,12.25,0.0,0,0,0,0.125,12.3,0.0,0,0,0,kReverse,kReverse,-87.05,2.23,2.48,-0.0793457,-1.0545654,0.17999268,33.9,0.0,-100.0,-7.936157,13.669556,
1914.919433,true,true,true,0.125,12.25,0.0,0,0,0,0.125,12.25,0.0,0,0,0,0.125,12.25,0.0,0,0,0,0.125,12.25,0.0,0,0,0,0.125,12.25,0.0,0,0,0,0.0,12.25,0.0,0,0,0,0.125,12.3,0.0,0,0,0,kReverse,kReverse,-87.05,2.22,2.48,-0.014038086,-1.0674438,0.13415527,33.9,0.0,-42.0,-7.935974,13.670013,
1914.9389939999999,true,true,true,0.125,12.25,0.0,0,0,0,0.125,12.25,0.0,0,0,0,0.125,12.25,0.0,0,0,0,0.125,12.25,0.0,0,0,0,0.125,12.25,0.0,0,0,0,0.0,12.25,0.0,0,0,0,0.125,12.3,0.0,0,0,0,kReverse,kReverse,-87.05,2.25,2.5,-0.019226074,-0.85461426,0.091430664,33.9,0.0,-44.0,-7.935852,13.670578,
1914.9590640000001,true,true,true,0.125,12.25,0.0,0,0,0,0.125,12.25,0.0,0,0,0,0.125,12.25,0.0,0,0,0,0.125,12.25,0.0,0,0,0,0.125,12.25,0.0,0,0,0,0.0,12.25,0.0,0,0,0,0.125,12.3,0.0,0,0,0,kReverse,kReverse,-87.02,2.22,2.49,0.0769043,-0.77911377,-0.11920166,33.9,0.0,26.0,-7.9357147,13.671616,
1914.9794,true,true,true,0.125,12.25,0.0,0,0,0,0.125,12.25,0.0,0,0,0,0.125,12.25,0.0,0,0,0,0.125,12.25,0.0,0,0,0,0.125,12.25,0.0,0,0,0,0.0,12.25,0.0,0,0,0,0.125,12.3,0.0,0,0,0,kReverse,kReverse,-87.01,2.23,2.49,0.051757812,-0.8217163,-0.22271729,33.9,0.0,-13.0,-7.9356537,13.671783,
1914.9988119999998,true,true,true,0.125,12.25,0.0,0,0,0,0.125,12.25,0.0,0,0,0,0.125,12.25,0.0,0,0,0,0.125,12.25,0.0,0,0,0,0.125,12.25,0.0,0,0,0,0.0,12.25,0.0,0,0,0,0.125,12.3,0.0,0,0,0,kReverse,kReverse,-87.03,2.21,2.47,0.1184082,-1.1650391,0.07800293,33.9,0.0,77.0,-7.9354706,13.671539,
1915.018683,true,true,true,0.125,12.25,0.0,0,0,0,0.125,12.25,0.0,0,0,0,0.125,12.25,0.0,0,0,0,0.125,12.25,0.0,0,0,0,0.0,12.25,0.0,0,0,0,0.0,12.25,0.0,0,0,0,0.125,12.3,0.0,0,0,0,kReverse,kReverse,-87.04,2.2,2.46,0.13244629,-1.2659912,0.04937744,33.9,0.0,83.0,-7.9352417,13.671402,
1915.0396429999998,true,true,true,0.125,12.25,0.0,0,0,0,0.125,12.25,0.0,0,0,0,0.125,12.25,0.0,0,0,0,0.125,12.25,0.0,0,0,0,0.0,12.25,0.0,0,0,0,0.0,12.25,0.0,0,0,0,0.125,12.3,0.0,0,0,0,kReverse,kReverse,-87.05,2.22,2.47,-0.028442383,-1.050293,0.2244873,33.9,0.0,-43.0,-7.9346924,13.671341,
1915.0736409999997,true,true,true,0.125,12.25,0.0,0,0,0,0.125,12.25,0.0,0,0,0,0.125,12.25,0.0,0,0,0,0.125,12.25,0.0,0,0,0,0.125,12.25,0.0,0,0,0,0.0,12.25,0.0,0,0,0,0.125,12.3,0.0,0,0,0,kReverse,kReverse,-87.05,2.22,2.48,-1.2207031E-4,-1.0133667,0.058410645,33.9,0.0,-35.0,-7.934433,13.67215,
1915.1015899999998,true,true,true,0.125,12.25,0.0,0,0,0,0.125,12.25,0.0,0,0,0,0.125,12.25,0.0,0,0,0,0.125,12.25,0.0,0,0,0,0.125,12.25,0.0,0,0,0,0.0,12.25,0.0,0,0,0,0.125,12.3,0.0,0,0,0,kReverse,kReverse,-87.02,2.23,2.49,-0.01739502,-0.619812,-0.10223389,33.9,0.0,-57.0,-7.9344635,13.673157,
1915.1257659999999,true,true,true,0.125,12.25,0.0,0,0,0,0.125,12.25,0.0,0,0,0,0.125,12.25,0.0,0,0,0,0.125,12.25,0.0,0,0,0,0.125,12.25,0.0,0,0,0,0.0,12.25,0.0,0,0,0,0.125,12.3,0.0,0,0,0,kReverse,kReverse,-87.02,2.23,2.49,-0.01739502,-0.619812,-0.10223389,33.9,0.0,-57.0,-7.9344635,13.673157,
1915.147606,true,true,true,0.125,12.25,0.0,0,0,0,0.125,12.25,0.0,0,0,0,0.125,12.25,0.0,0,0,0,0.125,12.25,0.0,0,0,0,0.125,12.25,0.0,0,0,0,0.0,12.25,0.0,0,0,0,0.125,12.3,0.0,0,0,0,kReverse,kReverse,-87.02,2.22,2.49,0.081726074,-0.8430176,-0.15356445,33.9,0.0,24.0,-7.9346313,13.673355,
1915.1700079999998,true,true,true,0.125,12.25,0.0,0,0,0,0.125,12.25,0.0,0,0,0,0.125,12.25,0.0,0,0,0,0.125,12.25,0.0,0,0,0,0.0,12.25,0.0,0,0,0,0.0,12.25,0.0,0,0,0,0.125,12.3,0.0,0,0,0,kReverse,kReverse,-87.02,2.21,2.47,0.13116455,-1.1959229,0.12005615,33.9,0.0,94.0,-7.9346313,13.672867,
1915.190976,true,true,true,0.125,12.25,0.0,0,0,0,0.125,12.25,0.0,0,0,0,0.125,12.25,0.0,0,0,0,0.125,12.25,0.0,0,0,0,0.0,12.25,0.0,0,0,0,0.0,12.25,0.0,0,0,0,0.125,12.3,0.0,0,0,0,kReverse,kReverse,-87.03,2.21,2.47,0.16156006,-1.2171631,0.086120605,33.9,0.0,119.0,-7.934433,13.672684,
1915.212402,true,true,true,0.125,12.25,0.0,0,0,0,0.125,12.25,0.0,0,0,0,0.125,12.200000000000001,0.0,0,0,0,0.125,12.25,0.0,0,0,0,0.0,12.25,0.0,0,0,0,0.0,12.25,0.0,0,0,0,0.125,12.3,0.0,0,0,0,kReverse,kReverse,-87.04,2.23,2.48,-0.08728027,-1.0300293,0.22375488,33.9,0.0,-101.0,-7.9340057,13.672638,
1915.241193,true,true,true,0.125,12.25,0.0,0,0,0,0.125,12.25,0.0,0,0,0,0.125,12.200000000000001,0.0,0,0,0,0.125,12.25,0.0,0,0,0,0.125,12.25,0.0,0,0,0,0.0,12.200000000000001,0.0,0,0,0,0.125,12.3,0.0,0,0,0,kReverse,kReverse,-87.04,2.22,2.48,-0.030151367,-1.1350708,0.222229,33.9,0.0,-49.0,-7.9339447,13.672989,
1915.267089,true,true,true,0.125,12.25,0.0,0,0,0,0.125,12.25,0.0,0,0,0,0.125,12.200000000000001,0.0,0,0,0,0.125,12.25,0.0,0,0,0,0.125,12.25,0.0,0,0,0,0.0,12.200000000000001,0.0,0,0,0,0.125,12.3,0.0,0,0,0,kReverse,kReverse,-87.03,2.24,2.49,-0.01751709,-0.58898926,-0.0044555664,33.91,0.0,-43.0,-7.933975,13.673462,
1915.287445,true,true,true,0.125,12.25,0.0,0,0,0,0.125,12.25,0.0,0,0,0,0.125,12.200000000000001,0.0,0,0,0,0.125,12.25,0.0,0,0,0,0.125,12.25,0.0,0,0,0,0.0,12.200000000000001,0.0,0,0,0,0.125,12.3,0.0,0,0,0,kReverse,kReverse,-87.0,2.23,2.49,0.03100586,-0.7416382,-0.14099121,33.91,0.0,-19.0,-7.9340515,13.67334,
1915.307199,true,true,true,0.125,12.25,0.0,0,0,0,0.125,12.25,0.0,0,0,0,0.125,12.200000000000001,0.0,0,0,0,0.125,12.25,0.0,0,0,0,0.125,12.25,0.0,0,0,0,0.0,12.200000000000001,0.0,0,0,0,0.125,12.3,0.0,0,0,0,kReverse,kReverse,-87.02,2.23,2.49,0.11437988,-0.96118164,-0.026123047,33.91,0.0,68.0,-7.934189,13.672272,
1915.3284519999997,true,true,true,0.125,12.25,0.0,0,0,0,0.125,12.25,0.0,0,0,0,0.125,12.200000000000001,0.0,0,0,0,0.125,12.25,0.0,0,0,0,0.125,12.25,0.0,0,0,0,0.0,12.200000000000001,0.0,0,0,0,0.125,12.3,0.0,0,0,0,kReverse,kReverse,-87.03,2.2,2.46,0.12164307,-1.2595825,0.06530762,33.91,0.0,75.0,-7.934143,13.671585,
1915.3510599999997,true,true,true,0.125,12.25,0.0,0,0,0,0.125,12.25,0.0,0,0,0,0.125,12.200000000000001,0.0,0,0,0,0.125,12.25,0.0,0,0,0,0.125,12.25,0.0,0,0,0,0.0,12.200000000000001,0.0,0,0,0,0.125,12.3,0.0,0,0,0,kReverse,kReverse,-87.05,2.21,2.47,0.08227539,-1.1376953,0.113586426,33.91,0.0,47.0,-7.9337616,13.671631,
1915.373365,true,true,true,0.125,12.200000000000001,0.0,0,0,0,0.125,12.200000000000001,0.0,0,0,0,0.125,12.200000000000001,0.0,0,0,0,0.125,12.25,0.0,0,0,0,0.125,12.200000000000001,0.0,0,0,0,0.0,12.200000000000001,0.0,0,0,0,0.125,12.25,0.0,0,0,0,kReverse,kReverse,-87.06,2.21,2.47,-0.060668945,-1.0516357,0.21130371,33.91,0.0,-77.0,-7.933548,13.67186,
1915.39007,true,true,true,0.125,12.200000000000001,0.0,0,0,0,0.125,12.200000000000001,0.0,0,0,0,0.125,12.200000000000001,0.0,0,0,0,0.125,12.25,0.0,0,0,0,0.0,12.200000000000001,0.0,0,0,0,0.0,12.200000000000001,0.0,0,0,0,0.125,12.25,0.0,0,0,0,kReverse,kReverse,-87.05,2.21,2.47,-0.06335449,-1.0617676,0.1550293,33.91,0.0,-87.0,-7.9334564,13.672302,
1915.4101269999999,true,true,true,0.125,12.200000000000001,0.0,0,0,0,0.125,12.200000000000001,0.0,0,0,0,0.125,12.200000000000001,0.0,0,0,0,0.125,12.25,0.0,0,0,0,0.0,12.200000000000001,0.0,0,0,0,0.0,12.200000000000001,0.0,0,0,0,0.125,12.25,0.0,0,0,0,kReverse,kReverse,-87.04,2.22,2.48,-0.026184082,-0.60076904,-0.03186035,33.91,0.0,-55.0,-7.933502,13.673584,
1915.431488,true,true,true,0.125,12.200000000000001,0.0,0,0,0,0.125,12.200000000000001,0.0,0,0,0,0.125,12.200000000000001,0.0,0,0,0,0.125,12.25,0.0,0,0,0,0.0,12.200000000000001,0.0,0,0,0,0.0,12.200000000000001,0.0,0,0,0,0.125,12.25,0.0,0,0,0,kReverse,kReverse,-87.03,2.21,2.47,0.03765869,-0.70410156,-0.09161377,33.91,0.0,-4.0,-7.9335938,13.674149,
1915.453951,true,true,true,0.125,12.200000000000001,0.0,0,0,0,0.125,12.200000000000001,0.0,0,0,0,0.125,12.200000000000001,0.0,0,0,0,0.125,12.25,0.0,0,0,0,0.125,12.200000000000001,0.0,0,0,0,0.0,12.200000000000001,0.0,0,0,0,0.125,12.25,0.0,0,0,0,kReverse,kReverse,-87.03,2.22,2.48,0.08258057,-1.0320435,-0.13201904,33.91,0.0,20.0,-7.9335938,13.6744995,
1915.4791409999998,true,true,true,0.125,12.200000000000001,0.0,0,0,0,0.125,12.200000000000001,0.0,0,0,0,0.125,12.200000000000001,0.0,0,0,0,0.125,12.25,0.0,0,0,0,0.125,12.200000000000001,0.0,0,0,0,0.0,12.200000000000001,0.0,0,0,0,0.125,12.25,0.0,0,0,0,kReverse,kReverse,-87.04,2.2,2.46,0.1416626,-1.1426392,0.100097656,33.91,0.0,104.0,-7.933502,13.674438,
1915.4998059999998,true,true,true,0.125,12.200000000000001,0.0,0,0,0,0.125,12.200000000000001,0.0,0,0,0,0.125,12.200000000000001,0.0,0,0,0,0.125,12.25,0.0,0,0,0,0.125,12.200000000000001,0.0,0,0,0,0.0,12.200000000000001,0.0,0,0,0,0.125,12.25,0.0,0,0,0,kReverse,kReverse,-87.05,2.2,2.46,0.0501709,-1.1634521,0.075927734,33.91,0.0,9.0,-7.932953,13.674469,
1915.525645,true,true,true,0.125,12.200000000000001,0.0,0,0,0,0.125,12.200000000000001,0.0,0,0,0,0.125,12.200000000000001,0.0,0,0,0,0.125,12.25,0.0,0,0,0,0.125,12.200000000000001,0.0,0,0,0,0.0,12.200000000000001,0.0,0,0,0,0.125,12.25,0.0,0,0,0,kReverse,kReverse,-87.06,2.21,2.46,-0.059631348,-1.0327148,0.22735596,33.91,0.0,-73.0,-7.9326935,13.674683,
1915.547269,true,true,true,0.125,12.200000000000001,0.0,0,0,0,0.125,12.200000000000001,0.0,0,0,0,0.125,12.200000000000001,0.0,0,0,0,0.125,12.25,0.0,0,0,0,0.125,12.200000000000001,0.0,0,0,0,0.0,12.200000000000001,0.0,0,0,0,0.125,12.25,0.0,0,0,0,kReverse,kReverse,-87.05,2.21,2.47,-0.00592041,-0.98565674,0.04107666,33.91,0.0,-42.0,-7.9323883,13.675781,
1915.569648,true,true,true,0.125,12.200000000000001,0.0,0,0,0,0.125,12.200000000000001,0.0,0,0,0,0.125,12.200000000000001,0.0,0,0,0,0.125,12.25,0.0,0,0,0,0.125,12.200000000000001,0.0,0,0,0,0.0,12.200000000000001,0.0,0,0,0,0.125,12.25,0.0,0,0,0,kReverse,kReverse,-87.03,2.21,2.47,0.008056641,-0.6530762,-0.11755371,33.91,0.0,-35.0,-7.932373,13.6770935,
1915.59145,true,true,true,0.125,12.200000000000001,0.0,0,0,0,0.125,12.200000000000001,0.0,0,0,0,0.125,12.200000000000001,0.0,0,0,0,0.125,12.25,0.0,0,0,0,0.125,12.200000000000001,0.0,0,0,0,0.0,12.200000000000001,0.0,0,0,0,0.125,12.25,0.0,0,0,0,kReverse,kReverse,-87.03,2.2,2.47,0.07208252,-0.857605,-0.2253418,33.91,0.0,5.0,-7.932419,13.677444,
1915.6149279999997,true,true,true,0.125,12.200000000000001,0.0,0,0,0,0.125,12.200000000000001,0.0,0,0,0,0.125,12.200000000000001,0.0,0,0,0,0.125,12.25,0.0,0,0,0,0.125,12.200000000000001,0.0,0,0,0,0.0,12.200000000000001,0.0,0,0,0,0.125,12.25,0.0,0,0,0,kReverse,kReverse,-87.04,2.19,2.45,0.117004395,-1.2243652,0.031921387,33.91,0.0,68.0,-7.9323425,13.677536,
1915.635,true,true,true,0.125,12.200000000000001,0.0,0,0,0,0.125,12.200000000000001,0.0,0,0,0,0.125,12.200000000000001,0.0,0,0,0,0.125,12.25,0.0,0,0,0,0.125,12.200000000000001,0.0,0,0,0,0.0,12.200000000000001,0.0,0,0,0,0.125,12.25,0.0,0,0,0,kReverse,kReverse,-87.04,2.19,2.45,0.117004395,-1.2243652,0.031921387,33.91,0.0,68.0,-7.9323425,13.677536,
1915.64762,true,true,true,0.125,12.200000000000001,0.0,0,0,0,0.125,12.200000000000001,0.0,0,0,0,0.125,12.200000000000001,0.0,0,0,0,0.125,12.25,0.0,0,0,0,0.125,12.200000000000001,0.0,0,0,0,0.0,12.200000000000001,0.0,0,0,0,0.125,12.25,0.0,0,0,0,kReverse,kReverse,-87.04,2.18,2.45,0.13153076,-1.2089844,0.09075928,33.91,0.0,90.0,-7.9321594,13.677551,
1915.661581,true,true,true,0.125,12.200000000000001,0.0,0,0,0,0.125,12.200000000000001,0.0,0,0,0,0.125,12.200000000000001,0.0,0,0,0,0.125,12.25,0.0,0,0,0,0.125,12.200000000000001,0.0,0,0,0,0.0,12.200000000000001,0.0,0,0,0,0.125,12.25,0.0,0,0,0,kReverse,kReverse,-87.06,2.19,2.45,0.11462402,-1.1730347,0.07702637,33.91,0.0,73.0,-7.9318542,13.677597,
1915.674509,true,true,true,0.125,12.200000000000001,0.0,0,0,0,0.125,12.200000000000001,0.0,0,0,0,0.125,12.200000000000001,0.0,0,0,0,0.125,12.25,0.0,0,0,0,0.125,12.200000000000001,0.0,0,0,0,0.0,12.200000000000001,0.0,0,0,0,0.125,12.25,0.0,0,0,0,kReverse,kReverse,-87.07,2.2,2.45,-0.059692383,-1.0646362,0.1862793,33.91,0.0,-80.0,-7.9315643,13.67778,
1915.688277,true,true,true,0.125,12.200000000000001,0.0,0,0,0,0.125,12.200000000000001,0.0,0,0,0,0.125,12.200000000000001,0.0,0,0,0,0.125,12.25,0.0,0,0,0,0.0,12.200000000000001,0.0,0,0,0,0.0,12.200000000000001,0.0,0,0,0,0.125,12.25,0.0,0,0,0,kReverse,kReverse,-87.06,2.2,2.46,-0.07672119,-1.048523,0.18487549,33.91,0.0,-96.0,-7.9313965,13.678192,
1915.709591,true,true,true,0.125,12.200000000000001,0.0,0,0,0,0.125,12.200000000000001,0.0,0,0,0,0.125,12.200000000000001,0.0,0,0,0,0.125,12.25,0.0,0,0,0,0.0,12.200000000000001,0.0,0,0,0,0.0,12.200000000000001,0.0,0,0,0,0.125,12.25,0.0,0,0,0,kReverse,kReverse,-87.06,2.2,2.46,-0.02368164,-0.6496582,4.272461E-4,33.91,0.0,-51.0,-7.931305,13.679489,
1915.741893,true,true,true,0.125,12.200000000000001,0.0,0,0,0,0.125,12.200000000000001,0.0,0,0,0,0.125,12.200000000000001,0.0,0,0,0,0.125,12.25,0.0,0,0,0,0.0,12.200000000000001,0.0,0,0,0,0.0,12.200000000000001,0.0,0,0,0,0.125,12.25,0.0,0,0,0,kReverse,kReverse,-87.02,2.2,2.46,0.04449463,-0.8296509,-0.21411133,33.91,0.0,-19.0,-7.9313354,13.680511,
1915.762936,true,true,true,0.125,12.200000000000001,0.0,0,0,0,0.125,12.200000000000001,0.0,0,0,0,0.125,12.200000000000001,0.0,0,0,0,0.125,12.25,0.0,0,0,0,0.125,12.200000000000001,0.0,0,0,0,0.0,12.200000000000001,0.0,0,0,0,0.125,12.25,0.0,0,0,0,kReverse,kReverse,-87.04,2.2,2.46,0.08666992,-1.0213623,-0.14581299,33.91,0.0,23.0,-7.9313354,13.680618,
1915.784168,true,true,true,0.125,12.200000000000001,0.0,0,0,0,0.125,12.200000000000001,0.0,0,0,0,0.125,12.200000000000001,0.0,0,0,0,0.125,12.25,0.0,0,0,0,0.125,12.200000000000001,0.0,0,0,0,0.0,12.200000000000001,0.0,0,0,0,0.125,12.25,0.0,0,0,0,kReverse,kReverse,-87.05,2.18,2.44,0.15209961,-1.1283569,0.09552002,33.91,0.0,115.0,-7.931244,13.680618,
1915.803642,true,true,true,0.125,12.200000000000001,0.0,0,0,0,0.125,12.200000000000001,0.0,0,0,0,0.125,12.200000000000001,0.0,0,0,0,0.125,12.25,0.0,0,0,0,0.125,12.200000000000001,0.0,0,0,0,0.0,12.200000000000001,0.0,0,0,0,0.125,12.25,0.0,0,0,0,kReverse,kReverse,-87.05,2.19,2.45,0.05633545,-1.1651001,0.04852295,33.91,0.0,12.0,-7.930649,13.68074,
1915.8248629999998,true,true,true,0.125,12.200000000000001,0.0,0,0,0,0.125,12.200000000000001,0.0,0,0,0,0.125,12.200000000000001,0.0,0,0,0,0.125,12.25,0.0,0,0,0,0.125,12.200000000000001,0.0,0,0,0,0.0,12.200000000000001,0.0,0,0,0,0.125,12.25,0.0,0,0,0,kReverse,kReverse,-87.06,2.2,2.46,-0.059814453,-1.0135498,0.22906494,33.91,0.0,-72.0,-7.930359,13.680954,
1915.846042,true,true,true,0.125,12.200000000000001,0.0,0,0,0,0.125,12.200000000000001,0.0,0,0,0,0.125,12.200000000000001,0.0,0,0,0,0.125,12.25,0.0,0,0,0,0.125,12.200000000000001,0.0,0,0,0,0.0,12.200000000000001,0.0,0,0,0,0.125,12.25,0.0,0,0,0,kReverse,kReverse,-87.06,2.2,2.46,-0.0045166016,-0.9830322,0.037231445,33.91,0.0,-41.0,-7.930008,13.682083,
1915.868774,true,true,true,0.125,12.200000000000001,0.0,0,0,0,0.125,12.200000000000001,0.0,0,0,0,0.125,12.200000000000001,0.0,0,0,0,0.125,12.200000000000001,0.0,0,0,0,0.125,12.200000000000001,0.0,0,0,0,0.0,12.200000000000001,0.0,0,0,0,0.125,12.25,0.0,0,0,0,kReverse,kReverse,-87.03,2.2,2.47,0.010437012,-0.6711426,-0.1105957,33.91,0.0,-32.0,-7.929947,13.683411,
1915.889947,true,true,true,0.125,12.200000000000001,0.0,0,0,0,0.125,12.200000000000001,0.0,0,0,0,0.125,12.200000000000001,0.0,0,0,0,0.125,12.200000000000001,0.0,0,0,0,0.125,12.200000000000001,0.0,0,0,0,0.0,12.200000000000001,0.0,0,0,0,0.125,12.25,0.0,0,0,0,kReverse,kReverse,-87.02,2.2,2.46,0.08355713,-0.8727417,-0.21899414,33.91,0.0,16.0,-7.929947,13.683792,
1915.910146,true,true,true,0.125,12.200000000000001,0.0,0,0,0,0.125,12.200000000000001,0.0,0,0,0,0.125,12.200000000000001,0.0,0,0,0,0.125,12.200000000000001,0.0,0,0,0,0.125,12.200000000000001,0.0,0,0,0,0.0,12.200000000000001,0.0,0,0,0,0.125,12.25,0.0,0,0,0,kReverse,kReverse,-87.03,2.19,2.46,0.11804199,-0.9219971,-0.054016113,33.91,0.0,70.0,-7.929901,13.683929,
1915.93033,true,true,true,0.125,12.200000000000001,0.0,0,0,0,0.125,12.200000000000001,0.0,0,0,0,0.125,12.200000000000001,0.0,0,0,0,0.125,12.200000000000001,0.0,0,0,0,0.125,12.200000000000001,0.0,0,0,0,0.0,12.200000000000001,0.0,0,0,0,0.125,12.25,0.0,0,0,0,kReverse,kReverse,-87.03,2.18,2.44,0.1260376,-1.204895,0.06384277,33.91,0.0,82.0,-7.929489,13.684006,
1915.952758,true,true,true,0.125,12.200000000000001,0.0,0,0,0,0.125,12.200000000000001,0.0,0,0,0,0.125,12.200000000000001,0.0,0,0,0,0.125,12.200000000000001,0.0,0,0,0,0.125,12.200000000000001,0.0,0,0,0,0.0,12.200000000000001,0.0,0,0,0,0.125,12.25,0.0,0,0,0,kReverse,kReverse,-87.06,2.19,2.45,0.08911133,-1.1494751,0.08312988,33.91,0.0,50.0,-7.929123,13.684036,
1915.974264,true,true,true,0.125,12.200000000000001,0.0,0,0,0,0.125,12.200000000000001,0.0,0,0,0,0.125,12.200000000000001,0.0,0,0,0,0.125,12.200000000000001,0.0,0,0,0,0.125,12.200000000000001,0.0,0,0,0,0.0,12.200000000000001,0.0,0,0,0,0.125,12.25,0.0,0,0,0,kReverse,kReverse,-87.06,2.19,2.45,-0.061584473,-1.0623169,0.14892578,33.91,0.0,-86.0,-7.928589,13.684601,
1915.996349,true,true,true,0.125,12.200000000000001,0.0,0,0,0,0.125,12.200000000000001,0.0,0,0,0,0.125,12.200000000000001,0.0,0,0,0,0.125,12.200000000000001,0.0,0,0,0,0.125,12.200000000000001,0.0,0,0,0,0.0,12.200000000000001,0.0,0,0,0,0.125,12.25,0.0,0,0,0,kReverse,kReverse,-87.07,2.2,2.45,-0.026245117,-0.96533203,0.16394043,33.91,0.0,-45.0,-7.928467,13.685165,
1916.020413,true,true,true,0.125,12.200000000000001,0.0,0,0,0,0.125,12.200000000000001,0.0,0,0,0,0.125,12.200000000000001,0.0,0,0,0,0.125,12.200000000000001,0.0,0,0,0,0.125,12.200000000000001,0.0,0,0,0,0.0,12.200000000000001,0.0,0,0,0,0.125,12.25,0.0,0,0,0,kReverse,kReverse,-87.05,2.21,2.47,-0.04168701,-0.5862427,-0.0211792,33.91,0.0,-69.0,-7.928421,13.685806,
1916.0411439999998,true,true,true,0.125,12.200000000000001,0.0,0,0,0,0.125,12.200000000000001,0.0,0,0,0,0.125,12.200000000000001,0.0,0,0,0,0.125,12.200000000000001,0.0,0,0,0,0.125,12.200000000000001,0.0,0,0,0,0.0,12.200000000000001,0.0,0,0,0,0.125,12.25,0.0,0,0,0,kReverse,kReverse,-87.02,2.19,2.46,0.050048828,-0.835022,-0.22924805,33.91,0.0,-16.0,-7.9284363,13.686584,
1916.064326,true,true,true,0.125,12.200000000000001,0.0,0,0,0,0.125,12.200000000000001,0.0,0,0,0,0.125,12.200000000000001,0.0,0,0,0,0.125,12.200000000000001,0.0,0,0,0,0.125,12.200000000000001,0.0,0,0,0,0.0,12.200000000000001,0.0,0,0,0,0.125,12.25,0.0,0,0,0,kReverse,kReverse,-87.05,2.19,2.45,0.10632324,-1.0986328,-0.08251953,33.91,0.0,47.0,-7.928421,13.686584,
1916.0861579999998,true,true,true,0.125,12.200000000000001,0.0,0,0,0,0.125,12.200000000000001,0.0,0,0,0,0.125,12.200000000000001,0.0,0,0,0,0.125,12.200000000000001,0.0,0,0,0,0.125,12.200000000000001,0.0,0,0,0,0.0,12.200000000000001,0.0,0,0,0,0.125,12.25,0.0,0,0,0,kReverse,kReverse,-87.05,2.16,2.43,0.16052246,-1.2590942,0.055236816,33.91,0.0,113.0,-7.927994,13.686539,
1916.115548,true,true,true,0.125,12.200000000000001,0.0,0,0,0,0.125,12.200000000000001,0.0,0,0,0,0.125,12.200000000000001,0.0,0,0,0,0.125,12.200000000000001,0.0,0,0,0,0.125,12.200000000000001,0.0,0,0,0,0.0,12.200000000000001,0.0,0,0,0,0.125,12.25,0.0,0,0,0,kReverse,kReverse,-87.07,2.19,2.45,-0.08746338,-1.0238647,0.23010254,33.91,0.0,-99.0,-7.9273987,13.686737,
1916.1396739999998,true,true,true,0.125,12.200000000000001,0.0,0,0,0,0.125,12.200000000000001,0.0,0,0,0,0.125,12.200000000000001,0.0,0,0,0,0.125,12.200000000000001,0.0,0,0,0,0.125,12.200000000000001,0.0,0,0,0,0.0,12.200000000000001,0.0,0,0,0,0.125,12.25,0.0,0,0,0,kReverse,kReverse,-87.06,2.2,2.46,-0.010192871,-0.86828613,0.007507324,33.91,0.0,-46.0,-7.9271545,13.687775,
1916.165655,true,true,true,0.125,12.200000000000001,0.0,0,0,0,0.125,12.200000000000001,0.0,0,0,0,0.125,12.200000000000001,0.0,0,0,0,0.125,12.200000000000001,0.0,0,0,0,0.125,12.200000000000001,0.0,0,0,0,0.0,12.200000000000001,0.0,0,0,0,0.125,12.25,0.0,0,0,0,kReverse,kReverse,-87.02,2.19,2.46,0.01763916,-0.7571411,-0.15472412,33.91,0.0,-35.0,-7.92717,13.687653,
1916.1902479999999,true,true,true,0.125,12.200000000000001,0.0,0,0,0,0.125,12.200000000000001,0.0,0,0,0,0.125,12.200000000000001,0.0,0,0,0,0.125,12.200000000000001,0.0,0,0,0,0.125,12.200000000000001,0.0,0,0,0,0.0,12.200000000000001,0.0,0,0,0,0.125,12.25,0.0,0,0,0,kReverse,kReverse,-87.03,2.19,2.46,0.08947754,-0.9217529,-0.23101807,33.91,0.0,19.0,-7.927231,13.687241,
1916.2137289999998,true,true,true,0.125,12.200000000000001,0.0,0,0,0,0.125,12.200000000000001,0.0,0,0,0,0.125,12.200000000000001,0.0,0,0,0,0.125,12.200000000000001,0.0,0,0,0,0.125,12.200000000000001,0.0,0,0,0,0.0,12.200000000000001,0.0,0,0,0,0.125,12.25,0.0,0,0,0,kReverse,kReverse,-87.05,2.16,2.43,0.13934326,-1.2631836,0.0871582,33.91,0.0,96.0,-7.9270782,13.685974,
1916.231779,true,true,true,0.125,12.200000000000001,0.0,0,0,0,0.125,12.200000000000001,0.0,0,0,0,0.125,12.200000000000001,0.0,0,0,0,0.125,12.200000000000001,0.0,0,0,0,0.125,12.200000000000001,0.0,0,0,0,0.0,12.200000000000001,0.0,0,0,0,0.125,12.25,0.0,0,0,0,kReverse,kReverse,-87.04,2.17,2.44,0.11767578,-1.1829834,0.05444336,33.91,0.0,73.0,-7.926819,13.685364,
1916.2567849999998,true,true,true,0.125,12.200000000000001,0.0,0,0,0,0.125,12.200000000000001,0.0,0,0,0,0.125,12.200000000000001,0.0,0,0,0,0.125,12.200000000000001,0.0,0,0,0,0.125,12.200000000000001,0.0,0,0,0,0.0,12.200000000000001,0.0,0,0,0,0.125,12.25,0.0,0,0,0,kReverse,kReverse,-87.07,2.19,2.44,-0.07647705,-1.0428467,0.22076416,33.91,0.0,-91.0,-7.926285,13.684479,
1916.2797119999998,true,true,true,0.125,12.200000000000001,0.0,0,0,0,0.125,12.200000000000001,0.0,0,0,0,0.125,12.200000000000001,0.0,0,0,0,0.125,12.200000000000001,0.0,0,0,0,0.125,12.200000000000001,0.0,0,0,0,0.0,12.200000000000001,0.0,0,0,0,0.125,12.25,0.0,0,0,0,kReverse,kReverse,-87.06,2.19,2.45,-0.029724121,-1.0586548,0.10406494,33.91,0.0,-60.0,-7.9261475,13.684326,
1916.301687,true,true,true,0.125,12.200000000000001,0.0,0,0,0,0.125,12.200000000000001,0.0,0,0,0,0.125,12.200000000000001,0.0,0,0,0,0.125,12.200000000000001,0.0,0,0,0,0.125,12.200000000000001,0.0,0,0,0,0.0,12.200000000000001,0.0,0,0,0,0.125,12.25,0.0,0,0,0,kReverse,kReverse,-87.07,2.2,2.46,-0.051879883,-0.7686157,0.11419678,33.91,0.0,-69.0,-7.9260864,13.68428,
1916.3231799999999,true,true,true,0.125,12.200000000000001,0.0,0,0,0,0.125,12.200000000000001,0.0,0,0,0,0.125,12.200000000000001,0.0,0,0,0,0.125,12.200000000000001,0.0,0,0,0,0.125,12.200000000000001,0.0,0,0,0,0.0,12.200000000000001,0.0,0,0,0,0.125,12.25,0.0,0,0,0,kReverse,kReverse,-87.04,2.18,2.44,0.06585693,-0.82458496,-0.18585205,33.91,0.0,5.0,-7.9262238,13.683975,
1916.3463459999998,true,true,true,0.125,12.200000000000001,0.0,0,0,0,0.125,12.200000000000001,0.0,0,0,0,0.125,12.15,0.0,0,0,0,0.125,12.200000000000001,0.0,0,0,0,0.125,12.200000000000001,0.0,0,0,0,0.0,12.200000000000001,0.0,0,0,0,0.125,12.25,0.0,0,0,0,kReverse,kReverse,-87.04,2.19,2.45,0.09118652,-0.8834839,-0.14477539,33.91,0.0,33.0,-7.926285,13.683441,
1916.36546,true,true,true,0.125,12.200000000000001,0.0,0,0,0,0.125,12.200000000000001,0.0,0,0,0,0.125,12.15,0.0,0,0,0,0.125,12.200000000000001,0.0,0,0,0,0.125,12.200000000000001,0.0,0,0,0,0.0,12.200000000000001,0.0,0,0,0,0.125,12.25,0.0,0,0,0,kReverse,kReverse,-87.05,2.16,2.42,0.14898682,-1.2076416,0.09680176,33.91,0.0,109.0,-7.926132,13.682083,
1916.386579,true,true,true,0.125,12.200000000000001,0.0,0,0,0,0.125,12.200000000000001,0.0,0,0,0,0.125,12.15,0.0,0,0,0,0.125,12.200000000000001,0.0,0,0,0,0.125,12.200000000000001,0.0,0,0,0,0.0,12.200000000000001,0.0,0,0,0,0.125,12.25,0.0,0,0,0,kReverse,kReverse,-87.07,2.17,2.43,0.13677979,-1.2009888,0.0602417,33.91,0.0,92.0,-7.9258423,13.681427,
1916.4085,true,true,true,0.125,12.200000000000001,0.0,0,0,0,0.125,12.200000000000001,0.0,0,0,0,0.125,12.15,0.0,0,0,0,0.125,12.200000000000001,0.0,0,0,0,0.125,12.200000000000001,0.0,0,0,0,0.0,12.200000000000001,0.0,0,0,0,0.125,12.25,0.0,0,0,0,kReverse,kReverse,-87.08,2.18,2.44,-0.088256836,-1.0597534,0.16571045,33.91,0.0,-110.0,-7.9254,13.680511,
1916.429213,true,true,true,0.125,12.200000000000001,0.0,0,0,0,0.125,12.200000000000001,0.0,0,0,0,0.125,12.15,0.0,0,0,0,0.125,12.200000000000001,0.0,0,0,0,0.125,12.200000000000001,0.0,0,0,0,0.0,12.200000000000001,0.0,0,0,0,0.125,12.25,0.0,0,0,0,kReverse,kReverse,-87.08,2.19,2.44,-0.029541016,-1.0391846,0.16912842,33.91,0.0,-51.0,-7.9253387,13.680344,
1916.449513,true,true,true,0.125,12.200000000000001,0.0,0,0,0,0.125,12.200000000000001,0.0,0,0,0,0.125,12.15,0.0,0,0,0,0.125,12.200000000000001,0.0,0,0,0,0.125,12.200000000000001,0.0,0,0,0,0.0,12.200000000000001,0.0,0,0,0,0.125,12.25,0.0,0,0,0,kReverse,kReverse,-87.06,2.19,2.45,0.01751709,-0.6800537,-0.068603516,33.91,0.0,-20.0,-7.925461,13.680084,
1916.4703329999998,true,true,true,0.125,12.200000000000001,0.0,0,0,0,0.125,12.200000000000001,0.0,0,0,0,0.125,12.15,0.0,0,0,0,0.125,12.200000000000001,0.0,0,0,0,0.125,12.200000000000001,0.0,0,0,0,0.0,12.200000000000001,0.0,0,0,0,0.125,12.25,0.0,0,0,0,kReverse,kReverse,-87.03,2.19,2.46,0.046081543,-0.84020996,-0.2098999,33.91,0.0,-17.0,-7.9255676,13.6796875,
1916.490433,true,true,true,0.125,12.200000000000001,0.0,0,0,0,0.125,12.200000000000001,0.0,0,0,0,0.125,12.15,0.0,0,0,0,0.125,12.200000000000001,0.0,0,0,0,0.125,12.200000000000001,0.0,0,0,0,0.0,12.200000000000001,0.0,0,0,0,0.125,12.200000000000001,0.0,0,0,0,kReverse,kReverse,-87.06,2.17,2.43,0.15435791,-1.1555786,0.12475586,33.91,0.0,120.0,-7.9256287,13.678314,
1916.51184,true,true,true,0.125,12.200000000000001,0.0,0,0,0,0.125,12.200000000000001,0.0,0,0,0,0.125,12.15,0.0,0,0,0,0.125,12.200000000000001,0.0,0,0,0,0.125,12.200000000000001,0.0,0,0,0,0.0,12.15,0.0,0,0,0,0.125,12.200000000000001,0.0,0,0,0,kReverse,kReverse,-87.07,2.16,2.42,0.16821289,-1.269165,0.07727051,33.91,0.0,123.0,-7.925415,13.677658,
1916.530693,true,true,true,0.125,12.200000000000001,0.0,0,0,0,0.125,12.200000000000001,0.0,0,0,0,0.125,12.15,0.0,0,0,0,0.125,12.200000000000001,0.0,0,0,0,0.125,12.200000000000001,0.0,0,0,0,0.0,12.15,0.0,0,0,0,0.125,12.200000000000001,0.0,0,0,0,kReverse,kReverse,-87.07,2.16,2.42,0.16821289,-1.269165,0.07727051,33.91,0.0,123.0,-7.925415,13.677658,
1916.552392,true,true,true,0.125,12.200000000000001,0.0,0,0,0,0.125,12.200000000000001,0.0,0,0,0,0.125,12.15,0.0,0,0,0,0.125,12.200000000000001,0.0,0,0,0,0.125,12.200000000000001,0.0,0,0,0,0.0,12.15,0.0,0,0,0,0.125,12.200000000000001,0.0,0,0,0,kReverse,kReverse,-87.09,2.19,2.44,-0.080322266,-1.0082397,0.21447754,33.91,0.0,-94.0,-7.9249268,13.676559,
1916.570734,true,true,true,0.125,12.200000000000001,0.0,0,0,0,0.125,12.200000000000001,0.0,0,0,0,0.125,12.15,0.0,0,0,0,0.125,12.200000000000001,0.0,0,0,0,0.125,12.200000000000001,0.0,0,0,0,0.0,12.15,0.0,0,0,0,0.125,12.200000000000001,0.0,0,0,0,kReverse,kReverse,-87.08,2.18,2.43,-0.028320312,-1.1217651,0.22906494,33.91,0.0,-45.0,-7.92482,13.676361,
1916.591287,true,true,true,0.125,12.200000000000001,0.0,0,0,0,0.125,12.200000000000001,0.0,0,0,0,0.125,12.15,0.0,0,0,0,0.125,12.200000000000001,0.0,0,0,0,0.125,12.200000000000001,0.0,0,0,0,0.0,12.15,0.0,0,0,0,0.125,12.200000000000001,0.0,0,0,0,kReverse,kReverse,-87.07,2.19,2.45,-0.022888184,-0.8775635,0.026550293,33.91,0.0,-56.0,-7.924774,13.6763,
1916.615134,true,true,true,0.125,12.200000000000001,0.0,0,0,0,0.125,12.200000000000001,0.0,0,0,0,0.125,12.15,0.0,0,0,0,0.125,12.200000000000001,0.0,0,0,0,0.125,12.200000000000001,0.0,0,0,0,0.0,12.15,0.0,0,0,0,0.125,12.200000000000001,0.0,0,0,0,kReverse,kReverse,-87.04,2.19,2.45,0.023986816,-0.76745605,-0.14733887,33.91,0.0,-28.0,-7.9249115,13.676086,
1916.6387659999998,true,true,true,0.125,12.200000000000001,0.0,0,0,0,0.125,12.200000000000001,0.0,0,0,0,0.125,12.15,0.0,0,0,0,0.125,12.200000000000001,0.0,0,0,0,0.125,12.200000000000001,0.0,0,0,0,0.0,12.15,0.0,0,0,0,0.125,12.200000000000001,0.0,0,0,0,kReverse,kReverse,-87.04,2.19,2.45,0.107910156,-0.94525146,-0.20013428,33.91,0.0,40.0,-7.925003,13.675644,
1916.6624439999998,true,true,true,0.125,12.15,0.0,0,0,0,0.125,12.200000000000001,0.0,0,0,0,0.125,12.15,0.0,0,0,0,0.125,12.200000000000001,0.0,0,0,0,0.125,12.15,0.0,0,0,0,0.0,12.15,0.0,0,0,0,0.125,12.200000000000001,0.0,0,0,0,kReverse,kReverse,-87.07,2.16,2.42,0.15655518,-1.2781372,0.09362793,33.91,0.0,113.0,-7.924835,13.674408,
1916.681929,true,true,true,0.125,12.15,0.0,0,0,0,0.125,12.200000000000001,0.0,0,0,0,0.125,12.15,0.0,0,0,0,0.125,12.200000000000001,0.0,0,0,0,0.125,12.15,0.0,0,0,0,0.0,12.15,0.0,0,0,0,0.125,12.200000000000001,0.0,0,0,0,kReverse,kReverse,-87.05,2.18,2.44,0.105041504,-1.1550903,0.053833008,33.91,0.0,62.0,-7.9245605,13.673828,
1916.7037659999999,true,true,true,0.125,12.15,0.0,0,0,0,0.125,12.200000000000001,0.0,0,0,0,0.125,12.15,0.0,0,0,0,0.125,12.200000000000001,0.0,0,0,0,0.125,12.15,0.0,0,0,0,0.0,12.15,0.0,0,0,0,0.125,12.200000000000001,0.0,0,0,0,kReverse,kReverse,-87.07,2.18,2.44,-0.06561279,-1.0872192,0.21746826,33.91,0.0,-82.0,-7.9240417,13.67308,
1916.724896,true,true,true,0.125,12.15,0.0,0,0,0,0.125,12.200000000000001,0.0,0,0,0,0.125,12.15,0.0,0,0,0,0.125,12.200000000000001,0.0,0,0,0,0.125,12.15,0.0,0,0,0,0.0,12.15,0.0,0,0,0,0.125,12.200000000000001,0.0,0,0,0,kReverse,kReverse,-87.07,2.18,2.44,-0.025939941,-1.0354004,0.076171875,33.91,0.0,-59.0,-7.9239197,13.672989,
1916.74702,true,true,true,0.125,12.15,0.0,0,0,0,0.125,12.200000000000001,0.0,0,0,0,0.125,12.15,0.0,0,0,0,0.125,12.200000000000001,0.0,0,0,0,0.125,12.15,0.0,0,0,0,0.0,12.15,0.0,0,0,0,0.125,12.200000000000001,0.0,0,0,0,kReverse,kReverse,-87.05,2.2,2.46,-0.0041503906,-0.651062,-0.115722656,33.91,0.0,-47.0,-7.9239655,13.672943,
1916.76786,true,true,true,0.125,12.15,0.0,0,0,0,0.125,12.200000000000001,0.0,0,0,0,0.125,12.15,0.0,0,0,0,0.125,12.200000000000001,0.0,0,0,0,0.125,12.15,0.0,0,0,0,0.0,12.15,0.0,0,0,0,0.125,12.200000000000001,0.0,0,0,0,kReverse,kReverse,-87.04,2.18,2.45,0.08129883,-0.8664551,-0.21148682,33.91,0.0,16.0,-7.924057,13.672653,
1916.7890889999999,true,true,true,0.125,12.15,0.0,0,0,0,0.125,12.200000000000001,0.0,0,0,0,0.125,12.15,0.0,0,0,0,0.125,12.200000000000001,0.0,0,0,0,0.125,12.15,0.0,0,0,0,0.0,12.15,0.0,0,0,0,0.125,12.200000000000001,0.0,0,0,0,kReverse,kReverse,-87.06,2.17,2.43,0.13574219,-1.2362671,0.061279297,33.92,0.0,90.0,-7.923996,13.671524,
1916.8106239999997,true,true,true,0.125,12.15,0.0,0,0,0,0.125,12.15,0.0,0,0,0,0.125,12.15,0.0,0,0,0,0.125,12.200000000000001,0.0,0,0,0,0.125,12.15,0.0,0,0,0,0.0,12.15,0.0,0,0,0,0.125,12.200000000000001,0.0,0,0,0,kReverse,kReverse,-87.05,2.16,2.43,0.14465332,-1.1953125,0.07861328,33.92,0.0,103.0,-7.9237823,13.670929,
1916.830632,true,true,true,0.125,12.15,0.0,0,0,0,0.125,12.15,0.0,0,0,0,0.125,12.15,0.0,0,0,0,0.125,12.200000000000001,0.0,0,0,0,0.125,12.15,0.0,0,0,0,0.0,12.15,0.0,0,0,0,0.125,12.200000000000001,0.0,0,0,0,kReverse,kReverse,-87.08,2.17,2.43,0.090270996,-1.1212769,0.08917236,33.92,0.0,53.0,-7.9234467,13.670395,
1916.850564,true,true,true,0.125,12.15,0.0,0,0,0,0.125,12.15,0.0,0,0,0,0.125,12.15,0.0,0,0,0,0.125,12.200000000000001,0.0,0,0,0,0.125,12.15,0.0,0,0,0,0.0,12.15,0.0,0,0,0,0.125,12.200000000000001,0.0,0,0,0,kReverse,kReverse,-87.07,2.18,2.44,-0.047912598,-1.0775146,0.14135742,33.92,0.0,-74.0,-7.9229736,13.669785,
1916.871054,true,true,true,0.125,12.15,0.0,0,0,0,0.125,12.15,0.0,0,0,0,0.125,12.15,0.0,0,0,0,0.125,12.200000000000001,0.0,0,0,0,0.0,12.15,0.0,0,0,0,0.0,12.15,0.0,0,0,0,0.125,12.200000000000001,0.0,0,0,0,kReverse,kReverse,-87.08,2.2,2.45,-0.05596924,-0.87353516,0.13275146,33.92,0.0,-75.0,-7.9228973,13.6697235,
1916.8959869999999,true,true,true,0.125,12.15,0.0,0,0,0,0.125,12.15,0.0,0,0,0,0.125,12.15,0.0,0,0,0,0.125,12.200000000000001,0.0,0,0,0,0.0,12.15,0.0,0,0,0,0.0,12.15,0.0,0,0,0,0.125,12.200000000000001,0.0,0,0,0,kReverse,kReverse,-87.05,2.17,2.44,0.049987793,-0.7842407,-0.16662598,33.92,0.0,-5.0,-7.923004,13.66951,
1916.917454,true,true,true,0.125,12.15,0.0,0,0,0,0.125,12.15,0.0,0,0,0,0.125,12.15,0.0,0,0,0,0.125,12.200000000000001,0.0,0,0,0,0.0,12.15,0.0,0,0,0,0.0,12.15,0.0,0,0,0,0.125,12.200000000000001,0.0,0,0,0,kReverse,kReverse,-87.04,2.19,2.45,0.089782715,-0.8670654,-0.15612793,33.92,0.0,31.0,-7.923065,13.669037,
1916.9402,true,true,true,0.125,12.15,0.0,0,0,0,0.125,12.15,0.0,0,0,0,0.125,12.15,0.0,0,0,0,0.125,12.200000000000001,0.0,0,0,0,0.125,12.15,0.0,0,0,0,0.0,12.15,0.0,0,0,0,0.125,12.200000000000001,0.0,0,0,0,kReverse,kReverse,-87.06,2.16,2.42,0.16479492,-1.210022,0.12982178,33.92,0.0,129.0,-7.922867,13.667801,
1916.966753,true,true,true,0.125,12.15,0.0,0,0,0,0.125,12.15,0.0,0,0,0,0.125,12.15,0.0,0,0,0,0.125,12.200000000000001,0.0,0,0,0,0.125,12.15,0.0,0,0,0,0.0,12.15,0.0,0,0,0,0.125,12.200000000000001,0.0,0,0,0,kReverse,kReverse,-87.08,2.18,2.44,-0.055725098,-1.0298462,0.11846924,33.92,0.0,-83.0,-7.9221954,13.666779,
1916.9889549999998,true,true,true,0.125,12.15,0.0,0,0,0,0.125,12.15,0.0,0,0,0,0.125,12.15,0.0,0,0,0,0.125,12.200000000000001,0.0,0,0,0,0.0,12.15,0.0,0,0,0,0.0,12.15,0.0,0,0,0,0.125,12.200000000000001,0.0,0,0,0,kReverse,kReverse,-87.08,2.18,2.44,-0.081604004,-1.0564575,0.18725586,33.92,0.0,-100.0,-7.9219666,13.666489,
1917.008153,true,true,true,0.125,12.15,0.0,0,0,0,0.125,12.15,0.0,0,0,0,0.125,12.15,0.0,0,0,0,0.125,12.200000000000001,0.0,0,0,0,0.0,12.15,0.0,0,0,0,0.0,12.15,0.0,0,0,0,0.125,12.200000000000001,0.0,0,0,0,kReverse,kReverse,-87.1,2.18,2.43,-0.03314209,-1.0341187,0.19952393,33.92,0.0,-50.0,-7.9218445,13.666428,
1917.0273469999997,true,true,true,0.125,12.15,0.0,0,0,0,0.125,12.15,0.0,0,0,0,0.125,12.15,0.0,0,0,0,0.125,12.200000000000001,0.0,0,0,0,0.0,12.15,0.0,0,0,0,0.0,12.15,0.0,0,0,0,0.125,12.200000000000001,0.0,0,0,0,kReverse,kReverse,-87.06,2.18,2.44,0.012084961,-0.69000244,-0.091674805,33.92,0.0,-29.0,-7.921875,13.666397,
1917.0482759999998,true,true,true,0.125,12.15,0.0,0,0,0,0.125,12.15,0.0,0,0,0,0.125,12.15,0.0,0,0,0,0.125,12.200000000000001,0.0,0,0,0,0.125,12.15,0.0,0,0,0,0.0,12.15,0.0,0,0,0,0.125,12.200000000000001,0.0,0,0,0,kReverse,kReverse,-87.04,2.18,2.45,0.058044434,-0.8487549,-0.20031738,33.92,0.0,-4.0,-7.9219513,13.666092,
1917.07027,true,true,true,0.125,12.15,0.0,0,0,0,0.125,12.15,0.0,0,0,0,0.125,12.15,0.0,0,0,0,0.125,12.200000000000001,0.0,0,0,0,0.125,12.15,0.0,0,0,0,0.0,12.15,0.0,0,0,0,0.125,12.200000000000001,0.0,0,0,0,kReverse,kReverse,-87.07,2.16,2.42,0.16491699,-1.170227,0.13439941,33.92,0.0,131.0,-7.9218597,13.6649475,
1917.0911839999999,true,true,true,0.125,12.15,0.0,0,0,0,0.125,12.15,0.0,0,0,0,0.125,12.15,0.0,0,0,0,0.125,12.200000000000001,0.0,0,0,0,0.125,12.15,0.0,0,0,0,0.0,12.15,0.0,0,0,0,0.125,12.200000000000001,0.0,0,0,0,kReverse,kReverse,-87.07,2.15,2.41,0.17889404,-1.2537231,0.07354736,33.92,0.0,134.0,-7.92157,13.664398,
1917.125004,true,true,true,0.125,12.15,0.0,0,0,0,0.125,12.15,0.0,0,0,0,0.125,12.15,0.0,0,0,0,0.125,12.200000000000001,0.0,0,0,0,0.125,12.15,0.0,0,0,0,0.0,12.15,0.0,0,0,0,0.125,12.200000000000001,0.0,0,0,0,kReverse,kReverse,-87.08,2.18,2.44,-0.024047852,-1.111084,0.21612549,33.92,0.0,-42.0,-7.920761,13.663559,
1917.154417,true,true,true,0.125,12.15,0.0,0,0,0,0.125,12.15,0.0,0,0,0,0.125,12.15,0.0,0,0,0,0.125,12.200000000000001,0.0,0,0,0,0.125,12.15,0.0,0,0,0,0.0,12.15,0.0,0,0,0,0.125,12.200000000000001,0.0,0,0,0,kReverse,kReverse,-87.07,2.2,2.46,-0.049987793,-0.75286865,0.008911133,33.92,0.0,-80.0,-7.9206696,13.663635,
1917.175895,true,true,true,0.125,12.15,0.0,0,0,0,0.125,12.15,0.0,0,0,0,0.125,12.15,0.0,0,0,0,0.125,12.200000000000001,0.0,0,0,0,0.125,12.15,0.0,0,0,0,0.0,12.15,0.0,0,0,0,0.125,12.200000000000001,0.0,0,0,0,kReverse,kReverse,-87.06,2.19,2.45,-0.031188965,-0.64160156,-0.043029785,33.92,0.0,-63.0,-7.920685,13.6636505,
1917.19569,true,true,true,0.125,12.15,0.0,0,0,0,0.125,12.15,0.0,0,0,0,0.125,12.15,0.0,0,0,0,0.125,12.200000000000001,0.0,0,0,0,0.125,12.15,0.0,0,0,0,0.0,12.15,0.0,0,0,0,0.125,12.200000000000001,0.0,0,0,0,kReverse,kReverse,-87.05,2.19,2.45,0.12207031,-1.0339355,-0.13787842,33.92,0.0,58.0,-7.920807,13.663025,
1917.218125,true,true,true,0.125,12.15,0.0,0,0,0,0.125,12.15,0.0,0,0,0,0.125,12.15,0.0,0,0,0,0.125,12.200000000000001,0.0,0,0,0,0.125,12.15,0.0,0,0,0,0.0,12.15,0.0,0,0,0,0.125,12.200000000000001,0.0,0,0,0,kReverse,kReverse,-87.06,2.16,2.42,0.17126465,-1.1306763,0.089538574,33.92,0.0,133.0,-7.9207153,13.662476,
1917.239723,true,true,true,0.125,12.15,0.0,0,0,0,0.125,12.15,0.0,0,0,0,0.125,12.15,0.0,0,0,0,0.125,12.200000000000001,0.0,0,0,0,0.125,12.15,0.0,0,0,0,0.0,12.15,0.0,0,0,0,0.125,12.200000000000001,0.0,0,0,0,kReverse,kReverse,-87.07,2.17,2.43,0.05493164,-1.0914917,0.07678223,33.92,0.0,18.0,-7.9201355,13.661453,
1917.2631569999999,true,true,true,0.125,12.15,0.0,0,0,0,0.125,12.15,0.0,0,0,0,0.125,12.15,0.0,0,0,0,0.125,12.200000000000001,0.0,0,0,0,0.0,12.15,0.0,0,0,0,0.0,12.15,0.0,0,0,0,0.125,12.200000000000001,0.0,0,0,0,kReverse,kReverse,-87.08,2.17,2.43,-0.076049805,-0.98913574,0.19897461,33.92,0.0,-90.0,-7.919861,13.661087,
1917.284713,true,true,true,0.125,12.15,0.0,0,0,0,0.125,12.15,0.0,0,0,0,0.125,12.15,0.0,0,0,0,0.125,12.200000000000001,0.0,0,0,0,0.0,12.15,0.0,0,0,0,0.0,12.15,0.0,0,0,0,0.125,12.200000000000001,0.0,0,0,0,kReverse,kReverse,-87.07,2.18,2.44,-0.038024902,-0.87750244,0.030395508,33.95,0.0,-70.0,-7.919586,13.6610565,
1917.3052719999998,true,true,true,0.125,12.15,0.0,0,0,0,0.125,12.15,0.0,0,0,0,0.125,12.1,0.0,0,0,0,0.125,12.15,0.0,0,0,0,0.0,12.15,0.0,0,0,0,0.0,12.15,0.0,0,0,0,0.125,12.200000000000001,0.0,0,0,0,kReverse,kReverse,-87.07,2.19,2.45,-0.051513672,-0.630249,0.036865234,33.95,0.0,-72.0,-7.919586,13.661118,
1917.3255599999998,true,true,true,0.125,12.15,0.0,0,0,0,0.125,12.15,0.0,0,0,0,0.125,12.1,0.0,0,0,0,0.125,12.15,0.0,0,0,0,0.0,12.15,0.0,0,0,0,0.0,12.15,0.0,0,0,0,0.125,12.200000000000001,0.0,0,0,0,kReverse,kReverse,-87.05,2.18,2.45,0.12176514,-0.9981079,-0.20562744,33.95,0.0,51.0,-7.919739,13.66069,
1917.3469679999998,true,true,true,0.125,12.15,0.0,0,0,0,0.125,12.15,0.0,0,0,0,0.125,12.1,0.0,0,0,0,0.125,12.15,0.0,0,0,0,0.125,12.15,0.0,0,0,0,0.0,12.15,0.0,0,0,0,0.125,12.200000000000001,0.0,0,0,0,kReverse,kReverse,-87.07,2.17,2.43,0.17895508,-1.0814819,0.06732178,33.95,0.0,140.0,-7.9196777,13.660156,
1917.3677859999998,true,true,true,0.125,12.15,0.0,0,0,0,0.125,12.15,0.0,0,0,0,0.125,12.1,0.0,0,0,0,0.125,12.15,0.0,0,0,0,0.125,12.15,0.0,0,0,0,0.0,12.15,0.0,0,0,0,0.125,12.200000000000001,0.0,0,0,0,kReverse,kReverse,-87.07,2.17,2.43,0.076538086,-1.1245117,0.07366943,33.95,0.0,38.0,-7.919113,13.659134,
1917.388342,true,true,true,0.125,12.15,0.0,0,0,0,0.125,12.15,0.0,0,0,0,0.125,12.1,0.0,0,0,0,0.125,12.15,0.0,0,0,0,0.125,12.15,0.0,0,0,0,0.0,12.15,0.0,0,0,0,0.125,12.200000000000001,0.0,0,0,0,kReverse,kReverse,-87.08,2.18,2.44,-0.061340332,-0.9790039,0.17401123,33.95,0.0,-79.0,-7.918808,13.658768,
1917.41484,true,true,true,0.125,12.15,0.0,0,0,0,0.125,12.15,0.0,0,0,0,0.125,12.1,0.0,0,0,0,0.125,12.15,0.0,0,0,0,0.125,12.15,0.0,0,0,0,0.0,12.15,0.0,0,0,0,0.125,12.200000000000001,0.0,0,0,0,kReverse,kReverse,-87.08,2.18,2.44,-0.030883789,-0.94470215,0.06121826,33.95,0.0,-62.0,-7.9184723,13.658676,
1917.4338229999998,true,true,true,0.125,12.15,0.0,0,0,0,0.125,12.15,0.0,0,0,0,0.125,12.1,0.0,0,0,0,0.125,12.15,0.0,0,0,0,0.0,12.15,0.0,0,0,0,0.0,12.15,0.0,0,0,0,0.125,12.200000000000001,0.0,0,0,0,kReverse,kReverse,-87.07,2.19,2.45,-0.06976318,-0.6303711,0.053588867,33.95,0.0,-88.0,-7.918442,13.658768,
1917.454912,true,true,true,0.125,12.15,0.0,0,0,0,0.125,12.1,0.0,0,0,0,0.125,12.1,0.0,0,0,0,0.125,12.15,0.0,0,0,0,0.0,12.15,0.0,0,0,0,0.0,12.15,0.0,0,0,0,0.125,12.200000000000001,0.0,0,0,0,kReverse,kReverse,-87.04,2.18,2.45,0.0017089844,-0.7460327,-0.15979004,33.95,0.0,-50.0,-7.918518,13.658752,
1917.476254,true,true,true,0.125,12.15,0.0,0,0,0,0.125,12.1,0.0,0,0,0,0.125,12.1,0.0,0,0,0,0.125,12.15,0.0,0,0,0,0.0,12.15,0.0,0,0,0,0.0,12.1,0.0,0,0,0,0.125,12.200000000000001,0.0,0,0,0,kReverse,kReverse,-87.06,2.18,2.44,0.15228271,-1.0162354,0.02142334,33.95,0.0,110.0,-7.918579,13.657974,
1917.497189,true,true,true,0.125,12.15,0.0,0,0,0,0.125,12.1,0.0,0,0,0,0.125,12.1,0.0,0,0,0,0.125,12.15,0.0,0,0,0,0.125,12.15,0.0,0,0,0,0.0,12.1,0.0,0,0,0,0.125,12.200000000000001,0.0,0,0,0,kReverse,kReverse,-87.07,2.15,2.41,0.15393066,-1.2814941,0.083618164,33.95,0.0,109.0,-7.9184113,13.657471,
1917.521544,true,true,true,0.125,12.15,0.0,0,0,0,0.125,12.1,0.0,0,0,0,0.125,12.1,0.0,0,0,0,0.125,12.15,0.0,0,0,0,0.125,12.15,0.0,0,0,0,0.0,12.1,0.0,0,0,0,0.125,12.200000000000001,0.0,0,0,0,kReverse,kReverse,-87.09,2.17,2.43,-0.01776123,-0.99645996,0.15515137,33.95,0.0,-39.0,-7.917801,13.656647,
1917.541045,true,true,true,0.125,12.15,0.0,0,0,0,0.125,12.1,0.0,0,0,0,0.125,12.1,0.0,0,0,0,0.125,12.15,0.0,0,0,0,0.125,12.15,0.0,0,0,0,0.0,12.1,0.0,0,0,0,0.125,12.200000000000001,0.0,0,0,0,kReverse,kReverse,-87.09,2.17,2.43,-0.059143066,-1.1134644,0.22149658,33.95,0.0,-76.0,-7.917557,13.656509,
1917.5640329999999,true,true,true,0.125,12.15,0.0,0,0,0,0.125,12.1,0.0,0,0,0,0.125,12.1,0.0,0,0,0,0.125,12.15,0.0,0,0,0,0.125,12.15,0.0,0,0,0,0.0,12.1,0.0,0,0,0,0.125,12.200000000000001,0.0,0,0,0,kReverse,kReverse,-87.08,2.19,2.45,-0.076538086,-0.66571045,0.12609863,33.95,0.0,-87.0,-7.9173737,13.656677,
1917.5851189999998,true,true,true,0.125,12.15,0.0,0,0,0,0.125,12.1,0.0,0,0,0,0.125,12.1,0.0,0,0,0,0.125,12.15,0.0,0,0,0,0.125,12.15,0.0,0,0,0,0.0,12.1,0.0,0,0,0,0.125,12.200000000000001,0.0,0,0,0,kReverse,kReverse,-87.04,2.18,2.45,-0.008178711,-0.7126465,-0.14569092,33.95,0.0,-57.0,-7.9174347,13.656784,
1917.6074339999998,true,true,true,0.125,12.15,0.0,0,0,0,0.125,12.15,0.0,0,0,0,0.125,12.1,0.0,0,0,0,0.125,12.15,0.0,0,0,0,0.125,12.15,0.0,0,0,0,0.0,12.1,0.0,0,0,0,0.125,12.200000000000001,0.0,0,0,0,kReverse,kReverse,-87.06,2.17,2.43,0.1463623,-0.98187256,-0.014770508,33.95,0.0,101.0,-7.917511,13.656189,
1917.6287489999997,true,true,true,0.125,12.1,0.0,0,0,0,0.125,12.15,0.0,0,0,0,0.125,12.1,0.0,0,0,0,0.125,12.15,0.0,0,0,0,0.125,12.15,0.0,0,0,0,0.0,12.1,0.0,0,0,0,0.125,12.200000000000001,0.0,0,0,0,kReverse,kReverse,-87.07,2.15,2.41,0.1564331,-1.2649536,0.089416504,33.95,0.0,113.0,-7.9173584,13.655746,
1917.650512,true,true,true,0.125,12.1,0.0,0,0,0,0.125,12.15,0.0,0,0,0,0.125,12.1,0.0,0,0,0,0.125,12.15,0.0,0,0,0,0.125,12.15,0.0,0,0,0,0.0,12.1,0.0,0,0,0,0.125,12.200000000000001,0.0,0,0,0,kReverse,kReverse,-87.08,2.17,2.43,0.003540039,-1.0112305,0.12677002,33.95,0.0,-22.0,-7.916733,13.655045,
1917.670699,true,true,true,0.125,12.1,0.0,0,0,0,0.125,12.15,0.0,0,0,0,0.125,12.1,0.0,0,0,0,0.125,12.15,0.0,0,0,0,0.125,12.15,0.0,0,0,0,0.0,12.1,0.0,0,0,0,0.125,12.200000000000001,0.0,0,0,0,kReverse,kReverse,-87.08,2.17,2.43,-0.065979004,-1.1014404,0.19586182,33.95,0.0,-85.0,-7.9164734,13.654907,
1917.690551,true,true,true,0.125,12.1,0.0,0,0,0,0.125,12.15,0.0,0,0,0,0.125,12.1,0.0,0,0,0,0.125,12.15,0.0,0,0,0,0.125,12.15,0.0,0,0,0,0.0,12.1,0.0,0,0,0,0.125,12.200000000000001,0.0,0,0,0,kReverse,kReverse,-87.07,2.2,2.45,-0.07678223,-0.68463135,0.13543701,33.95,0.0,-87.0,-7.91626,13.655106,
1917.711473,true,true,true,0.125,12.1,0.0,0,0,0,0.125,12.15,0.0,0,0,0,0.125,12.1,0.0,0,0,0,0.125,12.15,0.0,0,0,0,0.125,12.15,0.0,0,0,0,0.0,12.1,0.0,0,0,0,0.125,12.200000000000001,0.0,0,0,0,kReverse,kReverse,-87.04,2.19,2.45,-0.013366699,-0.7045288,-0.15063477,33.95,0.0,-62.0,-7.9163055,13.655228,
1917.7362919999998,true,true,true,0.125,12.1,0.0,0,0,0,0.125,12.15,0.0,0,0,0,0.125,12.1,0.0,0,0,0,0.125,12.15,0.0,0,0,0,0.125,12.15,0.0,0,0,0,0.0,12.1,0.0,0,0,0,0.125,12.200000000000001,0.0,0,0,0,kReverse,kReverse,-87.04,2.19,2.45,-0.013366699,-0.7045288,-0.15063477,33.95,0.0,-62.0,-7.9163055,13.655228,
1917.7586299999998,true,true,true,0.125,12.1,0.0,0,0,0,0.125,12.15,0.0,0,0,0,0.125,12.1,0.0,0,0,0,0.125,12.15,0.0,0,0,0,0.125,12.15,0.0,0,0,0,0.0,12.1,0.0,0,0,0,0.125,12.200000000000001,0.0,0,0,0,kReverse,kReverse,-87.06,2.18,2.44,0.1381836,-0.9614868,-0.035705566,33.95,0.0,91.0,-7.9163666,13.654678,
1917.778736,true,true,true,0.125,12.1,0.0,0,0,0,0.125,12.1,0.0,0,0,0,0.125,12.1,0.0,0,0,0,0.125,12.15,0.0,0,0,0,0.125,12.15,0.0,0,0,0,0.0,12.1,0.0,0,0,0,0.125,12.200000000000001,0.0,0,0,0,kReverse,kReverse,-87.07,2.15,2.41,0.14910889,-1.2573242,0.06524658,33.95,0.0,103.0,-7.9162445,13.654236,
1917.794324,true,true,true,0.125,12.1,0.0,0,0,0,0.125,12.1,0.0,0,0,0,0.125,12.1,0.0,0,0,0,0.125,12.15,0.0,0,0,0,0.0,12.15,0.0,0,0,0,0.0,12.1,0.0,0,0,0,0.125,12.200000000000001,0.0,0,0,0,kReverse,kReverse,-87.05,2.16,2.42,0.13970947,-1.1686401,0.049682617,33.95,0.0,95.0,-7.91597,13.654236,
1917.805097,true,true,true,0.125,12.1,0.0,0,0,0,0.125,12.1,0.0,0,0,0,0.125,12.1,0.0,0,0,0,0.125,12.15,0.0,0,0,0,0.0,12.15,0.0,0,0,0,0.0,12.1,0.0,0,0,0,0.125,12.200000000000001,0.0,0,0,0,kReverse,kReverse,-87.08,2.16,2.42,0.026428223,-1.0331421,0.12646484,33.93,0.0,0.0,-7.915634,13.654297,
1917.8186309999999,true,true,true,0.125,12.1,0.0,0,0,0,0.125,12.1,0.0,0,0,0,0.125,12.1,0.0,0,0,0,0.125,12.15,0.0,0,0,0,0.0,12.15,0.0,0,0,0,0.0,12.1,0.0,0,0,0,0.125,12.200000000000001,0.0,0,0,0,kReverse,kReverse,-87.09,2.17,2.43,-0.07305908,-1.0638428,0.1875,33.93,0.0,-92.0,-7.9153595,13.654541,
1917.8306929999999,true,true,true,0.125,12.1,0.0,0,0,0,0.125,12.1,0.0,0,0,0,0.125,12.1,0.0,0,0,0,0.125,12.15,0.0,0,0,0,0.0,12.15,0.0,0,0,0,0.0,12.1,0.0,0,0,0,0.125,12.200000000000001,0.0,0,0,0,kReverse,kReverse,-87.09,2.17,2.43,-0.07305908,-1.0638428,0.1875,33.93,0.0,-92.0,-7.9153595,13.654541,
1917.8430759999999,true,true,true,0.125,12.1,0.0,0,0,0,0.125,12.1,0.0,0,0,0,0.125,12.1,0.0,0,0,0,0.125,12.15,0.0,0,0,0,0.0,12.15,0.0,0,0,0,0.0,12.1,0.0,0,0,0,0.125,12.200000000000001,0.0,0,0,0,kReverse,kReverse,-87.09,2.17,2.43,-0.03338623,-1.0519409,0.09033203,33.93,0.0,-65.0,-7.9151917,13.6549225,
1917.856013,true,true,true,0.125,12.1,0.0,0,0,0,0.125,12.1,0.0,0,0,0,0.125,12.1,0.0,0,0,0,0.125,12.15,0.0,0,0,0,0.125,12.15,0.0,0,0,0,0.0,12.1,0.0,0,0,0,0.125,12.200000000000001,0.0,0,0,0,kReverse,kReverse,-87.08,2.19,2.45,-0.079833984,-0.7110596,0.1315918,33.93,0.0,-91.0,-7.915146,13.655441,
1917.871056,true,true,true,0.125,12.1,0.0,0,0,0,0.125,12.1,0.0,0,0,0,0.125,12.1,0.0,0,0,0,0.125,12.15,0.0,0,0,0,0.125,12.15,0.0,0,0,0,0.0,12.1,0.0,0,0,0,0.125,12.200000000000001,0.0,0,0,0,kReverse,kReverse,-87.06,2.17,2.43,0.084350586,-0.8782959,-0.22503662,33.93,0.0,16.0,-7.915283,13.656158,
1917.903723,true,true,true,0.125,12.1,0.0,0,0,0,0.125,12.1,0.0,0,0,0,0.125,12.1,0.0,0,0,0,0.125,12.15,0.0,0,0,0,0.125,12.15,0.0,0,0,0,0.0,12.1,0.0,0,0,0,0.125,12.200000000000001,0.0,0,0,0,kReverse,kReverse,-87.08,2.14,2.4,0.15118408,-1.2474976,0.07232666,33.93,0.0,107.0,-7.9151917,13.656067,
1917.9240939999997,true,true,true,0.125,12.1,0.0,0,0,0,0.125,12.1,0.0,0,0,0,0.125,12.1,0.0,0,0,0,0.125,12.15,0.0,0,0,0,0.125,12.15,0.0,0,0,0,0.0,12.1,0.0,0,0,0,0.125,12.200000000000001,0.0,0,0,0,kReverse,kReverse,-87.09,2.16,2.42,0.04510498,-1.0443726,0.09832764,33.93,0.0,13.0,-7.9145966,13.656052,
1917.952949,true,true,true,0.125,12.1,0.0,0,0,0,0.125,12.1,0.0,0,0,0,0.125,12.1,0.0,0,0,0,0.125,12.15,0.0,0,0,0,0.125,12.1,0.0,0,0,0,0.0,12.1,0.0,0,0,0,0.125,12.200000000000001,0.0,0,0,0,kReverse,kReverse,-87.1,2.16,2.42,-0.07836914,-1.0647583,0.18652344,33.93,0.0,-97.0,-7.9143066,13.6562195,
1917.97878,true,true,true,0.125,12.1,0.0,0,0,0,0.125,12.1,0.0,0,0,0,0.125,12.1,0.0,0,0,0,0.125,12.15,0.0,0,0,0,0.125,12.1,0.0,0,0,0,0.0,12.1,0.0,0,0,0,0.125,12.200000000000001,0.0,0,0,0,kReverse,kReverse,-87.1,2.19,2.44,-0.078552246,-0.73376465,0.1350708,33.93,0.0,-91.0,-7.9140625,13.657043,
1918.0016369999998,true,true,true,0.125,12.1,0.0,0,0,0,0.125,12.1,0.0,0,0,0,0.125,12.1,0.0,0,0,0,0.125,12.15,0.0,0,0,0,0.125,12.1,0.0,0,0,0,0.0,12.1,0.0,0,0,0,0.125,12.200000000000001,0.0,0,0,0,kReverse,kReverse,-87.06,2.18,2.44,-0.034118652,-0.66967773,-0.13116455,33.93,0.0,-79.0,-7.9141083,13.6575165,
1918.021474,true,true,true,0.125,12.1,0.0,0,0,0,0.125,12.1,0.0,0,0,0,0.125,12.1,0.0,0,0,0,0.125,12.15,0.0,0,0,0,0.125,12.1,0.0,0,0,0,0.0,12.1,0.0,0,0,0,0.125,12.200000000000001,0.0,0,0,0,kReverse,kReverse,-87.07,2.17,2.43,0.13330078,-0.9473877,-0.04736328,33.93,0.0,85.0,-7.914215,13.657669,
1918.043919,true,true,true,0.125,12.1,0.0,0,0,0,0.125,12.1,0.0,0,0,0,0.125,12.1,0.0,0,0,0,0.125,12.15,0.0,0,0,0,0.125,12.1,0.0,0,0,0,0.0,12.1,0.0,0,0,0,0.125,12.200000000000001,0.0,0,0,0,kReverse,kReverse,-87.08,2.15,2.41,0.15612793,-1.237854,0.07611084,33.93,0.0,112.0,-7.914093,13.6575775,
1918.067989,true,true,true,0.125,12.1,0.0,0,0,0,0.125,12.1,0.0,0,0,0,0.125,12.1,0.0,0,0,0,0.125,12.15,0.0,0,0,0,0.125,12.1,0.0,0,0,0,0.0,12.1,0.0,0,0,0,0.125,12.200000000000001,0.0,0,0,0,kReverse,kReverse,-87.1,2.15,2.41,0.04815674,-1.0408936,0.08666992,33.93,0.0,15.0,-7.913452,13.657532,
1918.0901139999999,true,true,true,0.125,12.1,0.0,0,0,0,0.125,12.1,0.0,0,0,0,0.125,12.1,0.0,0,0,0,0.125,12.15,0.0,0,0,0,0.125,12.1,0.0,0,0,0,0.0,12.1,0.0,0,0,0,0.125,12.200000000000001,0.0,0,0,0,kReverse,kReverse,-87.09,2.17,2.43,-0.031066895,-1.0890503,0.1104126,33.93,0.0,-62.0,-7.9129486,13.657974,
1918.115854,true,true,true,0.125,12.1,0.0,0,0,0,0.125,12.1,0.0,0,0,0,0.125,12.1,0.0,0,0,0,0.125,12.15,0.0,0,0,0,0.125,12.1,0.0,0,0,0,0.0,12.1,0.0,0,0,0,0.125,12.200000000000001,0.0,0,0,0,kReverse,kReverse,-87.09,2.2,2.45,-0.079956055,-0.74017334,0.14807129,33.93,0.0,-91.0,-7.912857,13.658432,
1918.137584,true,true,true,0.125,12.1,0.0,0,0,0,0.125,12.1,0.0,0,0,0,0.125,12.1,0.0,0,0,0,0.125,12.15,0.0,0,0,0,0.125,12.1,0.0,0,0,0,0.0,12.1,0.0,0,0,0,0.125,12.200000000000001,0.0,0,0,0,kReverse,kReverse,-87.06,2.17,2.43,0.08300781,-0.8685913,-0.21801758,33.93,0.0,16.0,-7.9129486,13.659042,
1918.15971,true,true,true,0.125,12.1,0.0,0,0,0,0.125,12.1,0.0,0,0,0,0.125,12.1,0.0,0,0,0,0.125,12.15,0.0,0,0,0,0.125,12.1,0.0,0,0,0,0.0,12.1,0.0,0,0,0,0.125,12.200000000000001,0.0,0,0,0,kReverse,kReverse,-87.07,2.17,2.43,0.13922119,-0.9345703,-0.05883789,33.93,0.0,90.0,-7.9129333,13.658966,
1918.182893,true,true,true,0.125,12.1,0.0,0,0,0,0.125,12.1,0.0,0,0,0,0.125,12.1,0.0,0,0,0,0.125,12.15,0.0,0,0,0,0.125,12.1,0.0,0,0,0,0.0,12.1,0.0,0,0,0,0.125,12.200000000000001,0.0,0,0,0,kReverse,kReverse,-87.07,2.14,2.41,0.15136719,-1.2004395,0.08013916,33.93,0.0,110.0,-7.912506,13.658737,
1918.206197,true,true,true,0.125,12.1,0.0,0,0,0,0.125,12.1,0.0,0,0,0,0.125,12.1,0.0,0,0,0,0.125,12.15,0.0,0,0,0,0.125,12.1,0.0,0,0,0,0.0,12.1,0.0,0,0,0,0.125,12.200000000000001,0.0,0,0,0,kReverse,kReverse,-87.1,2.15,2.41,0.061523438,-1.0570679,0.07897949,33.93,0.0,27.0,-7.9121246,13.658676,
1918.228279,true,true,true,0.125,12.1,0.0,0,0,0,0.125,12.1,0.0,0,0,0,0.125,12.1,0.0,0,0,0,0.125,12.15,0.0,0,0,0,0.125,12.1,0.0,0,0,0,0.0,12.1,0.0,0,0,0,0.125,12.200000000000001,0.0,0,0,0,kReverse,kReverse,-87.09,2.17,2.43,-0.03289795,-1.0790405,0.12133789,33.93,0.0,-61.0,-7.9115753,13.658997,
1918.250221,true,true,true,0.125,12.1,0.0,0,0,0,0.125,12.1,0.0,0,0,0,0.125,12.1,0.0,0,0,0,0.125,12.15,0.0,0,0,0,0.125,12.1,0.0,0,0,0,0.0,12.1,0.0,0,0,0,0.125,12.200000000000001,0.0,0,0,0,kReverse,kReverse,-87.09,2.2,2.45,-0.081726074,-0.7454834,0.16308594,33.93,0.0,-91.0,-7.9114532,13.659409,
1918.274434,true,true,true,0.125,12.1,0.0,0,0,0,0.125,12.1,0.0,0,0,0,0.125,12.1,0.0,0,0,0,0.125,12.15,0.0,0,0,0,0.0,12.1,0.0,0,0,0,0.0,12.1,0.0,0,0,0,0.125,12.200000000000001,0.0,0,0,0,kReverse,kReverse,-87.07,2.17,2.43,0.08300781,-0.8857422,-0.2154541,33.93,0.0,16.0,-7.911499,13.659988,
1918.293726,true,true,true,0.125,12.1,0.0,0,0,0,0.125,12.1,0.0,0,0,0,0.125,12.1,0.0,0,0,0,0.125,12.15,0.0,0,0,0,0.0,12.1,0.0,0,0,0,0.0,12.1,0.0,0,0,0,0.125,12.200000000000001,0.0,0,0,0,kReverse,kReverse,-87.06,2.18,2.44,0.1338501,-0.94659424,-0.051696777,33.93,0.0,85.0,-7.911484,13.659897,
