timer,lineLeft,lineCenter,lineRight,LeftFrontCurrent,LeftFrontVoltage,LeftFrontValue,LeftFrontPosition,LeftFrontVelocity,LeftFrontFaults,LeftRearCurrent,LeftRearVoltage,LeftRearValue,LeftRearPosition,LeftRearVelocity,LeftRearFaults,RightFrontCurrent,RightFrontVoltage,RightFrontValue,RightFrontPosition,RightFrontVelocity,RightFrontFaults,RightRearCurrent,RightRearVoltage,RightRearValue,RightRearPosition,RightRearVelocity,RightRearFaults,LiftCurrent,LiftVoltage,LiftValue,LiftPosition,LiftVelocity,LiftFaults,WristCurrent,WristVoltage,WristValue,WristPosition,WristVelocity,WristFaults,RollerCurrent,RollerVoltage,RollerValue,RollerPosition,RollerVelocity,RollerFaults,PushersState,PivotsState,navx_Pitch,navx_Roll,navx_Yaw,navx_XAcc,navx_YAcc,navx_ZAcc,navx_Temp,navx_Bar,navx_Alt,navx_XDis,navx_YDis,
18.994706,true,true,true,0.125,12.4,0.0,0,0,0,0.125,12.4,0.0,0,0,0,0.125,12.35,0.0,0,0,0,0.125,12.4,0.0,0,0,0,0.0,12.4,0.0,0,0,0,0.0,12.4,0.0,0,0,0,0.0,12.450000000000001,0.0,0,0,0,kReverse,kOff,-86.8,2.44,2.4,0.13134766,-0.8834839,-0.022399902,29.55,0.0,94.0,-3.797165,-5.9534607,
19.101411,true,true,true,0.125,12.4,0.0,0,0,0,0.125,12.4,0.0,0,0,0,0.125,12.35,0.0,0,0,0,0.0,12.4,0.0,0,0,0,0.0,12.4,0.0,0,0,0,0.0,12.4,0.0,0,0,0,0.0,12.450000000000001,0.0,0,0,0,kReverse,kOff,-86.79,2.38,2.34,0.16046143,-0.85821533,0.0602417,29.57,0.0,123.0,-3.810379,-5.96669,
19.139998,true,true,true,0.125,12.35,0.0,0,0,0,0.125,12.4,0.0,0,0,0,0.125,12.35,0.0,0,0,0,0.125,12.4,0.0,0,0,0,0.0,12.35,0.0,0,0,0,0.0,12.35,0.0,0,0,0,0.125,12.4,0.0,0,0,0,kReverse,kOff,-86.8,2.32,2.28,0.21850586,-0.95648193,0.17730713,29.57,0.0,176.0,-3.8219147,-5.9792633,
19.183412,true,true,true,0.125,12.35,0.0,0,0,0,0.125,12.4,0.0,0,0,0,0.125,12.35,0.0,0,0,0,0.125,12.4,0.0,0,0,0,0.0,12.35,0.0,0,0,0,0.0,12.35,0.0,0,0,0,0.0,12.4,0.0,0,0,0,kReverse,kOff,-86.83,2.35,2.32,0.26208496,-1.1240234,0.237854,29.57,0.0,211.0,-3.8361359,-5.995926,
19.242603000000003,true,true,true,0.125,12.35,0.0,0,0,0,0.125,12.4,0.0,0,0,0,0.125,12.35,0.0,0,0,0,0.125,12.4,0.0,0,0,0,0.0,12.35,0.0,0,0,0,0.0,12.35,0.0,0,0,0,0.0,12.4,0.0,0,0,0,kReverse,kOff,-86.87,2.4,2.37,0.19586182,-1.041687,0.3427124,29.57,0.0,146.0,-3.841446,-6.0024414,
19.288853000000003,true,true,true,0.125,12.35,0.0,0,0,0,0.125,12.35,0.0,0,0,0,0.125,12.35,0.0,0,0,0,0.125,12.4,0.0,0,0,0,0.0,12.35,0.0,0,0,0,0.0,12.35,0.0,0,0,0,0.0,12.4,0.0,0,0,0,kReverse,kOff,-86.87,2.41,2.38,0.08496094,-1.0279541,0.41033936,29.57,0.0,34.0,-3.8451233,-6.004959,
19.328681,true,true,true,0.125,12.35,0.0,0,0,0,0.125,12.35,0.0,0,0,0,0.125,12.35,0.0,0,0,0,0.125,12.4,0.0,0,0,0,0.0,12.35,0.0,0,0,0,0.0,12.35,0.0,0,0,0,0.0,12.4,0.0,0,0,0,kReverse,kOff,-86.86,2.36,2.32,0.022033691,-1.1704712,0.43249512,29.57,0.0,-33.0,-3.8483276,-6.0025635,
19.371794,true,true,true,0.125,12.35,0.0,0,0,0,0.125,12.35,0.0,0,0,0,0.125,12.35,0.0,0,0,0,0.125,12.4,0.0,0,0,0,0.0,12.35,0.0,0,0,0,0.0,12.35,0.0,0,0,0,0.0,12.4,0.0,0,0,0,kReverse,kOff,-86.86,2.33,2.3,-0.0018920898,-1.2469482,0.43981934,29.57,0.0,-60.0,-3.8506317,-5.9982758,
19.410012000000002,true,true,true,0.125,12.35,0.0,0,0,0,0.125,12.35,0.0,0,0,0,0.125,12.35,0.0,0,0,0,0.125,12.4,0.0,0,0,0,0.0,12.35,0.0,0,0,0,0.0,12.35,0.0,0,0,0,0.0,12.4,0.0,0,0,0,kReverse,kOff,-86.89,2.32,2.29,0.04107666,-1.1870117,0.3548584,29.57,0.0,-13.0,-3.854477,-5.988022,
19.449865000000003,true,true,true,0.125,12.35,0.0,0,0,0,0.125,12.35,0.0,0,0,0,0.125,12.35,0.0,0,0,0,0.125,12.35,0.0,0,0,0,0.0,12.35,0.0,0,0,0,0.0,12.35,0.0,0,0,0,0.0,12.4,0.0,0,0,0,kReverse,kOff,-86.88,2.39,2.36,0.007080078,-0.9974365,0.1585083,29.57,0.0,-36.0,-3.8558197,-5.9743195,
19.493650000000002,true,true,true,0.125,12.35,0.0,0,0,0,0.125,12.35,0.0,0,0,0,0.125,12.35,0.0,0,0,0,0.125,12.35,0.0,0,0,0,0.0,12.35,0.0,0,0,0,0.0,12.35,0.0,0,0,0,0.0,12.4,0.0,0,0,0,kReverse,kOff,-86.84,2.43,2.4,-0.11450195,-0.83654785,-0.0569458,29.57,0.0,-148.0,-3.8565826,-5.959488,
19.537882,true,true,true,0.125,12.35,0.0,0,0,0,0.125,12.35,0.0,0,0,0,0.125,12.35,0.0,0,0,0,0.125,12.35,0.0,0,0,0,0.0,12.35,0.0,0,0,0,0.0,12.35,0.0,0,0,0,0.0,12.4,0.0,0,0,0,kReverse,kOff,-86.82,2.41,2.38,-0.19390869,-0.7937622,-0.22442627,29.57,0.0,-222.0,-3.8581848,-5.950348,
19.583924000000003,true,true,true,0.125,12.35,0.0,0,0,0,0.125,12.35,0.0,0,0,0,0.125,12.35,0.0,0,0,0,0.125,12.35,0.0,0,0,0,0.0,12.35,0.0,0,0,0,0.0,12.35,0.0,0,0,0,0.0,12.4,0.0,0,0,0,kReverse,kOff,-86.78,2.34,2.3,-0.1428833,-0.8956299,-0.5170288,29.58,0.0,-169.0,-3.864746,-5.9376984,
19.629153000000002,true,true,true,0.125,12.35,0.0,0,0,0,0.125,12.35,0.0,0,0,0,0.125,12.35,0.0,0,0,0,0.125,12.35,0.0,0,0,0,0.0,12.35,0.0,0,0,0,0.0,12.35,0.0,0,0,0,0.0,12.4,0.0,0,0,0,kReverse,kOff,-86.8,2.35,2.32,-0.06329346,-0.93963623,-0.5599365,29.58,0.0,-91.0,-3.869339,-5.935669,
19.665615000000003,true,true,true,0.125,12.35,0.0,0,0,0,0.125,12.35,0.0,0,0,0,0.125,12.35,0.0,0,0,0,0.125,12.35,0.0,0,0,0,0.0,12.35,0.0,0,0,0,0.0,12.35,0.0,0,0,0,0.0,12.4,0.0,0,0,0,kReverse,kOff,-86.81,2.42,2.38,0.031677246,-0.8936157,-0.34405518,29.58,0.0,0.0,-3.8798065,-5.940689,
19.729307000000002,true,true,true,0.125,12.35,0.0,0,0,0,0.125,12.35,0.0,0,0,0,0.125,12.35,0.0,0,0,0,0.125,12.35,0.0,0,0,0,0.0,12.35,0.0,0,0,0,0.0,12.35,0.0,0,0,0,0.0,12.4,0.0,0,0,0,kReverse,kOff,-86.82,2.36,2.33,0.13598633,-0.8856201,-0.027954102,29.58,0.0,100.0,-3.8876038,-5.9494476,
19.767291,true,true,true,0.125,12.35,0.0,0,0,0,0.125,12.35,0.0,0,0,0,0.125,12.35,0.0,0,0,0,0.125,12.35,0.0,0,0,0,0.0,12.35,0.0,0,0,0,0.0,12.35,0.0,0,0,0,0.0,12.4,0.0,0,0,0,kReverse,kOff,-86.83,2.3,2.26,0.19244385,-0.9244995,0.09033203,29.58,0.0,154.0,-3.892105,-5.955719,
19.802807,true,true,true,0.125,12.35,0.0,0,0,0,0.125,12.35,0.0,0,0,0,0.125,12.35,0.0,0,0,0,0.125,12.35,0.0,0,0,0,0.0,12.35,0.0,0,0,0,0.0,12.35,0.0,0,0,0,0.0,12.4,0.0,0,0,0,kReverse,kOff,-86.87,2.27,2.24,0.2748413,-1.0629883,0.26556396,29.58,0.0,228.0,-3.8970795,-5.963974,
19.840723,true,true,true,0.125,12.35,0.0,0,0,0,0.125,12.35,0.0,0,0,0,0.125,12.35,0.0,0,0,0,0.125,12.35,0.0,0,0,0,0.0,12.35,0.0,0,0,0,0.0,12.35,0.0,0,0,0,0.0,12.4,0.0,0,0,0,kReverse,kOff,-86.87,2.32,2.28,0.25579834,-1.0675049,0.33093262,29.58,0.0,206.0,-3.8989258,-5.967972,
19.87359,true,true,true,0.125,12.35,0.0,0,0,0,0.125,12.35,0.0,0,0,0,0.125,12.35,0.0,0,0,0,0.125,12.35,0.0,0,0,0,0.0,12.35,0.0,0,0,0,0.0,12.35,0.0,0,0,0,0.0,12.4,0.0,0,0,0,kReverse,kOff,-86.88,2.36,2.33,0.1862793,-1.0144043,0.42114258,29.58,0.0,136.0,-3.8997955,-5.97052,
19.907554,true,true,true,0.125,12.35,0.0,0,0,0,0.125,12.35,0.0,0,0,0,0.125,12.35,0.0,0,0,0,0.125,12.35,0.0,0,0,0,0.0,12.35,0.0,0,0,0,0.0,12.35,0.0,0,0,0,0.0,12.4,0.0,0,0,0,kReverse,kOff,-86.87,2.34,2.3,0.031555176,-1.0438232,0.5175171,29.58,0.0,-20.0,-3.8997803,-5.969208,
19.946503,true,true,true,0.125,12.35,0.0,0,0,0,0.125,12.35,0.0,0,0,0,0.125,12.3,0.0,0,0,0,0.125,12.35,0.0,0,0,0,0.0,12.35,0.0,0,0,0,0.0,12.35,0.0,0,0,0,0.125,12.4,0.0,0,0,0,kReverse,kOff,-86.88,2.28,2.25,0.01763916,-1.1755981,0.4767456,29.58,0.0,-37.0,-3.899887,-5.965317,
19.986035,true,true,true,0.125,12.35,0.0,0,0,0,0.125,12.35,0.0,0,0,0,0.125,12.3,0.0,0,0,0,0.125,12.35,0.0,0,0,0,0.0,12.35,0.0,0,0,0,0.0,12.35,0.0,0,0,0,0.0,12.4,0.0,0,0,0,kReverse,kOff,-86.9,2.28,2.24,0.03515625,-1.2095337,0.28955078,29.58,0.0,-17.0,-3.9004364,-5.955612,
20.043813000000004,true,true,true,0.125,12.35,0.0,0,0,0,0.125,12.35,0.0,0,0,0,0.125,12.3,0.0,0,0,0,0.125,12.35,0.0,0,0,0,0.0,12.35,0.0,0,0,0,0.0,12.35,0.0,0,0,0,0.125,12.4,0.0,0,0,0,kReverse,kOff,-86.85,2.39,2.36,-0.097351074,-0.85443115,-0.020812988,29.58,0.0,-132.0,-3.901886,-5.9394073,
20.110402,true,true,true,0.125,12.35,0.0,0,0,0,0.125,12.35,0.0,0,0,0,0.125,12.3,0.0,0,0,0,0.0,12.35,0.0,0,0,0,0.0,12.3,0.0,0,0,0,0.0,12.3,0.0,0,0,0,0.0,12.35,0.0,0,0,0,kReverse,kOff,-86.79,2.32,2.28,-0.14630127,-0.8764038,-0.46575928,29.55,0.0,-172.0,-3.9084778,-5.922928,
20.159659,true,true,true,0.125,12.35,0.0,0,0,0,0.125,12.35,0.0,0,0,0,0.125,12.3,0.0,0,0,0,0.0,12.35,0.0,0,0,0,0.0,12.3,0.0,0,0,0,0.0,12.3,0.0,0,0,0,0.0,12.35,0.0,0,0,0,kReverse,kOff,-86.81,2.33,2.29,-0.061157227,-0.9331665,-0.5579834,29.55,0.0,-88.0,-3.912735,-5.9204407,
20.208693000000004,true,true,true,0.125,12.35,0.0,0,0,0,0.125,12.35,0.0,0,0,0,0.125,12.3,0.0,0,0,0,0.125,12.35,0.0,0,0,0,0.0,12.3,0.0,0,0,0,0.0,12.3,0.0,0,0,0,0.125,12.35,0.0,0,0,0,kReverse,kOff,-86.81,2.38,2.35,0.06744385,-0.8741455,-0.27386475,29.55,0.0,36.0,-3.922104,-5.924164,
20.258894,true,true,true,0.125,12.3,0.0,0,0,0,0.125,12.3,0.0,0,0,0,0.125,12.3,0.0,0,0,0,0.125,12.35,0.0,0,0,0,0.0,12.3,0.0,0,0,0,0.0,12.3,0.0,0,0,0,0.0,12.35,0.0,0,0,0,kReverse,kOff,-86.82,2.3,2.26,0.17718506,-0.9547119,0.0012817383,29.55,0.0,139.0,-3.9285278,-5.931061,
20.288727,true,true,true,0.125,12.3,0.0,0,0,0,0.125,12.3,0.0,0,0,0,0.125,12.3,0.0,0,0,0,0.0,12.35,0.0,0,0,0,0.0,12.3,0.0,0,0,0,0.0,12.3,0.0,0,0,0,0.0,12.35,0.0,0,0,0,kReverse,kOff,-86.85,2.27,2.23,0.27270508,-1.1140747,0.1519165,29.55,0.0,226.0,-3.9318085,-5.9358063,
20.321086000000005,true,true,true,0.125,12.3,0.0,0,0,0,0.125,12.3,0.0,0,0,0,0.125,12.3,0.0,0,0,0,0.0,12.35,0.0,0,0,0,0.0,12.3,0.0,0,0,0,0.0,12.3,0.0,0,0,0,0.0,12.35,0.0,0,0,0,kReverse,kOff,-86.88,2.3,2.27,0.27996826,-1.0952759,0.37677002,29.55,0.0,229.0,-3.9338837,-5.9395905,
20.348323,true,true,true,0.125,12.3,0.0,0,0,0,0.125,12.3,0.0,0,0,0,0.125,12.3,0.0,0,0,0,0.125,12.35,0.0,0,0,0,0.0,12.3,0.0,0,0,0,0.0,12.3,0.0,0,0,0,0.0,12.35,0.0,0,0,0,kReverse,kOff,-86.88,2.35,2.32,0.18499756,-1.0009155,0.5362549,29.55,0.0,134.0,-3.934845,-5.94133,
20.383725000000002,true,true,true,0.125,12.3,0.0,0,0,0,0.125,12.3,0.0,0,0,0,0.125,12.3,0.0,0,0,0,0.125,12.35,0.0,0,0,0,0.0,12.3,0.0,0,0,0,0.0,12.3,0.0,0,0,0,0.0,12.35,0.0,0,0,0,kReverse,kOff,-86.88,2.34,2.3,0.0690918,-1.0168457,0.56811523,29.55,0.0,17.0,-3.9352417,-5.940262,
20.413585,true,true,true,0.125,12.3,0.0,0,0,0,0.125,12.3,0.0,0,0,0,0.125,12.3,0.0,0,0,0,0.125,12.35,0.0,0,0,0,0.0,12.3,0.0,0,0,0,0.0,12.3,0.0,0,0,0,0.0,12.35,0.0,0,0,0,kReverse,kOff,-86.89,2.28,2.25,-0.002380371,-1.2039795,0.46264648,29.55,0.0,-58.0,-3.9356384,-5.936386,
20.445352000000003,true,true,true,0.125,12.3,0.0,0,0,0,0.125,12.3,0.0,0,0,0,0.125,12.3,0.0,0,0,0,0.125,12.35,0.0,0,0,0,0.0,12.3,0.0,0,0,0,0.0,12.3,0.0,0,0,0,0.0,12.35,0.0,0,0,0,kReverse,kOff,-86.89,2.28,2.24,-0.010253906,-1.1998901,0.2355957,29.55,0.0,-61.0,-3.9363708,-5.9305725,
20.476560000000003,true,true,true,0.125,12.3,0.0,0,0,0,0.125,12.3,0.0,0,0,0,0.125,12.3,0.0,0,0,0,0.125,12.35,0.0,0,0,0,0.0,12.3,0.0,0,0,0,0.0,12.3,0.0,0,0,0,0.0,12.35,0.0,0,0,0,kReverse,kOff,-86.88,2.33,2.29,-0.020629883,-1.0379028,0.02178955,29.55,0.0,-62.0,-3.9373627,-5.9239807,
20.50927,true,true,true,0.125,12.3,0.0,0,0,0,0.125,12.3,0.0,0,0,0,0.125,12.3,0.0,0,0,0,0.125,12.35,0.0,0,0,0,0.0,12.3,0.0,0,0,0,0.0,12.3,0.0,0,0,0,0.0,12.35,0.0,0,0,0,kReverse,kOff,-86.85,2.38,2.34,-0.13305664,-0.8873291,-0.07867432,29.55,0.0,-167.0,-3.9388428,-5.917633,
20.541014000000004,true,true,true,0.125,12.3,0.0,0,0,0,0.125,12.3,0.0,0,0,0,0.125,12.3,0.0,0,0,0,0.0,12.35,0.0,0,0,0,0.0,12.3,0.0,0,0,0,0.0,12.3,0.0,0,0,0,0.0,12.35,0.0,0,0,0,kReverse,kOff,-86.82,2.33,2.3,-0.18920898,-0.81921387,-0.29101562,29.55,0.0,-216.0,-3.9431305,-5.9099274,
20.574271,true,true,true,0.125,12.3,0.0,0,0,0,0.125,12.3,0.0,0,0,0,0.125,12.25,0.0,0,0,0,0.0,12.35,0.0,0,0,0,0.0,12.3,0.0,0,0,0,0.0,12.3,0.0,0,0,0,0.0,12.35,0.0,0,0,0,kReverse,kOff,-86.79,2.32,2.28,-0.08709717,-0.8890991,-0.49432373,29.55,0.0,-113.0,-3.9473724,-5.907196,
20.60445,true,true,true,0.125,12.3,0.0,0,0,0,0.125,12.3,0.0,0,0,0,0.125,12.25,0.0,0,0,0,0.125,12.35,0.0,0,0,0,0.0,12.3,0.0,0,0,0,0.0,12.3,0.0,0,0,0,0.0,12.35,0.0,0,0,0,kReverse,kOff,-86.78,2.37,2.33,0.011108398,-0.9310303,-0.4897461,29.55,0.0,-17.0,-3.9521332,-5.9073334,
20.633937000000003,true,true,true,0.125,12.3,0.0,0,0,0,0.125,12.3,0.0,0,0,0,0.125,12.25,0.0,0,0,0,0.125,12.35,0.0,0,0,0,0.0,12.3,0.0,0,0,0,0.0,12.3,0.0,0,0,0,0.0,12.35,0.0,0,0,0,kReverse,kOff,-86.77,2.39,2.35,0.055541992,-0.86120605,-0.35321045,29.55,0.0,26.0,-3.9521027,-5.910095,
20.668431,true,true,true,0.125,12.3,0.0,0,0,0,0.125,12.3,0.0,0,0,0,0.125,12.25,0.0,0,0,0,0.125,12.35,0.0,0,0,0,0.0,12.3,0.0,0,0,0,0.0,12.3,0.0,0,0,0,0.0,12.35,0.0,0,0,0,kReverse,kOff,-86.79,2.34,2.3,0.12750244,-0.93218994,-0.11328125,29.55,0.0,91.0,-3.9518738,-5.9146423,
20.701003,true,true,true,0.125,12.3,0.0,0,0,0,0.125,12.3,0.0,0,0,0,0.125,12.25,0.0,0,0,0,0.125,12.35,0.0,0,0,0,0.0,12.3,0.0,0,0,0,0.0,12.3,0.0,0,0,0,0.0,12.35,0.0,0,0,0,kReverse,kOff,-86.81,2.29,2.25,0.24475098,-1.1307983,0.07366943,29.55,0.0,198.0,-3.9509735,-5.9197235,
20.729167,true,true,true,0.125,12.3,0.0,0,0,0,0.125,12.3,0.0,0,0,0,0.125,12.25,0.0,0,0,0,0.125,12.3,0.0,0,0,0,0.0,12.3,0.0,0,0,0,0.0,12.3,0.0,0,0,0,0.0,12.35,0.0,0,0,0,kReverse,kOff,-86.87,2.3,2.27,0.28302002,-1.1791992,0.32092285,29.55,0.0,229.0,-3.9489594,-5.9242706,
20.761336000000004,true,true,true,0.125,12.3,0.0,0,0,0,0.125,12.3,0.0,0,0,0,0.125,12.25,0.0,0,0,0,0.125,12.3,0.0,0,0,0,0.0,12.3,0.0,0,0,0,0.0,12.3,0.0,0,0,0,0.0,12.35,0.0,0,0,0,kReverse,kOff,-86.88,2.35,2.31,0.19763184,-1.0021362,0.54156494,29.55,0.0,146.0,-3.9458313,-5.9269714,
20.788088,true,true,true,0.125,12.3,0.0,0,0,0,0.125,12.3,0.0,0,0,0,0.125,12.25,0.0,0,0,0,0.0,12.3,0.0,0,0,0,0.0,12.3,0.0,0,0,0,0.0,12.3,0.0,0,0,0,0.0,12.35,0.0,0,0,0,kReverse,kOff,-86.89,2.31,2.27,0.03741455,-1.1036377,0.661438,29.55,0.0,-18.0,-3.9401398,-5.925232,
20.834741,true,true,true,0.125,12.3,0.0,0,0,0,0.125,12.3,0.0,0,0,0,0.125,12.25,0.0,0,0,0,0.0,12.3,0.0,0,0,0,0.0,12.3,0.0,0,0,0,0.0,12.3,0.0,0,0,0,0.0,12.35,0.0,0,0,0,kReverse,kOff,-86.88,2.29,2.25,0.008605957,-1.2142944,0.37530518,29.55,0.0,-46.0,-3.9363708,-5.920227,
20.867225,true,true,true,0.125,12.3,0.0,0,0,0,0.125,12.3,0.0,0,0,0,0.125,12.25,0.0,0,0,0,0.125,12.3,0.0,0,0,0,0.0,12.3,0.0,0,0,0,0.0,12.3,0.0,0,0,0,0.0,12.35,0.0,0,0,0,kReverse,kOff,-86.88,2.33,2.3,0.012634277,-1.0096436,0.06939697,29.55,0.0,-29.0,-3.9328003,-5.913849,
20.898728000000002,true,true,true,0.125,12.3,0.0,0,0,0,0.125,12.25,0.0,0,0,0,0.125,12.25,0.0,0,0,0,0.125,12.3,0.0,0,0,0,0.0,12.25,0.0,0,0,0,0.0,12.25,0.0,0,0,0,0.0,12.35,0.0,0,0,0,kReverse,kOff,-86.82,2.39,2.36,-0.17077637,-0.7461548,-0.22277832,29.55,0.0,-197.0,-3.9281769,-5.9048615,
20.932196,true,true,true,0.125,12.3,0.0,0,0,0,0.125,12.25,0.0,0,0,0,0.125,12.25,0.0,0,0,0,0.125,12.3,0.0,0,0,0,0.0,12.25,0.0,0,0,0,0.0,12.25,0.0,0,0,0,0.0,12.35,0.0,0,0,0,kReverse,kOff,-86.79,2.35,2.31,-0.1774292,-0.80908203,-0.36706543,29.55,0.0,-203.0,-3.9263763,-5.9006653,
20.964499,true,true,true,0.125,12.3,0.0,0,0,0,0.125,12.25,0.0,0,0,0,0.125,12.25,0.0,0,0,0,0.0,12.3,0.0,0,0,0,0.0,12.25,0.0,0,0,0,0.0,12.25,0.0,0,0,0,0.0,12.35,0.0,0,0,0,kReverse,kOff,-86.81,2.33,2.29,-0.061767578,-0.925354,-0.45843506,29.55,0.0,-90.0,-3.925537,-5.898819,
20.991179,true,true,true,0.125,12.3,0.0,0,0,0,0.125,12.25,0.0,0,0,0,0.125,12.25,0.0,0,0,0,0.0,12.3,0.0,0,0,0,0.0,12.25,0.0,0,0,0,0.0,12.25,0.0,0,0,0,0.0,12.35,0.0,0,0,0,kReverse,kOff,-86.81,2.35,2.31,-0.014953613,-0.92767334,-0.45544434,29.55,0.0,-44.0,-3.925293,-5.8988953,
21.007987,true,true,true,0.125,12.3,0.0,0,0,0,0.125,12.25,0.0,0,0,0,0.125,12.25,0.0,0,0,0,0.0,12.3,0.0,0,0,0,0.0,12.25,0.0,0,0,0,0.0,12.25,0.0,0,0,0,0.0,12.35,0.0,0,0,0,kReverse,kOff,-86.8,2.37,2.34,0.025512695,-0.921875,-0.39178467,29.55,0.0,-4.0,-3.9250946,-5.899597,
21.029216,true,true,true,0.125,12.3,0.0,0,0,0,0.125,12.25,0.0,0,0,0,0.125,12.25,0.0,0,0,0,0.125,12.3,0.0,0,0,0,0.0,12.25,0.0,0,0,0,0.0,12.25,0.0,0,0,0,0.0,12.35,0.0,0,0,0,kReverse,kOff,-86.78,2.39,2.35,0.041625977,-0.8867798,-0.30096436,29.55,0.0,10.0,-3.9250946,-5.900818,
21.044211000000004,true,true,true,0.125,12.3,0.0,0,0,0,0.125,12.25,0.0,0,0,0,0.125,12.25,0.0,0,0,0,0.0,12.3,0.0,0,0,0,0.0,12.25,0.0,0,0,0,0.0,12.25,0.0,0,0,0,0.0,12.35,0.0,0,0,0,kReverse,kOff,-86.78,2.31,2.27,0.13989258,-1.019165,-0.035827637,29.55,0.0,99.0,-3.924759,-5.9062347,
21.08508,true,true,true,0.125,12.25,0.0,0,0,0,0.125,12.25,0.0,0,0,0,0.125,12.25,0.0,0,0,0,0.0,12.3,0.0,0,0,0,0.0,12.25,0.0,0,0,0,0.0,12.25,0.0,0,0,0,0.0,12.35,0.0,0,0,0,kReverse,kOff,-86.84,2.29,2.25,0.23364258,-1.2600708,0.109375,29.55,0.0,181.0,-3.9237823,-5.910309,
21.118711000000005,true,true,true,0.125,12.25,0.0,0,0,0,0.125,12.25,0.0,0,0,0,0.125,12.25,0.0,0,0,0,0.125,12.3,0.0,0,0,0,0.0,12.25,0.0,0,0,0,0.0,12.25,0.0,0,0,0,0.0,12.35,0.0,0,0,0,kReverse,kOff,-86.86,2.35,2.31,0.21734619,-1.0911865,0.43493652,29.58,0.0,164.0,-3.9217987,-5.913559,
21.147355,true,true,true,0.125,12.25,0.0,0,0,0,0.125,12.25,0.0,0,0,0,0.125,12.25,0.0,0,0,0,0.125,12.3,0.0,0,0,0,0.0,12.25,0.0,0,0,0,0.0,12.25,0.0,0,0,0,0.0,12.35,0.0,0,0,0,kReverse,kOff,-86.88,2.35,2.31,0.12445068,-0.9654541,0.68115234,29.58,0.0,72.0,-3.9190216,-5.9142914,
21.179083000000002,true,true,true,0.125,12.25,0.0,0,0,0,0.125,12.25,0.0,0,0,0,0.125,12.25,0.0,0,0,0,0.125,12.3,0.0,0,0,0,0.0,12.25,0.0,0,0,0,0.0,12.25,0.0,0,0,0,0.0,12.35,0.0,0,0,0,kReverse,kOff,-86.9,2.29,2.25,0.04724121,-1.2138672,0.51641846,29.58,0.0,-10.0,-3.9159698,-5.90889,
21.21032,true,true,true,0.125,12.25,0.0,0,0,0,0.125,12.25,0.0,0,0,0,0.125,12.25,0.0,0,0,0,0.125,12.3,0.0,0,0,0,0.0,12.25,0.0,0,0,0,0.0,12.25,0.0,0,0,0,0.0,12.35,0.0,0,0,0,kReverse,kOff,-86.89,2.33,2.29,0.04321289,-1.0345459,0.15484619,29.58,0.0,-1.0,-3.9159698,-5.902359,
21.253654,true,true,true,0.125,12.25,0.0,0,0,0,0.125,12.25,0.0,0,0,0,0.125,12.25,0.0,0,0,0,0.125,12.3,0.0,0,0,0,0.0,12.25,0.0,0,0,0,0.0,12.25,0.0,0,0,0,0.0,12.35,0.0,0,0,0,kReverse,kOff,-86.82,2.38,2.35,-0.15447998,-0.7509155,-0.28063965,29.58,0.0,-180.0,-3.9165344,-5.8926086,
21.286408,true,true,true,0.125,12.25,0.0,0,0,0,0.125,12.25,0.0,0,0,0,0.125,12.25,0.0,0,0,0,0.0,12.3,0.0,0,0,0,0.0,12.25,0.0,0,0,0,0.0,12.25,0.0,0,0,0,0.0,12.35,0.0,0,0,0,kReverse,kOff,-86.81,2.36,2.33,-0.18817139,-0.7346802,-0.35882568,29.58,0.0,-211.0,-3.91716,-5.890091,
21.315212,true,true,true,0.125,12.25,0.0,0,0,0,0.125,12.25,0.0,0,0,0,0.125,12.25,0.0,0,0,0,0.0,12.3,0.0,0,0,0,0.0,12.25,0.0,0,0,0,0.0,12.25,0.0,0,0,0,0.0,12.35,0.0,0,0,0,kReverse,kOff,-86.81,2.34,2.3,-0.10144043,-0.8449707,-0.4906006,29.58,0.0,-126.0,-3.919159,-5.886978,
21.344322000000002,true,true,true,0.125,12.25,0.0,0,0,0,0.125,12.25,0.0,0,0,0,0.125,12.25,0.0,0,0,0,0.125,12.3,0.0,0,0,0,0.0,12.25,0.0,0,0,0,0.0,12.25,0.0,0,0,0,0.0,12.35,0.0,0,0,0,kReverse,kOff,-86.81,2.37,2.34,0.014953613,-0.9382324,-0.4189453,29.58,0.0,-15.0,-3.9216766,-5.886627,
21.374643,true,true,true,0.125,12.25,0.0,0,0,0,0.125,12.25,0.0,0,0,0,0.125,12.25,0.0,0,0,0,0.125,12.3,0.0,0,0,0,0.0,12.25,0.0,0,0,0,0.0,12.25,0.0,0,0,0,0.0,12.35,0.0,0,0,0,kReverse,kOff,-86.79,2.38,2.34,0.051757812,-0.86846924,-0.21276855,29.58,0.0,20.0,-3.921646,-5.888443,
21.404839,true,true,true,0.125,12.25,0.0,0,0,0,0.125,12.25,0.0,0,0,0,0.125,12.25,0.0,0,0,0,0.125,12.3,0.0,0,0,0,0.0,12.25,0.0,0,0,0,0.0,12.25,0.0,0,0,0,0.0,12.35,0.0,0,0,0,kReverse,kOff,-86.8,2.33,2.29,0.1329956,-1.036377,-0.062072754,29.58,0.0,92.0,-3.9214172,-5.891403,
21.438164,true,true,true,0.125,12.25,0.0,0,0,0,0.125,12.25,0.0,0,0,0,0.125,12.25,0.0,0,0,0,0.125,12.3,0.0,0,0,0,0.0,12.25,0.0,0,0,0,0.0,12.25,0.0,0,0,0,0.0,12.35,0.0,0,0,0,kReverse,kOff,-86.86,2.33,2.29,0.22454834,-1.2180786,0.28082275,29.58,0.0,170.0,-3.9197388,-5.8961487,
21.477192000000002,true,true,true,0.125,12.25,0.0,0,0,0,0.125,12.25,0.0,0,0,0,0.125,12.25,0.0,0,0,0,0.125,12.3,0.0,0,0,0,0.0,12.25,0.0,0,0,0,0.0,12.25,0.0,0,0,0,0.0,12.35,0.0,0,0,0,kReverse,kOff,-86.88,2.35,2.32,0.13421631,-0.98724365,0.57543945,29.58,0.0,83.0,-3.917633,-5.897522,
21.508179,true,true,true,0.125,12.25,0.0,0,0,0,0.125,12.25,0.0,0,0,0,0.125,12.25,0.0,0,0,0,0.125,12.3,0.0,0,0,0,0.0,12.25,0.0,0,0,0,0.0,12.25,0.0,0,0,0,0.0,12.35,0.0,0,0,0,kReverse,kOff,-86.9,2.31,2.27,0.04510498,-1.1604614,0.6123047,29.58,0.0,-11.0,-3.9164429,-5.8936615,
21.544251,true,true,true,0.125,12.25,0.0,0,0,0,0.0,12.25,0.0,0,0,0,0.125,12.25,0.0,0,0,0,0.0,12.3,0.0,0,0,0,0.0,12.25,0.0,0,0,0,0.0,12.25,0.0,0,0,0,0.0,12.35,0.0,0,0,0,kReverse,kOff,-86.91,2.31,2.28,0.04876709,-1.0703735,0.22631836,29.58,0.0,1.0,-3.9164429,-5.8877106,
21.58222,true,true,true,0.125,12.25,0.0,0,0,0,0.125,12.25,0.0,0,0,0,0.125,12.25,0.0,0,0,0,0.0,12.3,0.0,0,0,0,0.0,12.25,0.0,0,0,0,0.0,12.25,0.0,0,0,0,0.0,12.35,0.0,0,0,0,kReverse,kOff,-86.86,2.37,2.34,-0.08453369,-0.7915039,-0.1171875,29.58,0.0,-114.0,-3.9165802,-5.88118,
21.607805,true,true,true,0.125,12.25,0.0,0,0,0,0.125,12.25,0.0,0,0,0,0.125,12.25,0.0,0,0,0,0.125,12.3,0.0,0,0,0,0.0,12.25,0.0,0,0,0,0.0,12.25,0.0,0,0,0,0.0,12.35,0.0,0,0,0,kReverse,kOff,-86.83,2.35,2.32,-0.20336914,-0.71972656,-0.4152832,29.56,0.0,-225.0,-3.917511,-5.875839,
21.634781000000004,true,true,true,0.125,12.25,0.0,0,0,0,0.125,12.25,0.0,0,0,0,0.125,12.25,0.0,0,0,0,0.125,12.3,0.0,0,0,0,0.0,12.25,0.0,0,0,0,0.0,12.25,0.0,0,0,0,0.0,12.35,0.0,0,0,0,kReverse,kOff,-86.82,2.32,2.28,-0.07305908,-0.8786621,-0.48583984,29.56,0.0,-99.0,-3.9194489,-5.8729706,
21.666439,true,true,true,0.125,12.25,0.0,0,0,0,0.125,12.25,0.0,0,0,0,0.125,12.25,0.0,0,0,0,0.125,12.3,0.0,0,0,0,0.0,12.25,0.0,0,0,0,0.0,12.25,0.0,0,0,0,0.0,12.35,0.0,0,0,0,kReverse,kOff,-86.83,2.33,2.3,-0.010253906,-0.9515381,-0.4720459,29.56,0.0,-40.0,-3.9206238,-5.872589,
21.687881,true,true,true,0.125,12.25,0.0,0,0,0,0.125,12.25,0.0,0,0,0,0.125,12.25,0.0,0,0,0,0.125,12.25,0.0,0,0,0,0.0,12.25,0.0,0,0,0,0.0,12.25,0.0,0,0,0,0.0,12.3,0.0,0,0,0,kReverse,kOff,-86.82,2.37,2.34,0.048217773,-0.8773804,-0.24523926,29.56,0.0,16.0,-3.9217987,-5.873535,
21.708999,true,true,true,0.125,12.25,0.0,0,0,0,0.125,12.25,0.0,0,0,0,0.125,12.25,0.0,0,0,0,0.125,12.25,0.0,0,0,0,0.0,12.25,0.0,0,0,0,0.0,12.25,0.0,0,0,0,0.0,12.3,0.0,0,0,0,kReverse,kOff,-86.81,2.35,2.32,0.07373047,-0.89001465,-0.12207031,29.56,0.0,39.0,-3.9217682,-5.874527,
21.729142,true,true,true,0.125,12.25,0.0,0,0,0,0.125,12.25,0.0,0,0,0,0.125,12.25,0.0,0,0,0,0.125,12.25,0.0,0,0,0,0.0,12.25,0.0,0,0,0,0.0,12.25,0.0,0,0,0,0.0,12.3,0.0,0,0,0,kReverse,kOff,-86.83,2.29,2.25,0.20172119,-1.1644897,0.022827148,29.56,0.0,155.0,-3.9213562,-5.8769073,
21.759202000000002,true,true,true,0.125,12.25,0.0,0,0,0,0.125,12.25,0.0,0,0,0,0.125,12.25,0.0,0,0,0,0.125,12.25,0.0,0,0,0,0.0,12.25,0.0,0,0,0,0.0,12.25,0.0,0,0,0,0.0,12.3,0.0,0,0,0,kReverse,kOff,-86.84,2.29,2.25,0.21759033,-1.2657471,0.09222412,29.56,0.0,165.0,-3.9208374,-5.878113,
21.783424000000004,true,true,true,0.125,12.25,0.0,0,0,0,0.125,12.25,0.0,0,0,0,0.125,12.25,0.0,0,0,0,0.125,12.25,0.0,0,0,0,0.0,12.25,0.0,0,0,0,0.0,12.25,0.0,0,0,0,0.0,12.3,0.0,0,0,0,kReverse,kOff,-86.88,2.33,2.3,0.16552734,-1.0888062,0.40515137,29.56,0.0,114.0,-3.919159,-5.8798676,
21.807257,true,true,true,0.125,12.25,0.0,0,0,0,0.125,12.25,0.0,0,0,0,0.125,12.25,0.0,0,0,0,0.125,12.25,0.0,0,0,0,0.0,12.25,0.0,0,0,0,0.0,12.25,0.0,0,0,0,0.0,12.3,0.0,0,0,0,kReverse,kOff,-86.9,2.32,2.29,0.07287598,-0.9901123,0.6815796,29.56,0.0,20.0,-3.9169617,-5.8792114,
21.828655,true,true,true,0.125,12.25,0.0,0,0,0,0.125,12.25,0.0,0,0,0,0.125,12.25,0.0,0,0,0,0.125,12.25,0.0,0,0,0,0.0,12.25,0.0,0,0,0,0.0,12.25,0.0,0,0,0,0.0,12.3,0.0,0,0,0,kReverse,kOff,-86.91,2.29,2.26,0.061523438,-1.1022339,0.6949463,29.56,0.0,5.0,-3.9158173,-5.877594,
21.857397000000002,true,true,true,0.125,12.25,0.0,0,0,0,0.125,12.25,0.0,0,0,0,0.125,12.25,0.0,0,0,0,0.125,12.25,0.0,0,0,0,0.0,12.25,0.0,0,0,0,0.0,12.25,0.0,0,0,0,0.0,12.3,0.0,0,0,0,kReverse,kOff,-86.9,2.29,2.26,0.0524292,-1.125061,0.38989258,29.56,0.0,0.0,-3.9135437,-5.872177,
21.88357,true,true,true,0.125,12.25,0.0,0,0,0,0.125,12.25,0.0,0,0,0,0.125,12.25,0.0,0,0,0,0.125,12.25,0.0,0,0,0,0.0,12.25,0.0,0,0,0,0.0,12.25,0.0,0,0,0,0.0,12.3,0.0,0,0,0,kReverse,kOff,-86.87,2.35,2.32,-0.030395508,-0.8484497,-0.009277344,29.56,0.0,-64.0,-3.9113617,-5.8654175,
21.908739,true,true,true,0.125,12.25,0.0,0,0,0,0.125,12.25,0.0,0,0,0,0.125,12.25,0.0,0,0,0,0.125,12.25,0.0,0,0,0,0.0,12.25,0.0,0,0,0,0.0,12.25,0.0,0,0,0,0.0,12.3,0.0,0,0,0,kReverse,kOff,-86.81,2.36,2.32,-0.18811035,-0.7022095,-0.34075928,29.56,0.0,-210.0,-3.9096985,-5.8593445,
21.938099,true,true,true,0.125,12.25,0.0,0,0,0,0.125,12.25,0.0,0,0,0,0.125,12.25,0.0,0,0,0,0.125,12.25,0.0,0,0,0,0.0,12.25,0.0,0,0,0,0.0,12.25,0.0,0,0,0,0.0,12.3,0.0,0,0,0,kReverse,kOff,-86.79,2.34,2.3,-0.15893555,-0.7579346,-0.43554688,29.56,0.0,-181.0,-3.909256,-5.857071,
21.962045000000003,true,true,true,0.125,12.25,0.0,0,0,0,0.125,12.25,0.0,0,0,0,0.125,12.25,0.0,0,0,0,0.125,12.25,0.0,0,0,0,0.0,12.25,0.0,0,0,0,0.0,12.25,0.0,0,0,0,0.0,12.3,0.0,0,0,0,kReverse,kOff,-86.79,2.33,2.29,-0.017456055,-0.90252686,-0.48797607,29.56,0.0,-44.0,-3.9089355,-5.8546143,
21.988079000000003,true,true,true,0.125,12.25,0.0,0,0,0,0.125,12.25,0.0,0,0,0,0.125,12.25,0.0,0,0,0,0.125,12.25,0.0,0,0,0,0.0,12.25,0.0,0,0,0,0.0,12.25,0.0,0,0,0,0.0,12.3,0.0,0,0,0,kReverse,kOff,-86.79,2.37,2.33,0.057739258,-0.9135742,-0.26867676,29.56,0.0,25.0,-3.9087524,-5.8546753,
22.017849000000002,true,true,true,0.125,12.25,0.0,0,0,0,0.125,12.25,0.0,0,0,0,0.125,12.25,0.0,0,0,0,0.125,12.25,0.0,0,0,0,0.0,12.25,0.0,0,0,0,0.0,12.25,0.0,0,0,0,0.0,12.3,0.0,0,0,0,kReverse,kOff,-86.78,2.32,2.28,0.111083984,-0.9812012,-0.07006836,29.56,0.0,73.0,-3.9083862,-5.856064,
22.046099,true,true,true,0.125,12.25,0.0,0,0,0,0.125,12.25,0.0,0,0,0,0.125,12.25,0.0,0,0,0,0.125,12.25,0.0,0,0,0,0.0,12.25,0.0,0,0,0,0.0,12.25,0.0,0,0,0,0.0,12.3,0.0,0,0,0,kReverse,kOff,-86.81,2.29,2.25,0.22393799,-1.2805786,0.07696533,29.56,0.0,171.0,-3.9074097,-5.857834,
22.071734,true,true,true,0.125,12.25,0.0,0,0,0,0.125,12.25,0.0,0,0,0,0.125,12.25,0.0,0,0,0,0.125,12.25,0.0,0,0,0,0.0,12.25,0.0,0,0,0,0.0,12.25,0.0,0,0,0,0.0,12.3,0.0,0,0,0,kReverse,kOff,-86.83,2.31,2.27,0.21972656,-1.0872803,0.40026855,29.56,0.0,113.0,-3.9055786,-5.8589935,
22.100344,true,true,true,0.125,12.25,0.0,0,0,0,0.125,12.25,0.0,0,0,0,0.125,12.25,0.0,0,0,0,0.125,12.25,0.0,0,0,0,0.0,12.25,0.0,0,0,0,0.0,12.25,0.0,0,0,0,0.0,12.3,0.0,0,0,0,kReverse,kOff,-86.87,2.34,2.31,0.11816406,-0.980896,0.57647705,29.56,0.0,67.0,-3.9044495,-5.8587646,
22.127580000000002,true,true,true,0.125,12.25,0.0,0,0,0,0.125,12.25,0.0,0,0,0,0.125,12.25,0.0,0,0,0,0.0,12.25,0.0,0,0,0,0.0,12.25,0.0,0,0,0,0.0,12.25,0.0,0,0,0,0.0,12.3,0.0,0,0,0,kReverse,kOff,-86.89,2.3,2.26,0.0413208,-1.1304932,0.6539917,29.63,0.0,-15.0,-3.9032593,-5.8558655,
22.153131000000002,true,true,true,0.125,12.25,0.0,0,0,0,0.125,12.25,0.0,0,0,0,0.125,12.25,0.0,0,0,0,0.0,12.25,0.0,0,0,0,0.0,12.25,0.0,0,0,0,0.0,12.25,0.0,0,0,0,0.0,12.3,0.0,0,0,0,kReverse,kOff,-86.89,2.3,2.27,0.05871582,-1.0896606,0.32562256,29.63,0.0,9.0,-3.9032593,-5.8500977,
22.181043000000003,true,true,true,0.125,12.25,0.0,0,0,0,0.125,12.25,0.0,0,0,0,0.125,12.200000000000001,0.0,0,0,0,0.125,12.25,0.0,0,0,0,0.0,12.25,0.0,0,0,0,0.0,12.25,0.0,0,0,0,0.0,12.3,0.0,0,0,0,kReverse,kOff,-86.87,2.34,2.3,0.0048828125,-0.9265747,-0.07739258,29.63,0.0,-69.0,-3.903366,-5.843338,
22.204633,true,true,true,0.125,12.25,0.0,0,0,0,0.125,12.25,0.0,0,0,0,0.125,12.200000000000001,0.0,0,0,0,0.125,12.25,0.0,0,0,0,0.0,12.25,0.0,0,0,0,0.0,12.25,0.0,0,0,0,0.0,12.3,0.0,0,0,0,kReverse,kOff,-86.79,2.39,2.36,-0.16143799,-0.6882324,-0.27716064,29.63,0.0,-184.0,-3.9036255,-5.8402557,
22.229801,true,true,true,0.125,12.25,0.0,0,0,0,0.125,12.25,0.0,0,0,0,0.125,12.200000000000001,0.0,0,0,0,0.125,12.25,0.0,0,0,0,0.0,12.25,0.0,0,0,0,0.0,12.25,0.0,0,0,0,0.0,12.3,0.0,0,0,0,kReverse,kOff,-86.77,2.35,2.31,-0.1519165,-0.80584717,-0.5237427,29.63,0.0,-175.0,-3.9049225,-5.835861,
22.265171000000002,true,true,true,0.125,12.25,0.0,0,0,0,0.125,12.25,0.0,0,0,0,0.125,12.200000000000001,0.0,0,0,0,0.125,12.25,0.0,0,0,0,0.0,12.25,0.0,0,0,0,0.0,12.25,0.0,0,0,0,0.0,12.3,0.0,0,0,0,kReverse,kOff,-86.76,2.39,2.35,0.06628418,-0.94226074,-0.3116455,29.63,0.0,33.0,-3.907837,-5.8345337,
22.293894,true,true,true,0.125,12.25,0.0,0,0,0,0.125,12.25,0.0,0,0,0,0.125,12.200000000000001,0.0,0,0,0,0.125,12.25,0.0,0,0,0,0.0,12.25,0.0,0,0,0,0.0,12.25,0.0,0,0,0,0.0,12.3,0.0,0,0,0,kReverse,kOff,-86.77,2.38,2.34,0.08276367,-0.90093994,-0.14013672,29.63,0.0,48.0,-3.9087524,-5.8350677,
22.322689,true,true,true,0.125,12.25,0.0,0,0,0,0.125,12.25,0.0,0,0,0,0.125,12.200000000000001,0.0,0,0,0,0.125,12.25,0.0,0,0,0,0.0,12.25,0.0,0,0,0,0.0,12.25,0.0,0,0,0,0.0,12.3,0.0,0,0,0,kReverse,kOff,-86.78,2.31,2.27,0.20672607,-1.1629639,0.02911377,29.63,0.0,159.0,-3.9102325,-5.8365326,
22.346828000000002,true,true,true,0.125,12.25,0.0,0,0,0,0.125,12.25,0.0,0,0,0,0.125,12.200000000000001,0.0,0,0,0,0.125,12.25,0.0,0,0,0,0.0,12.25,0.0,0,0,0,0.0,12.25,0.0,0,0,0,0.0,12.3,0.0,0,0,0,kReverse,kOff,-86.82,2.32,2.28,0.21972656,-1.236084,0.21600342,29.63,0.0,166.0,-3.9108734,-5.837845,
22.375576000000002,true,true,true,0.125,12.25,0.0,0,0,0,0.125,12.25,0.0,0,0,0,0.125,12.200000000000001,0.0,0,0,0,0.125,12.25,0.0,0,0,0,0.0,12.25,0.0,0,0,0,0.0,12.25,0.0,0,0,0,0.0,12.3,0.0,0,0,0,kReverse,kOff,-86.84,2.35,2.31,0.16296387,-1.0852051,0.39855957,29.63,0.0,111.0,-3.910904,-5.8380585,
22.399307,true,true,true,0.125,12.25,0.0,0,0,0,0.125,12.25,0.0,0,0,0,0.125,12.200000000000001,0.0,0,0,0,0.125,12.25,0.0,0,0,0,0.0,12.25,0.0,0,0,0,0.0,12.25,0.0,0,0,0,0.0,12.3,0.0,0,0,0,kReverse,kOff,-86.86,2.33,2.29,0.05706787,-0.9998169,0.6553955,29.63,0.0,4.0,-3.910675,-5.8364716,
22.424533000000004,true,true,true,0.125,12.25,0.0,0,0,0,0.125,12.25,0.0,0,0,0,0.125,12.200000000000001,0.0,0,0,0,0.125,12.25,0.0,0,0,0,0.0,12.25,0.0,0,0,0,0.0,12.25,0.0,0,0,0,0.0,12.3,0.0,0,0,0,kReverse,kOff,-86.87,2.3,2.27,0.04272461,-1.152832,0.5303345,29.63,0.0,-12.0,-3.910675,-5.8316803,
22.448159,true,true,true,0.125,12.25,0.0,0,0,0,0.125,12.25,0.0,0,0,0,0.125,12.200000000000001,0.0,0,0,0,0.125,12.25,0.0,0,0,0,0.0,12.25,0.0,0,0,0,0.0,12.25,0.0,0,0,0,0.0,12.3,0.0,0,0,0,kReverse,kOff,-86.85,2.36,2.32,0.011108398,-0.9204712,0.08679199,29.63,0.0,-27.0,-3.9107056,-5.8249054,
22.475311,true,true,true,0.125,12.25,0.0,0,0,0,0.125,12.25,0.0,0,0,0,0.125,12.200000000000001,0.0,0,0,0,0.125,12.25,0.0,0,0,0,0.0,12.25,0.0,0,0,0,0.0,12.25,0.0,0,0,0,0.0,12.3,0.0,0,0,0,kReverse,kOff,-86.82,2.38,2.34,-0.09106445,-0.7640991,-0.11920166,29.63,0.0,-120.0,-3.9111786,-5.81839,
22.503390000000003,true,true,true,0.125,12.25,0.0,0,0,0,0.125,12.25,0.0,0,0,0,0.125,12.200000000000001,0.0,0,0,0,0.0,12.25,0.0,0,0,0,0.0,12.25,0.0,0,0,0,0.0,12.25,0.0,0,0,0,0.0,12.3,0.0,0,0,0,kReverse,kOff,-86.77,2.35,2.31,-0.18023682,-0.72839355,-0.46087646,29.63,0.0,-201.0,-3.9118195,-5.8158875,
22.530894,true,true,true,0.125,12.25,0.0,0,0,0,0.125,12.25,0.0,0,0,0,0.125,12.200000000000001,0.0,0,0,0,0.0,12.25,0.0,0,0,0,0.0,12.25,0.0,0,0,0,0.0,12.25,0.0,0,0,0,0.0,12.3,0.0,0,0,0,kReverse,kOff,-86.76,2.34,2.3,-0.020812988,-0.8786011,-0.49560547,29.63,0.0,-47.0,-3.913681,-5.8130646,
22.556703000000002,true,true,true,0.125,12.25,0.0,0,0,0,0.125,12.25,0.0,0,0,0,0.125,12.200000000000001,0.0,0,0,0,0.0,12.25,0.0,0,0,0,0.0,12.25,0.0,0,0,0,0.0,12.25,0.0,0,0,0,0.0,12.3,0.0,0,0,0,kReverse,kOff,-86.76,2.37,2.33,0.07507324,-0.91955566,-0.2510376,29.63,0.0,42.0,-3.9157104,-5.8127747,
22.584406,true,true,true,0.125,12.25,0.0,0,0,0,0.125,12.25,0.0,0,0,0,0.125,12.200000000000001,0.0,0,0,0,0.125,12.25,0.0,0,0,0,0.0,12.25,0.0,0,0,0,0.0,12.25,0.0,0,0,0,0.0,12.3,0.0,0,0,0,kReverse,kOff,-86.75,2.36,2.32,0.09991455,-0.9411011,-0.08306885,29.63,0.0,63.0,-3.9166412,-5.813156,
22.606131,true,true,true,0.125,12.25,0.0,0,0,0,0.125,12.25,0.0,0,0,0,0.125,12.200000000000001,0.0,0,0,0,0.125,12.25,0.0,0,0,0,0.0,12.25,0.0,0,0,0,0.0,12.25,0.0,0,0,0,0.0,12.3,0.0,0,0,0,kReverse,kOff,-86.77,2.3,2.26,0.22265625,-1.2368774,0.046813965,29.63,0.0,172.0,-3.9180908,-5.8141937,
22.630199,true,true,true,0.125,12.25,0.0,0,0,0,0.125,12.25,0.0,0,0,0,0.125,12.200000000000001,0.0,0,0,0,0.125,12.25,0.0,0,0,0,0.0,12.25,0.0,0,0,0,0.0,12.25,0.0,0,0,0,0.0,12.3,0.0,0,0,0,kReverse,kOff,-86.8,2.33,2.29,0.18457031,-1.2088623,0.2477417,29.58,0.0,131.0,-3.9186707,-5.814987,
22.661199,true,true,true,0.125,12.25,0.0,0,0,0,0.125,12.25,0.0,0,0,0,0.125,12.200000000000001,0.0,0,0,0,0.125,12.25,0.0,0,0,0,0.0,12.25,0.0,0,0,0,0.0,12.25,0.0,0,0,0,0.0,12.3,0.0,0,0,0,kReverse,kOff,-86.84,2.34,2.3,0.06829834,-0.9768677,0.61224365,29.58,0.0,17.0,-3.918686,-5.8140717,
22.687809,true,true,true,0.125,12.25,0.0,0,0,0,0.125,12.25,0.0,0,0,0,0.125,12.200000000000001,0.0,0,0,0,0.125,12.25,0.0,0,0,0,0.0,12.25,0.0,0,0,0,0.0,12.25,0.0,0,0,0,0.0,12.3,0.0,0,0,0,kReverse,kOff,-86.86,2.3,2.26,0.021972656,-1.1422119,0.60491943,29.58,0.0,-34.0,-3.9185486,-5.810013,
22.717852000000004,true,true,true,0.125,12.25,0.0,0,0,0,0.125,12.25,0.0,0,0,0,0.125,12.200000000000001,0.0,0,0,0,0.125,12.25,0.0,0,0,0,0.0,12.25,0.0,0,0,0,0.0,12.25,0.0,0,0,0,0.0,12.3,0.0,0,0,0,kReverse,kOff,-86.84,2.34,2.3,0.018188477,-1.0298462,0.21789551,29.58,0.0,-27.0,-3.9184723,-5.8033905,
22.745855,true,true,true,0.125,12.25,0.0,0,0,0,0.125,12.25,0.0,0,0,0,0.125,12.200000000000001,0.0,0,0,0,0.125,12.25,0.0,0,0,0,0.0,12.25,0.0,0,0,0,0.0,12.25,0.0,0,0,0,0.0,12.3,0.0,0,0,0,kReverse,kOff,-86.78,2.38,2.34,-0.14849854,-0.7249756,-0.26141357,29.58,0.0,-173.0,-3.9187164,-5.796417,
22.777865000000002,true,true,true,0.125,12.25,0.0,0,0,0,0.125,12.25,0.0,0,0,0,0.125,12.200000000000001,0.0,0,0,0,0.125,12.25,0.0,0,0,0,0.0,12.25,0.0,0,0,0,0.0,12.25,0.0,0,0,0,0.0,12.3,0.0,0,0,0,kReverse,kOff,-86.75,2.36,2.32,-0.22180176,-0.6954346,-0.53149414,29.58,0.0,-240.0,-3.9192047,-5.793625,
22.802485,true,true,true,0.125,12.25,0.0,0,0,0,0.125,12.25,0.0,0,0,0,0.125,12.200000000000001,0.0,0,0,0,0.125,12.25,0.0,0,0,0,0.0,12.25,0.0,0,0,0,0.0,12.200000000000001,0.0,0,0,0,0.0,12.25,0.0,0,0,0,kReverse,kOff,-86.77,2.34,2.3,-0.05340576,-0.9343872,-0.3694458,29.58,0.0,16.0,-3.921936,-5.790085,
22.829868,true,true,true,0.125,12.200000000000001,0.0,0,0,0,0.125,12.200000000000001,0.0,0,0,0,0.125,12.200000000000001,0.0,0,0,0,0.125,12.25,0.0,0,0,0,0.0,12.25,0.0,0,0,0,0.0,12.200000000000001,0.0,0,0,0,0.0,12.25,0.0,0,0,0,kReverse,kOff,-86.76,2.37,2.33,0.10357666,-0.9470825,-0.14526367,29.58,0.0,67.0,-3.922882,-5.7900085,
22.859157000000003,true,true,true,0.125,12.200000000000001,0.0,0,0,0,0.125,12.200000000000001,0.0,0,0,0,0.125,12.200000000000001,0.0,0,0,0,0.125,12.25,0.0,0,0,0,0.0,12.25,0.0,0,0,0,0.0,12.200000000000001,0.0,0,0,0,0.0,12.25,0.0,0,0,0,kReverse,kOff,-86.74,2.34,2.3,0.12921143,-1.0200806,-0.01586914,29.58,0.0,88.0,-3.924469,-5.790222,
22.885618,true,true,true,0.125,12.200000000000001,0.0,0,0,0,0.125,12.200000000000001,0.0,0,0,0,0.125,12.200000000000001,0.0,0,0,0,0.0,12.25,0.0,0,0,0,0.0,12.25,0.0,0,0,0,0.0,12.200000000000001,0.0,0,0,0,0.0,12.25,0.0,0,0,0,kReverse,kOff,-86.77,2.31,2.27,0.22314453,-1.3197021,-0.012634277,29.58,0.0,170.0,-3.925415,-5.7908936,
22.906947,true,true,true,0.125,12.200000000000001,0.0,0,0,0,0.125,12.200000000000001,0.0,0,0,0,0.125,12.200000000000001,0.0,0,0,0,0.0,12.25,0.0,0,0,0,0.0,12.25,0.0,0,0,0,0.0,12.200000000000001,0.0,0,0,0,0.0,12.25,0.0,0,0,0,kReverse,kOff,-86.8,2.34,2.3,0.20916748,-1.2202148,0.152771,29.58,0.0,157.0,-3.9255524,-5.7912445,
22.937692000000002,true,true,true,0.125,12.200000000000001,0.0,0,0,0,0.125,12.200000000000001,0.0,0,0,0,0.125,12.200000000000001,0.0,0,0,0,0.0,12.25,0.0,0,0,0,0.0,12.25,0.0,0,0,0,0.0,12.200000000000001,0.0,0,0,0,0.0,12.25,0.0,0,0,0,kReverse,kOff,-86.83,2.35,2.32,0.06121826,-0.9577637,0.6251221,29.58,0.0,10.0,-3.9254456,-5.790695,
22.963594,true,true,true,0.125,12.200000000000001,0.0,0,0,0,0.125,12.200000000000001,0.0,0,0,0,0.125,12.200000000000001,0.0,0,0,0,0.0,12.25,0.0,0,0,0,0.0,12.25,0.0,0,0,0,0.0,12.200000000000001,0.0,0,0,0,0.0,12.25,0.0,0,0,0,kReverse,kOff,-86.86,2.31,2.27,0.044067383,-1.1542969,0.6754761,29.58,0.0,-14.0,-3.925354,-5.786804,
22.985640000000004,true,true,true,0.125,12.200000000000001,0.0,0,0,0,0.125,12.25,0.0,0,0,0,0.125,12.200000000000001,0.0,0,0,0,0.125,12.25,0.0,0,0,0,0.0,12.25,0.0,0,0,0,0.0,12.200000000000001,0.0,0,0,0,0.0,12.25,0.0,0,0,0,kReverse,kOff,-86.86,2.31,2.28,0.059509277,-0.97436523,0.1696167,29.58,0.0,-15.0,-3.925354,-5.7801514,
23.009502,true,true,true,0.125,12.200000000000001,0.0,0,0,0,0.125,12.25,0.0,0,0,0,0.125,12.200000000000001,0.0,0,0,0,0.125,12.25,0.0,0,0,0,0.0,12.25,0.0,0,0,0,0.0,12.200000000000001,0.0,0,0,0,0.0,12.25,0.0,0,0,0,kReverse,kOff,-86.79,2.38,2.35,-0.0859375,-0.7883911,-0.11364746,29.58,0.0,-116.0,-3.9254456,-5.7766266,
23.036462,true,true,true,0.125,12.200000000000001,0.0,0,0,0,0.125,12.25,0.0,0,0,0,0.125,12.200000000000001,0.0,0,0,0,0.125,12.25,0.0,0,0,0,0.0,12.25,0.0,0,0,0,0.0,12.200000000000001,0.0,0,0,0,0.0,12.25,0.0,0,0,0,kReverse,kOff,-86.73,2.37,2.33,-0.20288086,-0.69970703,-0.57006836,29.58,0.0,-220.0,-3.9263153,-5.770996,
23.062646,true,true,true,0.125,12.200000000000001,0.0,0,0,0,0.125,12.25,0.0,0,0,0,0.125,12.200000000000001,0.0,0,0,0,0.0,12.25,0.0,0,0,0,0.0,12.25,0.0,0,0,0,0.0,12.200000000000001,0.0,0,0,0,0.0,12.25,0.0,0,0,0,kReverse,kOff,-86.74,2.35,2.31,0.0037231445,-0.8748779,-0.47576904,29.58,0.0,-22.0,-3.928131,-5.768448,
23.089355,true,true,true,0.125,12.200000000000001,0.0,0,0,0,0.125,12.25,0.0,0,0,0,0.125,12.200000000000001,0.0,0,0,0,0.0,12.25,0.0,0,0,0,0.0,12.25,0.0,0,0,0,0.0,12.200000000000001,0.0,0,0,0,0.0,12.25,0.0,0,0,0,kReverse,kOff,-86.75,2.38,2.34,0.06524658,-0.927124,-0.25805664,29.58,0.0,32.0,-3.9291077,-5.768097,
23.11551,true,true,true,0.125,12.200000000000001,0.0,0,0,0,0.125,12.25,0.0,0,0,0,0.125,12.200000000000001,0.0,0,0,0,0.0,12.25,0.0,0,0,0,0.0,12.25,0.0,0,0,0,0.0,12.200000000000001,0.0,0,0,0,0.0,12.25,0.0,0,0,0,kReverse,kOff,-86.74,2.35,2.31,0.09716797,-0.9146118,0.06958008,29.58,0.0,58.0,-3.9308624,-5.7679443,
23.139853000000002,true,true,true,0.125,12.200000000000001,0.0,0,0,0,0.125,12.200000000000001,0.0,0,0,0,0.125,12.200000000000001,0.0,0,0,0,0.125,12.25,0.0,0,0,0,0.0,12.200000000000001,0.0,0,0,0,0.0,12.200000000000001,0.0,0,0,0,0.0,12.25,0.0,0,0,0,kReverse,kOff,-86.75,2.28,2.24,0.2144165,-1.2625732,-0.06781006,29.63,0.0,166.0,-3.9321594,-5.76799,
23.165869,true,true,true,0.125,12.200000000000001,0.0,0,0,0,0.125,12.200000000000001,0.0,0,0,0,0.125,12.200000000000001,0.0,0,0,0,0.125,12.25,0.0,0,0,0,0.0,12.200000000000001,0.0,0,0,0,0.0,12.200000000000001,0.0,0,0,0,0.0,12.25,0.0,0,0,0,kReverse,kOff,-86.77,2.29,2.25,0.23400879,-1.298706,0.049072266,29.63,0.0,181.0,-3.9325867,-5.768173,
23.188192000000004,true,true,true,0.125,12.200000000000001,0.0,0,0,0,0.125,12.200000000000001,0.0,0,0,0,0.125,12.200000000000001,0.0,0,0,0,0.125,12.25,0.0,0,0,0,0.0,12.200000000000001,0.0,0,0,0,0.0,12.200000000000001,0.0,0,0,0,0.0,12.25,0.0,0,0,0,kReverse,kOff,-86.82,2.33,2.29,0.09503174,-0.9892578,0.4781494,29.63,0.0,46.0,-3.932602,-5.7677765,
23.217318000000002,true,true,true,0.125,12.200000000000001,0.0,0,0,0,0.125,12.200000000000001,0.0,0,0,0,0.125,12.200000000000001,0.0,0,0,0,0.125,12.25,0.0,0,0,0,0.0,12.200000000000001,0.0,0,0,0,0.0,12.200000000000001,0.0,0,0,0,0.0,12.25,0.0,0,0,0,kReverse,kOff,-86.85,2.28,2.24,0.04663086,-1.1070557,0.72387695,29.63,0.0,-10.0,-3.932602,-5.7646027,
23.245947,true,true,true,0.125,12.200000000000001,0.0,0,0,0,0.125,12.200000000000001,0.0,0,0,0,0.125,12.200000000000001,0.0,0,0,0,0.0,12.25,0.0,0,0,0,0.0,12.200000000000001,0.0,0,0,0,0.0,12.200000000000001,0.0,0,0,0,0.0,12.25,0.0,0,0,0,kReverse,kOff,-86.84,2.3,2.27,0.036499023,-1.0803223,0.30725098,29.63,0.0,-12.0,-3.932602,-5.758316,
23.282342,true,true,true,0.125,12.200000000000001,0.0,0,0,0,0.125,12.200000000000001,0.0,0,0,0,0.125,12.200000000000001,0.0,0,0,0,0.0,12.25,0.0,0,0,0,0.0,12.200000000000001,0.0,0,0,0,0.0,12.200000000000001,0.0,0,0,0,0.0,12.25,0.0,0,0,0,kReverse,kOff,-86.78,2.35,2.31,-0.14031982,-0.7015991,-0.25390625,29.63,0.0,-163.0,-3.9328613,-5.7513885,
23.308122000000004,true,true,true,0.125,12.200000000000001,0.0,0,0,0,0.125,12.200000000000001,0.0,0,0,0,0.125,12.200000000000001,0.0,0,0,0,0.0,12.25,0.0,0,0,0,0.0,12.200000000000001,0.0,0,0,0,0.0,12.200000000000001,0.0,0,0,0,0.0,12.25,0.0,0,0,0,kReverse,kOff,-86.76,2.32,2.28,-0.17852783,-0.74560547,-0.6084595,29.63,0.0,-197.0,-3.9341278,-5.7465363,
23.334063,true,true,true,0.125,12.200000000000001,0.0,0,0,0,0.125,12.200000000000001,0.0,0,0,0,0.125,12.200000000000001,0.0,0,0,0,0.125,12.25,0.0,0,0,0,0.0,12.200000000000001,0.0,0,0,0,0.0,12.200000000000001,0.0,0,0,0,0.0,12.25,0.0,0,0,0,kReverse,kOff,-86.77,2.33,2.29,0.036132812,-0.9159546,-0.3522339,29.63,0.0,5.0,-3.9361267,-5.744751,
23.362601,true,true,true,0.125,12.200000000000001,0.0,0,0,0,0.125,12.200000000000001,0.0,0,0,0,0.125,12.200000000000001,0.0,0,0,0,0.125,12.25,0.0,0,0,0,0.0,12.200000000000001,0.0,0,0,0,0.0,12.200000000000001,0.0,0,0,0,0.0,12.25,0.0,0,0,0,kReverse,kOff,-86.74,2.34,2.3,0.12060547,-0.91833496,-0.008483887,29.63,0.0,83.0,-3.937973,-5.7445374,
23.3995,true,true,true,0.125,12.200000000000001,0.0,0,0,0,0.125,12.200000000000001,0.0,0,0,0,0.125,12.200000000000001,0.0,0,0,0,0.125,12.25,0.0,0,0,0,0.0,12.200000000000001,0.0,0,0,0,0.0,12.200000000000001,0.0,0,0,0,0.0,12.25,0.0,0,0,0,kReverse,kOff,-86.79,2.28,2.24,0.23632812,-1.2961426,0.06402588,29.63,0.0,184.0,-3.93956,-5.7447815,
23.430698,true,true,true,0.125,12.200000000000001,0.0,0,0,0,0.125,12.200000000000001,0.0,0,0,0,0.125,12.200000000000001,0.0,0,0,0,0.125,12.25,0.0,0,0,0,0.0,12.200000000000001,0.0,0,0,0,0.0,12.200000000000001,0.0,0,0,0,0.0,12.25,0.0,0,0,0,kReverse,kOff,-86.8,2.31,2.27,0.16418457,-1.1547241,0.20532227,29.63,0.0,114.0,-3.9396515,-5.7447815,
23.45924,true,true,true,0.125,12.200000000000001,0.0,0,0,0,0.125,12.200000000000001,0.0,0,0,0,0.125,12.200000000000001,0.0,0,0,0,0.125,12.25,0.0,0,0,0,0.0,12.200000000000001,0.0,0,0,0,0.0,12.200000000000001,0.0,0,0,0,0.0,12.25,0.0,0,0,0,kReverse,kOff,-86.84,2.3,2.26,0.036071777,-0.98895264,0.63775635,29.63,0.0,-15.0,-3.9396057,-5.7433014,
23.488918,true,true,true,0.125,12.200000000000001,0.0,0,0,0,0.125,12.200000000000001,0.0,0,0,0,0.125,12.200000000000001,0.0,0,0,0,0.125,12.25,0.0,0,0,0,0.0,12.200000000000001,0.0,0,0,0,0.0,12.200000000000001,0.0,0,0,0,0.0,12.25,0.0,0,0,0,kReverse,kOff,-86.86,2.27,2.24,0.038757324,-1.1437378,0.5473633,29.63,0.0,-16.0,-3.9396362,-5.738678,
23.517255000000002,true,true,true,0.125,12.200000000000001,0.0,0,0,0,0.125,12.200000000000001,0.0,0,0,0,0.125,12.200000000000001,0.0,0,0,0,0.125,12.25,0.0,0,0,0,0.0,12.200000000000001,0.0,0,0,0,0.0,12.200000000000001,0.0,0,0,0,0.0,12.25,0.0,0,0,0,kReverse,kOff,-86.79,2.34,2.3,-0.05230713,-0.84661865,-0.026672363,29.63,0.0,-85.0,-3.9398193,-5.732147,
23.542418,true,true,true,0.125,12.200000000000001,0.0,0,0,0,0.125,12.200000000000001,0.0,0,0,0,0.125,12.200000000000001,0.0,0,0,0,0.125,12.25,0.0,0,0,0,0.0,12.200000000000001,0.0,0,0,0,0.0,12.200000000000001,0.0,0,0,0,0.0,12.25,0.0,0,0,0,kReverse,kOff,-86.75,2.34,2.3,-0.20690918,-0.6854248,-0.49621582,29.63,0.0,-225.0,-3.9407196,-5.726639,
23.567519,true,true,true,0.125,12.200000000000001,0.0,0,0,0,0.125,12.200000000000001,0.0,0,0,0,0.125,12.200000000000001,0.0,0,0,0,0.125,12.25,0.0,0,0,0,0.0,12.200000000000001,0.0,0,0,0,0.0,12.200000000000001,0.0,0,0,0,0.0,12.25,0.0,0,0,0,kReverse,kOff,-86.77,2.31,2.27,-0.01171875,-0.8847656,-0.4661255,29.63,0.0,-38.0,-3.942566,-5.723984,
23.598022,true,true,true,0.125,12.200000000000001,0.0,0,0,0,0.125,12.200000000000001,0.0,0,0,0,0.125,12.200000000000001,0.0,0,0,0,0.125,12.25,0.0,0,0,0,0.0,12.200000000000001,0.0,0,0,0,0.0,12.200000000000001,0.0,0,0,0,0.0,12.25,0.0,0,0,0,kReverse,kOff,-86.77,2.33,2.29,0.07220459,-0.93756104,-0.29632568,29.63,0.0,40.0,-3.9435577,-5.7236023,
23.623884,true,true,true,0.125,12.200000000000001,0.0,0,0,0,0.125,12.200000000000001,0.0,0,0,0,0.125,12.200000000000001,0.0,0,0,0,0.125,12.25,0.0,0,0,0,0.0,12.200000000000001,0.0,0,0,0,0.0,12.200000000000001,0.0,0,0,0,0.0,12.25,0.0,0,0,0,kReverse,kOff,-86.74,2.32,2.28,0.12841797,-0.9700928,-0.012207031,29.63,0.0,89.0,-3.9452972,-5.7236023,
23.643257000000002,true,true,true,0.125,12.200000000000001,0.0,0,0,0,0.125,12.200000000000001,0.0,0,0,0,0.125,12.200000000000001,0.0,0,0,0,0.125,12.25,0.0,0,0,0,0.0,12.200000000000001,0.0,0,0,0,0.0,12.200000000000001,0.0,0,0,0,0.0,12.25,0.0,0,0,0,kReverse,kOff,-86.75,2.29,2.25,0.19171143,-1.1398315,-0.022766113,29.63,0.0,147.0,-3.9459534,-5.7237396,
23.668349000000003,true,true,true,0.125,12.200000000000001,0.0,0,0,0,0.125,12.200000000000001,0.0,0,0,0,0.125,12.200000000000001,0.0,0,0,0,0.125,12.25,0.0,0,0,0,0.0,12.200000000000001,0.0,0,0,0,0.0,12.200000000000001,0.0,0,0,0,0.0,12.25,0.0,0,0,0,kReverse,kOff,-86.79,2.3,2.26,0.2084961,-1.2644653,0.12225342,29.63,0.0,156.0,-3.9465942,-5.7241516,
23.697165000000002,true,true,true,0.125,12.200000000000001,0.0,0,0,0,0.125,12.200000000000001,0.0,0,0,0,0.125,12.200000000000001,0.0,0,0,0,0.125,12.25,0.0,0,0,0,0.0,12.200000000000001,0.0,0,0,0,0.0,12.200000000000001,0.0,0,0,0,0.0,12.25,0.0,0,0,0,kReverse,kOff,-86.82,2.33,2.29,0.057922363,-0.9686279,0.5722656,29.63,0.0,8.0,-3.94664,-5.7234497,
23.724981,true,true,true,0.125,12.200000000000001,0.0,0,0,0,0.125,12.200000000000001,0.0,0,0,0,0.125,12.200000000000001,0.0,0,0,0,0.125,12.25,0.0,0,0,0,0.0,12.200000000000001,0.0,0,0,0,0.0,12.200000000000001,0.0,0,0,0,0.0,12.25,0.0,0,0,0,kReverse,kOff,-86.86,2.28,2.24,0.047302246,-1.1586304,0.66052246,29.63,0.0,-10.0,-3.94664,-5.7196655,
23.74784,true,true,true,0.125,12.200000000000001,0.0,0,0,0,0.125,12.200000000000001,0.0,0,0,0,0.125,12.200000000000001,0.0,0,0,0,0.125,12.25,0.0,0,0,0,0.0,12.200000000000001,0.0,0,0,0,0.0,12.200000000000001,0.0,0,0,0,0.0,12.25,0.0,0,0,0,kReverse,kOff,-86.85,2.3,2.26,0.043640137,-1.0859375,0.4234619,29.63,0.0,-7.0,-3.94664,-5.716675,
23.775966,true,true,true,0.125,12.200000000000001,0.0,0,0,0,0.125,12.200000000000001,0.0,0,0,0,0.125,12.200000000000001,0.0,0,0,0,0.125,12.200000000000001,0.0,0,0,0,0.0,12.200000000000001,0.0,0,0,0,0.0,12.200000000000001,0.0,0,0,0,0.0,12.25,0.0,0,0,0,kReverse,kOff,-86.78,2.36,2.32,-0.1060791,-0.7411499,-0.15759277,29.63,0.0,-133.0,-3.9468231,-5.7100677,
23.804402000000003,true,true,true,0.125,12.200000000000001,0.0,0,0,0,0.125,12.200000000000001,0.0,0,0,0,0.125,12.200000000000001,0.0,0,0,0,0.125,12.200000000000001,0.0,0,0,0,0.0,12.200000000000001,0.0,0,0,0,0.0,12.200000000000001,0.0,0,0,0,0.0,12.25,0.0,0,0,0,kReverse,kOff,-86.74,2.33,2.29,-0.1842041,-0.73883057,-0.5718994,29.63,0.0,-203.0,-3.9479065,-5.7051086,
23.828535,true,true,true,0.125,12.200000000000001,0.0,0,0,0,0.125,12.200000000000001,0.0,0,0,0,0.125,12.200000000000001,0.0,0,0,0,0.125,12.200000000000001,0.0,0,0,0,0.0,12.200000000000001,0.0,0,0,0,0.0,12.200000000000001,0.0,0,0,0,0.0,12.25,0.0,0,0,0,kReverse,kOff,-86.76,2.34,2.3,0.035461426,-0.9159546,-0.3937378,29.63,0.0,5.0,-3.9497375,-5.7031555,
23.852379,true,true,true,0.125,12.200000000000001,0.0,0,0,0,0.125,12.200000000000001,0.0,0,0,0,0.125,12.200000000000001,0.0,0,0,0,0.125,12.200000000000001,0.0,0,0,0,0.0,12.200000000000001,0.0,0,0,0,0.0,12.200000000000001,0.0,0,0,0,0.0,12.25,0.0,0,0,0,kReverse,kOff,-86.77,2.35,2.31,0.10668945,-0.96014404,-0.18493652,29.63,0.0,71.0,-3.9506378,-5.702957,
23.881425000000004,true,true,true,0.125,12.200000000000001,0.0,0,0,0,0.125,12.200000000000001,0.0,0,0,0,0.125,12.200000000000001,0.0,0,0,0,0.125,12.200000000000001,0.0,0,0,0,0.0,12.200000000000001,0.0,0,0,0,0.0,12.200000000000001,0.0,0,0,0,0.125,12.25,0.0,0,0,0,kReverse,kOff,-86.76,2.31,2.27,0.16705322,-1.0717773,-9.1552734E-4,29.63,0.0,124.0,-3.952057,-5.7029877,
23.906217,true,true,true,0.125,12.200000000000001,0.0,0,0,0,0.125,12.200000000000001,0.0,0,0,0,0.125,12.200000000000001,0.0,0,0,0,0.125,12.200000000000001,0.0,0,0,0,0.0,12.200000000000001,0.0,0,0,0,0.0,12.200000000000001,0.0,0,0,0,0.0,12.25,0.0,0,0,0,kReverse,kOff,-86.79,2.3,2.26,0.23065186,-1.2921143,0.11022949,29.63,0.0,177.0,-3.9526825,-5.7031403,
23.928734,true,true,true,0.125,12.200000000000001,0.0,0,0,0,0.125,12.200000000000001,0.0,0,0,0,0.125,12.200000000000001,0.0,0,0,0,0.125,12.200000000000001,0.0,0,0,0,0.0,12.200000000000001,0.0,0,0,0,0.0,12.200000000000001,0.0,0,0,0,0.0,12.25,0.0,0,0,0,kReverse,kOff,-86.82,2.33,2.29,0.064331055,-0.99450684,0.4874878,29.63,0.0,15.0,-3.9526062,-5.7023926,
23.958728000000004,true,true,true,0.125,12.200000000000001,0.0,0,0,0,0.125,12.200000000000001,0.0,0,0,0,0.125,12.200000000000001,0.0,0,0,0,0.125,12.200000000000001,0.0,0,0,0,0.0,12.200000000000001,0.0,0,0,0,0.0,12.200000000000001,0.0,0,0,0,0.0,12.25,0.0,0,0,0,kReverse,kOff,-86.87,2.28,2.25,0.03778076,-1.1463623,0.670105,29.63,0.0,-20.0,-3.9526367,-5.698868,
23.986415,true,true,true,0.125,12.200000000000001,0.0,0,0,0,0.125,12.200000000000001,0.0,0,0,0,0.125,12.200000000000001,0.0,0,0,0,0.125,12.200000000000001,0.0,0,0,0,0.0,12.200000000000001,0.0,0,0,0,0.0,12.200000000000001,0.0,0,0,0,0.0,12.25,0.0,0,0,0,kReverse,kOff,-86.86,2.29,2.26,0.041992188,-1.0997314,0.47979736,29.63,0.0,-10.0,-3.9526825,-5.6959534,
24.009227000000003,true,true,true,0.125,12.200000000000001,0.0,0,0,0,0.125,12.200000000000001,0.0,0,0,0,0.125,12.200000000000001,0.0,0,0,0,0.125,12.200000000000001,0.0,0,0,0,0.0,12.200000000000001,0.0,0,0,0,0.0,12.200000000000001,0.0,0,0,0,0.0,12.25,0.0,0,0,0,kReverse,kOff,-86.8,2.36,2.32,-0.08538818,-0.76898193,-0.11291504,29.63,0.0,-114.0,-3.9529266,-5.6892853,
24.034848,true,true,true,0.125,12.200000000000001,0.0,0,0,0,0.125,12.200000000000001,0.0,0,0,0,0.125,12.200000000000001,0.0,0,0,0,0.125,12.200000000000001,0.0,0,0,0,0.0,12.200000000000001,0.0,0,0,0,0.0,12.200000000000001,0.0,0,0,0,0.0,12.25,0.0,0,0,0,kReverse,kOff,-86.76,2.37,2.33,-0.19677734,-0.6773071,-0.3652954,29.63,0.0,-217.0,-3.9533234,-5.686325,
24.06036,true,true,true,0.125,12.200000000000001,0.0,0,0,0,0.125,12.200000000000001,0.0,0,0,0,0.125,12.200000000000001,0.0,0,0,0,0.125,12.200000000000001,0.0,0,0,0,0.0,12.200000000000001,0.0,0,0,0,0.0,12.200000000000001,0.0,0,0,0,0.0,12.25,0.0,0,0,0,kReverse,kOff,-86.75,2.33,2.29,-0.09289551,-0.8139038,-0.54901123,29.63,0.0,-115.0,-3.9549255,-5.682495,
24.085796000000002,true,true,true,0.125,12.200000000000001,0.0,0,0,0,0.125,12.200000000000001,0.0,0,0,0,0.125,12.200000000000001,0.0,0,0,0,0.125,12.200000000000001,0.0,0,0,0,0.0,12.200000000000001,0.0,0,0,0,0.0,12.200000000000001,0.0,0,0,0,0.0,12.25,0.0,0,0,0,kReverse,kOff,-86.75,2.36,2.32,0.11035156,-0.9277954,-0.18328857,29.63,0.0,76.0,-3.9568787,-5.68132,
24.10913,true,true,true,0.125,12.200000000000001,0.0,0,0,0,0.125,12.200000000000001,0.0,0,0,0,0.125,12.200000000000001,0.0,0,0,0,0.125,12.200000000000001,0.0,0,0,0,0.0,12.200000000000001,0.0,0,0,0,0.0,12.200000000000001,0.0,0,0,0,0.0,12.25,0.0,0,0,0,kReverse,kOff,-86.75,2.35,2.31,0.13464355,-0.97314453,-0.035583496,29.63,0.0,95.0,-3.957718,-5.6811523,
24.137568,true,true,true,0.125,12.200000000000001,0.0,0,0,0,0.125,12.200000000000001,0.0,0,0,0,0.125,12.200000000000001,0.0,0,0,0,0.125,12.200000000000001,0.0,0,0,0,0.0,12.200000000000001,0.0,0,0,0,0.0,12.200000000000001,0.0,0,0,0,0.0,12.25,0.0,0,0,0,kReverse,kOff,-86.76,2.3,2.26,0.23077393,-1.2562866,0.04272461,29.63,0.0,180.0,-3.9588928,-5.681015,
24.163434000000002,true,true,true,0.125,12.200000000000001,0.0,0,0,0,0.125,12.200000000000001,0.0,0,0,0,0.125,12.200000000000001,0.0,0,0,0,0.125,12.200000000000001,0.0,0,0,0,0.0,12.200000000000001,0.0,0,0,0,0.0,12.200000000000001,0.0,0,0,0,0.0,12.25,0.0,0,0,0,kReverse,kOff,-86.8,2.33,2.29,0.13366699,-1.1097412,0.2553711,29.61,0.0,84.0,-3.9592133,-5.680664,
24.189062000000003,true,true,true,0.125,12.200000000000001,0.0,0,0,0,0.125,12.200000000000001,0.0,0,0,0,0.125,12.200000000000001,0.0,0,0,0,0.125,12.200000000000001,0.0,0,0,0,0.0,12.200000000000001,0.0,0,0,0,0.0,12.200000000000001,0.0,0,0,0,0.125,12.25,0.0,0,0,0,kReverse,kOff,-86.84,2.31,2.27,0.026550293,-1.0488281,0.6519165,29.61,0.0,-27.0,-3.9592438,-5.678467,
24.214017,true,true,true,0.125,12.200000000000001,0.0,0,0,0,0.125,12.200000000000001,0.0,0,0,0,0.125,12.200000000000001,0.0,0,0,0,0.125,12.200000000000001,0.0,0,0,0,0.0,12.200000000000001,0.0,0,0,0,0.0,12.200000000000001,0.0,0,0,0,0.125,12.25,0.0,0,0,0,kReverse,kOff,-86.85,2.3,2.26,0.02911377,-1.1419067,0.61328125,29.61,0.0,-27.0,-3.9593048,-5.676193,
24.240817000000003,true,true,true,0.125,12.200000000000001,0.0,0,0,0,0.125,12.200000000000001,0.0,0,0,0,0.125,12.200000000000001,0.0,0,0,0,0.125,12.200000000000001,0.0,0,0,0,0.0,12.200000000000001,0.0,0,0,0,0.0,12.200000000000001,0.0,0,0,0,0.125,12.25,0.0,0,0,0,kReverse,kOff,-86.81,2.36,2.32,-0.005432129,-0.9050293,0.116760254,29.61,0.0,-44.0,-3.9595184,-5.670044,
24.267263000000003,true,true,true,0.125,12.200000000000001,0.0,0,0,0,0.125,12.200000000000001,0.0,0,0,0,0.125,12.200000000000001,0.0,0,0,0,0.125,12.200000000000001,0.0,0,0,0,0.0,12.200000000000001,0.0,0,0,0,0.0,12.200000000000001,0.0,0,0,0,0.0,12.25,0.0,0,0,0,kReverse,kOff,-86.74,2.37,2.33,-0.21203613,-0.6750488,-0.43011475,29.61,0.0,-231.0,-3.9602814,-5.6642,
24.304706000000003,true,true,true,0.125,12.200000000000001,0.0,0,0,0,0.125,12.200000000000001,0.0,0,0,0,0.125,12.200000000000001,0.0,0,0,0,0.125,12.200000000000001,0.0,0,0,0,0.0,12.200000000000001,0.0,0,0,0,0.0,12.200000000000001,0.0,0,0,0,0.0,12.25,0.0,0,0,0,kReverse,kOff,-86.73,2.37,2.33,0.0602417,-0.9138794,-0.33709717,29.61,0.0,29.0,-3.9629974,-5.660431,
24.337864,true,true,true,0.125,12.200000000000001,0.0,0,0,0,0.125,12.200000000000001,0.0,0,0,0,0.125,12.200000000000001,0.0,0,0,0,0.125,12.200000000000001,0.0,0,0,0,0.0,12.200000000000001,0.0,0,0,0,0.0,12.200000000000001,0.0,0,0,0,0.0,12.25,0.0,0,0,0,kReverse,kOff,-86.73,2.35,2.31,0.14276123,-1.0073853,-0.009399414,29.61,0.0,102.0,-3.9646912,-5.660095,
24.366492,true,true,true,0.125,12.200000000000001,0.0,0,0,0,0.125,12.200000000000001,0.0,0,0,0,0.125,12.200000000000001,0.0,0,0,0,0.125,12.200000000000001,0.0,0,0,0,0.0,12.200000000000001,0.0,0,0,0,0.0,12.200000000000001,0.0,0,0,0,0.0,12.25,0.0,0,0,0,kReverse,kOff,-86.76,2.31,2.27,0.23144531,-1.2977905,0.0592041,29.61,0.0,178.0,-3.965683,-5.6600037,
24.39224,true,true,true,0.125,12.200000000000001,0.0,0,0,0,0.125,12.200000000000001,0.0,0,0,0,0.125,12.200000000000001,0.0,0,0,0,0.125,12.200000000000001,0.0,0,0,0,0.0,12.200000000000001,0.0,0,0,0,0.0,12.200000000000001,0.0,0,0,0,0.0,12.25,0.0,0,0,0,kReverse,kOff,-86.77,2.33,2.29,0.18255615,-1.2106323,0.16156006,29.61,0.0,130.0,-3.9658508,-5.6598663,
24.42058,true,true,true,0.125,12.200000000000001,0.0,0,0,0,0.125,12.200000000000001,0.0,0,0,0,0.125,12.200000000000001,0.0,0,0,0,0.0,12.200000000000001,0.0,0,0,0,0.0,12.200000000000001,0.0,0,0,0,0.0,12.200000000000001,0.0,0,0,0,0.0,12.25,0.0,0,0,0,kReverse,kOff,-86.81,2.34,2.3,0.028442383,-1.0007324,0.57562256,29.61,0.0,-23.0,-3.9659424,-5.658371,
24.446181,true,true,true,0.125,12.200000000000001,0.0,0,0,0,0.125,12.200000000000001,0.0,0,0,0,0.125,12.200000000000001,0.0,0,0,0,0.0,12.200000000000001,0.0,0,0,0,0.0,12.200000000000001,0.0,0,0,0,0.0,12.200000000000001,0.0,0,0,0,0.125,12.25,0.0,0,0,0,kReverse,kOff,-86.84,2.3,2.26,0.036743164,-1.1242676,0.5596924,29.61,0.0,-18.0,-3.9661407,-5.6539,
24.474513,true,true,true,0.125,12.200000000000001,0.0,0,0,0,0.125,12.200000000000001,0.0,0,0,0,0.125,12.200000000000001,0.0,0,0,0,0.125,12.200000000000001,0.0,0,0,0,0.0,12.200000000000001,0.0,0,0,0,0.0,12.200000000000001,0.0,0,0,0,0.125,12.25,0.0,0,0,0,kReverse,kOff,-86.79,2.36,2.32,-0.049072266,-0.8069458,-0.013671875,29.61,0.0,-81.0,-3.966217,-5.647476,
24.506553,true,true,true,0.125,12.200000000000001,0.0,0,0,0,0.125,12.200000000000001,0.0,0,0,0,0.125,12.200000000000001,0.0,0,0,0,0.125,12.200000000000001,0.0,0,0,0,0.0,12.200000000000001,0.0,0,0,0,0.0,12.200000000000001,0.0,0,0,0,0.125,12.25,0.0,0,0,0,kReverse,kOff,-86.73,2.35,2.31,-0.19659424,-0.6999512,-0.50128174,29.61,0.0,-215.0,-3.9669952,-5.6420135,
24.528972000000003,true,true,true,0.125,12.200000000000001,0.0,0,0,0,0.125,12.200000000000001,0.0,0,0,0,0.125,12.200000000000001,0.0,0,0,0,0.125,12.200000000000001,0.0,0,0,0,0.0,12.200000000000001,0.0,0,0,0,0.0,12.200000000000001,0.0,0,0,0,0.125,12.25,0.0,0,0,0,kReverse,kOff,-86.72,2.34,2.3,-0.09899902,-0.8059082,-0.5343628,29.61,0.0,-121.0,-3.9677582,-5.64032,
24.552683000000002,true,true,true,0.125,12.200000000000001,0.0,0,0,0,0.125,12.200000000000001,0.0,0,0,0,0.125,12.200000000000001,0.0,0,0,0,0.125,12.200000000000001,0.0,0,0,0,0.0,12.200000000000001,0.0,0,0,0,0.0,12.200000000000001,0.0,0,0,0,0.0,12.25,0.0,0,0,0,kReverse,kOff,-86.72,2.36,2.32,0.09802246,-0.92315674,-0.21655273,29.61,0.0,64.0,-3.9694214,-5.6388855,
24.577576,true,true,true,0.125,12.200000000000001,0.0,0,0,0,0.125,12.200000000000001,0.0,0,0,0,0.125,12.200000000000001,0.0,0,0,0,0.125,12.200000000000001,0.0,0,0,0,0.0,12.200000000000001,0.0,0,0,0,0.0,12.200000000000001,0.0,0,0,0,0.0,12.25,0.0,0,0,0,kReverse,kOff,-86.71,2.33,2.28,0.16973877,-1.0818481,0.032409668,29.61,0.0,125.0,-3.9706879,-5.6384277,
24.606141,true,true,true,0.125,12.200000000000001,0.0,0,0,0,0.125,12.200000000000001,0.0,0,0,0,0.125,12.200000000000001,0.0,0,0,0,0.125,12.200000000000001,0.0,0,0,0,0.0,12.200000000000001,0.0,0,0,0,0.0,12.200000000000001,0.0,0,0,0,0.0,12.25,0.0,0,0,0,kReverse,kOff,-86.73,2.32,2.27,0.22125244,-1.2686768,0.12854004,29.61,0.0,167.0,-3.9711761,-5.6383667,
24.629257000000003,true,true,true,0.125,12.200000000000001,0.0,0,0,0,0.125,12.200000000000001,0.0,0,0,0,0.125,12.200000000000001,0.0,0,0,0,0.125,12.200000000000001,0.0,0,0,0,0.0,12.200000000000001,0.0,0,0,0,0.0,12.200000000000001,0.0,0,0,0,0.0,12.25,0.0,0,0,0,kReverse,kOff,-86.75,2.34,2.3,0.12530518,-1.1071777,0.28411865,29.61,0.0,74.0,-3.9711304,-5.638092,
24.658482,true,true,true,0.125,12.200000000000001,0.0,0,0,0,0.125,12.200000000000001,0.0,0,0,0,0.125,12.200000000000001,0.0,0,0,0,0.125,12.200000000000001,0.0,0,0,0,0.0,12.200000000000001,0.0,0,0,0,0.0,12.200000000000001,0.0,0,0,0,0.0,12.25,0.0,0,0,0,kReverse,kOff,-86.77,2.34,2.3,0.039123535,-0.97180176,0.49645996,29.61,0.0,-9.0,-3.9710388,-5.637329,
24.686297000000003,true,true,true,0.125,12.200000000000001,0.0,0,0,0,0.125,12.200000000000001,0.0,0,0,0,0.125,12.200000000000001,0.0,0,0,0,0.125,12.200000000000001,0.0,0,0,0,0.0,12.200000000000001,0.0,0,0,0,0.0,12.200000000000001,0.0,0,0,0,0.0,12.25,0.0,0,0,0,kReverse,kOff,-86.82,2.3,2.26,0.030822754,-1.1283569,0.6021118,29.63,0.0,-25.0,-3.9709625,-5.633606,
24.710815000000004,true,true,true,0.125,12.200000000000001,0.0,0,0,0,0.125,12.200000000000001,0.0,0,0,0,0.125,12.200000000000001,0.0,0,0,0,0.125,12.200000000000001,0.0,0,0,0,0.0,12.200000000000001,0.0,0,0,0,0.0,12.200000000000001,0.0,0,0,0,0.125,12.25,0.0,0,0,0,kReverse,kOff,-86.77,2.36,2.32,-0.015014648,-0.8684082,0.08654785,29.63,0.0,-51.0,-3.9710236,-5.627594,
24.740594,true,true,true,0.125,12.200000000000001,0.0,0,0,0,0.125,12.200000000000001,0.0,0,0,0,0.125,12.200000000000001,0.0,0,0,0,0.0,12.200000000000001,0.0,0,0,0,0.0,12.200000000000001,0.0,0,0,0,0.0,12.200000000000001,0.0,0,0,0,0.0,12.25,0.0,0,0,0,kReverse,kOff,-86.72,2.34,2.3,-0.12200928,-0.78125,-0.54382324,29.63,0.0,-142.0,-3.9723816,-5.6203766,
24.767613,true,true,true,0.125,12.200000000000001,0.0,0,0,0,0.125,12.200000000000001,0.0,0,0,0,0.125,12.200000000000001,0.0,0,0,0,0.0,12.200000000000001,0.0,0,0,0,0.0,12.200000000000001,0.0,0,0,0,0.0,12.200000000000001,0.0,0,0,0,0.0,12.25,0.0,0,0,0,kReverse,kOff,-86.72,2.34,2.3,0.005126953,-0.85424805,-0.46728516,29.63,0.0,-20.0,-3.9731903,-5.6193695,
24.793476000000002,true,true,true,0.125,12.200000000000001,0.0,0,0,0,0.125,12.200000000000001,0.0,0,0,0,0.125,12.200000000000001,0.0,0,0,0,0.125,12.200000000000001,0.0,0,0,0,0.0,12.200000000000001,0.0,0,0,0,0.0,12.200000000000001,0.0,0,0,0,0.0,12.25,0.0,0,0,0,kReverse,kOff,-86.71,2.35,2.31,0.12231445,-0.98461914,-0.081726074,29.63,0.0,84.0,-3.9746552,-5.6187286,
24.819716,true,true,true,0.125,12.200000000000001,0.0,0,0,0,0.125,12.200000000000001,0.0,0,0,0,0.125,12.200000000000001,0.0,0,0,0,0.125,12.200000000000001,0.0,0,0,0,0.0,12.200000000000001,0.0,0,0,0,0.0,12.200000000000001,0.0,0,0,0,0.0,12.25,0.0,0,0,0,kReverse,kOff,-86.72,2.32,2.27,0.17694092,-1.1230469,0.013793945,29.63,0.0,131.0,-3.9751892,-5.618637,
24.845853,true,true,true,0.125,12.200000000000001,0.0,0,0,0,0.125,12.200000000000001,0.0,0,0,0,0.125,12.200000000000001,0.0,0,0,0,0.125,12.200000000000001,0.0,0,0,0,0.0,12.200000000000001,0.0,0,0,0,0.0,12.200000000000001,0.0,0,0,0,0.0,12.25,0.0,0,0,0,kReverse,kOff,-86.77,2.33,2.29,0.11853027,-1.097229,0.30090332,29.63,0.0,68.0,-3.9755096,-5.6180725,
