timer,lineLeft,lineCenter,lineRight,LeftFrontCurrent,LeftFrontVoltage,LeftFrontValue,LeftFrontPosition,LeftFrontVelocity,LeftFrontFaults,LeftRearCurrent,LeftRearVoltage,LeftRearValue,LeftRearPosition,LeftRearVelocity,LeftRearFaults,RightFrontCurrent,RightFrontVoltage,RightFrontValue,RightFrontPosition,RightFrontVelocity,RightFrontFaults,RightRearCurrent,RightRearVoltage,RightRearValue,RightRearPosition,RightRearVelocity,RightRearFaults,LiftCurrent,LiftVoltage,LiftValue,LiftPosition,LiftVelocity,LiftFaults,WristCurrent,WristVoltage,WristValue,WristPosition,WristVelocity,WristFaults,RollerCurrent,RollerVoltage,RollerValue,RollerPosition,RollerVelocity,RollerFaults,PushersState,PivotsState,navx_Pitch,navx_Roll,navx_Yaw,navx_XAcc,navx_YAcc,navx_ZAcc,navx_Temp,navx_Bar,navx_Alt,navx_XDis,navx_YDis,
18.279062000000003,true,true,true,0.125,12.65,0.0,-12504,0,0,0.125,12.65,0.0,0,0,0,0.125,12.6,0.0,-22382,0,0,0.125,12.65,0.0,0,0,0,0.125,12.65,0.0,2,0,0,0.0,12.65,0.0,0,0,0,0.125,12.700000000000001,0.0,0,0,0,kReverse,kOff,-86.7,1.99,-19.29,0.0357666,-0.98095703,0.046813965,33.32,0.0,-1.0,-1.8053436,-2.6984558,
18.362423000000003,true,true,true,0.125,12.65,0.0,-12504,0,0,0.125,12.65,0.0,0,0,0,0.125,12.6,0.0,-22382,0,0,0.125,12.65,0.0,0,0,0,0.125,12.65,0.0,2,0,0,0.0,12.65,0.0,0,0,0,0.125,12.700000000000001,0.0,0,0,0,kReverse,kOff,-86.7,1.99,-19.29,0.034301758,-0.9819946,0.044799805,33.32,0.0,0.0,-1.8053436,-2.6984558,
18.400273000000002,true,true,true,0.125,12.65,0.0,-12504,0,0,0.125,12.65,0.0,0,0,0,0.125,12.65,0.0,-22382,0,0,0.125,12.65,0.0,0,0,0,0.0,12.65,0.0,2,0,0,0.0,12.65,0.0,0,0,0,0.125,12.700000000000001,0.0,0,0,0,kReverse,kOff,-86.71,1.99,-19.24,0.03515625,-0.9841919,0.043518066,33.32,0.0,1.0,-1.8053436,-2.6984558,
18.442012000000002,true,true,true,0.125,12.65,0.0,-12504,0,0,0.125,12.65,0.0,0,0,0,0.125,12.65,0.0,-22382,0,0,0.125,12.65,0.0,0,0,0,0.0,12.65,0.0,2,0,0,0.0,12.65,0.0,0,0,0,0.125,12.700000000000001,0.0,0,0,0,kReverse,kOff,-86.71,1.99,-19.21,0.035217285,-0.98516846,0.04473877,33.32,0.0,0.0,-1.8053436,-2.6984558,
18.485813,true,true,true,0.125,12.65,0.0,-12504,0,0,0.125,12.65,0.0,0,0,0,0.125,12.65,0.0,-22382,0,0,0.125,12.65,0.0,0,0,0,0.125,12.65,0.0,2,0,0,0.0,12.65,0.0,0,0,0,0.125,12.700000000000001,0.0,0,0,0,kReverse,kOff,-86.71,1.99,-19.21,0.035827637,-0.9835205,0.046020508,33.32,0.0,0.0,-1.8053436,-2.6984558,
18.526965,true,true,true,0.125,12.65,0.0,-12504,0,0,0.125,12.65,0.0,0,0,0,0.125,12.65,0.0,-22382,0,0,0.125,12.65,0.0,0,0,0,0.125,12.65,0.0,2,0,0,0.0,12.65,0.0,0,0,0,0.125,12.700000000000001,0.0,0,0,0,kReverse,kOff,-86.71,1.99,-19.24,0.036376953,-0.986145,0.041503906,33.32,0.0,3.0,-1.8053436,-2.6984558,
18.579098000000002,true,true,true,0.125,12.65,0.0,-12504,0,0,0.125,12.65,0.0,0,0,0,0.125,12.6,0.0,-22382,0,0,0.125,12.65,0.0,0,0,0,0.125,12.65,0.0,2,0,0,0.0,12.65,0.0,0,0,0,0.125,12.700000000000001,0.0,0,0,0,kReverse,kOff,-86.71,1.99,-19.21,0.033691406,-0.9838867,0.04559326,33.32,0.0,0.0,-1.8053436,-2.6984558,
18.618811,true,true,true,0.125,12.65,0.0,-12504,0,0,0.125,12.65,0.0,0,0,0,0.125,12.6,0.0,-22382,0,0,0.125,12.65,0.0,0,0,0,0.125,12.65,0.0,2,0,0,0.0,12.65,0.0,0,0,0,0.125,12.700000000000001,0.0,0,0,0,kReverse,kOff,-86.71,1.99,-19.21,0.03479004,-0.98358154,0.044006348,33.32,0.0,0.0,-1.8053436,-2.6984558,
18.658604999999998,true,true,true,0.125,12.65,0.0,-12504,0,0,0.125,12.65,0.0,0,0,0,0.125,12.6,0.0,-22382,0,0,0.125,12.65,0.0,0,0,0,0.125,12.65,0.0,2,0,0,0.0,12.65,0.0,0,0,0,0.125,12.700000000000001,0.0,0,0,0,kReverse,kOff,-86.71,1.99,-19.21,0.034362793,-0.9824219,0.050720215,33.32,0.0,-5.0,-1.8053436,-2.6984558,
18.699307,true,true,true,0.125,12.65,0.0,-12504,0,0,0.125,12.65,0.0,0,0,0,0.125,12.65,0.0,-22382,0,0,0.125,12.65,0.0,0,0,0,0.125,12.65,0.0,2,0,0,0.0,12.65,0.0,0,0,0,0.125,12.700000000000001,0.0,0,0,0,kReverse,kOff,-86.71,1.99,-19.21,0.03552246,-0.98327637,0.046813965,33.32,0.0,-1.0,-1.8053436,-2.6984558,
18.743112,true,true,true,0.125,12.65,0.0,-12504,0,0,0.125,12.65,0.0,0,0,0,0.125,12.65,0.0,-22382,0,0,0.125,12.65,0.0,0,0,0,0.125,12.65,0.0,2,0,0,0.0,12.65,0.0,0,0,0,0.125,12.700000000000001,0.0,0,0,0,kReverse,kOff,-86.71,1.99,-19.24,0.036315918,-0.9846802,0.047668457,33.32,0.0,-2.0,-1.8053436,-2.6984558,
18.793576,true,true,true,0.125,12.65,0.0,-12504,0,0,0.125,12.65,0.0,0,0,0,0.125,12.65,0.0,-22382,0,0,0.125,12.65,0.0,0,0,0,0.125,12.65,0.0,2,0,0,0.0,12.65,0.0,0,0,0,0.125,12.700000000000001,0.0,0,0,0,kReverse,kOff,-86.7,1.99,-19.29,0.034362793,-0.9859619,0.04168701,33.34,0.0,3.0,-1.8053436,-2.6984558,
18.862803,true,true,true,0.125,12.65,0.0,-12504,0,0,0.125,12.65,0.0,0,0,0,0.125,12.6,0.0,-22382,0,0,0.125,12.65,0.0,0,0,0,0.125,12.65,0.0,2,0,0,0.0,12.65,0.0,0,0,0,0.125,12.700000000000001,0.0,0,0,0,kReverse,kOff,-86.7,1.99,-19.26,0.034301758,-0.9869995,0.046936035,33.34,0.0,-1.0,-1.8053436,-2.6984558,
18.936867000000003,true,true,true,0.125,12.65,0.0,-12504,0,0,0.125,12.65,0.0,0,0,0,0.125,12.6,0.0,-22382,0,0,0.125,12.65,0.0,0,0,0,0.125,12.65,0.0,2,0,0,0.0,12.65,0.0,0,0,0,0.125,12.700000000000001,0.0,0,0,0,kReverse,kOff,-86.7,1.99,-19.28,0.033996582,-0.9845581,0.04260254,33.34,0.0,2.0,-1.8053436,-2.6984558,
18.962322,true,true,true,0.125,12.65,0.0,-12504,0,0,0.125,12.65,0.0,0,0,0,0.125,12.6,0.0,-22382,0,0,0.125,12.65,0.0,0,0,0,0.125,12.65,0.0,2,0,0,0.0,12.65,0.0,0,0,0,0.125,12.700000000000001,0.0,0,0,0,kReverse,kOff,-86.7,1.99,-19.26,0.035217285,-0.98132324,0.047973633,33.34,0.0,-3.0,-1.8053436,-2.6984558,
19.000915,true,true,true,0.125,12.65,0.0,-12504,0,0,0.125,12.65,0.0,0,0,0,0.125,12.6,0.0,-22382,0,0,0.125,12.65,0.0,0,0,0,0.125,12.65,0.0,2,0,0,0.0,12.65,0.0,0,0,0,0.125,12.700000000000001,0.0,0,0,0,kReverse,kOff,-86.7,1.99,-19.29,0.035949707,-0.98150635,0.041015625,33.34,0.0,4.0,-1.8053436,-2.6984558,
19.033986000000002,true,true,true,0.125,12.6,0.0,-12504,0,0,0.125,12.6,0.0,0,0,0,0.5,12.6,0.0,-22377,1,0,0.375,12.65,0.0,0,0,0,0.125,12.6,0.0,2,0,0,0.0,12.6,0.0,0,0,0,0.125,12.65,0.0,0,0,0,kReverse,kOff,-86.71,1.98,-19.27,0.07232666,-0.98065186,0.13531494,33.34,0.0,-114.0,-1.805603,-2.6982574,
19.06754,true,true,true,4.5,12.6,0.0,-12484,4,0,4.5,12.6,0.0,0,0,0,4.25,12.6,0.0,-22365,4,0,2.625,12.65,0.0,0,0,0,0.125,12.6,0.0,2,0,0,0.0,12.6,0.0,0,0,0,0.125,12.65,0.0,0,0,0,kReverse,kOff,-86.48,2.06,-20.95,-0.5633545,-0.37506104,0.1381836,33.34,0.0,-186.0,-1.805191,-2.6978455,
19.104841,true,true,true,22.0,12.6,0.0,-12453,24,0,18.625,12.6,0.0,0,0,0,23.875,12.6,0.0,-22326,27,0,16.25,12.65,0.0,0,0,0,0.0,12.6,0.0,2,0,0,0.0,12.6,0.0,0,0,0,0.125,12.65,0.0,0,0,0,kReverse,kOff,-84.84,2.07,-34.81,0.31671143,-1.1119385,1.0175781,33.34,0.0,-886.0,-1.8068848,-2.6976318,
19.138534,true,true,true,30.25,12.6,0.0,-12422,41,0,36.375,12.6,0.0,0,0,0,44.875,12.6,0.0,-22269,67,0,34.5,12.65,0.0,0,0,0,0.0,12.6,0.0,2,0,0,0.0,12.6,0.0,0,0,0,0.125,12.65,0.0,0,0,0,kReverse,kOff,-83.23,2.34,-43.4,0.5507202,-1.0406494,1.4055176,33.34,0.0,-1181.0,-1.8174896,-2.6946259,
19.172152,true,true,true,37.75,12.6,0.0,-12352,93,0,40.75,12.6,0.0,0,0,0,44.5,12.6,0.0,-22237,91,0,40.375,12.65,0.0,0,0,0,0.0,8.4,0.0,2,0,0,0.0,8.350000000000001,0.0,0,0,0,0.125,8.4,0.0,0,0,0,kReverse,kOff,-79.84,2.39,-54.01,-0.111816406,-0.62835693,1.4364014,33.34,0.0,-1315.0,-1.8314209,-2.6909943,
19.208085,true,true,true,37.375,8.0,0.0,-12277,144,0,42.125,7.95,0.0,0,0,0,43.125,8.0,0.0,-22162,133,0,40.5,8.100000000000001,0.0,0,0,0,0.0,8.4,0.0,2,0,0,0.0,8.350000000000001,0.0,0,0,0,0.125,8.4,0.0,0,0,0,kReverse,kOff,-79.2,2.38,-56.72,0.1638794,-0.85754395,0.34179688,33.34,0.0,-163.0,-1.8503265,-2.6869965,
19.254099000000004,true,true,true,26.5,8.0,0.0,-12194,180,0,32.625,7.95,0.0,0,0,0,18.625,8.0,0.0,-22039,183,0,22.0,8.100000000000001,0.0,0,0,0,0.125,8.4,0.0,2,0,0,0.0,8.350000000000001,0.0,0,0,0,0.125,8.4,0.0,0,0,0,kReverse,kOff,-78.79,2.27,-58.15,0.0072021484,-0.892334,0.5987549,33.34,0.0,-418.0,-1.8823395,-2.6801147,
19.304835999999998,true,true,true,3.375,8.0,0.0,-12088,196,0,4.5,7.95,0.0,0,0,0,4.625,8.0,0.0,-21975,196,0,5.875,8.100000000000001,0.0,0,0,0,0.125,8.4,0.0,2,0,0,0.0,8.350000000000001,0.0,0,0,0,0.125,8.4,0.0,0,0,0,kReverse,kOff,-80.41,2.15,-53.47,-0.029968262,-0.80163574,-0.6577759,33.31,0.0,971.0,-1.9279022,-2.6711578,
19.37254,true,true,true,0.125,12.35,0.0,-11990,172,0,0.125,12.35,0.0,0,0,0,0.125,12.35,0.0,-21871,147,0,0.0,12.35,0.0,0,0,0,0.125,12.35,0.0,2,0,0,0.0,12.35,0.0,0,0,0,0.125,12.4,0.0,0,0,0,kReverse,kOff,-84.31,2.39,-40.54,-0.10546875,-0.5194702,-0.8154297,33.31,0.0,842.0,-1.965271,-2.6632233,
19.417887000000004,true,true,true,0.125,12.35,0.0,-11915,165,0,0.125,12.35,0.0,0,0,0,0.125,12.35,0.0,-21817,132,0,0.0,12.35,0.0,0,0,0,0.125,12.35,0.0,2,0,0,0.0,12.35,0.0,0,0,0,0.125,12.4,0.0,0,0,0,kReverse,kOff,-84.46,2.34,-45.23,-0.041137695,-1.302124,0.15539551,33.31,0.0,-48.0,-1.9768829,-2.662033,
19.470511000000002,true,true,true,0.125,12.35,0.0,-11787,189,0,0.125,12.35,0.0,0,0,0,0.125,12.35,0.0,-21751,139,0,0.0,12.35,0.0,0,0,0,0.125,12.35,0.0,2,0,0,0.0,12.35,0.0,0,0,0,0.125,12.4,0.0,0,0,0,kReverse,kOff,-83.89,1.93,-53.96,-0.25726318,-0.7207031,-0.034606934,33.31,0.0,86.0,-1.9942017,-2.6624146,
19.511459000000002,true,true,true,0.125,12.450000000000001,0.0,-11705,204,0,0.125,12.450000000000001,0.0,0,0,0,0.125,12.4,0.0,-21697,146,0,0.0,12.450000000000001,0.0,0,0,0,0.125,12.450000000000001,0.0,2,0,0,0.0,12.450000000000001,0.0,0,0,0,0.125,12.5,0.0,0,0,0,kReverse,kOff,-83.95,1.88,-60.47,-0.096069336,-0.9767456,-0.03930664,33.31,0.0,129.0,-2.0016632,-2.6641998,
19.541578,true,true,true,0.125,12.450000000000001,0.0,-11634,207,0,0.125,12.450000000000001,0.0,0,0,0,0.125,12.4,0.0,-21649,146,0,0.0,12.450000000000001,0.0,0,0,0,0.125,12.450000000000001,0.0,2,0,0,0.0,12.450000000000001,0.0,0,0,0,0.125,12.5,0.0,0,0,0,kReverse,kOff,-84.32,1.89,-67.04,-0.14880371,-1.1939087,0.16131592,33.31,0.0,-56.0,-2.008484,-2.666397,
19.573896,true,true,true,0.125,12.450000000000001,0.0,-11602,201,0,0.125,12.450000000000001,0.0,0,0,0,0.125,12.4,0.0,-21628,139,0,0.0,12.450000000000001,0.0,0,0,0,0.125,12.450000000000001,0.0,2,0,0,0.0,12.450000000000001,0.0,0,0,0,0.125,12.5,0.0,0,0,0,kReverse,kOff,-84.51,1.87,-70.62,0.08843994,-0.90893555,0.13616943,33.31,0.0,-52.0,-2.0119476,-2.6676483,
19.590033,true,true,true,0.125,12.450000000000001,0.0,-11572,192,0,0.125,12.450000000000001,0.0,0,0,0,0.125,12.4,0.0,-21608,129,0,0.0,12.450000000000001,0.0,0,0,0,0.125,12.450000000000001,0.0,2,0,0,0.0,12.450000000000001,0.0,0,0,0,0.125,12.5,0.0,0,0,0,kReverse,kOff,-84.66,2.1,-77.54,0.10369873,-1.0213013,-0.112854004,33.31,0.0,200.0,-2.0185242,-2.669632,
19.62318,true,true,true,0.125,12.450000000000001,0.0,-11511,169,0,0.125,12.450000000000001,0.0,0,0,0,0.125,12.4,0.0,-21571,112,0,0.125,12.450000000000001,0.0,0,0,0,0.125,12.450000000000001,0.0,2,0,0,0.0,12.450000000000001,0.0,0,0,0,0.125,12.5,0.0,0,0,0,kReverse,kOff,-85.16,2.06,-87.23,-0.058288574,-0.8274536,-0.43920898,33.31,0.0,500.0,-2.0233154,-2.671692,
19.654543,true,true,true,0.125,12.450000000000001,0.0,-11482,160,0,0.125,12.450000000000001,0.0,0,0,0,0.125,12.4,0.0,-21537,98,0,0.125,12.5,0.0,0,0,0,0.125,12.450000000000001,0.0,2,0,0,0.0,12.450000000000001,0.0,0,0,0,0.125,12.55,0.0,0,0,0,kReverse,kOff,-85.41,2.01,-107.09,0.061157227,-0.8979492,0.01586914,33.31,0.0,45.0,-2.0276794,-2.6755981,
19.685213,true,true,true,0.125,12.450000000000001,0.0,-11425,151,0,0.125,12.450000000000001,0.0,0,0,0,0.125,12.450000000000001,0.0,-21521,93,0,0.125,12.5,0.0,0,0,0,0.125,12.450000000000001,0.0,2,0,0,0.0,12.450000000000001,0.0,0,0,0,0.125,12.55,0.0,0,0,0,kReverse,kOff,-85.58,1.95,-112.72,-0.01184082,-0.98742676,-0.095336914,33.31,0.0,164.0,-2.0288086,-2.6769867,
19.710626,true,true,true,0.125,12.450000000000001,0.0,-11399,148,0,0.125,12.450000000000001,0.0,0,0,0,0.125,12.450000000000001,0.0,-21507,89,0,0.125,12.5,0.0,0,0,0,0.125,12.450000000000001,0.0,2,0,0,0.0,12.450000000000001,0.0,0,0,0,0.125,12.55,0.0,0,0,0,kReverse,kOff,-85.72,1.9,-123.18,-0.0513916,-1.0962524,-0.22686768,33.31,0.0,303.0,-2.0298615,-2.6802826,
19.744378,true,true,true,0.125,12.450000000000001,0.0,-11349,140,0,0.125,12.450000000000001,0.0,0,0,0,0.125,12.450000000000001,0.0,-21482,80,0,0.125,12.5,0.0,0,0,0,0.125,12.450000000000001,0.0,2,0,0,0.0,12.450000000000001,0.0,0,0,0,0.125,12.55,0.0,0,0,0,kReverse,kOff,-85.85,1.98,-132.47,0.09851074,-1.0101929,-0.013061523,33.31,0.0,73.0,-2.0298004,-2.6836395,
19.772899000000002,true,true,true,0.125,12.450000000000001,0.0,-11326,135,0,0.125,12.450000000000001,0.0,0,0,0,0.125,12.450000000000001,0.0,-21460,69,0,0.125,12.5,0.0,0,0,0,0.125,12.450000000000001,0.0,2,0,0,0.0,12.450000000000001,0.0,0,0,0,0.125,12.55,0.0,0,0,0,kReverse,kOff,-85.99,2.06,-140.64,0.070251465,-0.89764404,-0.019470215,33.31,0.0,70.0,-2.0292664,-2.686737,
19.805421000000003,true,true,true,0.125,12.450000000000001,0.0,-11282,125,0,0.125,12.450000000000001,0.0,0,0,0,0.125,12.450000000000001,0.0,-21451,64,0,0.125,12.5,0.0,0,0,0,0.125,12.450000000000001,0.0,2,0,0,0.0,12.450000000000001,0.0,0,0,0,0.125,12.55,0.0,0,0,0,kReverse,kOff,-86.21,2.08,-147.7,-0.0018310547,-0.97052,-0.003540039,33.31,0.0,60.0,-2.0284271,-2.689743,
19.833981,true,true,true,0.125,12.5,0.0,-11260,120,0,0.125,12.5,0.0,0,0,0,0.125,12.450000000000001,0.0,-21432,54,0,0.125,12.5,0.0,0,0,0,0.125,12.5,0.0,2,0,0,0.0,12.5,0.0,0,0,0,0.125,12.55,0.0,0,0,0,kReverse,kOff,-86.51,2.08,-153.94,0.092285156,-0.9359131,-0.20422363,33.27,0.0,241.0,-2.0254364,-2.6940155,
19.865288,true,true,true,0.125,12.5,0.0,-11220,111,0,0.125,12.5,0.0,0,0,0,0.125,12.450000000000001,0.0,-21421,51,0,0.125,12.5,0.0,0,0,0,0.125,12.5,0.0,2,0,0,0.0,12.5,0.0,0,0,0,0.125,12.55,0.0,0,0,0,kReverse,kOff,-86.71,2.15,-158.19,-0.025634766,-1.0326538,-0.12042236,33.27,0.0,171.0,-2.0238495,-2.6952972,
19.892422000000003,true,true,true,0.125,12.5,0.0,-11202,107,0,0.125,12.5,0.0,0,0,0,0.125,12.450000000000001,0.0,-21411,49,0,0.125,12.5,0.0,0,0,0,0.125,12.5,0.0,2,0,0,0.0,12.5,0.0,0,0,0,0.125,12.55,0.0,0,0,0,kReverse,kOff,-86.76,1.96,-159.04,-0.058410645,-1.0031738,0.037719727,33.27,0.0,19.0,-2.0221558,-2.6983032,
19.922712,true,true,true,0.125,12.5,0.0,-11169,99,0,0.125,12.5,0.0,0,0,0,0.125,12.450000000000001,0.0,-21393,49,0,0.125,12.5,0.0,0,0,0,0.125,12.5,0.0,2,0,0,0.0,12.5,0.0,0,0,0,0.125,12.55,0.0,0,0,0,kReverse,kOff,-86.81,1.9,-160.6,0.051818848,-0.99102783,-0.112976074,33.27,0.0,152.0,-2.021286,-2.703247,
19.955714,true,true,true,0.125,12.5,0.0,-11153,94,0,0.125,12.5,0.0,0,0,0,0.125,12.450000000000001,0.0,-21380,46,0,0.125,12.5,0.0,0,0,0,0.125,12.5,0.0,2,0,0,0.0,12.5,0.0,0,0,0,0.125,12.55,0.0,0,0,0,kReverse,kOff,-86.74,1.94,-161.44,0.027893066,-0.949646,-0.06652832,33.27,0.0,109.0,-2.02063,-2.7048645,
19.985393,true,true,true,0.125,12.5,0.0,-11122,85,0,0.125,12.55,0.0,0,0,0,0.125,12.5,0.0,-21374,43,0,0.125,12.55,0.0,0,0,0,0.125,12.5,0.0,2,0,0,0.0,12.5,0.0,0,0,0,0.125,12.6,0.0,0,0,0,kReverse,kOff,-86.8,1.98,-163.13,0.12365723,-0.98828125,0.008361816,33.27,0.0,20.0,-2.0189514,-2.7078857,
20.012132,true,true,true,0.125,12.5,0.0,-11109,81,0,0.125,12.55,0.0,0,0,0,0.125,12.5,0.0,-21365,35,0,0.125,12.55,0.0,0,0,0,0.125,12.5,0.0,2,0,0,0.0,12.5,0.0,0,0,0,0.125,12.6,0.0,0,0,0,kReverse,kOff,-86.95,2.01,-165.47,0.08343506,-0.9074707,-0.10406494,33.27,0.0,128.0,-2.015915,-2.7092133,
20.057811,true,true,true,0.125,12.5,0.0,-11087,74,0,0.125,12.55,0.0,0,0,0,0.125,12.5,0.0,-21357,27,0,0.125,12.55,0.0,0,0,0,0.125,12.5,0.0,2,0,0,0.0,12.5,0.0,0,0,0,0.125,12.6,0.0,0,0,0,kReverse,kOff,-87.17,2.03,-167.89,0.025878906,-0.98413086,-0.049316406,33.27,0.0,83.0,-2.011734,-2.7087708,
20.091486,true,true,true,0.125,12.5,0.0,-11068,63,0,0.125,12.55,0.0,0,0,0,0.125,12.5,0.0,-21354,24,0,0.125,12.55,0.0,0,0,0,0.125,12.5,0.0,2,0,0,0.0,12.5,0.0,0,0,0,0.125,12.6,0.0,0,0,0,kReverse,kOff,-87.23,2.02,-168.53,0.03729248,-1.0059204,-0.03704834,33.27,0.0,68.0,-2.0101166,-2.7085724,
20.120997,true,true,true,0.125,12.5,0.0,-11050,52,0,0.125,12.55,0.0,0,0,0,0.125,12.5,0.0,-21349,18,0,0.125,12.55,0.0,0,0,0,0.125,12.5,0.0,2,0,0,0.0,12.5,0.0,0,0,0,0.125,12.6,0.0,0,0,0,kReverse,kOff,-87.38,2.02,-170.2,0.0012817383,-0.9824829,-0.07183838,33.27,0.0,104.0,-2.0047302,-2.7077026,
20.156785,true,true,true,0.125,12.55,0.0,-11041,49,0,0.125,12.55,0.0,0,0,0,0.125,12.5,0.0,-21345,14,0,0.125,12.55,0.0,0,0,0,0.125,12.55,0.0,2,0,0,0.0,12.55,0.0,0,0,0,0.125,12.6,0.0,0,0,0,kReverse,kOff,-87.46,1.94,-170.71,-0.04675293,-1.0082397,-0.10418701,33.27,0.0,146.0,-2.000473,-2.7072449,
20.185945,true,true,true,0.125,12.55,0.0,-11025,45,0,0.125,12.55,0.0,0,0,0,0.125,12.5,0.0,-21343,12,0,0.125,12.55,0.0,0,0,0,0.125,12.55,0.0,2,0,0,0.0,12.55,0.0,0,0,0,0.125,12.6,0.0,0,0,0,kReverse,kOff,-87.49,1.89,-170.91,0.016540527,-0.9819946,-0.008483887,33.27,0.0,39.0,-1.9957123,-2.7069702,
20.214111,true,true,true,0.125,12.55,0.0,-11018,43,0,0.125,12.55,0.0,0,0,0,0.125,12.5,0.0,-21342,11,0,0.125,12.55,0.0,0,0,0,0.125,12.55,0.0,2,0,0,0.0,12.55,0.0,0,0,0,0.125,12.6,0.0,0,0,0,kReverse,kOff,-87.5,1.88,-171.09,0.030151367,-0.9859009,-0.04510498,33.27,0.0,71.0,-1.9932251,-2.706833,
20.230768,true,true,true,0.125,12.55,0.0,-11012,41,0,0.125,12.55,0.0,0,0,0,0.125,12.5,0.0,-21341,10,0,0.125,12.55,0.0,0,0,0,0.125,12.55,0.0,2,0,0,0.0,12.55,0.0,0,0,0,0.125,12.6,0.0,0,0,0,kReverse,kOff,-87.49,1.89,-171.22,0.070129395,-0.97161865,-0.06109619,33.27,0.0,77.0,-1.9880066,-2.7064667,
20.264002,true,true,true,0.125,12.55,0.0,-11004,35,0,0.125,12.55,0.0,0,0,0,0.125,12.5,0.0,-21340,7,0,0.125,12.55,0.0,0,0,0,0.125,12.55,0.0,2,0,0,0.0,12.55,0.0,0,0,0,0.125,12.6,0.0,0,0,0,kReverse,kOff,-87.49,1.99,-171.76,0.09869385,-0.9678955,-0.058654785,33.27,0.0,66.0,-1.9824371,-2.7056885,
20.288944,true,true,true,0.125,12.55,0.0,-11001,31,0,0.125,12.55,0.0,0,0,0,0.125,12.5,0.0,-21339,6,0,0.125,12.55,0.0,0,0,0,0.125,12.55,0.0,2,0,0,0.0,12.55,0.0,0,0,0,0.125,12.6,0.0,0,0,0,kReverse,kOff,-87.51,2.03,-172.14,0.023620605,-0.9970093,-0.074523926,33.27,0.0,99.0,-1.9766083,-2.7045746,
20.321867,true,true,true,0.125,12.55,0.0,-10999,21,0,0.125,12.55,0.0,0,0,0,0.125,12.55,0.0,-21339,3,0,0.125,12.55,0.0,0,0,0,0.125,12.55,0.0,2,0,0,0.0,12.55,0.0,0,0,0,0.125,12.6,0.0,0,0,0,kReverse,kOff,-87.58,2.01,-172.96,-0.012878418,-0.9848633,-0.06878662,33.26,0.0,98.0,-1.9671326,-2.70401,
20.361863,true,true,true,0.125,12.55,0.0,-10998,12,0,0.125,12.55,0.0,0,0,0,0.125,12.55,0.0,-21339,1,0,0.125,12.55,0.0,0,0,0,0.0,12.55,0.0,2,0,0,0.0,12.55,0.0,0,0,0,0.125,12.6,0.0,0,0,0,kReverse,kOff,-87.66,1.98,-173.06,0.04827881,-0.98883057,7.9345703E-4,33.26,0.0,16.0,-1.9604797,-2.7040863,
20.400511,true,true,true,0.125,12.55,0.0,-10998,4,0,0.125,12.55,0.0,0,0,0,0.125,12.55,0.0,-21339,0,0,0.125,12.55,0.0,0,0,0,0.0,12.55,0.0,2,0,0,0.0,12.55,0.0,0,0,0,0.125,12.6,0.0,0,0,0,kReverse,kOff,-87.64,1.99,-172.92,0.055603027,-0.98309326,0.03869629,33.26,0.0,-21.0,-1.9538116,-2.7040863,
20.428931000000002,true,true,true,0.125,12.55,0.0,-10998,2,0,0.125,12.55,0.0,0,0,0,0.125,12.55,0.0,-21339,0,0,0.125,12.55,0.0,0,0,0,0.0,12.55,0.0,2,0,0,0.0,12.55,0.0,0,0,0,0.125,12.6,0.0,0,0,0,kReverse,kOff,-87.62,2.0,-172.8,0.053649902,-0.9840698,0.036071777,33.26,0.0,-18.0,-1.9471741,-2.7040863,
20.45877,true,true,true,0.125,12.55,0.0,-10998,1,0,0.125,12.55,0.0,0,0,0,0.125,12.55,0.0,-21339,0,0,0.125,12.55,0.0,0,0,0,0.0,12.55,0.0,2,0,0,0.0,12.55,0.0,0,0,0,0.125,12.6,0.0,0,0,0,kReverse,kOff,-87.58,2.02,-172.63,0.0357666,-0.98339844,0.05505371,33.26,0.0,-31.0,-1.9406433,-2.7040863,
20.48874,true,true,true,0.125,12.55,0.0,-10998,0,0,0.125,12.55,0.0,0,0,0,0.125,12.55,0.0,-21339,0,0,0.125,12.55,0.0,0,0,0,0.0,12.55,0.0,2,0,0,0.0,12.55,0.0,0,0,0,0.125,12.6,0.0,0,0,0,kReverse,kOff,-87.55,2.03,-172.44,0.035339355,-0.9902954,0.04547119,33.26,0.0,-21.0,-1.9310913,-2.7040863,
20.52563,true,true,true,0.125,12.55,0.0,-10998,0,0,0.125,12.55,0.0,0,0,0,0.125,12.55,0.0,-21339,0,0,0.125,12.55,0.0,0,0,0,0.0,12.55,0.0,2,0,0,0.0,12.55,0.0,0,0,0,0.125,12.6,0.0,0,0,0,kReverse,kOff,-87.53,2.03,-172.29,0.036010742,-0.98913574,0.06060791,33.26,0.0,-35.0,-1.924881,-2.7040863,
20.559263,true,true,true,0.125,12.55,0.0,-10998,0,0,0.125,12.55,0.0,0,0,0,0.125,12.55,0.0,-21339,0,0,0.125,12.55,0.0,0,0,0,0.125,12.55,0.0,2,0,0,0.0,12.55,0.0,0,0,0,0.125,12.6,0.0,0,0,0,kReverse,kOff,-87.5,2.03,-172.07,0.032714844,-0.9840698,0.06530762,33.26,0.0,-38.0,-1.9188538,-2.7040863,
20.597452,true,true,true,0.125,12.55,0.0,-10998,0,0,0.125,12.55,0.0,0,0,0,0.125,12.55,0.0,-21339,0,0,0.125,12.55,0.0,0,0,0,0.125,12.55,0.0,2,0,0,0.0,12.55,0.0,0,0,0,0.125,12.6,0.0,0,0,0,kReverse,kOff,-87.45,2.02,-171.69,0.039123535,-0.97991943,0.06097412,33.26,0.0,-34.0,-1.9102478,-2.7040863,
20.626573,true,true,true,0.125,12.55,0.0,-10998,0,0,0.125,12.55,0.0,0,0,0,0.125,12.55,0.0,-21339,0,0,0.125,12.55,0.0,0,0,0,0.125,12.55,0.0,2,0,0,0.0,12.55,0.0,0,0,0,0.125,12.6,0.0,0,0,0,kReverse,kOff,-87.41,2.03,-171.45,0.039794922,-0.98065186,0.055908203,33.26,0.0,-28.0,-1.9047699,-2.7040863,
20.660199000000002,true,true,true,0.125,12.55,0.0,-10998,0,0,0.125,12.55,0.0,0,0,0,0.125,12.55,0.0,-21339,0,0,0.125,12.55,0.0,0,0,0,0.125,12.55,0.0,2,0,0,0.0,12.55,0.0,0,0,0,0.125,12.6,0.0,0,0,0,kReverse,kOff,-87.39,2.03,-171.31,0.047302246,-0.9805298,0.05999756,33.26,0.0,-34.0,-1.8994446,-2.7040863,
20.688251,true,true,true,0.125,12.55,0.0,-10998,0,0,0.125,12.55,0.0,0,0,0,0.125,12.55,0.0,-21339,0,0,0.125,12.55,0.0,0,0,0,0.0,12.55,0.0,2,0,0,0.0,12.55,0.0,0,0,0,0.125,12.6,0.0,0,0,0,kReverse,kOff,-87.37,2.04,-171.23,0.04473877,-0.9797363,0.04547119,33.26,0.0,-19.0,-1.8942719,-2.7040863,
20.720315000000003,true,true,true,0.125,12.55,0.0,-10998,0,0,0.125,12.55,0.0,0,0,0,0.125,12.55,0.0,-21339,0,0,0.125,12.55,0.0,0,0,0,0.0,12.55,0.0,2,0,0,0.0,12.55,0.0,0,0,0,0.125,12.6,0.0,0,0,0,kReverse,kOff,-87.36,2.05,-171.2,0.038085938,-0.98168945,0.044128418,33.26,0.0,-16.0,-1.8917389,-2.7040863,
20.745769,true,true,true,0.125,12.55,0.0,-10998,0,0,0.125,12.55,0.0,0,0,0,0.125,12.55,0.0,-21339,0,0,0.125,12.55,0.0,0,0,0,0.0,12.55,0.0,2,0,0,0.0,12.55,0.0,0,0,0,0.125,12.6,0.0,0,0,0,kReverse,kOff,-87.35,2.05,-171.12,0.034301758,-0.9840088,0.04058838,33.26,0.0,-11.0,-1.8917389,-2.7040863,
20.773655,true,true,true,0.125,12.55,0.0,-10998,0,0,0.125,12.55,0.0,0,0,0,0.125,12.55,0.0,-21339,0,0,0.125,12.6,0.0,0,0,0,0.0,12.55,0.0,2,0,0,0.0,12.55,0.0,0,0,0,0.125,12.6,0.0,0,0,0,kReverse,kOff,-87.34,2.04,-171.06,0.038269043,-0.982605,0.03338623,33.26,0.0,-5.0,-1.8917389,-2.7040863,
20.808027000000003,true,true,true,0.125,12.55,0.0,-10998,0,0,0.125,12.55,0.0,0,0,0,0.125,12.55,0.0,-21339,0,0,0.125,12.6,0.0,0,0,0,0.0,12.55,0.0,2,0,0,0.0,12.55,0.0,0,0,0,0.125,12.6,0.0,0,0,0,kReverse,kOff,-87.34,2.04,-171.05,0.041381836,-0.98547363,0.027893066,33.26,0.0,0.0,-1.8917389,-2.7040863,
20.83001,true,true,true,0.125,12.55,0.0,-10998,0,0,0.125,12.55,0.0,0,0,0,0.125,12.55,0.0,-21339,0,0,0.125,12.6,0.0,0,0,0,0.0,12.55,0.0,2,0,0,0.0,12.55,0.0,0,0,0,0.125,12.6,0.0,0,0,0,kReverse,kOff,-87.32,2.06,-171.02,0.042907715,-0.9815674,0.037475586,33.25,0.0,-9.0,-1.8917389,-2.7040863,
20.850116000000003,true,true,true,0.125,12.55,0.0,-10998,0,0,0.125,12.55,0.0,0,0,0,0.125,12.55,0.0,-21339,0,0,0.125,12.6,0.0,0,0,0,0.0,12.55,0.0,2,0,0,0.0,12.55,0.0,0,0,0,0.125,12.6,0.0,0,0,0,kReverse,kOff,-87.32,2.06,-171.01,0.040283203,-0.98168945,0.03869629,33.25,0.0,-10.0,-1.8917389,-2.7040863,
20.873762000000003,true,true,true,0.125,12.55,0.0,-10998,0,0,0.125,12.55,0.0,0,0,0,0.125,12.55,0.0,-21339,0,0,0.125,12.6,0.0,0,0,0,0.125,12.55,0.0,2,0,0,0.0,12.55,0.0,0,0,0,0.125,12.6,0.0,0,0,0,kReverse,kOff,-87.3,2.07,-170.92,0.037963867,-0.98498535,0.052734375,33.25,0.0,-23.0,-1.8917542,-2.7040863,
20.904119,true,true,true,0.125,12.55,0.0,-10998,0,0,0.125,12.55,0.0,0,0,0,0.125,12.55,0.0,-21339,0,0,0.125,12.6,0.0,0,0,0,0.125,12.55,0.0,2,0,0,0.0,12.55,0.0,0,0,0,0.125,12.6,0.0,0,0,0,kReverse,kOff,-87.29,2.07,-170.82,0.034729004,-0.98339844,0.051696777,33.25,0.0,-20.0,-1.8918915,-2.7040863,
20.929416,true,true,true,0.125,12.55,0.0,-10998,0,0,0.125,12.55,0.0,0,0,0,0.125,12.55,0.0,-21339,0,0,0.125,12.6,0.0,0,0,0,0.125,12.55,0.0,2,0,0,0.0,12.55,0.0,0,0,0,0.125,12.6,0.0,0,0,0,kReverse,kOff,-87.28,2.06,-170.75,0.03881836,-0.9836426,0.048828125,33.25,0.0,-18.0,-1.8919983,-2.7040863,
20.957093,true,true,true,0.125,12.55,0.0,-10998,0,0,0.125,12.55,0.0,0,0,0,0.125,12.55,0.0,-21339,0,0,0.125,12.55,0.0,0,0,0,0.125,12.55,0.0,2,0,0,0.0,12.55,0.0,0,0,0,0.125,12.6,0.0,0,0,0,kReverse,kOff,-87.26,2.07,-170.63,0.03894043,-0.9815674,0.04925537,33.25,0.0,-18.0,-1.8922882,-2.7040863,
20.984969,true,true,true,0.125,12.55,0.0,-10998,0,0,0.125,12.55,0.0,0,0,0,0.125,12.55,0.0,-21339,0,0,0.125,12.55,0.0,0,0,0,0.125,12.55,0.0,2,0,0,0.0,12.55,0.0,0,0,0,0.125,12.6,0.0,0,0,0,kReverse,kOff,-87.24,2.07,-170.54,0.03967285,-0.98205566,0.0501709,33.25,0.0,-19.0,-1.8924866,-2.7040863,
21.011304,true,true,true,0.125,12.55,0.0,-10998,0,0,0.125,12.55,0.0,0,0,0,0.125,12.55,0.0,-21339,0,0,0.125,12.55,0.0,0,0,0,0.0,12.55,0.0,2,0,0,0.0,12.55,0.0,0,0,0,0.125,12.6,0.0,0,0,0,kReverse,kOff,-87.22,2.07,-170.44,0.038024902,-0.9838257,0.042785645,33.25,0.0,-11.0,-1.8924866,-2.7040863,
21.040469,true,true,true,0.125,12.55,0.0,-10998,0,0,0.125,12.55,0.0,0,0,0,0.125,12.55,0.0,-21339,0,0,0.125,12.55,0.0,0,0,0,0.0,12.55,0.0,2,0,0,0.0,12.55,0.0,0,0,0,0.125,12.6,0.0,0,0,0,kReverse,kOff,-87.22,2.08,-170.41,0.03314209,-0.9835205,0.044677734,33.25,0.0,-12.0,-1.8924866,-2.7040863,
21.065249,true,true,true,0.125,12.55,0.0,-10998,0,0,0.125,12.55,0.0,0,0,0,0.125,12.55,0.0,-21339,0,0,0.125,12.55,0.0,0,0,0,0.0,12.55,0.0,2,0,0,0.0,12.55,0.0,0,0,0,0.125,12.6,0.0,0,0,0,kReverse,kOff,-87.2,2.08,-170.32,0.03479004,-0.9812622,0.045776367,33.25,0.0,-13.0,-1.8924866,-2.7040863,
21.087323,true,true,true,0.125,12.55,0.0,-10998,0,0,0.125,12.55,0.0,0,0,0,0.125,12.55,0.0,-21339,0,0,0.125,12.55,0.0,0,0,0,0.0,12.55,0.0,2,0,0,0.0,12.55,0.0,0,0,0,0.125,12.6,0.0,0,0,0,kReverse,kOff,-87.2,2.08,-170.29,0.037475586,-0.9816284,0.04663086,33.25,0.0,-14.0,-1.8924866,-2.7040863,
21.115422000000002,true,true,true,0.125,12.55,0.0,-10998,0,0,0.125,12.55,0.0,0,0,0,0.125,12.55,0.0,-21339,0,0,0.125,12.6,0.0,0,0,0,0.0,12.55,0.0,2,0,0,0.0,12.55,0.0,0,0,0,0.125,12.6,0.0,0,0,0,kReverse,kOff,-87.18,2.08,-170.21,0.038391113,-0.9834595,0.0390625,33.25,0.0,-7.0,-1.8924866,-2.7040863,
21.142273,true,true,true,0.125,12.55,0.0,-10998,0,0,0.125,12.55,0.0,0,0,0,0.125,12.55,0.0,-21339,0,0,0.125,12.6,0.0,0,0,0,0.125,12.55,0.0,2,0,0,0.0,12.55,0.0,0,0,0,0.125,12.6,0.0,0,0,0,kReverse,kOff,-87.18,2.08,-170.2,0.038269043,-0.9822998,0.04437256,33.25,0.0,-12.0,-1.8924866,-2.7040863,
21.165209,true,true,true,0.125,12.55,0.0,-10998,0,0,0.125,12.55,0.0,0,0,0,0.125,12.55,0.0,-21339,0,0,0.125,12.6,0.0,0,0,0,0.125,12.55,0.0,2,0,0,0.0,12.55,0.0,0,0,0,0.125,12.6,0.0,0,0,0,kReverse,kOff,-87.17,2.09,-170.14,0.038513184,-0.9848633,0.042785645,33.25,0.0,-10.0,-1.8924866,-2.7040863,
21.18723,true,true,true,0.125,12.55,0.0,-10998,0,0,0.125,12.55,0.0,0,0,0,0.125,12.55,0.0,-21339,0,0,0.125,12.6,0.0,0,0,0,0.125,12.55,0.0,2,0,0,0.0,12.55,0.0,0,0,0,0.125,12.6,0.0,0,0,0,kReverse,kOff,-87.16,2.09,-170.11,0.036743164,-0.98480225,0.04272461,33.25,0.0,-9.0,-1.8924866,-2.7040863,
21.213725000000004,true,true,true,0.125,12.55,0.0,-10998,0,0,0.125,12.55,0.0,0,0,0,0.125,12.55,0.0,-21339,0,0,0.125,12.6,0.0,0,0,0,0.125,12.55,0.0,2,0,0,0.0,12.55,0.0,0,0,0,0.125,12.6,0.0,0,0,0,kReverse,kOff,-87.15,2.09,-170.05,0.038513184,-0.98516846,0.045410156,33.25,0.0,-12.0,-1.8924866,-2.7040863,
21.2379,true,true,true,0.125,12.55,0.0,-10998,0,0,0.125,12.55,0.0,0,0,0,0.125,12.55,0.0,-21339,0,0,0.125,12.6,0.0,0,0,0,0.125,12.55,0.0,2,0,0,0.0,12.55,0.0,0,0,0,0.125,12.6,0.0,0,0,0,kReverse,kOff,-87.13,2.09,-169.93,0.037109375,-0.9840088,0.047058105,33.25,0.0,-13.0,-1.8924866,-2.7040863,
21.261527,true,true,true,0.125,12.55,0.0,-10998,0,0,0.125,12.55,0.0,0,0,0,0.125,12.55,0.0,-21339,0,0,0.125,12.6,0.0,0,0,0,0.125,12.55,0.0,2,0,0,0.0,12.55,0.0,0,0,0,0.125,12.6,0.0,0,0,0,kReverse,kOff,-87.13,2.09,-169.93,0.038513184,-0.9801636,0.045410156,33.25,0.0,-12.0,-1.8924866,-2.7040863,
21.286600000000004,true,true,true,0.125,12.55,0.0,-10998,0,0,0.125,12.55,0.0,0,0,0,0.125,12.55,0.0,-21339,0,0,0.125,12.6,0.0,0,0,0,0.125,12.55,0.0,2,0,0,0.0,12.55,0.0,0,0,0,0.125,12.6,0.0,0,0,0,kReverse,kOff,-87.12,2.09,-169.86,0.03729248,-0.98339844,0.048950195,33.25,0.0,-14.0,-1.8924866,-2.7040863,
21.311571,true,true,true,0.125,12.55,0.0,-10998,0,0,0.125,12.55,0.0,0,0,0,0.125,12.55,0.0,-21339,0,0,0.125,12.6,0.0,0,0,0,0.125,12.55,0.0,2,0,0,0.0,12.55,0.0,0,0,0,0.125,12.6,0.0,0,0,0,kReverse,kOff,-87.11,2.09,-169.81,0.040100098,-0.9819336,0.041748047,33.25,0.0,-8.0,-1.8924866,-2.7040863,
21.337289000000002,true,true,true,0.125,12.55,0.0,-10998,0,0,0.125,12.55,0.0,0,0,0,0.125,12.55,0.0,-21339,0,0,0.125,12.6,0.0,0,0,0,0.125,12.55,0.0,2,0,0,0.0,12.55,0.0,0,0,0,0.125,12.6,0.0,0,0,0,kReverse,kOff,-87.1,2.09,-169.77,0.038208008,-0.9840698,0.044067383,33.25,0.0,-10.0,-1.8924866,-2.7040863,
21.363585999999998,true,true,true,0.125,12.55,0.0,-10998,0,0,0.125,12.55,0.0,0,0,0,0.125,12.55,0.0,-21339,0,0,0.125,12.6,0.0,0,0,0,0.125,12.55,0.0,2,0,0,0.0,12.55,0.0,0,0,0,0.125,12.6,0.0,0,0,0,kReverse,kOff,-87.09,2.09,-169.72,0.03375244,-0.98223877,0.044677734,33.26,0.0,-9.0,-1.8924866,-2.7040863,
21.389385,true,true,true,0.125,12.55,0.0,-10998,0,0,0.125,12.55,0.0,0,0,0,0.125,12.55,0.0,-21339,0,0,0.125,12.6,0.0,0,0,0,0.125,12.55,0.0,2,0,0,0.0,12.55,0.0,0,0,0,0.125,12.6,0.0,0,0,0,kReverse,kOff,-87.08,2.09,-169.66,0.035949707,-0.98132324,0.041992188,33.26,0.0,-7.0,-1.8924866,-2.7040863,
21.416778,true,true,true,0.125,12.55,0.0,-10998,0,0,0.125,12.55,0.0,0,0,0,0.125,12.55,0.0,-21339,0,0,0.125,12.6,0.0,0,0,0,0.125,12.55,0.0,2,0,0,0.0,12.55,0.0,0,0,0,0.125,12.6,0.0,0,0,0,kReverse,kOff,-87.07,2.1,-169.61,0.03717041,-0.98132324,0.040283203,33.26,0.0,-5.0,-1.8924866,-2.7040863,
21.443496,true,true,true,0.125,12.55,0.0,-10998,0,0,0.125,12.55,0.0,0,0,0,0.125,12.55,0.0,-21339,0,0,0.125,12.6,0.0,0,0,0,0.125,12.55,0.0,2,0,0,0.0,12.55,0.0,0,0,0,0.125,12.6,0.0,0,0,0,kReverse,kOff,-87.07,2.09,-169.59,0.03753662,-0.98431396,0.04473877,33.26,0.0,-9.0,-1.8924866,-2.7040863,
21.46389,true,true,true,0.125,12.55,0.0,-10998,0,0,0.125,12.55,0.0,0,0,0,0.125,12.55,0.0,-21339,0,0,0.125,12.6,0.0,0,0,0,0.125,12.55,0.0,2,0,0,0.0,12.55,0.0,0,0,0,0.125,12.6,0.0,0,0,0,kReverse,kOff,-87.06,2.09,-169.53,0.03692627,-0.98187256,0.04486084,33.26,0.0,-9.0,-1.8924866,-2.7040863,
21.484355,true,true,true,0.125,12.55,0.0,-10998,0,0,0.125,12.55,0.0,0,0,0,0.125,12.55,0.0,-21339,0,0,0.125,12.6,0.0,0,0,0,0.0,12.55,0.0,2,0,0,0.0,12.55,0.0,0,0,0,0.125,12.6,0.0,0,0,0,kReverse,kOff,-87.05,2.1,-169.49,0.035888672,-0.9819946,0.040405273,33.26,0.0,-4.0,-1.8924866,-2.7040863,
21.501904000000003,true,true,true,0.125,12.55,0.0,-10998,0,0,0.125,12.55,0.0,0,0,0,0.125,12.55,0.0,-21339,0,0,0.125,12.6,0.0,0,0,0,0.0,12.55,0.0,2,0,0,0.0,12.55,0.0,0,0,0,0.125,12.6,0.0,0,0,0,kReverse,kOff,-87.05,2.1,-169.47,0.036193848,-0.98168945,0.04107666,33.26,0.0,-5.0,-1.8924866,-2.7040863,
21.527311,true,true,true,0.125,12.55,0.0,-10998,0,0,0.125,12.55,0.0,0,0,0,0.125,12.55,0.0,-21339,0,0,0.125,12.6,0.0,0,0,0,0.0,12.55,0.0,2,0,0,0.0,12.55,0.0,0,0,0,0.125,12.6,0.0,0,0,0,kReverse,kOff,-87.04,2.1,-169.43,0.03881836,-0.9815674,0.049682617,33.26,0.0,-14.0,-1.8924866,-2.7040863,
21.559377,true,true,true,0.125,12.55,0.0,-10998,0,0,0.125,12.55,0.0,0,0,0,0.125,12.55,0.0,-21339,0,0,0.125,12.6,0.0,0,0,0,0.125,12.55,0.0,2,0,0,0.0,12.55,0.0,0,0,0,0.125,12.6,0.0,0,0,0,kReverse,kOff,-87.03,2.1,-169.36,0.03894043,-0.98480225,0.039855957,33.26,0.0,-4.0,-1.8924866,-2.7040863,
21.596333,true,true,true,0.125,12.55,0.0,-10998,0,0,0.125,12.55,0.0,0,0,0,0.125,12.55,0.0,-21339,0,0,0.125,12.6,0.0,0,0,0,0.125,12.55,0.0,2,0,0,0.0,12.55,0.0,0,0,0,0.125,12.6,0.0,0,0,0,kReverse,kOff,-87.02,2.1,-169.31,0.039489746,-0.98358154,0.047180176,33.26,0.0,-11.0,-1.8924866,-2.7040863,
21.621809000000002,true,true,true,0.125,12.55,0.0,-10998,0,0,0.125,12.55,0.0,0,0,0,0.125,12.55,0.0,-21339,0,0,0.125,12.6,0.0,0,0,0,0.125,12.55,0.0,2,0,0,0.0,12.55,0.0,0,0,0,0.125,12.6,0.0,0,0,0,kReverse,kOff,-87.02,2.1,-169.3,0.038635254,-0.9824219,0.047180176,33.26,0.0,-11.0,-1.8924866,-2.7040863,
21.6459,true,true,true,0.125,12.55,0.0,-10998,0,0,0.125,12.55,0.0,0,0,0,0.125,12.55,0.0,-21339,0,0,0.125,12.6,0.0,0,0,0,0.125,12.55,0.0,2,0,0,0.0,12.55,0.0,0,0,0,0.125,12.6,0.0,0,0,0,kReverse,kOff,-87.01,2.1,-169.26,0.040039062,-0.980896,0.046020508,33.26,0.0,-10.0,-1.8924866,-2.7040863,
21.668178,true,true,true,0.125,12.55,0.0,-10998,0,0,0.125,12.55,0.0,0,0,0,0.125,12.55,0.0,-21339,0,0,0.125,12.6,0.0,0,0,0,0.125,12.55,0.0,2,0,0,0.0,12.55,0.0,0,0,0,0.125,12.6,0.0,0,0,0,kReverse,kOff,-87.0,2.1,-169.21,0.03729248,-0.9817505,0.042541504,33.26,0.0,-6.0,-1.8924866,-2.7040863,
21.694534,true,true,true,0.125,12.55,0.0,-10998,0,0,0.125,12.55,0.0,0,0,0,0.125,12.55,0.0,-21339,0,0,0.125,12.6,0.0,0,0,0,0.125,12.55,0.0,2,0,0,0.0,12.55,0.0,0,0,0,0.125,12.6,0.0,0,0,0,kReverse,kOff,-86.99,2.11,-169.18,0.03881836,-0.9833374,0.044433594,33.26,0.0,-8.0,-1.8924866,-2.7040863,
21.718888000000003,true,true,true,0.125,12.55,0.0,-10998,0,0,0.125,12.55,0.0,0,0,0,0.125,12.55,0.0,-21339,0,0,0.125,12.6,0.0,0,0,0,0.0,12.55,0.0,2,0,0,0.0,12.55,0.0,0,0,0,0.125,12.6,0.0,0,0,0,kReverse,kOff,-86.98,2.11,-169.12,0.03656006,-0.98272705,0.045410156,33.26,0.0,-8.0,-1.8924866,-2.7040863,
21.744134000000003,true,true,true,0.125,12.55,0.0,-10998,0,0,0.125,12.55,0.0,0,0,0,0.125,12.55,0.0,-21339,0,0,0.125,12.6,0.0,0,0,0,0.0,12.55,0.0,2,0,0,0.0,12.55,0.0,0,0,0,0.125,12.6,0.0,0,0,0,kReverse,kOff,-86.98,2.11,-169.11,0.037475586,-0.9845581,0.046447754,33.26,0.0,-9.0,-1.8924866,-2.7040863,
21.766405000000002,true,true,true,0.125,12.55,0.0,-10998,0,0,0.125,12.55,0.0,0,0,0,0.125,12.55,0.0,-21339,0,0,0.125,12.6,0.0,0,0,0,0.0,12.55,0.0,2,0,0,0.0,12.55,0.0,0,0,0,0.125,12.6,0.0,0,0,0,kReverse,kOff,-86.97,2.11,-169.06,0.03741455,-0.98339844,0.04449463,33.26,0.0,-7.0,-1.8924866,-2.7040863,
21.79147,true,true,true,0.125,12.55,0.0,-10998,0,0,0.125,12.55,0.0,0,0,0,0.125,12.55,0.0,-21339,0,0,0.125,12.6,0.0,0,0,0,0.0,12.55,0.0,2,0,0,0.0,12.55,0.0,0,0,0,0.125,12.6,0.0,0,0,0,kReverse,kOff,-86.96,2.11,-169.01,0.03894043,-0.9810791,0.04144287,33.26,0.0,-4.0,-1.8924866,-2.7040863,
21.821151,true,true,true,0.125,12.55,0.0,-10998,0,0,0.125,12.55,0.0,0,0,0,0.125,12.55,0.0,-21339,0,0,0.125,12.6,0.0,0,0,0,0.0,12.55,0.0,2,0,0,0.0,12.55,0.0,0,0,0,0.125,12.6,0.0,0,0,0,kReverse,kOff,-86.95,2.12,-168.96,0.039123535,-0.9810791,0.043823242,33.26,0.0,-6.0,-1.8924866,-2.7040863,
21.846654,true,true,true,0.125,12.55,0.0,-10998,0,0,0.125,12.55,0.0,0,0,0,0.125,12.55,0.0,-21339,0,0,0.125,12.6,0.0,0,0,0,0.0,12.55,0.0,2,0,0,0.0,12.55,0.0,0,0,0,0.125,12.6,0.0,0,0,0,kReverse,kOff,-86.95,2.12,-168.95,0.038024902,-0.9812622,0.04711914,33.26,0.0,-9.0,-1.8924866,-2.7040863,
21.871242000000002,true,true,true,0.125,12.55,0.0,-10998,0,0,0.125,12.55,0.0,0,0,0,0.125,12.55,0.0,-21339,0,0,0.125,12.6,0.0,0,0,0,0.0,12.55,0.0,2,0,0,0.0,12.55,0.0,0,0,0,0.125,12.6,0.0,0,0,0,kReverse,kOff,-86.93,2.12,-168.89,0.03729248,-0.9841919,0.046936035,33.24,0.0,-8.0,-1.8924866,-2.7040863,
21.897496999999998,true,true,true,0.125,12.55,0.0,-10998,0,0,0.125,12.55,0.0,0,0,0,0.125,12.55,0.0,-21339,0,0,0.125,12.6,0.0,0,0,0,0.0,12.55,0.0,2,0,0,0.0,12.55,0.0,0,0,0,0.125,12.65,0.0,0,0,0,kReverse,kOff,-86.93,2.12,-168.87,0.03729248,-0.9833374,0.048583984,33.24,0.0,-10.0,-1.8924866,-2.7040863,
21.925111,true,true,true,0.125,12.55,0.0,-10998,0,0,0.125,12.6,0.0,0,0,0,0.125,12.55,0.0,-21339,0,0,0.125,12.6,0.0,0,0,0,0.0,12.55,0.0,2,0,0,0.0,12.55,0.0,0,0,0,0.125,12.65,0.0,0,0,0,kReverse,kOff,-86.92,2.11,-168.82,0.034729004,-0.9830322,0.043762207,33.24,0.0,-5.0,-1.8924866,-2.7040863,
21.953221000000003,true,true,true,0.875,12.55,0.0,-11000,0,0,0.75,12.6,0.0,0,0,0,0.75,12.55,0.0,-21340,0,0,1.25,12.6,0.0,0,0,0,0.0,12.55,0.0,2,0,0,0.0,12.55,0.0,0,0,0,0.125,12.65,0.0,0,0,0,kReverse,kOff,-86.91,2.12,-168.77,0.004272461,-0.9517822,0.049987793,33.24,0.0,-5.0,-1.8924866,-2.7041016,
21.978488000000002,true,true,true,5.75,12.55,0.0,-11013,-2,0,15.625,12.6,0.0,0,0,0,17.125,12.55,0.0,-21358,-5,0,8.875,12.6,0.0,0,0,0,0.125,12.55,0.0,2,0,0,0.0,12.55,0.0,0,0,0,0.125,12.65,0.0,0,0,0,kReverse,kOff,-86.95,2.07,-168.84,-0.007507324,-0.7953491,0.72546387,33.24,0.0,-665.0,-1.893158,-2.7043915,
22.004388000000002,true,true,true,36.125,12.55,0.0,-11056,-27,0,29.75,12.6,0.0,0,0,0,32.0,12.55,0.0,-21378,-14,0,21.625,12.6,0.0,0,0,0,0.125,12.55,0.0,2,0,0,0.0,12.55,0.0,0,0,0,0.125,12.65,0.0,0,0,0,kReverse,kOff,-87.67,2.24,-174.98,0.1194458,-1.6884766,-1.4432983,33.24,0.0,1414.0,-1.8928528,-2.703949,
22.026445,true,true,true,50.0,12.55,0.0,-11081,-47,0,44.125,12.6,0.0,0,0,0,46.125,12.55,0.0,-21402,-29,0,33.125,12.6,0.0,0,0,0,0.125,12.55,0.0,2,0,0,0.0,12.55,0.0,0,0,0,0.125,12.65,0.0,0,0,0,kReverse,kOff,-88.06,1.9,-179.75,-0.08709717,-0.362854,-0.25054932,33.24,0.0,263.0,-1.8904724,-2.703308,
22.052898000000003,true,true,true,46.375,12.55,0.0,-11118,-71,0,48.5,12.6,0.0,0,0,0,49.625,12.55,0.0,-21439,-51,0,42.0,12.6,0.0,0,0,0,0.0,8.4,0.0,2,0,0,0.0,8.4,0.0,0,0,0,0.125,8.4,0.0,0,0,0,kReverse,kOff,-87.93,1.72,176.38,-0.15942383,-0.5189209,-1.3328247,33.24,0.0,1330.0,-1.8883514,-2.7030945,
22.081862,true,true,true,42.625,8.05,0.0,-11188,-122,0,45.25,8.0,0.0,0,0,0,44.875,8.05,0.0,-21506,-108,0,40.75,8.15,0.0,0,0,0,0.0,8.4,0.0,2,0,0,0.0,8.4,0.0,0,0,0,0.125,8.4,0.0,0,0,0,kReverse,kOff,-86.4,2.08,169.06,0.10650635,-0.92071533,-0.71691895,33.24,0.0,637.0,-1.88031,-2.7010956,
22.105455000000003,true,true,true,41.5,8.05,0.0,-11230,-143,0,44.625,8.0,0.0,0,0,0,43.5,8.05,0.0,-21547,-134,0,40.0,8.15,0.0,0,0,0,0.125,8.4,0.0,2,0,0,0.0,8.4,0.0,0,0,0,0.125,8.4,0.0,0,0,0,kReverse,kOff,-86.1,1.94,167.23,0.031677246,-1.064331,-0.70861816,33.24,0.0,630.0,-1.871109,-2.6986542,
22.132265,true,true,true,40.125,8.05,0.0,-11276,-162,0,43.5,8.0,0.0,0,0,0,42.125,8.05,0.0,-21591,-157,0,39.125,8.15,0.0,0,0,0,0.125,8.4,0.0,2,0,0,0.0,8.4,0.0,0,0,0,0.125,8.4,0.0,0,0,0,kReverse,kOff,-85.74,2.01,165.56,0.11462402,-1.0372314,-1.1517334,33.24,0.0,1038.0,-1.8653412,-2.6971588,
22.145664,true,true,true,37.75,8.05,0.0,-11324,-180,0,41.5,8.0,0.0,0,0,0,39.875,8.05,0.0,-21637,-175,0,37.5,8.15,0.0,0,0,0,0.125,8.4,0.0,2,0,0,0.0,8.4,0.0,0,0,0,0.125,8.4,0.0,0,0,0,kReverse,kOff,-85.48,2.0,163.9,-0.1227417,-0.7070923,-0.5909424,33.24,0.0,558.0,-1.8584747,-2.695465,
22.167929,true,true,true,36.25,8.05,0.0,-11376,-199,0,40.125,8.0,0.0,0,0,0,38.0,8.05,0.0,-21686,-191,0,36.25,8.15,0.0,0,0,0,0.125,8.4,0.0,2,0,0,0.0,8.4,0.0,0,0,0,0.125,8.4,0.0,0,0,0,kReverse,kOff,-85.5,1.91,163.39,0.111328125,-1.1508179,-0.6553345,33.24,0.0,544.0,-1.8429413,-2.6919403,
22.198634000000002,true,true,true,35.75,8.05,0.0,-11423,-213,0,38.375,8.0,0.0,0,0,0,35.5,8.05,0.0,-21790,-219,0,34.25,8.15,0.0,0,0,0,0.0,8.4,0.0,2,0,0,0.0,8.4,0.0,0,0,0,0.125,8.4,0.0,0,0,0,kReverse,kOff,-85.2,1.98,162.45,0.22235107,-0.8480835,0.10668945,33.24,0.0,-208.0,-1.8253174,-2.687622,
22.225876,true,true,true,28.75,9.7,0.0,-11539,-241,0,34.125,9.4,0.0,0,0,0,27.625,9.75,0.0,-21849,-234,0,31.0,9.600000000000001,0.0,0,0,0,0.0,9.75,0.0,2,0,0,0.0,9.95,0.0,0,0,0,0.125,9.850000000000001,0.0,0,0,0,kReverse,kOff,-84.9,1.95,161.37,0.067871094,-1.0163574,-0.7590332,33.24,0.0,650.0,-1.8065948,-2.6828613,
22.251421,true,true,true,20.875,9.7,0.0,-11593,-252,0,26.125,9.4,0.0,0,0,0,18.875,9.75,0.0,-21900,-247,0,24.375,9.600000000000001,0.0,0,0,0,0.125,9.75,0.0,2,0,0,0.0,9.95,0.0,0,0,0,0.125,9.850000000000001,0.0,0,0,0,kReverse,kOff,-84.68,1.92,160.22,-0.026733398,-0.9785156,0.16296387,33.24,0.0,-228.0,-1.7965851,-2.6803894,
22.279775,true,true,true,3.375,9.7,0.0,-11695,-269,0,4.25,9.4,0.0,0,0,0,2.75,9.75,0.0,-21973,-257,0,3.75,9.600000000000001,0.0,0,0,0,0.125,9.75,0.0,2,0,0,0.0,9.95,0.0,0,0,0,0.125,9.850000000000001,0.0,0,0,0,kReverse,kOff,-85.14,1.88,161.93,-0.08099365,-1.0930786,0.15509033,33.24,0.0,-209.0,-1.7771912,-2.675583,
22.305267,true,true,true,0.5,9.7,0.0,-11740,-270,0,1.25,9.4,0.0,0,0,0,0.125,9.75,0.0,-22011,-247,0,0.875,9.600000000000001,0.0,0,0,0,0.125,9.75,0.0,2,0,0,0.0,9.95,0.0,0,0,0,0.125,9.850000000000001,0.0,0,0,0,kReverse,kOff,-85.63,1.85,164.17,0.3394165,-1.1696777,0.33569336,33.24,0.0,-470.0,-1.7594452,-2.670929,
22.327573,true,true,true,0.125,9.7,0.0,-11788,-265,0,0.125,9.4,0.0,0,0,0,0.125,9.75,0.0,-22055,-232,0,0.125,9.600000000000001,0.0,0,0,0,0.0,9.75,0.0,2,0,0,0.0,9.95,0.0,0,0,0,0.125,9.850000000000001,0.0,0,0,0,kReverse,kOff,-86.67,2.27,170.65,-0.10272217,-0.016052246,0.73431396,33.24,0.0,-698.0,-1.7449951,-2.6659393,
22.352752,true,true,true,0.125,9.7,0.0,-11840,-258,0,0.125,9.4,0.0,0,0,0,0.125,9.75,0.0,-22096,-216,0,0.125,9.600000000000001,0.0,0,0,0,0.0,9.75,0.0,2,0,0,0.0,9.95,0.0,0,0,0,0.125,9.850000000000001,0.0,0,0,0,kReverse,kOff,-87.24,2.24,174.15,0.14001465,-0.5097656,0.77874756,33.24,0.0,-801.0,-1.7393036,-2.6636963,
22.382283,true,true,true,0.125,9.7,0.0,-11947,-248,0,0.125,12.35,0.0,0,0,0,0.125,12.3,0.0,-22179,-197,0,0.125,12.35,0.0,0,0,0,0.0,12.35,0.0,2,0,0,0.0,12.35,0.0,0,0,0,0.125,12.4,0.0,0,0,0,kReverse,kOff,-87.38,2.35,176.09,-0.03265381,-1.0621338,0.30090332,33.26,0.0,-303.0,-1.7299652,-2.6595306,
22.405796000000002,true,true,true,0.125,12.3,0.0,-12003,-250,0,0.125,12.35,0.0,0,0,0,0.125,12.3,0.0,-22219,-199,0,0.125,12.35,0.0,0,0,0,0.0,12.35,0.0,2,0,0,0.0,12.35,0.0,0,0,0,0.125,12.4,0.0,0,0,0,kReverse,kOff,-87.22,2.21,172.09,-0.08972168,-1.0377808,0.10662842,33.26,0.0,-114.0,-1.7217865,-2.6565857,
22.428466,true,true,true,0.125,12.3,0.0,-12058,-257,0,0.125,12.35,0.0,0,0,0,0.125,12.3,0.0,-22258,-203,0,0.125,12.35,0.0,0,0,0,0.125,12.35,0.0,2,0,0,0.0,12.35,0.0,0,0,0,0.125,12.4,0.0,0,0,0,kReverse,kOff,-87.14,2.23,170.89,-0.066589355,-0.86535645,0.40222168,33.26,0.0,-408.0,-1.7181244,-2.6555176,
22.454121999999998,true,true,true,0.125,12.3,0.0,-12111,-263,0,0.125,12.35,0.0,0,0,0,0.125,12.3,0.0,-22294,-205,0,0.125,12.35,0.0,0,0,0,0.125,12.35,0.0,2,0,0,0.0,12.35,0.0,0,0,0,0.125,12.4,0.0,0,0,0,kReverse,kOff,-87.42,1.89,169.17,-0.11968994,-0.91033936,0.028686523,33.26,0.0,-35.0,-1.7112427,-2.6545868,
22.478763999999998,true,true,true,0.125,12.3,0.0,-12162,-268,0,0.125,12.35,0.0,0,0,0,0.125,12.3,0.0,-22356,-193,0,0.125,12.35,0.0,0,0,0,0.125,12.35,0.0,2,0,0,0.0,12.35,0.0,0,0,0,0.125,12.4,0.0,0,0,0,kReverse,kOff,-87.55,1.86,169.32,0.1116333,-0.91674805,0.08544922,33.26,0.0,-120.0,-1.707901,-2.6543884,
22.50191,true,true,true,0.125,12.3,0.0,-12257,-265,0,0.125,12.35,0.0,0,0,0,0.125,12.3,0.0,-22386,-183,0,0.125,12.35,0.0,0,0,0,0.125,12.35,0.0,2,0,0,0.0,12.35,0.0,0,0,0,0.125,12.4,0.0,0,0,0,kReverse,kOff,-87.7,2.04,172.23,0.07800293,-0.9015503,0.4315796,33.26,0.0,-450.0,-1.7024384,-2.6535797,
22.538192,true,true,true,0.125,12.3,0.0,-12302,-258,0,0.125,12.35,0.0,0,0,0,0.125,12.35,0.0,-22447,-164,0,0.125,12.4,0.0,0,0,0,0.125,12.4,0.0,2,0,0,0.0,12.4,0.0,0,0,0,0.125,12.450000000000001,0.0,0,0,0,kReverse,kOff,-87.95,2.03,179.06,-0.1593628,-0.78082275,0.42974854,33.26,0.0,-416.0,-1.6975403,-2.6526031,
22.571276,true,true,true,0.125,12.4,0.0,-12387,-240,0,0.125,12.4,0.0,0,0,0,0.125,12.35,0.0,-22476,-157,0,0.125,12.4,0.0,0,0,0,0.125,12.4,0.0,2,0,0,0.0,12.4,0.0,0,0,0,0.125,12.450000000000001,0.0,0,0,0,kReverse,kOff,-88.06,1.93,-178.52,-0.08074951,-0.8796387,0.24511719,33.26,0.0,-237.0,-1.6966705,-2.65271,
22.601879,true,true,true,0.125,12.4,0.0,-12470,-223,0,0.125,12.4,0.0,0,0,0,0.125,12.35,0.0,-22529,-148,0,0.125,12.4,0.0,0,0,0,0.125,12.4,0.0,2,0,0,0.0,12.4,0.0,0,0,0,0.125,12.450000000000001,0.0,0,0,0,kReverse,kOff,-88.33,1.62,-170.72,-0.019348145,-1.1113281,0.14196777,33.26,0.0,-132.0,-1.6957397,-2.6545563,
22.627637000000004,true,true,true,0.125,12.4,0.0,-12510,-216,0,0.125,12.4,0.0,0,0,0,0.125,12.35,0.0,-22554,-144,0,0.125,12.4,0.0,0,0,0,0.125,12.4,0.0,2,0,0,0.0,12.4,0.0,0,0,0,0.125,12.450000000000001,0.0,0,0,0,kReverse,kOff,-88.32,1.62,-167.49,-0.044128418,-0.81781006,0.37286377,33.26,0.0,-364.0,-1.6961823,-2.6554565,
22.656361,true,true,true,0.125,12.4,0.0,-12548,-211,0,0.125,12.4,0.0,0,0,0,0.125,12.35,0.0,-22601,-134,0,0.125,12.4,0.0,0,0,0,0.125,12.4,0.0,2,0,0,0.0,12.4,0.0,0,0,0,0.125,12.450000000000001,0.0,0,0,0,kReverse,kOff,-88.18,1.6,-140.25,0.012878418,-0.96520996,1.2207031E-4,33.26,0.0,14.0,-1.698349,-2.6564026,
22.676902000000002,true,true,true,0.125,12.4,0.0,-12584,-205,0,0.125,12.4,0.0,0,0,0,0.125,12.35,0.0,-22623,-127,0,0.125,12.4,0.0,0,0,0,0.125,12.4,0.0,2,0,0,0.0,12.4,0.0,0,0,0,0.125,12.450000000000001,0.0,0,0,0,kReverse,kOff,-88.1,1.5,-99.28,-0.0869751,-0.944458,0.1239624,33.26,0.0,-104.0,-1.7013397,-2.6565857,
22.706257,true,true,true,0.125,12.4,0.0,-12650,-192,0,0.125,12.4,0.0,0,0,0,0.125,12.4,0.0,-22646,-122,0,0.125,12.450000000000001,0.0,0,0,0,0.125,12.4,0.0,2,0,0,0.0,12.4,0.0,0,0,0,0.125,12.450000000000001,0.0,0,0,0,kReverse,kOff,-88.03,1.48,-82.84,0.0692749,-1.013794,0.4375,33.26,0.0,-414.0,-1.7033234,-2.6567688,
22.729589,true,true,true,0.125,12.4,0.0,-12681,-184,0,0.125,12.4,0.0,0,0,0,0.125,12.4,0.0,-22668,-118,0,0.125,12.450000000000001,0.0,0,0,0,0.125,12.4,0.0,2,0,0,0.0,12.4,0.0,0,0,0,0.125,12.450000000000001,0.0,0,0,0,kReverse,kOff,-87.89,1.43,-61.58,-0.010803223,-0.9923706,0.29022217,33.26,0.0,-263.0,-1.7080688,-2.6575165,
22.752643,true,true,true,0.125,12.4,0.0,-12711,-176,0,0.125,12.4,0.0,0,0,0,0.125,12.4,0.0,-22689,-115,0,0.125,12.450000000000001,0.0,0,0,0,0.125,12.4,0.0,2,0,0,0.0,12.4,0.0,0,0,0,0.125,12.450000000000001,0.0,0,0,0,kReverse,kOff,-87.82,1.41,-54.52,0.02331543,-0.9569092,0.19104004,33.26,0.0,-163.0,-1.7108307,-2.6579895,
22.772534,true,true,true,0.125,12.4,0.0,-12740,-168,0,0.125,12.4,0.0,0,0,0,0.125,12.4,0.0,-22709,-112,0,0.125,12.450000000000001,0.0,0,0,0,0.125,12.4,0.0,2,0,0,0.0,12.4,0.0,0,0,0,0.125,12.450000000000001,0.0,0,0,0,kReverse,kOff,-87.74,1.37,-49.58,-0.11047363,-1.0244141,0.09625244,33.26,0.0,-67.0,-1.7137451,-2.658554,
22.787371999999998,true,true,true,0.125,12.4,0.0,-12768,-160,0,0.125,12.4,0.0,0,0,0,0.125,12.4,0.0,-22729,-110,0,0.125,12.450000000000001,0.0,0,0,0,0.125,12.4,0.0,2,0,0,0.0,12.4,0.0,0,0,0,0.125,12.450000000000001,0.0,0,0,0,kReverse,kOff,-87.54,1.38,-44.25,0.017700195,-0.8876343,0.28051758,33.26,0.0,-249.0,-1.720459,-2.6598358,
22.810232,true,true,true,0.125,12.4,0.0,-12795,-154,0,0.125,12.4,0.0,0,0,0,0.125,12.4,0.0,-22748,-107,0,0.125,12.450000000000001,0.0,0,0,0,0.125,12.4,0.0,2,0,0,0.0,12.4,0.0,0,0,0,0.125,12.450000000000001,0.0,0,0,0,kReverse,kOff,-87.49,1.38,-41.52,0.06109619,-0.8657837,0.13293457,33.26,0.0,-99.0,-1.7242432,-2.6604462,
22.838476000000004,true,true,true,0.125,12.4,0.0,-12820,-148,0,0.125,12.4,0.0,0,0,0,0.125,12.4,0.0,-22785,-100,0,0.125,12.450000000000001,0.0,0,0,0,0.125,12.4,0.0,2,0,0,0.0,12.4,0.0,0,0,0,0.125,12.450000000000001,0.0,0,0,0,kReverse,kOff,-87.23,1.39,-39.71,-0.04547119,-1.0938721,0.038208008,33.26,0.0,3.0,-1.7323303,-2.6616364,
22.864986000000002,true,true,true,0.125,12.450000000000001,0.0,-12867,-136,0,0.125,12.450000000000001,0.0,0,0,0,0.125,12.450000000000001,0.0,-22803,-97,0,0.125,12.450000000000001,0.0,0,0,0,0.125,12.450000000000001,0.0,2,0,0,0.0,12.450000000000001,0.0,0,0,0,0.125,12.5,0.0,0,0,0,kReverse,kOff,-87.14,1.39,-37.64,-0.0345459,-1.1140747,0.20233154,33.26,0.0,-156.0,-1.7409668,-2.6629028,
22.885682,true,true,true,0.125,12.450000000000001,0.0,-12889,-130,0,0.125,12.450000000000001,0.0,0,0,0,0.125,12.450000000000001,0.0,-22820,-94,0,0.125,12.450000000000001,0.0,0,0,0,0.125,12.450000000000001,0.0,2,0,0,0.0,12.450000000000001,0.0,0,0,0,0.125,12.5,0.0,0,0,0,kReverse,kOff,-87.06,1.37,-37.1,-0.018981934,-1.0050049,0.16723633,33.13,0.0,-123.0,-1.745575,-2.6636047,
22.906493,true,true,true,0.125,12.450000000000001,0.0,-12909,-124,0,0.125,12.450000000000001,0.0,0,0,0,0.125,12.450000000000001,0.0,-22835,-92,0,0.125,12.450000000000001,0.0,0,0,0,0.125,12.450000000000001,0.0,2,0,0,0.0,12.450000000000001,0.0,0,0,0,0.125,12.5,0.0,0,0,0,kReverse,kOff,-86.91,1.34,-35.99,0.09246826,-1.1171875,0.1796875,33.13,0.0,-120.0,-1.7554626,-2.664978,
22.92804,true,true,true,0.125,12.450000000000001,0.0,-12928,-117,0,0.125,12.450000000000001,0.0,0,0,0,0.125,12.450000000000001,0.0,-22850,-89,0,0.125,12.450000000000001,0.0,0,0,0,0.125,12.450000000000001,0.0,2,0,0,0.0,12.450000000000001,0.0,0,0,0,0.125,12.5,0.0,0,0,0,kReverse,kOff,-86.82,1.36,-35.83,-0.0016479492,-0.9508667,0.24456787,33.13,0.0,-197.0,-1.7607269,-2.6655884,
22.959875,true,true,true,0.125,12.450000000000001,0.0,-12963,-104,0,0.125,12.450000000000001,0.0,0,0,0,0.125,12.450000000000001,0.0,-22879,-81,0,0.125,12.450000000000001,0.0,0,0,0,0.125,12.450000000000001,0.0,2,0,0,0.0,12.450000000000001,0.0,0,0,0,0.125,12.5,0.0,0,0,0,kReverse,kOff,-86.56,1.37,-36.38,0.041809082,-0.8778076,0.20947266,33.13,0.0,-159.0,-1.7778015,-2.6672516,
22.985587,true,true,true,0.125,12.450000000000001,0.0,-12979,-98,0,0.125,12.450000000000001,0.0,0,0,0,0.125,12.450000000000001,0.0,-22893,-78,0,0.125,12.450000000000001,0.0,0,0,0,0.125,12.450000000000001,0.0,2,0,0,0.0,12.450000000000001,0.0,0,0,0,0.125,12.5,0.0,0,0,0,kReverse,kOff,-86.38,1.36,-36.55,0.013549805,-0.9934082,0.203125,33.13,0.0,-145.0,-1.7901459,-2.6682587,
23.006966000000002,true,true,true,0.125,12.450000000000001,0.0,-12995,-93,0,0.125,12.450000000000001,0.0,0,0,0,0.125,12.450000000000001,0.0,-22905,-75,0,0.125,12.450000000000001,0.0,0,0,0,0.125,12.450000000000001,0.0,2,0,0,0.0,12.450000000000001,0.0,0,0,0,0.125,12.5,0.0,0,0,0,kReverse,kOff,-86.34,1.35,-36.34,0.060913086,-1.0070801,0.16638184,33.13,0.0,-103.0,-1.7965851,-2.6687317,
23.033864,true,true,true,0.125,12.450000000000001,0.0,-13009,-88,0,0.125,12.450000000000001,0.0,0,0,0,0.125,12.450000000000001,0.0,-22918,-72,0,0.125,12.450000000000001,0.0,0,0,0,0.125,12.450000000000001,0.0,2,0,0,0.0,12.450000000000001,0.0,0,0,0,0.125,12.55,0.0,0,0,0,kReverse,kOff,-86.22,1.36,-36.37,0.036315918,-0.9395752,0.23510742,33.13,0.0,-175.0,-1.8099365,-2.6696014,
23.061662000000002,true,true,true,0.125,12.450000000000001,0.0,-13037,-79,0,0.125,12.450000000000001,0.0,0,0,0,0.125,12.450000000000001,0.0,-22941,-66,0,0.125,12.450000000000001,0.0,0,0,0,0.0,12.450000000000001,0.0,2,0,0,0.0,12.450000000000001,0.0,0,0,0,0.125,12.55,0.0,0,0,0,kReverse,kOff,-86.2,1.35,-36.21,-0.004333496,-0.98095703,0.18164062,33.13,0.0,-122.0,-1.816925,-2.6700287,
23.083531000000004,true,true,true,0.125,12.450000000000001,0.0,-13049,-76,0,0.125,12.450000000000001,0.0,0,0,0,0.125,12.450000000000001,0.0,-22952,-63,0,0.125,12.450000000000001,0.0,0,0,0,0.0,12.450000000000001,0.0,2,0,0,0.0,12.450000000000001,0.0,0,0,0,0.125,12.55,0.0,0,0,0,kReverse,kOff,-86.09,1.35,-36.39,0.046203613,-1.0062256,0.007080078,33.13,0.0,58.0,-1.8313904,-2.670807,
23.10752,true,true,true,0.125,12.450000000000001,0.0,-13061,-72,0,0.125,12.450000000000001,0.0,0,0,0,0.125,12.450000000000001,0.0,-22963,-61,0,0.125,12.450000000000001,0.0,0,0,0,0.0,12.450000000000001,0.0,2,0,0,0.0,12.450000000000001,0.0,0,0,0,0.125,12.55,0.0,0,0,0,kReverse,kOff,-86.09,1.36,-36.17,-0.0052490234,-1.0275269,0.15002441,33.13,0.0,-86.0,-1.8386993,-2.6711884,
23.132781,true,true,true,0.125,12.450000000000001,0.0,-13072,-68,0,0.125,12.450000000000001,0.0,0,0,0,0.125,12.450000000000001,0.0,-22973,-58,0,0.125,12.450000000000001,0.0,0,0,0,0.0,12.450000000000001,0.0,2,0,0,0.0,12.450000000000001,0.0,0,0,0,0.125,12.55,0.0,0,0,0,kReverse,kOff,-86.0,1.35,-36.5,-0.0034179688,-1.0343018,0.051086426,33.13,0.0,14.0,-1.8538055,-2.6719208,
23.157355,true,true,true,0.125,12.450000000000001,0.0,-13081,-64,0,0.125,12.450000000000001,0.0,0,0,0,0.125,12.450000000000001,0.0,-22991,-53,0,0.125,12.450000000000001,0.0,0,0,0,0.0,12.450000000000001,0.0,2,0,0,0.0,12.450000000000001,0.0,0,0,0,0.125,12.55,0.0,0,0,0,kReverse,kOff,-85.98,1.35,-36.64,0.012207031,-0.99658203,0.19012451,33.13,0.0,-124.0,-1.8615112,-2.672287,
23.184256,true,true,true,0.125,12.450000000000001,0.0,-13098,-55,0,0.125,12.450000000000001,0.0,0,0,0,0.125,12.450000000000001,0.0,-22998,-51,0,0.125,12.5,0.0,0,0,0,0.0,12.450000000000001,0.0,2,0,0,0.0,12.450000000000001,0.0,0,0,0,0.125,12.55,0.0,0,0,0,kReverse,kOff,-85.79,1.38,-37.86,0.070251465,-0.99176025,0.24664307,33.13,0.0,-172.0,-1.8851471,-2.6732635,
23.206242000000003,true,true,true,0.125,12.450000000000001,0.0,-13105,-51,0,0.125,12.450000000000001,0.0,0,0,0,0.125,12.450000000000001,0.0,-23006,-48,0,0.125,12.5,0.0,0,0,0,0.0,12.450000000000001,0.0,2,0,0,0.0,12.450000000000001,0.0,0,0,0,0.125,12.55,0.0,0,0,0,kReverse,kOff,-85.66,1.4,-38.62,0.078308105,-0.9492798,0.23999023,33.13,0.0,-166.0,-1.9014282,-2.673706,
23.227525,true,true,true,0.125,12.450000000000001,0.0,-13111,-46,0,0.125,12.450000000000001,0.0,0,0,0,0.125,12.450000000000001,0.0,-23012,-44,0,0.125,12.5,0.0,0,0,0,0.0,12.450000000000001,0.0,2,0,0,0.0,12.450000000000001,0.0,0,0,0,0.125,12.55,0.0,0,0,0,kReverse,kOff,-85.58,1.41,-39.12,0.041503906,-0.9671631,0.12927246,33.13,0.0,-56.0,-1.90979,-2.6738434,
23.253231,true,true,true,0.125,12.450000000000001,0.0,-13117,-42,0,0.125,12.450000000000001,0.0,0,0,0,0.125,12.450000000000001,0.0,-23019,-41,0,0.125,12.5,0.0,0,0,0,0.125,12.450000000000001,0.0,2,0,0,0.0,12.450000000000001,0.0,0,0,0,0.125,12.55,0.0,0,0,0,kReverse,kOff,-85.55,1.42,-39.35,0.039733887,-0.97540283,0.16296387,33.13,0.0,-89.0,-1.9182587,-2.6739502,
23.283512,true,true,true,0.125,12.450000000000001,0.0,-13128,-35,0,0.125,12.450000000000001,0.0,0,0,0,0.125,12.450000000000001,0.0,-23030,-35,0,0.125,12.5,0.0,0,0,0,0.125,12.450000000000001,0.0,2,0,0,0.0,12.450000000000001,0.0,0,0,0,0.125,12.55,0.0,0,0,0,kReverse,kOff,-85.49,1.43,-39.8,0.0018920898,-0.98950195,0.039916992,33.13,0.0,31.0,-1.9354095,-2.6741028,
23.305711,true,true,true,0.125,12.450000000000001,0.0,-13133,-32,0,0.125,12.450000000000001,0.0,0,0,0,0.125,12.450000000000001,0.0,-23034,-33,0,0.125,12.5,0.0,0,0,0,0.125,12.450000000000001,0.0,2,0,0,0.0,12.450000000000001,0.0,0,0,0,0.125,12.55,0.0,0,0,0,kReverse,kOff,-85.48,1.43,-39.95,0.037109375,-0.98773193,0.26226807,33.13,0.0,-185.0,-1.944107,-2.674179,
23.330371,true,true,true,0.125,12.450000000000001,0.0,-13136,-29,0,0.125,12.450000000000001,0.0,0,0,0,0.125,12.450000000000001,0.0,-23039,-30,0,0.125,12.5,0.0,0,0,0,0.125,12.450000000000001,0.0,2,0,0,0.0,12.450000000000001,0.0,0,0,0,0.125,12.55,0.0,0,0,0,kReverse,kOff,-85.38,1.44,-40.64,0.038391113,-0.9706421,0.10424805,33.13,0.0,-28.0,-1.9618835,-2.6742249,
23.357888000000003,true,true,true,0.125,12.450000000000001,0.0,-13139,-26,0,0.125,12.450000000000001,0.0,0,0,0,0.125,12.450000000000001,0.0,-23045,-24,0,0.125,12.5,0.0,0,0,0,0.125,12.450000000000001,0.0,2,0,0,0.0,12.450000000000001,0.0,0,0,0,0.125,12.55,0.0,0,0,0,kReverse,kOff,-85.27,1.47,-41.56,0.019348145,-0.986084,0.11468506,33.13,0.0,-37.0,-1.9890442,-2.6741333,
23.381512,true,true,true,0.125,12.450000000000001,0.0,-13144,-20,0,0.125,12.450000000000001,0.0,0,0,0,0.125,12.450000000000001,0.0,-23047,-21,0,0.125,12.5,0.0,0,0,0,0.125,12.450000000000001,0.0,2,0,0,0.0,12.450000000000001,0.0,0,0,0,0.125,12.55,0.0,0,0,0,kReverse,kOff,-85.27,1.47,-41.56,0.019348145,-0.986084,0.11468506,33.13,0.0,-37.0,-1.9890442,-2.6741333,
23.402999,true,true,true,0.125,12.450000000000001,0.0,-13145,-17,0,0.125,12.450000000000001,0.0,0,0,0,0.125,12.450000000000001,0.0,-23049,-19,0,0.125,12.5,0.0,0,0,0,0.125,12.450000000000001,0.0,2,0,0,0.0,12.450000000000001,0.0,0,0,0,0.125,12.55,0.0,0,0,0,kReverse,kOff,-85.26,1.47,-41.65,0.023620605,-1.0193481,0.12756348,33.08,0.0,-47.0,-1.9982452,-2.6740875,
23.418095,true,true,true,0.125,12.450000000000001,0.0,-13145,-17,0,0.125,12.450000000000001,0.0,0,0,0,0.125,12.450000000000001,0.0,-23050,-16,0,0.125,12.5,0.0,0,0,0,0.125,12.450000000000001,0.0,2,0,0,0.0,12.450000000000001,0.0,0,0,0,0.125,12.55,0.0,0,0,0,kReverse,kOff,-85.22,1.49,-41.88,0.06738281,-0.9472656,0.18017578,33.08,0.0,-100.0,-2.0169678,-2.6738892,
23.432083000000002,true,true,true,0.125,12.450000000000001,0.0,-13147,-14,0,0.125,12.450000000000001,0.0,0,0,0,0.125,12.450000000000001,0.0,-23051,-13,0,0.125,12.5,0.0,0,0,0,0.125,12.450000000000001,0.0,2,0,0,0.0,12.450000000000001,0.0,0,0,0,0.125,12.55,0.0,0,0,0,kReverse,kOff,-85.17,1.5,-42.17,0.06695557,-0.97509766,0.12890625,33.08,0.0,-46.0,-2.026474,-2.6736908,
23.467639,true,true,true,0.125,12.450000000000001,0.0,-13148,-9,0,0.125,12.450000000000001,0.0,0,0,0,0.125,12.450000000000001,0.0,-23051,-10,0,0.125,12.5,0.0,0,0,0,0.125,12.450000000000001,0.0,2,0,0,0.0,12.450000000000001,0.0,0,0,0,0.125,12.55,0.0,0,0,0,kReverse,kOff,-85.13,1.52,-42.13,0.026489258,-0.98358154,0.10211182,33.08,0.0,-22.0,-2.045456,-2.6732635,
23.490740000000002,true,true,true,0.125,12.450000000000001,0.0,-13148,-7,0,0.125,12.450000000000001,0.0,0,0,0,0.125,12.450000000000001,0.0,-23051,-7,0,0.125,12.5,0.0,0,0,0,0.125,12.450000000000001,0.0,2,0,0,0.0,12.5,0.0,0,0,0,0.125,12.55,0.0,0,0,0,kReverse,kOff,-85.08,1.51,-42.49,0.022766113,-0.9692993,0.07922363,33.08,0.0,0.0,-2.064621,-2.6732635,
23.518852000000003,true,true,true,0.125,12.5,0.0,-13148,-3,0,0.125,12.5,0.0,0,0,0,0.125,12.450000000000001,0.0,-23051,-3,0,0.125,12.5,0.0,0,0,0,0.125,12.5,0.0,2,0,0,0.0,12.5,0.0,0,0,0,0.125,12.55,0.0,0,0,0,kReverse,kOff,-85.1,1.51,-42.41,0.044677734,-0.9845581,0.09667969,33.08,0.0,-14.0,-2.0742493,-2.6732635,
23.544377,true,true,true,0.125,12.5,0.0,-13148,-2,0,0.125,12.5,0.0,0,0,0,0.125,12.450000000000001,0.0,-23051,-1,0,0.125,12.5,0.0,0,0,0,0.125,12.5,0.0,2,0,0,0.0,12.5,0.0,0,0,0,0.125,12.55,0.0,0,0,0,kReverse,kOff,-85.11,1.53,-42.21,0.039733887,-0.9795532,0.048339844,33.08,0.0,32.0,-2.0742188,-2.6732635,
23.571029000000003,true,true,true,0.125,12.5,0.0,-13148,-1,0,0.125,12.5,0.0,0,0,0,0.125,12.450000000000001,0.0,-23051,0,0,0.125,12.5,0.0,0,0,0,0.125,12.5,0.0,2,0,0,0.0,12.5,0.0,0,0,0,0.125,12.55,0.0,0,0,0,kReverse,kOff,-85.16,1.54,-41.74,0.033447266,-0.9869385,0.043273926,33.08,0.0,36.0,-2.0740662,-2.6732635,
23.604067999999998,true,true,true,0.125,12.5,0.0,-13148,0,0,0.125,12.5,0.0,0,0,0,0.125,12.450000000000001,0.0,-23051,0,0,0.125,12.5,0.0,0,0,0,0.125,12.5,0.0,2,0,0,0.0,12.5,0.0,0,0,0,0.125,12.55,0.0,0,0,0,kReverse,kOff,-85.2,1.54,-41.39,0.024780273,-0.9841919,0.042236328,33.08,0.0,35.0,-2.0737305,-2.6732635,
23.624874,true,true,true,0.125,12.5,0.0,-13148,0,0,0.125,12.5,0.0,0,0,0,0.125,12.450000000000001,0.0,-23051,0,0,0.125,12.5,0.0,0,0,0,0.125,12.5,0.0,2,0,0,0.0,12.5,0.0,0,0,0,0.125,12.55,0.0,0,0,0,kReverse,kOff,-85.24,1.54,-41.07,0.031311035,-0.98687744,0.043029785,33.08,0.0,34.0,-2.0731964,-2.6732635,
23.649562000000003,true,true,true,0.125,12.5,0.0,-13148,0,0,0.125,12.5,0.0,0,0,0,0.125,12.450000000000001,0.0,-23051,0,0,0.125,12.5,0.0,0,0,0,0.125,12.5,0.0,2,0,0,0.0,12.5,0.0,0,0,0,0.125,12.55,0.0,0,0,0,kReverse,kOff,-85.26,1.55,-40.87,0.039855957,-0.98205566,0.037719727,33.08,0.0,40.0,-2.0728607,-2.6732635,
23.677622,true,true,true,0.125,12.5,0.0,-13148,0,0,0.125,12.5,0.0,0,0,0,0.125,12.450000000000001,0.0,-23051,0,0,0.125,12.55,0.0,0,0,0,0.0,12.5,0.0,2,0,0,0.0,12.5,0.0,0,0,0,0.125,12.55,0.0,0,0,0,kReverse,kOff,-85.3,1.57,-40.58,0.03845215,-0.98223877,0.036987305,33.08,0.0,39.0,-2.0720062,-2.6732635,
23.706756000000002,true,true,true,0.125,12.5,0.0,-13148,0,0,0.125,12.5,0.0,0,0,0,0.125,12.450000000000001,0.0,-23051,0,0,0.125,12.55,0.0,0,0,0,0.0,12.5,0.0,2,0,0,0.0,12.5,0.0,0,0,0,0.125,12.55,0.0,0,0,0,kReverse,kOff,-85.36,1.57,-40.33,0.027893066,-0.986145,0.024108887,33.08,0.0,50.0,-2.0709229,-2.6732635,
23.727884000000003,true,true,true,0.125,12.5,0.0,-13148,0,0,0.125,12.5,0.0,0,0,0,0.125,12.450000000000001,0.0,-23051,0,0,0.125,12.55,0.0,0,0,0,0.0,12.5,0.0,2,0,0,0.0,12.5,0.0,0,0,0,0.125,12.55,0.0,0,0,0,kReverse,kOff,-85.41,1.57,-40.08,0.026123047,-0.9875488,0.010070801,33.08,0.0,63.0,-2.06958,-2.6732635,
23.75761,true,true,true,0.125,12.5,0.0,-13148,0,0,0.125,12.5,0.0,0,0,0,0.125,12.450000000000001,0.0,-23051,0,0,0.125,12.55,0.0,0,0,0,0.125,12.5,0.0,2,0,0,0.0,12.5,0.0,0,0,0,0.125,12.55,0.0,0,0,0,kReverse,kOff,-85.44,1.57,-39.87,0.04095459,-0.9805298,0.03930664,33.08,0.0,34.0,-2.0688171,-2.6732635,
23.783743,true,true,true,0.125,12.5,0.0,-13148,0,0,0.125,12.5,0.0,0,0,0,0.125,12.450000000000001,0.0,-23051,0,0,0.125,12.55,0.0,0,0,0,0.125,12.5,0.0,2,0,0,0.0,12.5,0.0,0,0,0,0.125,12.55,0.0,0,0,0,kReverse,kOff,-85.49,1.59,-39.41,0.028747559,-0.9804077,0.02178955,33.08,0.0,50.0,-2.0671234,-2.6732635,
