timer,lineLeft,lineCenter,lineRight,LeftFrontCurrent,LeftFrontVoltage,LeftFrontValue,LeftFrontPosition,LeftFrontVelocity,LeftFrontFaults,LeftRearCurrent,LeftRearVoltage,LeftRearValue,LeftRearPosition,LeftRearVelocity,LeftRearFaults,RightFrontCurrent,RightFrontVoltage,RightFrontValue,RightFrontPosition,RightFrontVelocity,RightFrontFaults,RightRearCurrent,RightRearVoltage,RightRearValue,RightRearPosition,RightRearVelocity,RightRearFaults,LiftCurrent,LiftVoltage,LiftValue,LiftPosition,LiftVelocity,LiftFaults,WristCurrent,WristVoltage,WristValue,WristPosition,WristVelocity,WristFaults,RollerCurrent,RollerVoltage,RollerValue,RollerPosition,RollerVelocity,RollerFaults,PushersState,PivotsState,navx_Pitch,navx_Roll,navx_Yaw,navx_XAcc,navx_YAcc,navx_ZAcc,navx_Temp,navx_Bar,navx_Alt,navx_XDis,navx_YDis,
445.622508,true,true,true,0.125,12.75,0.0,0,0,0,0.125,12.75,0.0,0,0,0,0.125,12.700000000000001,0.0,0,0,0,0.125,12.75,0.0,0,0,0,0.0,12.75,0.0,0,0,0,0.0,12.450000000000001,0.0,0,0,0,0.125,12.65,0.0,0,0,0,kForward,kReverse,-86.96,2.2,2.26,0.038635254,-0.9804077,0.039794922,33.14,0.0,4.0,-8.006561,12.389282,
445.653125,true,true,true,0.125,12.75,0.0,0,0,0,0.125,12.75,0.0,0,0,0,0.125,12.700000000000001,0.0,0,0,0,0.125,12.75,0.0,0,0,0,0.0,12.75,0.0,0,0,0,0.0,12.450000000000001,0.0,0,0,0,0.125,12.65,0.0,0,0,0,kForward,kReverse,-86.96,2.21,2.27,0.03692627,-1.0620728,0.062438965,33.14,0.0,-3.0,-8.006561,12.389252,
445.677882,true,true,true,0.125,12.75,0.0,0,0,0,0.125,12.75,0.0,0,0,0,0.125,12.700000000000001,0.0,0,0,0,0.125,12.75,0.0,0,0,0,0.0,12.75,0.0,0,0,0,0.0,12.450000000000001,0.0,0,0,0,0.125,12.65,0.0,0,0,0,kForward,kReverse,-86.94,2.25,2.31,-0.21307373,-0.6838379,-0.12261963,33.14,0.0,-243.0,-8.006653,12.389114,
445.698878,true,true,true,0.125,12.75,0.0,0,0,0,0.125,12.75,0.0,0,0,0,0.125,12.700000000000001,0.0,0,0,0,0.125,12.75,0.0,0,0,0,0.0,12.75,0.0,0,0,0,0.0,12.450000000000001,0.0,0,0,0,0.125,12.65,0.0,0,0,0,kForward,kReverse,-86.97,2.21,2.27,0.10040283,-1.1598511,-0.15740967,33.14,0.0,49.0,-8.006897,12.388763,
445.720984,true,true,true,0.125,12.75,0.0,0,0,0,0.125,12.75,0.0,0,0,0,0.125,12.700000000000001,0.0,0,0,0,0.125,12.75,0.0,0,0,0,0.0,12.75,0.0,0,0,0,0.0,12.450000000000001,0.0,0,0,0,0.125,12.65,0.0,0,0,0,kForward,kReverse,-86.94,2.2,2.26,0.1194458,-0.9911499,0.038757324,33.14,0.0,81.0,-8.006943,12.387955,
445.74724299999997,true,true,true,0.125,12.75,0.0,0,0,0,0.125,12.75,0.0,0,0,0,0.125,12.700000000000001,0.0,0,0,0,0.125,12.75,0.0,0,0,0,0.125,12.75,0.0,0,0,0,0.0,12.450000000000001,0.0,0,0,0,0.125,12.65,0.0,0,0,0,kForward,kReverse,-87.02,2.17,2.23,0.25201416,-1.3496704,0.24267578,33.14,0.0,205.0,-8.006699,12.387711,
445.77154099999996,true,true,true,0.125,12.75,0.0,0,0,0,0.125,12.75,0.0,0,0,0,0.125,12.700000000000001,0.0,0,0,0,0.125,12.75,0.0,0,0,0,0.0,12.75,0.0,0,0,0,0.0,12.450000000000001,0.0,0,0,0,0.125,12.65,0.0,0,0,0,kForward,kReverse,-87.05,2.22,2.27,-0.039001465,-0.9667969,0.5407715,33.14,0.0,-62.0,-8.006073,12.387985,
445.78569899999997,true,true,true,0.125,12.35,0.0,0,0,0,0.125,12.35,0.0,0,0,0,0.125,12.35,0.0,0,0,0,0.125,12.35,0.0,0,0,0,0.0,12.35,0.0,0,0,0,0.0,12.35,0.0,0,0,0,0.125,12.4,0.0,0,0,0,kForward,kReverse,-87.08,2.19,2.25,-0.08807373,-1.1116943,0.64715576,33.14,0.0,-113.0,-8.00592,12.389099,
445.79788299999996,true,true,true,0.125,12.35,0.0,0,0,0,0.125,12.35,0.0,0,0,0,0.125,12.35,0.0,0,0,0,0.125,12.35,0.0,0,0,0,0.0,12.35,0.0,0,0,0,0.0,12.35,0.0,0,0,0,0.125,12.4,0.0,0,0,0,kForward,kReverse,-87.08,2.19,2.25,-0.08807373,-1.1116943,0.64715576,33.14,0.0,-113.0,-8.00592,12.389099,
445.809332,true,true,true,0.125,12.35,0.0,0,0,0,0.125,12.35,0.0,0,0,0,0.125,12.35,0.0,0,0,0,0.125,12.35,0.0,0,0,0,0.0,12.35,0.0,0,0,0,0.0,12.35,0.0,0,0,0,0.125,12.4,0.0,0,0,0,kForward,kReverse,-86.99,2.24,2.3,-0.11016846,-1.1999512,0.04333496,33.14,0.0,-157.0,-8.005951,12.390625,
445.819555,true,true,true,0.125,12.35,0.0,0,0,0,0.125,12.35,0.0,0,0,0,0.125,12.35,0.0,0,0,0,0.125,12.35,0.0,0,0,0,0.0,12.35,0.0,0,0,0,0.0,12.35,0.0,0,0,0,0.125,12.4,0.0,0,0,0,kForward,kReverse,-86.98,2.26,2.32,-0.21252441,-0.9854126,-0.38049316,33.14,0.0,-263.0,-8.006271,12.3918915,
445.83922599999994,true,true,true,0.125,12.35,0.0,0,0,0,0.125,12.35,0.0,0,0,0,0.125,12.35,0.0,0,0,0,0.125,12.35,0.0,0,0,0,0.0,12.35,0.0,0,0,0,0.0,12.35,0.0,0,0,0,0.125,12.4,0.0,0,0,0,kForward,kReverse,-86.97,2.25,2.31,-0.21234131,-0.69177246,-0.53338623,33.14,0.0,-255.0,-8.006943,12.392502,
445.859045,true,true,true,0.125,12.35,0.0,0,0,0,0.125,12.35,0.0,0,0,0,0.125,12.35,0.0,0,0,0,0.125,12.35,0.0,0,0,0,0.0,12.35,0.0,0,0,0,0.0,12.35,0.0,0,0,0,0.125,12.4,0.0,0,0,0,kForward,kReverse,-87.02,2.2,2.26,0.2387085,-0.87542725,-0.16033936,33.14,0.0,199.0,-8.008636,12.392136,
445.881832,true,true,true,0.125,12.35,0.0,0,0,0,0.125,12.35,0.0,0,0,0,0.125,12.35,0.0,0,0,0,0.125,12.35,0.0,0,0,0,0.0,12.35,0.0,0,0,0,0.0,12.35,0.0,0,0,0,0.125,12.4,0.0,0,0,0,kForward,kReverse,-87.01,2.2,2.25,0.2555542,-0.81677246,0.19976807,33.14,0.0,228.0,-8.009354,12.391251,
445.908886,true,true,true,0.125,12.35,0.0,0,0,0,0.125,12.35,0.0,0,0,0,0.125,12.35,0.0,0,0,0,0.125,12.35,0.0,0,0,0,0.125,12.35,0.0,0,0,0,0.0,12.35,0.0,0,0,0,0.125,12.4,0.0,0,0,0,kForward,kReverse,-87.01,2.2,2.25,0.2555542,-0.81677246,0.19976807,33.14,0.0,228.0,-8.009354,12.391251,
445.933336,true,true,true,0.125,12.35,0.0,0,0,0,0.125,12.3,0.0,0,0,0,0.125,12.35,0.0,0,0,0,0.125,12.35,0.0,0,0,0,0.125,12.35,0.0,0,0,0,0.0,12.35,0.0,0,0,0,0.125,12.4,0.0,0,0,0,kForward,kReverse,-87.02,2.15,2.21,0.16662598,-1.2629395,-0.09429932,33.14,0.0,114.0,-8.0091095,12.390366,
445.956868,true,true,true,0.125,12.3,0.0,0,0,0,0.125,12.3,0.0,0,0,0,0.125,12.3,0.0,0,0,0,0.125,12.35,0.0,0,0,0,0.125,12.35,0.0,0,0,0,0.0,12.3,0.0,0,0,0,0.125,12.35,0.0,0,0,0,kForward,kReverse,-87.08,2.19,2.25,-0.07092285,-1.1239014,0.6795654,33.14,0.0,-96.0,-8.008575,12.390198,
445.97971499999994,true,true,true,0.125,12.3,0.0,0,0,0,0.125,12.3,0.0,0,0,0,0.125,12.3,0.0,0,0,0,0.125,12.35,0.0,0,0,0,0.125,12.35,0.0,0,0,0,0.0,12.3,0.0,0,0,0,0.125,12.35,0.0,0,0,0,kForward,kReverse,-87.11,2.18,2.23,-0.03564453,-1.1311035,0.7949219,33.14,0.0,-57.0,-8.008453,12.391388,
446.002179,true,true,true,0.125,12.3,0.0,0,0,0,0.125,12.3,0.0,0,0,0,0.125,12.3,0.0,0,0,0,0.125,12.35,0.0,0,0,0,0.125,12.35,0.0,0,0,0,0.0,12.3,0.0,0,0,0,0.125,12.35,0.0,0,0,0,kForward,kReverse,-87.01,2.27,2.32,-0.17211914,-1.053894,-0.08416748,33.14,0.0,-217.0,-8.008575,12.395584,
446.026874,true,true,true,0.125,12.3,0.0,0,0,0,0.125,12.3,0.0,0,0,0,0.125,12.3,0.0,0,0,0,0.125,12.35,0.0,0,0,0,0.125,12.35,0.0,0,0,0,0.0,12.3,0.0,0,0,0,0.125,12.35,0.0,0,0,0,kForward,kReverse,-87.0,2.26,2.31,-0.2055664,-0.8175049,-0.42596436,33.14,0.0,-250.0,-8.009064,12.397415,
446.051069,true,true,true,0.125,12.3,0.0,0,0,0,0.125,12.3,0.0,0,0,0,0.125,12.3,0.0,0,0,0,0.125,12.35,0.0,0,0,0,0.125,12.35,0.0,0,0,0,0.0,12.3,0.0,0,0,0,0.125,12.35,0.0,0,0,0,kForward,kReverse,-87.04,2.2,2.25,0.16082764,-0.83551025,-0.2788086,33.14,0.0,119.0,-8.010574,12.399094,
446.07529999999997,true,true,true,0.125,12.3,0.0,0,0,0,0.125,12.3,0.0,0,0,0,0.125,12.3,0.0,0,0,0,0.125,12.35,0.0,0,0,0,0.125,12.35,0.0,0,0,0,0.0,12.3,0.0,0,0,0,0.125,12.35,0.0,0,0,0,kForward,kReverse,-87.02,2.19,2.25,0.2767334,-0.89172363,0.09777832,33.14,0.0,244.0,-8.011215,12.399719,
446.096625,true,true,true,0.125,12.3,0.0,0,0,0,0.125,12.3,0.0,0,0,0,0.125,12.3,0.0,0,0,0,0.125,12.35,0.0,0,0,0,0.125,12.35,0.0,0,0,0,0.0,12.3,0.0,0,0,0,0.125,12.35,0.0,0,0,0,kForward,kReverse,-87.02,2.17,2.23,0.2286377,-1.0095825,0.046936035,33.14,0.0,190.0,-8.011063,12.40007,
446.119915,true,true,true,0.125,12.3,0.0,0,0,0,0.125,12.3,0.0,0,0,0,0.125,12.25,0.0,0,0,0,0.125,12.3,0.0,0,0,0,0.0,12.3,0.0,0,0,0,0.0,12.3,0.0,0,0,0,0.125,12.35,0.0,0,0,0,kForward,kReverse,-87.05,2.22,2.28,-0.03314209,-1.2258911,0.23632812,33.14,0.0,-75.0,-8.01033,12.400955,
446.141222,true,true,true,0.125,12.3,0.0,0,0,0,0.125,12.3,0.0,0,0,0,0.125,12.25,0.0,0,0,0,0.125,12.3,0.0,0,0,0,0.0,12.3,0.0,0,0,0,0.0,12.3,0.0,0,0,0,0.125,12.35,0.0,0,0,0,kForward,kReverse,-87.1,2.2,2.26,-0.08258057,-0.9968872,0.61761475,33.14,0.0,-104.0,-8.010071,12.401993,
446.16119299999997,true,true,true,0.125,12.3,0.0,0,0,0,0.125,12.3,0.0,0,0,0,0.125,12.25,0.0,0,0,0,0.125,12.3,0.0,0,0,0,0.0,12.3,0.0,0,0,0,0.0,12.3,0.0,0,0,0,0.125,12.35,0.0,0,0,0,kForward,kReverse,-87.12,2.19,2.24,-0.029052734,-1.1472778,0.6248169,33.14,0.0,-56.0,-8.009933,12.403839,
446.18341499999997,true,true,true,0.125,12.3,0.0,0,0,0,0.125,12.3,0.0,0,0,0,0.125,12.25,0.0,0,0,0,0.125,12.3,0.0,0,0,0,0.0,12.3,0.0,0,0,0,0.0,12.3,0.0,0,0,0,0.125,12.35,0.0,0,0,0,kForward,kReverse,-87.01,2.27,2.33,-0.20300293,-0.894104,-0.33947754,33.14,0.0,-248.0,-8.010147,12.408356,
446.206938,true,true,true,0.125,12.3,0.0,0,0,0,0.125,12.3,0.0,0,0,0,0.125,12.25,0.0,0,0,0,0.125,12.3,0.0,0,0,0,0.125,12.3,0.0,0,0,0,0.0,12.3,0.0,0,0,0,0.125,12.35,0.0,0,0,0,kForward,kReverse,-86.98,2.24,2.3,-0.18572998,-0.70233154,-0.7526245,33.14,0.0,-235.0,-8.010712,12.4097595,
446.231142,true,true,true,0.125,12.3,0.0,0,0,0,0.125,12.3,0.0,0,0,0,0.125,12.25,0.0,0,0,0,0.125,12.3,0.0,0,0,0,0.125,12.3,0.0,0,0,0,0.0,12.3,0.0,0,0,0,0.125,12.35,0.0,0,0,0,kForward,kReverse,-87.03,2.21,2.27,0.28356934,-1.0044556,-0.19866943,33.14,0.0,237.0,-8.012054,12.410049,
446.25375199999996,true,true,true,0.125,12.3,0.0,0,0,0,0.125,12.3,0.0,0,0,0,0.125,12.25,0.0,0,0,0,0.125,12.3,0.0,0,0,0,0.125,12.3,0.0,0,0,0,0.0,12.3,0.0,0,0,0,0.125,12.35,0.0,0,0,0,kForward,kReverse,-87.03,2.21,2.26,0.2972412,-0.9491577,0.13916016,33.14,0.0,263.0,-8.012299,12.40979,
446.272919,true,true,true,0.125,12.25,0.0,0,0,0,0.125,12.25,0.0,0,0,0,0.125,12.25,0.0,0,0,0,0.125,12.3,0.0,0,0,0,0.125,12.25,0.0,0,0,0,0.0,12.25,0.0,0,0,0,0.125,12.35,0.0,0,0,0,kForward,kReverse,-87.04,2.18,2.24,0.18115234,-1.1712646,0.10119629,33.14,0.0,137.0,-8.011948,12.409546,
446.291276,true,true,true,0.125,12.25,0.0,0,0,0,0.125,12.25,0.0,0,0,0,0.125,12.25,0.0,0,0,0,0.125,12.3,0.0,0,0,0,0.125,12.25,0.0,0,0,0,0.0,12.25,0.0,0,0,0,0.125,12.35,0.0,0,0,0,kForward,kReverse,-87.07,2.2,2.26,0.026428223,-1.1922607,0.2652588,33.14,0.0,-13.0,-8.011581,12.409668,
446.31511,true,true,true,0.125,12.25,0.0,0,0,0,0.125,12.25,0.0,0,0,0,0.125,12.25,0.0,0,0,0,0.125,12.3,0.0,0,0,0,0.125,12.25,0.0,0,0,0,0.0,12.25,0.0,0,0,0,0.125,12.35,0.0,0,0,0,kForward,kReverse,-87.11,2.19,2.25,-0.030395508,-1.1087646,0.67755127,33.14,0.0,-54.0,-8.011124,12.411774,
446.3364389999999,true,true,true,0.125,12.25,0.0,0,0,0,0.125,12.25,0.0,0,0,0,0.125,12.25,0.0,0,0,0,0.125,12.3,0.0,0,0,0,0.125,12.25,0.0,0,0,0,0.0,12.25,0.0,0,0,0,0.125,12.35,0.0,0,0,0,kForward,kReverse,-87.07,2.23,2.29,-0.081604004,-1.1298218,0.35058594,33.14,0.0,-116.0,-8.011063,12.413879,
446.358547,true,true,true,0.125,12.25,0.0,0,0,0,0.125,12.25,0.0,0,0,0,0.125,12.25,0.0,0,0,0,0.125,12.3,0.0,0,0,0,0.125,12.25,0.0,0,0,0,0.0,12.25,0.0,0,0,0,0.125,12.35,0.0,0,0,0,kForward,kReverse,-86.97,2.26,2.32,-0.18457031,-0.7384033,-0.6477661,33.14,0.0,-232.0,-8.0117035,12.417709,
446.379352,true,true,true,0.125,12.25,0.0,0,0,0,0.125,12.25,0.0,0,0,0,0.125,12.25,0.0,0,0,0,0.125,12.3,0.0,0,0,0,0.125,12.25,0.0,0,0,0,0.0,12.25,0.0,0,0,0,0.125,12.35,0.0,0,0,0,kForward,kReverse,-86.98,2.23,2.29,0.020446777,-0.7130127,-0.6469116,33.14,0.0,-26.0,-8.01236,12.4184265,
446.402968,true,true,true,0.125,12.25,0.0,0,0,0,0.125,12.25,0.0,0,0,0,0.125,12.25,0.0,0,0,0,0.125,12.3,0.0,0,0,0,0.125,12.25,0.0,0,0,0,0.0,12.25,0.0,0,0,0,0.125,12.35,0.0,0,0,0,kForward,kReverse,-87.02,2.21,2.27,0.31732178,-0.9847412,0.17480469,33.14,0.0,282.0,-8.013092,12.4184265,
446.42707,true,true,true,0.125,12.25,0.0,0,0,0,0.125,12.25,0.0,0,0,0,0.125,12.25,0.0,0,0,0,0.125,12.3,0.0,0,0,0,0.0,12.25,0.0,0,0,0,0.0,12.25,0.0,0,0,0,0.125,12.35,0.0,0,0,0,kForward,kReverse,-87.01,2.19,2.25,0.237854,-0.9182739,0.13549805,33.14,0.0,205.0,-8.012955,12.418518,
446.450337,true,true,true,0.125,12.25,0.0,0,0,0,0.125,12.25,0.0,0,0,0,0.125,12.25,0.0,0,0,0,0.125,12.3,0.0,0,0,0,0.0,12.25,0.0,0,0,0,0.0,12.25,0.0,0,0,0,0.125,12.35,0.0,0,0,0,kForward,kReverse,-87.05,2.22,2.27,0.004699707,-1.203064,0.22839355,33.14,0.0,-36.0,-8.012161,12.419006,
446.47105,true,true,true,0.125,12.25,0.0,0,0,0,0.125,12.25,0.0,0,0,0,0.125,12.25,0.0,0,0,0,0.125,12.3,0.0,0,0,0,0.0,12.25,0.0,0,0,0,0.0,12.25,0.0,0,0,0,0.125,12.35,0.0,0,0,0,kForward,kReverse,-87.08,2.21,2.27,-0.0859375,-0.9747925,0.55529785,33.15,0.0,-108.0,-8.011841,12.4198,
446.49412899999993,true,true,true,0.125,12.25,0.0,0,0,0,0.125,12.25,0.0,0,0,0,0.125,12.25,0.0,0,0,0,0.125,12.3,0.0,0,0,0,0.0,12.25,0.0,0,0,0,0.0,12.25,0.0,0,0,0,0.125,12.35,0.0,0,0,0,kForward,kReverse,-87.05,2.25,2.31,-0.122924805,-1.1290894,0.26245117,33.15,0.0,-160.0,-8.011597,12.423462,
446.516277,true,true,true,0.125,12.25,0.0,0,0,0,0.125,12.25,0.0,0,0,0,0.125,12.25,0.0,0,0,0,0.125,12.3,0.0,0,0,0,0.125,12.25,0.0,0,0,0,0.0,12.25,0.0,0,0,0,0.125,12.35,0.0,0,0,0,kForward,kReverse,-86.99,2.27,2.33,-0.19366455,-0.904541,-0.2434082,33.15,0.0,-237.0,-8.011826,12.425537,
446.538336,true,true,true,0.125,12.25,0.0,0,0,0,0.125,12.25,0.0,0,0,0,0.125,12.25,0.0,0,0,0,0.125,12.3,0.0,0,0,0,0.125,12.25,0.0,0,0,0,0.0,12.25,0.0,0,0,0,0.125,12.35,0.0,0,0,0,kForward,kReverse,-86.97,2.23,2.29,0.07745361,-0.76068115,-0.63916016,33.15,0.0,28.0,-8.013031,12.427536,
446.55857299999997,true,true,true,0.125,12.25,0.0,0,0,0,0.125,12.25,0.0,0,0,0,0.125,12.25,0.0,0,0,0,0.125,12.3,0.0,0,0,0,0.125,12.25,0.0,0,0,0,0.0,12.25,0.0,0,0,0,0.125,12.35,0.0,0,0,0,kReverse,kReverse,-87.01,2.21,2.27,0.30413818,-0.9447632,0.2144165,33.15,0.0,272.0,-8.013641,12.427444,
446.586037,true,true,true,0.125,12.25,0.0,0,0,0,0.125,12.25,0.0,0,0,0,0.125,12.25,0.0,0,0,0,0.125,12.25,0.0,0,0,0,0.125,12.25,0.0,0,0,0,0.0,12.25,0.0,0,0,0,0.125,12.35,0.0,0,0,0,kReverse,kReverse,-87.0,2.19,2.25,0.24285889,-0.9688721,0.075927734,33.15,0.0,206.0,-8.013458,12.427551,
446.611455,true,true,true,0.125,12.25,0.0,0,0,0,0.125,12.25,0.0,0,0,0,0.125,12.25,0.0,0,0,0,0.125,12.25,0.0,0,0,0,0.125,12.25,0.0,0,0,0,0.0,12.25,0.0,0,0,0,0.125,12.35,0.0,0,0,0,kReverse,kReverse,-87.04,2.23,2.28,-0.03942871,-1.1488647,0.25048828,33.15,0.0,-78.0,-8.01265,12.428055,
446.631733,true,true,true,0.125,12.25,0.0,0,0,0,0.125,12.25,0.0,0,0,0,0.125,12.25,0.0,0,0,0,0.125,12.25,0.0,0,0,0,0.125,12.25,0.0,0,0,0,0.0,12.25,0.0,0,0,0,0.125,12.35,0.0,0,0,0,kReverse,kReverse,-87.08,2.22,2.27,-0.09063721,-0.99090576,0.57806396,33.15,0.0,-113.0,-8.012375,12.428925,
446.65561699999995,true,true,true,0.125,12.25,0.0,0,0,0,0.125,12.25,0.0,0,0,0,0.125,12.25,0.0,0,0,0,0.125,12.25,0.0,0,0,0,0.125,12.25,0.0,0,0,0,0.0,12.25,0.0,0,0,0,0.125,12.35,0.0,0,0,0,kReverse,kReverse,-87.03,2.26,2.32,-0.114746094,-1.0689697,0.15216064,33.15,0.0,-153.0,-8.012253,12.432602,
446.677958,true,true,true,0.125,12.25,0.0,0,0,0,0.125,12.25,0.0,0,0,0,0.125,12.25,0.0,0,0,0,0.125,12.25,0.0,0,0,0,0.125,12.25,0.0,0,0,0,0.0,12.25,0.0,0,0,0,0.125,12.35,0.0,0,0,0,kReverse,kReverse,-86.96,2.25,2.31,-0.10852051,-0.6751709,-0.6869507,33.15,0.0,-155.0,-8.013107,12.435425,
446.71113,true,true,true,0.125,12.25,0.0,0,0,0,0.125,12.25,0.0,0,0,0,0.125,12.25,0.0,0,0,0,0.125,12.25,0.0,0,0,0,0.125,12.25,0.0,0,0,0,0.0,12.25,0.0,0,0,0,0.125,12.35,0.0,0,0,0,kReverse,kReverse,-87.03,2.21,2.26,0.2901001,-0.98968506,0.09136963,33.15,0.0,253.0,-8.014008,12.43544,
446.735954,true,true,true,0.125,12.25,0.0,0,0,0,0.125,12.25,0.0,0,0,0,0.125,12.25,0.0,0,0,0,0.125,12.25,0.0,0,0,0,0.0,12.25,0.0,0,0,0,0.0,12.25,0.0,0,0,0,0.125,12.3,0.0,0,0,0,kReverse,kReverse,-87.03,2.18,2.23,0.28442383,-0.8997803,0.29699707,33.15,0.0,257.0,-8.013992,12.435501,
446.758903,true,true,true,0.125,12.25,0.0,0,0,0,0.125,12.25,0.0,0,0,0,0.125,12.25,0.0,0,0,0,0.125,12.25,0.0,0,0,0,0.0,12.25,0.0,0,0,0,0.0,12.25,0.0,0,0,0,0.125,12.3,0.0,0,0,0,kReverse,kReverse,-87.02,2.21,2.26,0.05657959,-1.2595825,0.16741943,33.15,0.0,11.0,-8.013214,12.436279,
446.782944,true,true,true,0.125,12.25,0.0,0,0,0,0.125,12.25,0.0,0,0,0,0.125,12.25,0.0,0,0,0,0.125,12.25,0.0,0,0,0,0.125,12.25,0.0,0,0,0,0.0,12.25,0.0,0,0,0,0.125,12.3,0.0,0,0,0,kReverse,kReverse,-87.05,2.21,2.27,-0.10333252,-0.99823,0.37579346,33.15,0.0,-132.0,-8.012833,12.4370575,
446.80607799999996,true,true,true,0.125,12.25,0.0,0,0,0,0.125,12.25,0.0,0,0,0,0.125,12.25,0.0,0,0,0,0.125,12.25,0.0,0,0,0,0.125,12.25,0.0,0,0,0,0.0,12.25,0.0,0,0,0,0.125,12.3,0.0,0,0,0,kReverse,kReverse,-87.07,2.23,2.29,-0.08514404,-1.1427002,0.37145996,33.15,0.0,-120.0,-8.012527,12.4405365,
446.829023,true,true,true,0.125,12.25,0.0,0,0,0,0.125,12.25,0.0,0,0,0,0.125,12.25,0.0,0,0,0,0.125,12.25,0.0,0,0,0,0.125,12.25,0.0,0,0,0,0.0,12.25,0.0,0,0,0,0.125,12.3,0.0,0,0,0,kReverse,kReverse,-86.96,2.25,2.31,-0.19018555,-0.73223877,-0.68151855,33.15,0.0,-239.0,-8.013107,12.444305,
446.853185,true,true,true,0.125,12.25,0.0,0,0,0,0.125,12.25,0.0,0,0,0,0.125,12.25,0.0,0,0,0,0.125,12.25,0.0,0,0,0,0.125,12.25,0.0,0,0,0,0.0,12.25,0.0,0,0,0,0.125,12.3,0.0,0,0,0,kReverse,kReverse,-86.97,2.23,2.29,0.059814453,-0.7786255,-0.586792,33.15,0.0,12.0,-8.013718,12.444992,
446.87640799999997,true,true,true,0.125,12.25,0.0,0,0,0,0.125,12.25,0.0,0,0,0,0.125,12.25,0.0,0,0,0,0.125,12.25,0.0,0,0,0,0.0,12.25,0.0,0,0,0,0.0,12.25,0.0,0,0,0,0.125,12.3,0.0,0,0,0,kReverse,kReverse,-87.01,2.21,2.26,0.3135376,-0.9505005,0.19299316,33.15,0.0,280.0,-8.014191,12.44516,
446.898184,true,true,true,0.125,12.25,0.0,0,0,0,0.125,12.25,0.0,0,0,0,0.125,12.200000000000001,0.0,0,0,0,0.125,12.25,0.0,0,0,0,0.0,12.25,0.0,0,0,0,0.0,12.25,0.0,0,0,0,0.125,12.3,0.0,0,0,0,kReverse,kReverse,-87.01,2.18,2.24,0.2538452,-0.93829346,0.15740967,33.15,0.0,221.0,-8.013916,12.445404,
446.920601,true,true,true,0.125,12.25,0.0,0,0,0,0.125,12.25,0.0,0,0,0,0.125,12.200000000000001,0.0,0,0,0,0.125,12.25,0.0,0,0,0,0.0,12.25,0.0,0,0,0,0.0,12.25,0.0,0,0,0,0.125,12.3,0.0,0,0,0,kReverse,kReverse,-87.04,2.22,2.28,-0.061828613,-1.0795898,0.27978516,33.15,0.0,-96.0,-8.012939,12.446365,
446.94256299999995,true,true,true,0.125,12.25,0.0,0,0,0,0.125,12.25,0.0,0,0,0,0.125,12.200000000000001,0.0,0,0,0,0.125,12.25,0.0,0,0,0,0.0,12.25,0.0,0,0,0,0.0,12.25,0.0,0,0,0,0.125,12.3,0.0,0,0,0,kReverse,kReverse,-87.08,2.21,2.26,-0.105529785,-0.9546509,0.6010742,33.15,0.0,-126.0,-8.012604,12.44751,
446.96558999999996,true,true,true,0.125,12.25,0.0,0,0,0,0.125,12.25,0.0,0,0,0,0.125,12.200000000000001,0.0,0,0,0,0.125,12.25,0.0,0,0,0,0.125,12.25,0.0,0,0,0,0.0,12.25,0.0,0,0,0,0.125,12.3,0.0,0,0,0,kReverse,kReverse,-87.01,2.27,2.33,-0.16003418,-1.0422974,0.046325684,33.13,0.0,-200.0,-8.012451,12.451508,
446.98821499999997,true,true,true,0.125,12.25,0.0,0,0,0,0.125,12.25,0.0,0,0,0,0.125,12.200000000000001,0.0,0,0,0,0.125,12.25,0.0,0,0,0,0.0,12.25,0.0,0,0,0,0.0,12.25,0.0,0,0,0,0.125,12.3,0.0,0,0,0,kReverse,kReverse,-86.96,2.27,2.33,-0.2119751,-0.7470093,-0.4845581,33.13,0.0,-255.0,-8.012787,12.453323,
447.01226999999994,true,true,true,0.125,12.25,0.0,0,0,0,0.125,12.25,0.0,0,0,0,0.125,12.200000000000001,0.0,0,0,0,0.125,12.25,0.0,0,0,0,0.0,12.25,0.0,0,0,0,0.0,12.25,0.0,0,0,0,0.125,12.3,0.0,0,0,0,kReverse,kReverse,-86.95,2.24,2.3,-0.04815674,-0.6963501,-0.7192383,33.13,0.0,-96.0,-8.013367,12.4543,
447.03587699999997,true,true,true,0.125,12.25,0.0,0,0,0,0.125,12.25,0.0,0,0,0,0.125,12.200000000000001,0.0,0,0,0,0.125,12.25,0.0,0,0,0,0.0,12.25,0.0,0,0,0,0.0,12.25,0.0,0,0,0,0.125,12.3,0.0,0,0,0,kReverse,kReverse,-86.99,2.22,2.27,0.3173828,-1.0272827,0.12628174,33.13,0.0,279.0,-8.014084,12.454468,
447.058299,true,true,true,0.125,12.25,0.0,0,0,0,0.125,12.25,0.0,0,0,0,0.125,12.200000000000001,0.0,0,0,0,0.125,12.25,0.0,0,0,0,0.0,12.200000000000001,0.0,0,0,0,0.0,12.200000000000001,0.0,0,0,0,0.125,12.25,0.0,0,0,0,kReverse,kReverse,-86.99,2.18,2.24,0.27618408,-0.9356079,0.17138672,33.13,0.0,243.0,-8.013947,12.45459,
447.084342,true,true,true,0.125,12.200000000000001,0.0,0,0,0,0.125,12.25,0.0,0,0,0,0.125,12.200000000000001,0.0,0,0,0,0.125,12.25,0.0,0,0,0,0.0,12.200000000000001,0.0,0,0,0,0.0,12.200000000000001,0.0,0,0,0,0.125,12.25,0.0,0,0,0,kReverse,kReverse,-87.02,2.23,2.28,-0.020996094,-1.1626587,0.1973877,33.13,0.0,-61.0,-8.013077,12.45517,
447.113499,true,true,true,0.125,12.200000000000001,0.0,0,0,0,0.125,12.25,0.0,0,0,0,0.125,12.200000000000001,0.0,0,0,0,0.125,12.25,0.0,0,0,0,0.0,12.200000000000001,0.0,0,0,0,0.0,12.200000000000001,0.0,0,0,0,0.125,12.25,0.0,0,0,0,kReverse,kReverse,-87.07,2.21,2.27,-0.04827881,-1.154602,0.5847168,33.13,0.0,-77.0,-8.012573,12.45752,
447.13617999999997,true,true,true,0.125,12.200000000000001,0.0,0,0,0,0.125,12.25,0.0,0,0,0,0.125,12.200000000000001,0.0,0,0,0,0.125,12.25,0.0,0,0,0,0.125,12.200000000000001,0.0,0,0,0,0.0,12.200000000000001,0.0,0,0,0,0.125,12.25,0.0,0,0,0,kReverse,kReverse,-87.01,2.27,2.32,-0.12670898,-1.0727539,0.15472412,33.13,0.0,-165.0,-8.012558,12.459518,
447.157929,true,true,true,0.125,12.200000000000001,0.0,0,0,0,0.125,12.25,0.0,0,0,0,0.125,12.200000000000001,0.0,0,0,0,0.125,12.25,0.0,0,0,0,0.125,12.200000000000001,0.0,0,0,0,0.0,12.200000000000001,0.0,0,0,0,0.125,12.25,0.0,0,0,0,kReverse,kReverse,-86.94,2.24,2.3,-0.076049805,-0.7095337,-0.65423584,33.13,0.0,-123.0,-8.013382,12.462326,
447.176809,true,true,true,0.125,12.200000000000001,0.0,0,0,0,0.125,12.25,0.0,0,0,0,0.125,12.200000000000001,0.0,0,0,0,0.125,12.25,0.0,0,0,0,0.0,12.200000000000001,0.0,0,0,0,0.0,12.200000000000001,0.0,0,0,0,0.125,12.25,0.0,0,0,0,kReverse,kReverse,-86.96,2.23,2.29,0.2053833,-0.88531494,-0.47003174,33.13,0.0,156.0,-8.013901,12.462555,
447.197392,true,true,true,0.125,12.200000000000001,0.0,0,0,0,0.125,12.25,0.0,0,0,0,0.125,12.200000000000001,0.0,0,0,0,0.125,12.25,0.0,0,0,0,0.0,12.200000000000001,0.0,0,0,0,0.0,12.200000000000001,0.0,0,0,0,0.125,12.25,0.0,0,0,0,kReverse,kReverse,-87.0,2.22,2.27,0.2977295,-0.9857788,0.09643555,33.13,0.0,260.0,-8.014145,12.462463,
447.218305,true,true,true,0.125,12.200000000000001,0.0,0,0,0,0.125,12.200000000000001,0.0,0,0,0,0.125,12.200000000000001,0.0,0,0,0,0.125,12.25,0.0,0,0,0,0.0,12.200000000000001,0.0,0,0,0,0.0,12.200000000000001,0.0,0,0,0,0.125,12.25,0.0,0,0,0,kReverse,kReverse,-86.99,2.19,2.25,0.18804932,-1.1652832,0.10601807,33.13,0.0,144.0,-8.013641,12.462845,
447.24242699999996,true,true,true,0.125,12.200000000000001,0.0,0,0,0,0.125,12.200000000000001,0.0,0,0,0,0.125,12.200000000000001,0.0,0,0,0,0.125,12.25,0.0,0,0,0,0.0,12.200000000000001,0.0,0,0,0,0.0,12.200000000000001,0.0,0,0,0,0.125,12.25,0.0,0,0,0,kReverse,kReverse,-87.01,2.22,2.28,0.0017700195,-1.1603394,0.23632812,33.13,0.0,-37.0,-8.013184,12.463303,
447.259007,true,true,true,0.125,12.200000000000001,0.0,0,0,0,0.125,12.200000000000001,0.0,0,0,0,0.125,12.200000000000001,0.0,0,0,0,0.125,12.25,0.0,0,0,0,0.0,12.200000000000001,0.0,0,0,0,0.0,12.200000000000001,0.0,0,0,0,0.125,12.25,0.0,0,0,0,kReverse,kReverse,-87.06,2.21,2.27,-0.05053711,-1.2212524,0.52996826,33.13,0.0,-83.0,-8.01265,12.465851,
447.28002299999997,true,true,true,0.125,12.200000000000001,0.0,0,0,0,0.125,12.200000000000001,0.0,0,0,0,0.125,12.200000000000001,0.0,0,0,0,0.125,12.25,0.0,0,0,0,0.0,12.200000000000001,0.0,0,0,0,0.0,12.200000000000001,0.0,0,0,0,0.125,12.25,0.0,0,0,0,kReverse,kReverse,-87.02,2.26,2.31,-0.12109375,-1.1248779,0.19390869,33.13,0.0,-160.0,-8.012619,12.4678955,
447.30340099999995,true,true,true,0.125,12.200000000000001,0.0,0,0,0,0.125,12.200000000000001,0.0,0,0,0,0.125,12.200000000000001,0.0,0,0,0,0.125,12.25,0.0,0,0,0,0.0,12.200000000000001,0.0,0,0,0,0.0,12.200000000000001,0.0,0,0,0,0.125,12.25,0.0,0,0,0,kReverse,kReverse,-86.94,2.24,2.3,-0.089660645,-0.67822266,-0.7247925,33.13,0.0,-137.0,-8.013397,12.470932,
447.32855199999995,true,true,true,0.125,12.200000000000001,0.0,0,0,0,0.125,12.200000000000001,0.0,0,0,0,0.125,12.200000000000001,0.0,0,0,0,0.125,12.25,0.0,0,0,0,0.0,12.200000000000001,0.0,0,0,0,0.0,12.200000000000001,0.0,0,0,0,0.125,12.25,0.0,0,0,0,kReverse,kReverse,-86.96,2.23,2.29,0.1987915,-0.9024658,-0.44433594,33.13,0.0,150.0,-8.013916,12.471222,
447.351853,true,true,true,0.125,12.200000000000001,0.0,0,0,0,0.125,12.200000000000001,0.0,0,0,0,0.125,12.200000000000001,0.0,0,0,0,0.125,12.25,0.0,0,0,0,0.125,12.200000000000001,0.0,0,0,0,0.0,12.200000000000001,0.0,0,0,0,0.125,12.25,0.0,0,0,0,kReverse,kReverse,-86.99,2.18,2.24,0.27752686,-0.92736816,0.16723633,33.13,0.0,245.0,-8.014008,12.471359,
447.37264999999996,true,true,true,0.125,12.200000000000001,0.0,0,0,0,0.125,12.200000000000001,0.0,0,0,0,0.125,12.200000000000001,0.0,0,0,0,0.125,12.25,0.0,0,0,0,0.0,12.200000000000001,0.0,0,0,0,0.0,12.200000000000001,0.0,0,0,0,0.125,12.25,0.0,0,0,0,kReverse,kReverse,-87.0,2.19,2.25,0.19372559,-1.2068481,0.0635376,33.13,0.0,147.0,-8.013611,12.471603,
447.397925,true,true,true,0.125,12.200000000000001,0.0,0,0,0,0.125,12.200000000000001,0.0,0,0,0,0.125,12.200000000000001,0.0,0,0,0,0.125,12.200000000000001,0.0,0,0,0,0.0,12.200000000000001,0.0,0,0,0,0.0,12.200000000000001,0.0,0,0,0,0.125,12.25,0.0,0,0,0,kReverse,kReverse,-87.07,2.21,2.26,-0.1171875,-0.90600586,0.52508545,33.13,0.0,-138.0,-8.012833,12.472763,
447.417902,true,true,true,0.125,12.200000000000001,0.0,0,0,0,0.125,12.200000000000001,0.0,0,0,0,0.125,12.200000000000001,0.0,0,0,0,0.125,12.200000000000001,0.0,0,0,0,0.0,12.200000000000001,0.0,0,0,0,0.0,12.200000000000001,0.0,0,0,0,0.125,12.25,0.0,0,0,0,kReverse,kReverse,-87.07,2.21,2.27,-0.053466797,-1.1715088,0.53552246,33.13,0.0,-84.0,-8.01265,12.474258,
447.439945,true,true,true,0.125,12.200000000000001,0.0,0,0,0,0.125,12.200000000000001,0.0,0,0,0,0.125,12.200000000000001,0.0,0,0,0,0.125,12.200000000000001,0.0,0,0,0,0.0,12.200000000000001,0.0,0,0,0,0.0,12.200000000000001,0.0,0,0,0,0.125,12.25,0.0,0,0,0,kReverse,kReverse,-86.96,2.27,2.33,-0.2355957,-0.8071289,-0.41229248,33.13,0.0,-279.0,-8.012985,12.477814,
447.46507299999996,true,true,true,0.125,12.200000000000001,0.0,0,0,0,0.125,12.200000000000001,0.0,0,0,0,0.125,12.200000000000001,0.0,0,0,0,0.125,12.200000000000001,0.0,0,0,0,0.0,12.200000000000001,0.0,0,0,0,0.0,12.200000000000001,0.0,0,0,0,0.125,12.25,0.0,0,0,0,kReverse,kReverse,-86.95,2.23,2.29,-0.052246094,-0.7225952,-0.649292,33.13,0.0,-99.0,-8.01358,12.478714,
447.488159,true,true,true,0.125,12.200000000000001,0.0,0,0,0,0.125,12.200000000000001,0.0,0,0,0,0.125,12.200000000000001,0.0,0,0,0,0.125,12.200000000000001,0.0,0,0,0,0.0,12.200000000000001,0.0,0,0,0,0.0,12.200000000000001,0.0,0,0,0,0.125,12.25,0.0,0,0,0,kReverse,kReverse,-87.01,2.21,2.26,0.30725098,-0.9851074,0.11828613,33.15,0.0,271.0,-8.014328,12.47876,
447.513445,true,true,true,0.125,12.200000000000001,0.0,0,0,0,0.125,12.200000000000001,0.0,0,0,0,0.125,12.200000000000001,0.0,0,0,0,0.125,12.200000000000001,0.0,0,0,0,0.0,12.200000000000001,0.0,0,0,0,0.0,12.200000000000001,0.0,0,0,0,0.125,12.25,0.0,0,0,0,kReverse,kReverse,-87.01,2.17,2.23,0.29852295,-0.93273926,0.17596436,33.15,0.0,142.0,-8.013748,12.479095,
447.53473799999995,true,true,true,0.125,12.200000000000001,0.0,0,0,0,0.125,12.200000000000001,0.0,0,0,0,0.125,12.200000000000001,0.0,0,0,0,0.125,12.200000000000001,0.0,0,0,0,0.0,12.200000000000001,0.0,0,0,0,0.0,12.200000000000001,0.0,0,0,0,0.125,12.25,0.0,0,0,0,kReverse,kReverse,-87.02,2.22,2.28,-0.04272461,-1.1073608,0.26776123,33.15,0.0,-79.0,-8.013275,12.4796295,
447.55823599999997,true,true,true,0.125,12.200000000000001,0.0,0,0,0,0.125,12.200000000000001,0.0,0,0,0,0.125,12.200000000000001,0.0,0,0,0,0.125,12.200000000000001,0.0,0,0,0,0.0,12.200000000000001,0.0,0,0,0,0.0,12.200000000000001,0.0,0,0,0,0.125,12.25,0.0,0,0,0,kReverse,kReverse,-87.05,2.22,2.28,-0.07159424,-1.2024536,0.4833374,33.15,0.0,-105.0,-8.012787,12.482361,
447.581262,true,true,true,0.125,12.200000000000001,0.0,0,0,0,0.125,12.200000000000001,0.0,0,0,0,0.125,12.200000000000001,0.0,0,0,0,0.125,12.200000000000001,0.0,0,0,0,0.0,12.200000000000001,0.0,0,0,0,0.0,12.200000000000001,0.0,0,0,0,0.125,12.25,0.0,0,0,0,kReverse,kReverse,-86.99,2.27,2.33,-0.1564331,-1.0241089,0.044189453,33.15,0.0,-196.0,-8.012833,12.484375,
447.604576,true,true,true,0.125,12.200000000000001,0.0,0,0,0,0.125,12.200000000000001,0.0,0,0,0,0.125,12.200000000000001,0.0,0,0,0,0.125,12.200000000000001,0.0,0,0,0,0.125,12.200000000000001,0.0,0,0,0,0.0,12.200000000000001,0.0,0,0,0,0.125,12.25,0.0,0,0,0,kReverse,kReverse,-86.93,2.24,2.3,0.010498047,-0.74468994,-0.6453247,33.15,0.0,-37.0,-8.013748,12.486923,
447.627503,true,true,true,0.125,12.200000000000001,0.0,0,0,0,0.125,12.200000000000001,0.0,0,0,0,0.125,12.200000000000001,0.0,0,0,0,0.125,12.200000000000001,0.0,0,0,0,0.125,12.200000000000001,0.0,0,0,0,0.0,12.200000000000001,0.0,0,0,0,0.125,12.25,0.0,0,0,0,kReverse,kReverse,-86.95,2.23,2.29,0.2723999,-0.95751953,-0.2680664,33.15,0.0,226.0,-8.014175,12.487137,
447.65131199999996,true,true,true,0.125,12.200000000000001,0.0,0,0,0,0.125,12.200000000000001,0.0,0,0,0,0.125,12.200000000000001,0.0,0,0,0,0.125,12.200000000000001,0.0,0,0,0,0.0,12.200000000000001,0.0,0,0,0,0.0,12.200000000000001,0.0,0,0,0,0.125,12.25,0.0,0,0,0,kReverse,kReverse,-86.97,2.19,2.25,0.27563477,-0.97491455,0.1593628,33.15,0.0,241.0,-8.013977,12.487457,
447.673372,true,true,true,0.125,12.200000000000001,0.0,0,0,0,0.125,12.200000000000001,0.0,0,0,0,0.125,12.200000000000001,0.0,0,0,0,0.125,12.200000000000001,0.0,0,0,0,0.0,12.200000000000001,0.0,0,0,0,0.0,12.200000000000001,0.0,0,0,0,0.125,12.25,0.0,0,0,0,kReverse,kReverse,-86.98,2.21,2.27,0.11859131,-1.2609253,0.1149292,33.15,0.0,71.0,-8.0134735,12.487839,
447.693813,true,true,true,0.125,12.200000000000001,0.0,0,0,0,0.125,12.200000000000001,0.0,0,0,0,0.125,12.200000000000001,0.0,0,0,0,0.125,12.200000000000001,0.0,0,0,0,0.0,12.200000000000001,0.0,0,0,0,0.0,12.200000000000001,0.0,0,0,0,0.125,12.25,0.0,0,0,0,kReverse,kReverse,-87.06,2.21,2.27,-0.08770752,-0.9828491,0.5756836,33.15,0.0,-110.0,-8.012711,12.489578,
447.714502,true,true,true,0.125,12.200000000000001,0.0,0,0,0,0.125,12.200000000000001,0.0,0,0,0,0.125,12.200000000000001,0.0,0,0,0,0.125,12.200000000000001,0.0,0,0,0,0.0,12.200000000000001,0.0,0,0,0,0.0,12.200000000000001,0.0,0,0,0,0.125,12.25,0.0,0,0,0,kReverse,kReverse,-87.03,2.25,2.3,-0.07977295,-1.2027588,0.40509033,33.15,0.0,-116.0,-8.012573,12.491348,
447.735565,true,true,true,0.125,12.200000000000001,0.0,0,0,0,0.125,12.200000000000001,0.0,0,0,0,0.125,12.200000000000001,0.0,0,0,0,0.125,12.200000000000001,0.0,0,0,0,0.0,12.200000000000001,0.0,0,0,0,0.0,12.200000000000001,0.0,0,0,0,0.125,12.25,0.0,0,0,0,kReverse,kReverse,-86.97,2.28,2.34,-0.17816162,-0.9491577,-0.06414795,33.15,0.0,-218.0,-8.01265,12.493317,
447.757508,true,true,true,0.125,12.200000000000001,0.0,0,0,0,0.125,12.200000000000001,0.0,0,0,0,0.125,12.200000000000001,0.0,0,0,0,0.125,12.200000000000001,0.0,0,0,0,0.0,12.200000000000001,0.0,0,0,0,0.0,12.200000000000001,0.0,0,0,0,0.125,12.25,0.0,0,0,0,kReverse,kReverse,-86.94,2.24,2.3,0.08984375,-0.78027344,-0.5753174,33.15,0.0,42.0,-8.01355,12.495438,
447.778695,true,true,true,0.125,12.200000000000001,0.0,0,0,0,0.125,12.200000000000001,0.0,0,0,0,0.125,12.200000000000001,0.0,0,0,0,0.125,12.200000000000001,0.0,0,0,0,0.0,12.200000000000001,0.0,0,0,0,0.0,12.200000000000001,0.0,0,0,0,0.125,12.25,0.0,0,0,0,kReverse,kReverse,-86.98,2.21,2.27,0.30371094,-0.9355469,0.21008301,33.15,0.0,271.0,-8.01384,12.495605,
447.79981899999996,true,true,true,0.125,12.200000000000001,0.0,0,0,0,0.125,12.200000000000001,0.0,0,0,0,0.125,12.200000000000001,0.0,0,0,0,0.125,12.200000000000001,0.0,0,0,0,0.0,12.200000000000001,0.0,0,0,0,0.0,12.200000000000001,0.0,0,0,0,0.125,12.25,0.0,0,0,0,kReverse,kReverse,-86.97,2.19,2.25,0.22735596,-1.041626,0.09918213,33.15,0.0,188.0,-8.013489,12.495834,
447.819923,true,true,true,0.125,12.200000000000001,0.0,0,0,0,0.125,12.200000000000001,0.0,0,0,0,0.125,12.200000000000001,0.0,0,0,0,0.125,12.200000000000001,0.0,0,0,0,0.0,12.200000000000001,0.0,0,0,0,0.0,12.200000000000001,0.0,0,0,0,0.125,12.25,0.0,0,0,0,kReverse,kReverse,-86.98,2.22,2.28,0.050720215,-1.2380981,0.15283203,33.15,0.0,5.0,-8.0130005,12.49617,
447.840046,true,true,true,0.125,12.200000000000001,0.0,0,0,0,0.125,12.200000000000001,0.0,0,0,0,0.125,12.200000000000001,0.0,0,0,0,0.125,12.200000000000001,0.0,0,0,0,0.0,12.200000000000001,0.0,0,0,0,0.0,12.200000000000001,0.0,0,0,0,0.125,12.25,0.0,0,0,0,kReverse,kReverse,-87.04,2.22,2.28,-0.07611084,-1.0828857,0.60375977,33.15,0.0,-102.0,-8.01239,12.498184,
447.86506299999996,true,true,true,0.125,12.200000000000001,0.0,0,0,0,0.125,12.200000000000001,0.0,0,0,0,0.125,12.200000000000001,0.0,0,0,0,0.125,12.200000000000001,0.0,0,0,0,0.0,12.200000000000001,0.0,0,0,0,0.0,12.200000000000001,0.0,0,0,0,0.125,12.25,0.0,0,0,0,kReverse,kReverse,-87.0,2.26,2.32,-0.09375,-1.1526489,0.30932617,33.15,0.0,-131.0,-8.012314,12.500092,
447.894726,true,true,true,0.125,12.200000000000001,0.0,0,0,0,0.125,12.200000000000001,0.0,0,0,0,0.125,12.200000000000001,0.0,0,0,0,0.125,12.200000000000001,0.0,0,0,0,0.125,12.200000000000001,0.0,0,0,0,0.0,12.200000000000001,0.0,0,0,0,0.125,12.25,0.0,0,0,0,kReverse,kReverse,-86.93,2.23,2.29,0.19396973,-0.86468506,-0.47979736,33.15,0.0,145.0,-8.013504,12.503601,
447.92001,true,true,true,0.125,12.200000000000001,0.0,0,0,0,0.125,12.200000000000001,0.0,0,0,0,0.125,12.200000000000001,0.0,0,0,0,0.125,12.200000000000001,0.0,0,0,0,0.125,12.200000000000001,0.0,0,0,0,0.0,12.200000000000001,0.0,0,0,0,0.125,12.25,0.0,0,0,0,kReverse,kReverse,-86.96,2.22,2.28,0.31256104,-1.001831,0.08312988,33.15,0.0,274.0,-8.013718,12.503677,
447.941894,true,true,true,0.125,12.200000000000001,0.0,0,0,0,0.125,12.200000000000001,0.0,0,0,0,0.125,12.200000000000001,0.0,0,0,0,0.125,12.200000000000001,0.0,0,0,0,0.125,12.200000000000001,0.0,0,0,0,0.0,12.200000000000001,0.0,0,0,0,0.125,12.25,0.0,0,0,0,kReverse,kReverse,-86.97,2.19,2.25,0.19744873,-1.1895752,0.101501465,33.15,0.0,153.0,-8.013153,12.504211,
447.96667199999996,true,true,true,0.125,12.200000000000001,0.0,0,0,0,0.125,12.200000000000001,0.0,0,0,0,0.125,12.200000000000001,0.0,0,0,0,0.125,12.200000000000001,0.0,0,0,0,0.125,12.200000000000001,0.0,0,0,0,0.0,12.200000000000001,0.0,0,0,0,0.125,12.25,0.0,0,0,0,kReverse,kReverse,-86.99,2.22,2.28,-0.021606445,-1.1138916,0.21972656,33.15,0.0,-59.0,-8.012665,12.504684,
447.990625,true,true,true,0.125,12.200000000000001,0.0,0,0,0,0.125,12.200000000000001,0.0,0,0,0,0.125,12.200000000000001,0.0,0,0,0,0.125,12.200000000000001,0.0,0,0,0,0.125,12.200000000000001,0.0,0,0,0,0.0,12.200000000000001,0.0,0,0,0,0.125,12.25,0.0,0,0,0,kReverse,kReverse,-87.03,2.22,2.28,-0.061767578,-1.2268677,0.5010376,33.19,0.0,-96.0,-8.0121155,12.507248,
448.01545999999996,true,true,true,0.125,12.200000000000001,0.0,0,0,0,0.125,12.200000000000001,0.0,0,0,0,0.125,12.200000000000001,0.0,0,0,0,0.125,12.200000000000001,0.0,0,0,0,0.125,12.200000000000001,0.0,0,0,0,0.0,12.200000000000001,0.0,0,0,0,0.125,12.25,0.0,0,0,0,kReverse,kReverse,-86.93,2.27,2.33,-0.21356201,-0.74383545,-0.5043335,33.19,0.0,-257.0,-8.012436,12.510849,
448.03928599999995,true,true,true,0.125,12.200000000000001,0.0,0,0,0,0.125,12.200000000000001,0.0,0,0,0,0.125,12.200000000000001,0.0,0,0,0,0.125,12.200000000000001,0.0,0,0,0,0.0,12.200000000000001,0.0,0,0,0,0.0,12.200000000000001,0.0,0,0,0,0.125,12.25,0.0,0,0,0,kReverse,kReverse,-86.91,2.24,2.3,0.028564453,-0.7296753,-0.7036133,33.19,0.0,-20.0,-8.012924,12.511642,
448.06120999999996,true,true,true,0.125,12.200000000000001,0.0,0,0,0,0.125,12.200000000000001,0.0,0,0,0,0.125,12.200000000000001,0.0,0,0,0,0.125,12.200000000000001,0.0,0,0,0,0.0,12.200000000000001,0.0,0,0,0,0.0,12.200000000000001,0.0,0,0,0,0.125,12.25,0.0,0,0,0,kReverse,kReverse,-86.96,2.21,2.27,0.32788086,-0.9962158,0.21447754,33.19,0.0,293.0,-8.013275,12.511765,
448.08101999999997,true,true,true,0.125,12.200000000000001,0.0,0,0,0,0.125,12.200000000000001,0.0,0,0,0,0.125,12.200000000000001,0.0,0,0,0,0.125,12.200000000000001,0.0,0,0,0,0.0,12.200000000000001,0.0,0,0,0,0.0,12.200000000000001,0.0,0,0,0,0.125,12.25,0.0,0,0,0,kReverse,kReverse,-86.96,2.19,2.25,0.26654053,-1.0250244,0.1638794,33.19,0.0,230.0,-8.012909,12.511978,
448.110717,true,true,true,0.125,12.200000000000001,0.0,0,0,0,0.125,12.200000000000001,0.0,0,0,0,0.125,12.200000000000001,0.0,0,0,0,0.125,12.200000000000001,0.0,0,0,0,0.0,12.200000000000001,0.0,0,0,0,0.0,12.200000000000001,0.0,0,0,0,0.125,12.25,0.0,0,0,0,kReverse,kReverse,-87.0,2.23,2.28,-0.12036133,-0.930603,0.3223877,33.19,0.0,-148.0,-8.011948,12.51297,
448.13857499999995,true,true,true,0.125,12.200000000000001,0.0,0,0,0,0.125,12.200000000000001,0.0,0,0,0,0.125,12.200000000000001,0.0,0,0,0,0.125,12.200000000000001,0.0,0,0,0,0.0,12.200000000000001,0.0,0,0,0,0.0,12.200000000000001,0.0,0,0,0,0.125,12.25,0.0,0,0,0,kReverse,kReverse,-87.02,2.25,2.3,-0.08050537,-1.1651001,0.3838501,33.19,0.0,-116.0,-8.011536,12.515976,
448.16114799999997,true,true,true,0.125,12.200000000000001,0.0,0,0,0,0.125,12.200000000000001,0.0,0,0,0,0.125,12.200000000000001,0.0,0,0,0,0.125,12.200000000000001,0.0,0,0,0,0.0,12.200000000000001,0.0,0,0,0,0.0,12.200000000000001,0.0,0,0,0,0.125,12.25,0.0,0,0,0,kReverse,kReverse,-86.95,2.27,2.33,-0.20477295,-0.8241577,-0.22314453,33.19,0.0,-244.0,-8.011642,12.517853,
448.185003,true,true,true,0.125,12.200000000000001,0.0,0,0,0,0.125,12.200000000000001,0.0,0,0,0,0.125,12.15,0.0,0,0,0,0.125,12.200000000000001,0.0,0,0,0,0.125,12.200000000000001,0.0,0,0,0,0.0,12.200000000000001,0.0,0,0,0,0.125,12.25,0.0,0,0,0,kReverse,kReverse,-86.93,2.22,2.28,0.17810059,-0.8892212,-0.50006104,33.19,0.0,128.0,-8.012512,12.519455,
448.208141,true,true,true,0.125,12.200000000000001,0.0,0,0,0,0.125,12.200000000000001,0.0,0,0,0,0.125,12.15,0.0,0,0,0,0.125,12.200000000000001,0.0,0,0,0,0.125,12.200000000000001,0.0,0,0,0,0.0,12.200000000000001,0.0,0,0,0,0.125,12.25,0.0,0,0,0,kReverse,kReverse,-86.96,2.21,2.27,0.30633545,-1.0421753,0.04309082,33.19,0.0,265.0,-8.012695,12.51947,
448.23120499999993,true,true,true,0.125,12.200000000000001,0.0,0,0,0,0.125,12.200000000000001,0.0,0,0,0,0.125,12.15,0.0,0,0,0,0.125,12.200000000000001,0.0,0,0,0,0.125,12.200000000000001,0.0,0,0,0,0.0,12.200000000000001,0.0,0,0,0,0.125,12.25,0.0,0,0,0,kReverse,kReverse,-86.97,2.18,2.24,0.20141602,-1.2312622,0.09094238,33.19,0.0,155.0,-8.012024,12.519882,
448.253427,true,true,true,0.125,12.200000000000001,0.0,0,0,0,0.125,12.200000000000001,0.0,0,0,0,0.125,12.15,0.0,0,0,0,0.125,12.200000000000001,0.0,0,0,0,0.125,12.200000000000001,0.0,0,0,0,0.0,12.200000000000001,0.0,0,0,0,0.125,12.25,0.0,0,0,0,kReverse,kReverse,-86.99,2.21,2.27,-0.036499023,-1.125,0.1618042,33.19,0.0,-76.0,-8.01149,12.520279,
448.27361099999996,true,true,true,0.125,12.200000000000001,0.0,0,0,0,0.125,12.200000000000001,0.0,0,0,0,0.125,12.15,0.0,0,0,0,0.125,12.200000000000001,0.0,0,0,0,0.125,12.200000000000001,0.0,0,0,0,0.0,12.200000000000001,0.0,0,0,0,0.125,12.25,0.0,0,0,0,kReverse,kReverse,-87.04,2.2,2.25,-0.13256836,-0.8637085,0.5115967,33.19,0.0,-152.0,-8.011108,12.521088,
448.293592,true,true,true,0.125,12.200000000000001,0.0,0,0,0,0.125,12.200000000000001,0.0,0,0,0,0.125,12.15,0.0,0,0,0,0.125,12.200000000000001,0.0,0,0,0,0.0,12.200000000000001,0.0,0,0,0,0.0,12.200000000000001,0.0,0,0,0,0.125,12.25,0.0,0,0,0,kReverse,kReverse,-86.97,2.26,2.32,-0.15759277,-0.9817505,0.0592041,33.19,0.0,-195.0,-8.010895,12.524368,
448.315146,true,true,true,0.125,12.200000000000001,0.0,0,0,0,0.125,12.200000000000001,0.0,0,0,0,0.125,12.15,0.0,0,0,0,0.125,12.200000000000001,0.0,0,0,0,0.0,12.200000000000001,0.0,0,0,0,0.0,12.200000000000001,0.0,0,0,0,0.125,12.25,0.0,0,0,0,kReverse,kReverse,-86.91,2.26,2.32,-0.22076416,-0.7581177,-0.50390625,33.19,0.0,-265.0,-8.0112,12.525833,
448.336442,true,true,true,0.125,12.200000000000001,0.0,0,0,0,0.125,12.200000000000001,0.0,0,0,0,0.125,12.15,0.0,0,0,0,0.125,12.200000000000001,0.0,0,0,0,0.125,12.200000000000001,0.0,0,0,0,0.0,12.200000000000001,0.0,0,0,0,0.125,12.200000000000001,0.0,0,0,0,kReverse,kReverse,-86.91,2.23,2.29,0.04333496,-0.7786865,-0.62158203,33.19,0.0,-5.0,-8.011688,12.52652,
448.358884,true,true,true,0.125,12.200000000000001,0.0,0,0,0,0.125,12.200000000000001,0.0,0,0,0,0.125,12.15,0.0,0,0,0,0.125,12.200000000000001,0.0,0,0,0,0.125,12.200000000000001,0.0,0,0,0,0.0,12.15,0.0,0,0,0,0.125,12.200000000000001,0.0,0,0,0,kReverse,kReverse,-86.97,2.19,2.25,0.31329346,-0.979126,0.19104004,33.19,0.0,279.0,-8.011978,12.526535,
448.37794999999994,true,true,true,0.125,12.200000000000001,0.0,0,0,0,0.125,12.200000000000001,0.0,0,0,0,0.125,12.15,0.0,0,0,0,0.125,12.200000000000001,0.0,0,0,0,0.0,12.200000000000001,0.0,0,0,0,0.0,12.15,0.0,0,0,0,0.125,12.200000000000001,0.0,0,0,0,kReverse,kReverse,-86.97,2.18,2.24,0.23736572,-1.0241089,0.13018799,33.19,0.0,200.0,-8.011627,12.526657,
448.398781,true,true,true,0.125,12.200000000000001,0.0,0,0,0,0.125,12.200000000000001,0.0,0,0,0,0.125,12.15,0.0,0,0,0,0.125,12.200000000000001,0.0,0,0,0,0.0,12.200000000000001,0.0,0,0,0,0.0,12.15,0.0,0,0,0,0.125,12.200000000000001,0.0,0,0,0,kReverse,kReverse,-87.01,2.21,2.27,-0.121398926,-0.8520508,0.39245605,33.19,0.0,-144.0,-8.010712,12.527512,
448.42536,true,true,true,0.125,12.200000000000001,0.0,0,0,0,0.125,12.200000000000001,0.0,0,0,0,0.125,12.15,0.0,0,0,0,0.125,12.200000000000001,0.0,0,0,0,0.0,12.200000000000001,0.0,0,0,0,0.0,12.15,0.0,0,0,0,0.125,12.200000000000001,0.0,0,0,0,kReverse,kReverse,-87.04,2.19,2.25,-0.07891846,-1.1312256,0.55010986,33.19,0.0,-108.0,-8.010468,12.528687,
448.45176499999997,true,true,true,0.125,12.200000000000001,0.0,0,0,0,0.125,12.200000000000001,0.0,0,0,0,0.125,12.15,0.0,0,0,0,0.125,12.200000000000001,0.0,0,0,0,0.0,12.200000000000001,0.0,0,0,0,0.0,12.15,0.0,0,0,0,0.125,12.200000000000001,0.0,0,0,0,kReverse,kReverse,-86.93,2.26,2.32,-0.21655273,-0.8237915,-0.28253174,33.19,0.0,-257.0,-8.01062,12.532059,
448.47499,true,true,true,0.125,12.200000000000001,0.0,0,0,0,0.125,12.200000000000001,0.0,0,0,0,0.125,12.15,0.0,0,0,0,0.125,12.200000000000001,0.0,0,0,0,0.0,12.200000000000001,0.0,0,0,0,0.0,12.15,0.0,0,0,0,0.125,12.200000000000001,0.0,0,0,0,kReverse,kReverse,-86.92,2.22,2.28,-0.10211182,-0.72528076,-0.66033936,33.19,0.0,-149.0,-8.011108,12.533051,
448.496557,true,true,true,0.125,12.200000000000001,0.0,0,0,0,0.125,12.15,0.0,0,0,0,0.125,12.15,0.0,0,0,0,0.125,12.200000000000001,0.0,0,0,0,0.0,12.15,0.0,0,0,0,0.0,12.15,0.0,0,0,0,0.125,12.200000000000001,0.0,0,0,0,kReverse,kReverse,-86.98,2.19,2.25,0.32019043,-1.0065308,0.15045166,33.19,0.0,284.0,-8.011765,12.533173,
448.518966,true,true,true,0.125,12.15,0.0,0,0,0,0.125,12.15,0.0,0,0,0,0.125,12.15,0.0,0,0,0,0.125,12.200000000000001,0.0,0,0,0,0.0,12.15,0.0,0,0,0,0.0,12.15,0.0,0,0,0,0.125,12.200000000000001,0.0,0,0,0,kReverse,kReverse,-86.97,2.18,2.24,0.15826416,-1.253418,0.15625,33.18,0.0,113.0,-8.011093,12.533615,
448.538371,true,true,true,0.125,12.15,0.0,0,0,0,0.125,12.15,0.0,0,0,0,0.125,12.15,0.0,0,0,0,0.125,12.200000000000001,0.0,0,0,0,0.0,12.15,0.0,0,0,0,0.0,12.15,0.0,0,0,0,0.125,12.200000000000001,0.0,0,0,0,kReverse,kReverse,-86.99,2.21,2.27,-0.09246826,-0.9904175,0.2697754,33.18,0.0,-124.0,-8.010635,12.53418,
448.56090099999994,true,true,true,0.125,12.15,0.0,0,0,0,0.125,12.15,0.0,0,0,0,0.125,12.15,0.0,0,0,0,0.125,12.200000000000001,0.0,0,0,0,0.0,12.15,0.0,0,0,0,0.0,12.15,0.0,0,0,0,0.125,12.200000000000001,0.0,0,0,0,kReverse,kReverse,-87.02,2.21,2.26,-0.10864258,-0.98010254,0.52197266,33.18,0.0,-132.0,-8.010361,12.535248,
448.58399299999996,true,true,true,0.125,12.15,0.0,0,0,0,0.125,12.15,0.0,0,0,0,0.125,12.15,0.0,0,0,0,0.125,12.200000000000001,0.0,0,0,0,0.0,12.15,0.0,0,0,0,0.0,12.15,0.0,0,0,0,0.125,12.200000000000001,0.0,0,0,0,kReverse,kReverse,-86.95,2.27,2.33,-0.17608643,-0.90856934,-0.06311035,33.18,0.0,-214.0,-8.010345,12.538773,
448.609851,true,true,true,0.125,12.15,0.0,0,0,0,0.125,12.15,0.0,0,0,0,0.125,12.15,0.0,0,0,0,0.125,12.200000000000001,0.0,0,0,0,0.0,12.15,0.0,0,0,0,0.0,12.15,0.0,0,0,0,0.125,12.200000000000001,0.0,0,0,0,kReverse,kReverse,-86.92,2.22,2.28,0.14581299,-0.81604004,-0.5873413,33.18,0.0,97.0,-8.011246,12.54071,
448.63395199999997,true,true,true,0.125,12.15,0.0,0,0,0,0.125,12.15,0.0,0,0,0,0.125,12.15,0.0,0,0,0,0.125,12.200000000000001,0.0,0,0,0,0.0,12.15,0.0,0,0,0,0.0,12.15,0.0,0,0,0,0.125,12.200000000000001,0.0,0,0,0,kReverse,kReverse,-86.96,2.2,2.26,0.29937744,-1.0262451,-0.017700195,33.18,0.0,257.0,-8.01149,12.540802,
448.65550299999995,true,true,true,0.125,12.15,0.0,0,0,0,0.125,12.15,0.0,0,0,0,0.125,12.15,0.0,0,0,0,0.125,12.200000000000001,0.0,0,0,0,0.0,12.200000000000001,0.0,0,0,0,0.0,12.15,0.0,0,0,0,0.125,12.200000000000001,0.0,0,0,0,kReverse,kReverse,-86.97,2.17,2.23,0.2232666,-1.1923828,0.15435791,33.18,0.0,180.0,-8.010971,12.541306,
448.677223,true,true,true,0.125,12.15,0.0,0,0,0,0.125,12.15,0.0,0,0,0,0.125,12.15,0.0,0,0,0,0.125,12.200000000000001,0.0,0,0,0,0.0,12.200000000000001,0.0,0,0,0,0.0,12.15,0.0,0,0,0,0.125,12.200000000000001,0.0,0,0,0,kReverse,kReverse,-86.98,2.2,2.26,-0.0076904297,-1.1311035,0.21594238,33.18,0.0,-46.0,-8.010468,12.541855,
448.704796,true,true,true,0.125,12.15,0.0,0,0,0,0.125,12.15,0.0,0,0,0,0.125,12.15,0.0,0,0,0,0.125,12.200000000000001,0.0,0,0,0,0.0,12.200000000000001,0.0,0,0,0,0.0,12.15,0.0,0,0,0,0.125,12.200000000000001,0.0,0,0,0,kReverse,kReverse,-87.03,2.21,2.26,-0.056884766,-1.2197876,0.53552246,33.18,0.0,-90.0,-8.009903,12.544479,
448.733929,true,true,true,0.125,12.15,0.0,0,0,0,0.125,12.15,0.0,0,0,0,0.125,12.15,0.0,0,0,0,0.125,12.200000000000001,0.0,0,0,0,0.0,12.200000000000001,0.0,0,0,0,0.0,12.15,0.0,0,0,0,0.125,12.200000000000001,0.0,0,0,0,kReverse,kReverse,-86.91,2.25,2.31,-0.2020874,-0.7597046,-0.5022583,33.18,0.0,-246.0,-8.010178,12.548233,
448.756469,true,true,true,0.125,12.15,0.0,0,0,0,0.125,12.15,0.0,0,0,0,0.125,12.15,0.0,0,0,0,0.125,12.200000000000001,0.0,0,0,0,0.0,12.200000000000001,0.0,0,0,0,0.0,12.15,0.0,0,0,0,0.125,12.200000000000001,0.0,0,0,0,kReverse,kReverse,-86.94,2.22,2.28,0.28741455,-0.97961426,-0.19696045,33.18,0.0,242.0,-8.010895,12.549362,
448.776845,true,true,true,0.125,12.15,0.0,0,0,0,0.125,12.15,0.0,0,0,0,0.125,12.15,0.0,0,0,0,0.125,12.200000000000001,0.0,0,0,0,0.0,12.200000000000001,0.0,0,0,0,0.0,12.15,0.0,0,0,0,0.125,12.200000000000001,0.0,0,0,0,kReverse,kReverse,-86.96,2.19,2.25,0.30322266,-0.9708252,0.22613525,33.18,0.0,270.0,-8.0108185,12.549576,
448.797851,true,true,true,0.125,12.15,0.0,0,0,0,0.125,12.15,0.0,0,0,0,0.125,12.15,0.0,0,0,0,0.125,12.200000000000001,0.0,0,0,0,0.0,12.200000000000001,0.0,0,0,0,0.0,12.15,0.0,0,0,0,0.125,12.200000000000001,0.0,0,0,0,kReverse,kReverse,-86.96,2.21,2.27,0.047729492,-1.2533569,0.17633057,33.18,0.0,2.0,-8.009872,12.550552,
448.82148099999995,true,true,true,0.125,12.15,0.0,0,0,0,0.125,12.15,0.0,0,0,0,0.125,12.15,0.0,0,0,0,0.125,12.200000000000001,0.0,0,0,0,0.0,12.15,0.0,0,0,0,0.0,12.15,0.0,0,0,0,0.125,12.200000000000001,0.0,0,0,0,kReverse,kReverse,-87.0,2.21,2.26,-0.12963867,-0.8687744,0.3690796,33.18,0.0,-153.0,-8.00943,12.551453,
448.848229,true,true,true,0.125,12.15,0.0,0,0,0,0.125,12.15,0.0,0,0,0,0.125,12.15,0.0,0,0,0,0.125,12.200000000000001,0.0,0,0,0,0.0,12.15,0.0,0,0,0,0.0,12.15,0.0,0,0,0,0.125,12.200000000000001,0.0,0,0,0,kReverse,kReverse,-87.0,2.25,2.3,-0.10424805,-1.1085205,0.29278564,33.18,0.0,-140.0,-8.009048,12.554962,
448.872517,true,true,true,0.125,12.15,0.0,0,0,0,0.125,12.15,0.0,0,0,0,0.125,12.15,0.0,0,0,0,0.125,12.200000000000001,0.0,0,0,0,0.0,12.15,0.0,0,0,0,0.0,12.15,0.0,0,0,0,0.125,12.200000000000001,0.0,0,0,0,kReverse,kReverse,-86.94,2.25,2.31,-0.21722412,-0.7821045,-0.31433105,33.18,0.0,-257.0,-8.009201,12.556946,
448.89631399999996,true,true,true,0.125,12.15,0.0,0,0,0,0.125,12.15,0.0,0,0,0,0.125,12.15,0.0,0,0,0,0.125,12.200000000000001,0.0,0,0,0,0.125,12.15,0.0,0,0,0,0.0,12.15,0.0,0,0,0,0.125,12.200000000000001,0.0,0,0,0,kReverse,kReverse,-86.93,2.21,2.27,0.237854,-0.9257202,-0.38555908,33.18,0.0,190.0,-8.009964,12.558609,
448.926989,true,true,true,0.125,12.15,0.0,0,0,0,0.125,12.15,0.0,0,0,0,0.125,12.15,0.0,0,0,0,0.125,12.200000000000001,0.0,0,0,0,0.125,12.15,0.0,0,0,0,0.0,12.15,0.0,0,0,0,0.125,12.200000000000001,0.0,0,0,0,kReverse,kReverse,-86.97,2.15,2.21,0.29779053,-1.0098267,0.21875,33.18,0.0,264.0,-8.009644,12.55925,
448.951271,true,true,true,0.125,12.15,0.0,0,0,0,0.125,12.15,0.0,0,0,0,0.125,12.15,0.0,0,0,0,0.125,12.200000000000001,0.0,0,0,0,0.125,12.15,0.0,0,0,0,0.0,12.15,0.0,0,0,0,0.125,12.200000000000001,0.0,0,0,0,kReverse,kReverse,-86.99,2.2,2.26,-0.113586426,-0.93414307,0.27124023,33.18,0.0,-142.0,-8.00856,12.560684,
448.97324699999996,true,true,true,0.125,12.15,0.0,0,0,0,0.125,12.15,0.0,0,0,0,0.125,12.15,0.0,0,0,0,0.125,12.200000000000001,0.0,0,0,0,0.125,12.15,0.0,0,0,0,0.0,12.15,0.0,0,0,0,0.125,12.200000000000001,0.0,0,0,0,kReverse,kReverse,-87.03,2.19,2.24,-0.0826416,-1.0828247,0.536438,33.18,0.0,-110.0,-8.0082245,12.562027,
448.996002,true,true,true,0.125,12.15,0.0,0,0,0,0.125,12.15,0.0,0,0,0,0.125,12.15,0.0,0,0,0,0.125,12.200000000000001,0.0,0,0,0,0.125,12.15,0.0,0,0,0,0.0,12.15,0.0,0,0,0,0.125,12.200000000000001,0.0,0,0,0,kReverse,kReverse,-86.95,2.25,2.31,-0.19885254,-0.8435669,-0.19458008,33.18,0.0,-238.0,-8.008102,12.565979,
449.017791,true,true,true,0.125,12.15,0.0,0,0,0,0.125,12.15,0.0,0,0,0,0.125,12.15,0.0,0,0,0,0.125,12.200000000000001,0.0,0,0,0,0.0,12.15,0.0,0,0,0,0.0,12.15,0.0,0,0,0,0.125,12.200000000000001,0.0,0,0,0,kReverse,kReverse,-86.91,2.22,2.28,-0.12145996,-0.7199707,-0.68359375,33.17,0.0,-168.0,-8.008438,12.567368,
449.03885199999996,true,true,true,0.125,12.15,0.0,0,0,0,0.125,12.15,0.0,0,0,0,0.125,12.15,0.0,0,0,0,0.125,12.200000000000001,0.0,0,0,0,0.0,12.15,0.0,0,0,0,0.0,12.15,0.0,0,0,0,0.125,12.200000000000001,0.0,0,0,0,kReverse,kReverse,-86.95,2.19,2.25,0.32824707,-1.0584717,0.07836914,33.17,0.0,288.0,-8.008835,12.568115,
449.059716,true,true,true,0.125,12.15,0.0,0,0,0,0.125,12.15,0.0,0,0,0,0.125,12.15,0.0,0,0,0,0.125,12.200000000000001,0.0,0,0,0,0.0,12.15,0.0,0,0,0,0.0,12.15,0.0,0,0,0,0.125,12.200000000000001,0.0,0,0,0,kReverse,kReverse,-86.97,2.15,2.21,0.3170166,-0.96765137,0.23242188,33.17,0.0,285.0,-8.008499,12.568481,
449.08201199999996,true,true,true,0.125,12.15,0.0,0,0,0,0.125,12.15,0.0,0,0,0,0.125,12.15,0.0,0,0,0,0.125,12.200000000000001,0.0,0,0,0,0.0,12.15,0.0,0,0,0,0.0,12.15,0.0,0,0,0,0.125,12.200000000000001,0.0,0,0,0,kReverse,kReverse,-86.99,2.2,2.26,-0.09649658,-0.9850464,0.22790527,33.17,0.0,-129.0,-8.007263,12.569702,
449.10660699999994,true,true,true,0.125,12.15,0.0,0,0,0,0.125,12.15,0.0,0,0,0,0.125,12.15,0.0,0,0,0,0.125,12.200000000000001,0.0,0,0,0,0.0,12.15,0.0,0,0,0,0.0,12.15,0.0,0,0,0,0.125,12.200000000000001,0.0,0,0,0,kReverse,kReverse,-87.03,2.19,2.25,-0.112854004,-1.0119019,0.5109863,33.17,0.0,-138.0,-8.006836,12.570862,
449.131279,true,true,true,0.125,12.15,0.0,0,0,0,0.125,12.15,0.0,0,0,0,0.125,12.15,0.0,0,0,0,0.125,12.200000000000001,0.0,0,0,0,0.125,12.15,0.0,0,0,0,0.0,12.15,0.0,0,0,0,0.125,12.200000000000001,0.0,0,0,0,kReverse,kReverse,-86.96,2.25,2.31,-0.18395996,-0.8787842,-0.08532715,33.17,0.0,-221.0,-8.006546,12.574539,
449.15431299999995,true,true,true,0.125,12.15,0.0,0,0,0,0.125,12.15,0.0,0,0,0,0.125,12.1,0.0,0,0,0,0.125,12.200000000000001,0.0,0,0,0,0.125,12.15,0.0,0,0,0,0.0,12.15,0.0,0,0,0,0.125,12.200000000000001,0.0,0,0,0,kReverse,kReverse,-86.91,2.21,2.27,0.18029785,-0.869812,-0.55944824,33.17,0.0,130.0,-8.007111,12.576508,
449.17761099999996,true,true,true,0.125,12.15,0.0,0,0,0,0.125,12.15,0.0,0,0,0,0.125,12.1,0.0,0,0,0,0.125,12.200000000000001,0.0,0,0,0,0.0,12.15,0.0,0,0,0,0.0,12.15,0.0,0,0,0,0.125,12.200000000000001,0.0,0,0,0,kReverse,kReverse,-86.95,2.2,2.26,0.2975464,-1.0414429,0.016174316,33.17,0.0,256.0,-8.007141,12.576645,
449.194735,true,true,true,0.125,12.15,0.0,0,0,0,0.125,12.15,0.0,0,0,0,0.125,12.1,0.0,0,0,0,0.125,12.200000000000001,0.0,0,0,0,0.0,12.15,0.0,0,0,0,0.0,12.15,0.0,0,0,0,0.125,12.200000000000001,0.0,0,0,0,kReverse,kReverse,-86.97,2.16,2.22,0.31359863,-0.9519043,0.24169922,33.17,0.0,282.0,-8.006821,12.576904,
449.216233,true,true,true,0.125,12.15,0.0,0,0,0,0.125,12.15,0.0,0,0,0,0.125,12.1,0.0,0,0,0,0.125,12.200000000000001,0.0,0,0,0,0.0,12.15,0.0,0,0,0,0.0,12.15,0.0,0,0,0,0.125,12.200000000000001,0.0,0,0,0,kReverse,kReverse,-86.99,2.2,2.26,-0.08538818,-1.001709,0.19573975,33.17,0.0,-119.0,-8.005569,12.577896,
449.235602,true,true,true,0.125,12.15,0.0,0,0,0,0.125,12.15,0.0,0,0,0,0.125,12.1,0.0,0,0,0,0.125,12.200000000000001,0.0,0,0,0,0.0,12.15,0.0,0,0,0,0.0,12.15,0.0,0,0,0,0.125,12.200000000000001,0.0,0,0,0,kReverse,kReverse,-87.03,2.19,2.25,-0.11621094,-0.9586792,0.4925537,33.17,0.0,-140.0,-8.005112,12.578903,
449.256393,true,true,true,0.125,12.15,0.0,0,0,0,0.125,12.15,0.0,0,0,0,0.125,12.1,0.0,0,0,0,0.125,12.200000000000001,0.0,0,0,0,0.0,12.15,0.0,0,0,0,0.0,12.15,0.0,0,0,0,0.125,12.200000000000001,0.0,0,0,0,kReverse,kReverse,-87.02,2.22,2.28,-0.073791504,-1.230896,0.4701538,33.17,0.0,-109.0,-8.004822,12.580505,
449.27656899999994,true,true,true,0.125,12.15,0.0,0,0,0,0.125,12.15,0.0,0,0,0,0.125,12.1,0.0,0,0,0,0.125,12.200000000000001,0.0,0,0,0,0.0,12.15,0.0,0,0,0,0.0,12.15,0.0,0,0,0,0.125,12.200000000000001,0.0,0,0,0,kReverse,kReverse,-86.89,2.25,2.31,-0.17492676,-0.7279663,-0.6017456,33.17,0.0,-220.0,-8.004959,12.583786,
449.29682,true,true,true,0.125,12.15,0.0,0,0,0,0.125,12.15,0.0,0,0,0,0.125,12.1,0.0,0,0,0,0.125,12.200000000000001,0.0,0,0,0,0.125,12.15,0.0,0,0,0,0.0,12.15,0.0,0,0,0,0.125,12.200000000000001,0.0,0,0,0,kReverse,kReverse,-86.91,2.22,2.28,0.15771484,-0.84503174,-0.5946655,33.17,0.0,107.0,-8.005264,12.584335,
449.317755,true,true,true,0.125,12.15,0.0,0,0,0,0.125,12.15,0.0,0,0,0,0.125,12.15,0.0,0,0,0,0.125,12.200000000000001,0.0,0,0,0,0.0,12.15,0.0,0,0,0,0.0,12.15,0.0,0,0,0,0.125,12.200000000000001,0.0,0,0,0,kReverse,kReverse,-86.94,2.21,2.27,0.2892456,-1.0444946,-0.018798828,33.17,0.0,246.0,-8.005325,12.584412,
449.337794,true,true,true,0.125,12.15,0.0,0,0,0,0.125,12.15,0.0,0,0,0,0.125,12.15,0.0,0,0,0,0.125,12.200000000000001,0.0,0,0,0,0.0,12.15,0.0,0,0,0,0.0,12.15,0.0,0,0,0,0.125,12.200000000000001,0.0,0,0,0,kReverse,kReverse,-86.96,2.17,2.23,0.21044922,-1.2531128,0.105651855,33.17,0.0,164.0,-8.00444,12.5849,
449.35959499999996,true,true,true,0.125,12.15,0.0,0,0,0,0.125,12.15,0.0,0,0,0,0.125,12.15,0.0,0,0,0,0.125,12.200000000000001,0.0,0,0,0,0.0,12.15,0.0,0,0,0,0.0,12.15,0.0,0,0,0,0.125,12.200000000000001,0.0,0,0,0,kReverse,kReverse,-86.98,2.2,2.26,-0.054748535,-1.0609741,0.17150879,33.17,0.0,-91.0,-8.003799,12.585358,
449.382501,true,true,true,0.125,12.15,0.0,0,0,0,0.125,12.15,0.0,0,0,0,0.125,12.15,0.0,0,0,0,0.125,12.200000000000001,0.0,0,0,0,0.0,12.15,0.0,0,0,0,0.0,12.15,0.0,0,0,0,0.125,12.200000000000001,0.0,0,0,0,kReverse,kReverse,-87.02,2.22,2.28,-0.06463623,-1.2338867,0.4925537,33.17,0.0,-100.0,-8.003006,12.587723,
449.4088,true,true,true,0.125,12.15,0.0,0,0,0,0.125,12.15,0.0,0,0,0,0.125,12.15,0.0,0,0,0,0.125,12.200000000000001,0.0,0,0,0,0.0,12.15,0.0,0,0,0,0.0,12.15,0.0,0,0,0,0.125,12.200000000000001,0.0,0,0,0,kReverse,kReverse,-86.95,2.26,2.32,-0.16516113,-0.9185791,0.01928711,33.17,0.0,-201.0,-8.002899,12.589523,
449.431448,true,true,true,0.125,12.15,0.0,0,0,0,0.125,12.15,0.0,0,0,0,0.125,12.15,0.0,0,0,0,0.125,12.200000000000001,0.0,0,0,0,0.125,12.15,0.0,0,0,0,0.0,12.15,0.0,0,0,0,0.125,12.200000000000001,0.0,0,0,0,kReverse,kReverse,-86.9,2.23,2.29,0.1451416,-0.8253174,-0.5953369,33.17,0.0,95.0,-8.003357,12.591522,
449.454505,true,true,true,0.125,12.15,0.0,0,0,0,0.125,12.15,0.0,0,0,0,0.125,12.15,0.0,0,0,0,0.125,12.200000000000001,0.0,0,0,0,0.125,12.15,0.0,0,0,0,0.0,12.15,0.0,0,0,0,0.125,12.200000000000001,0.0,0,0,0,kReverse,kReverse,-86.95,2.18,2.24,0.29656982,-0.9347534,0.21777344,33.17,0.0,265.0,-8.003113,12.591751,
449.478675,true,true,true,0.125,12.1,0.0,0,0,0,0.125,12.15,0.0,0,0,0,0.125,12.1,0.0,0,0,0,0.125,12.15,0.0,0,0,0,0.125,12.15,0.0,0,0,0,0.0,12.15,0.0,0,0,0,0.125,12.200000000000001,0.0,0,0,0,kReverse,kReverse,-86.95,2.18,2.24,0.22937012,-1.2198486,0.14129639,33.17,0.0,185.0,-8.002502,12.592072,
449.49905799999993,true,true,true,0.125,12.1,0.0,0,0,0,0.125,12.15,0.0,0,0,0,0.125,12.1,0.0,0,0,0,0.125,12.15,0.0,0,0,0,0.125,12.15,0.0,0,0,0,0.0,12.15,0.0,0,0,0,0.125,12.200000000000001,0.0,0,0,0,kReverse,kReverse,-87.01,2.2,2.26,-0.13134766,-0.86151123,0.493042,33.17,0.0,-151.0,-8.001312,12.59343,
449.51935,true,true,true,0.125,12.1,0.0,0,0,0,0.125,12.15,0.0,0,0,0,0.125,12.1,0.0,0,0,0,0.125,12.15,0.0,0,0,0,0.125,12.15,0.0,0,0,0,0.0,12.15,0.0,0,0,0,0.125,12.200000000000001,0.0,0,0,0,kReverse,kReverse,-87.01,2.2,2.26,-0.13134766,-0.86151123,0.493042,33.17,0.0,-151.0,-8.001312,12.59343,
449.541884,true,true,true,0.125,12.1,0.0,0,0,0,0.125,12.15,0.0,0,0,0,0.125,12.1,0.0,0,0,0,0.125,12.15,0.0,0,0,0,0.125,12.15,0.0,0,0,0,0.0,12.15,0.0,0,0,0,0.125,12.200000000000001,0.0,0,0,0,kReverse,kReverse,-86.95,2.26,2.32,-0.16693115,-0.95947266,0.05609131,33.16,0.0,-204.0,-8.000839,12.596756,
449.56759700000003,true,true,true,0.125,12.1,0.0,0,0,0,0.125,12.15,0.0,0,0,0,0.125,12.1,0.0,0,0,0,0.125,12.15,0.0,0,0,0,0.125,12.15,0.0,0,0,0,0.0,12.15,0.0,0,0,0,0.125,12.200000000000001,0.0,0,0,0,kReverse,kReverse,-86.89,2.25,2.31,-0.20397949,-0.7354126,-0.529541,33.16,0.0,-248.0,-8.001007,12.598221,
449.59105299999993,true,true,true,0.125,12.1,0.0,0,0,0,0.125,12.15,0.0,0,0,0,0.125,12.1,0.0,0,0,0,0.125,12.15,0.0,0,0,0,0.125,12.15,0.0,0,0,0,0.0,12.15,0.0,0,0,0,0.125,12.200000000000001,0.0,0,0,0,kReverse,kReverse,-86.93,2.21,2.27,0.2930298,-1.0321655,-0.09863281,33.16,0.0,249.0,-8.001389,12.598999,
449.615302,true,true,true,0.125,12.1,0.0,0,0,0,0.125,12.15,0.0,0,0,0,0.125,12.1,0.0,0,0,0,0.125,12.15,0.0,0,0,0,0.0,12.15,0.0,0,0,0,0.0,12.15,0.0,0,0,0,0.125,12.200000000000001,0.0,0,0,0,kReverse,kReverse,-86.95,2.17,2.23,0.22875977,-1.1954956,0.12994385,33.16,0.0,185.0,-8.000565,12.599411,
449.63745499999993,true,true,true,0.125,12.15,0.0,0,0,0,0.125,12.15,0.0,0,0,0,0.125,12.1,0.0,0,0,0,0.125,12.15,0.0,0,0,0,0.0,12.15,0.0,0,0,0,0.0,12.1,0.0,0,0,0,0.125,12.200000000000001,0.0,0,0,0,kReverse,kReverse,-86.97,2.2,2.26,-0.018737793,-1.1162109,0.18457031,33.16,0.0,-57.0,-7.9999084,12.5998535,
449.658534,true,true,true,0.125,12.15,0.0,0,0,0,0.125,12.15,0.0,0,0,0,0.125,12.1,0.0,0,0,0,0.125,12.15,0.0,0,0,0,0.0,12.15,0.0,0,0,0,0.0,12.1,0.0,0,0,0,0.125,12.200000000000001,0.0,0,0,0,kReverse,kReverse,-87.01,2.21,2.26,-0.07611084,-1.2128906,0.50177,33.16,0.0,-110.0,-7.999069,12.602173,
449.68082699999997,true,true,true,0.125,12.15,0.0,0,0,0,0.125,12.15,0.0,0,0,0,0.125,12.1,0.0,0,0,0,0.125,12.15,0.0,0,0,0,0.0,12.15,0.0,0,0,0,0.0,12.1,0.0,0,0,0,0.125,12.200000000000001,0.0,0,0,0,kReverse,kReverse,-86.95,2.26,2.32,-0.16418457,-0.9678345,0.07470703,33.16,0.0,-201.0,-7.9989624,12.604004,
449.70648199999994,true,true,true,0.125,12.15,0.0,0,0,0,0.125,12.15,0.0,0,0,0,0.125,12.1,0.0,0,0,0,0.125,12.15,0.0,0,0,0,0.125,12.15,0.0,0,0,0,0.0,12.1,0.0,0,0,0,0.125,12.200000000000001,0.0,0,0,0,kReverse,kReverse,-86.89,2.25,2.31,-0.21490479,-0.7518921,-0.52178955,33.16,0.0,-259.0,-7.999161,12.605484,
449.728644,true,true,true,0.125,12.15,0.0,0,0,0,0.125,12.15,0.0,0,0,0,0.125,12.1,0.0,0,0,0,0.125,12.15,0.0,0,0,0,0.125,12.15,0.0,0,0,0,0.0,12.1,0.0,0,0,0,0.125,12.200000000000001,0.0,0,0,0,kReverse,kReverse,-86.92,2.21,2.27,0.29870605,-1.0361938,-0.11462402,33.16,0.0,254.0,-7.9996185,12.606277,
449.753114,true,true,true,0.125,12.15,0.0,0,0,0,0.125,12.15,0.0,0,0,0,0.125,12.1,0.0,0,0,0,0.125,12.15,0.0,0,0,0,0.125,12.15,0.0,0,0,0,0.0,12.1,0.0,0,0,0,0.125,12.200000000000001,0.0,0,0,0,kReverse,kReverse,-86.94,2.17,2.23,0.23156738,-1.1947632,0.123291016,33.16,0.0,188.0,-7.9988556,12.606644,
449.778017,true,true,true,0.125,12.15,0.0,0,0,0,0.125,12.1,0.0,0,0,0,0.125,12.1,0.0,0,0,0,0.125,12.15,0.0,0,0,0,0.125,12.15,0.0,0,0,0,0.0,12.1,0.0,0,0,0,0.125,12.200000000000001,0.0,0,0,0,kReverse,kReverse,-87.0,2.2,2.26,-0.13659668,-0.8436279,0.48291016,33.16,0.0,-156.0,-7.997757,12.607864,
449.80018299999995,true,true,true,0.125,12.1,0.0,0,0,0,0.125,12.1,0.0,0,0,0,0.125,12.1,0.0,0,0,0,0.125,12.15,0.0,0,0,0,0.125,12.15,0.0,0,0,0,0.0,12.1,0.0,0,0,0,0.125,12.200000000000001,0.0,0,0,0,kReverse,kReverse,-87.01,2.21,2.27,-0.07635498,-1.2017212,0.5003662,33.16,0.0,-110.0,-7.997467,12.609299,
449.819169,true,true,true,0.125,12.1,0.0,0,0,0,0.125,12.1,0.0,0,0,0,0.125,12.1,0.0,0,0,0,0.125,12.15,0.0,0,0,0,0.125,12.15,0.0,0,0,0,0.0,12.1,0.0,0,0,0,0.125,12.200000000000001,0.0,0,0,0,kReverse,kReverse,-86.94,2.26,2.32,-0.16552734,-0.9649658,0.06530762,33.16,0.0,-202.0,-7.9973755,12.611069,
