timer,lineLeft,lineCenter,lineRight,LeftFrontCurrent,LeftFrontVoltage,LeftFrontValue,LeftFrontPosition,LeftFrontVelocity,LeftFrontFaults,LeftRearCurrent,LeftRearVoltage,LeftRearValue,LeftRearPosition,LeftRearVelocity,LeftRearFaults,RightFrontCurrent,RightFrontVoltage,RightFrontValue,RightFrontPosition,RightFrontVelocity,RightFrontFaults,RightRearCurrent,RightRearVoltage,RightRearValue,RightRearPosition,RightRearVelocity,RightRearFaults,LiftCurrent,LiftVoltage,LiftValue,LiftPosition,LiftVelocity,LiftFaults,WristCurrent,WristVoltage,WristValue,WristPosition,WristVelocity,WristFaults,RollerCurrent,RollerVoltage,RollerValue,RollerPosition,RollerVelocity,RollerFaults,PushersState,PivotsState,navx_Pitch,navx_Roll,navx_Yaw,navx_XAcc,navx_YAcc,navx_ZAcc,navx_Temp,navx_Bar,navx_Alt,navx_XDis,navx_YDis,
680.965175,true,true,true,0.125,12.65,0.0,-33621,0,0,0.125,12.65,0.0,0,0,0,0.125,12.65,0.0,0,0,0,0.125,12.65,0.0,0,0,0,0.125,12.65,0.0,4,0,0,0.0,12.65,0.0,0,0,0,0.125,12.700000000000001,0.0,0,0,0,kReverse,kOff,-87.21,2.08,2.68,0.033325195,-0.9854126,0.026672363,34.96,0.0,-4.0,-8.111969,11.909561,
680.995602,true,true,true,0.125,12.65,0.0,-33621,0,0,0.125,12.65,0.0,0,0,0,0.125,12.65,0.0,0,0,0,0.125,12.65,0.0,0,0,0,0.125,12.65,0.0,4,0,0,0.0,12.65,0.0,0,0,0,0.125,12.700000000000001,0.0,0,0,0,kReverse,kOff,-87.21,2.08,2.68,0.033325195,-0.9854126,0.026672363,34.96,0.0,-4.0,-8.111969,11.909561,
681.019941,true,true,true,0.125,12.65,0.0,-33621,0,0,0.125,12.65,0.0,0,0,0,0.125,12.65,0.0,0,0,0,0.125,12.65,0.0,0,0,0,0.125,12.65,0.0,4,0,0,0.0,12.65,0.0,0,0,0,0.125,12.700000000000001,0.0,0,0,0,kReverse,kOff,-87.21,2.09,2.69,0.037841797,-0.9840698,0.029663086,34.96,0.0,1.0,-8.111969,11.909561,
681.042777,true,true,true,0.125,12.65,0.0,-33621,0,0,0.125,12.65,0.0,0,0,0,0.125,12.65,0.0,0,0,0,0.125,12.65,0.0,0,0,0,0.125,12.65,0.0,4,0,0,0.0,12.65,0.0,0,0,0,0.125,12.700000000000001,0.0,0,0,0,kReverse,kOff,-87.21,2.09,2.69,0.034423828,-0.9824829,0.027770996,34.96,0.0,-2.0,-8.111969,11.909561,
681.063697,true,true,true,0.125,12.65,0.0,-33621,0,0,0.125,12.65,0.0,0,0,0,0.125,12.65,0.0,0,0,0,0.125,12.65,0.0,0,0,0,0.125,12.65,0.0,4,0,0,0.0,12.65,0.0,0,0,0,0.125,12.700000000000001,0.0,0,0,0,kReverse,kOff,-87.21,2.09,2.69,0.036132812,-0.9816284,0.025390625,34.96,0.0,-1.0,-8.111969,11.909561,
681.0842739999999,true,true,true,0.125,12.65,0.0,-33621,0,0,0.125,12.65,0.0,0,0,0,0.125,12.65,0.0,0,0,0,0.125,12.65,0.0,0,0,0,0.125,12.65,0.0,4,0,0,0.0,12.65,0.0,0,0,0,0.125,12.700000000000001,0.0,0,0,0,kReverse,kOff,-87.21,2.09,2.69,0.03466797,-0.9824219,0.028747559,34.96,0.0,-2.0,-8.111969,11.909561,
681.105848,true,true,true,0.125,12.65,0.0,-33621,0,0,0.125,12.65,0.0,0,0,0,0.125,12.65,0.0,0,0,0,0.125,12.65,0.0,0,0,0,0.125,12.65,0.0,4,0,0,0.0,12.65,0.0,0,0,0,0.125,12.700000000000001,0.0,0,0,0,kReverse,kOff,-87.21,2.08,2.68,0.037353516,-0.9844971,0.033081055,34.96,0.0,1.0,-8.111969,11.909561,
681.129527,true,true,true,0.125,12.65,0.0,-33621,0,0,0.125,12.65,0.0,0,0,0,0.125,12.65,0.0,0,0,0,0.125,12.65,0.0,0,0,0,0.125,12.65,0.0,4,0,0,0.0,12.65,0.0,0,0,0,0.125,12.700000000000001,0.0,0,0,0,kReverse,kOff,-87.22,2.08,2.68,0.03338623,-0.9824219,0.028564453,34.96,0.0,-3.0,-8.111969,11.909561,
681.151018,true,true,true,0.125,12.65,0.0,-33621,0,0,0.125,12.65,0.0,0,0,0,0.125,12.65,0.0,0,0,0,0.125,12.65,0.0,0,0,0,0.125,12.65,0.0,4,0,0,0.0,12.65,0.0,0,0,0,0.125,12.700000000000001,0.0,0,0,0,kReverse,kOff,-87.22,2.08,2.68,0.034973145,-0.9847412,0.029174805,34.96,0.0,-1.0,-8.111969,11.909561,
681.170676,true,true,true,0.125,12.65,0.0,-33621,0,0,0.125,12.65,0.0,0,0,0,0.125,12.65,0.0,0,0,0,0.125,12.65,0.0,0,0,0,0.125,12.65,0.0,4,0,0,0.0,12.65,0.0,0,0,0,0.125,12.700000000000001,0.0,0,0,0,kReverse,kOff,-87.22,2.08,2.68,0.034362793,-0.9845581,0.027770996,34.96,0.0,-2.0,-8.111969,11.909561,
681.19073,true,true,true,0.125,12.65,0.0,-33621,0,0,0.125,12.65,0.0,0,0,0,0.125,12.65,0.0,0,0,0,0.125,12.65,0.0,0,0,0,0.125,12.65,0.0,4,0,0,0.0,12.65,0.0,0,0,0,0.125,12.700000000000001,0.0,0,0,0,kReverse,kOff,-87.22,2.08,2.67,0.03491211,-0.98095703,0.034240723,34.93,0.0,0.0,-8.111969,11.909561,
681.214122,true,true,true,0.125,12.65,0.0,-33621,0,0,0.125,12.65,0.0,0,0,0,0.125,12.65,0.0,0,0,0,0.125,12.65,0.0,0,0,0,0.125,12.65,0.0,4,0,0,0.0,12.65,0.0,0,0,0,0.125,12.700000000000001,0.0,0,0,0,kReverse,kOff,-87.22,2.08,2.68,0.03729248,-0.98101807,0.03125,34.93,0.0,1.0,-8.111969,11.909561,
681.237951,true,true,true,0.125,12.65,0.0,-33621,0,0,0.125,12.65,0.0,0,0,0,0.125,12.65,0.0,0,0,0,0.125,12.65,0.0,0,0,0,0.125,12.65,0.0,4,0,0,0.0,12.65,0.0,0,0,0,0.125,12.700000000000001,0.0,0,0,0,kReverse,kOff,-87.22,2.08,2.68,0.039001465,-0.9852295,0.03173828,34.93,0.0,3.0,-8.111969,11.909561,
681.261039,true,true,true,0.125,12.65,0.0,-33621,0,0,0.125,12.65,0.0,0,0,0,0.125,12.65,0.0,0,0,0,0.125,12.65,0.0,0,0,0,0.125,12.65,0.0,4,0,0,0.0,12.65,0.0,0,0,0,0.125,12.700000000000001,0.0,0,0,0,kReverse,kOff,-87.22,2.08,2.68,0.03930664,-0.98046875,0.031982422,34.93,0.0,3.0,-8.111969,11.909561,
681.28786,true,true,true,0.125,12.65,0.0,-33621,0,0,0.125,12.65,0.0,0,0,0,0.125,12.65,0.0,0,0,0,0.125,12.65,0.0,0,0,0,0.125,12.65,0.0,4,0,0,0.0,12.65,0.0,0,0,0,0.125,12.700000000000001,0.0,0,0,0,kReverse,kOff,-87.21,2.09,2.68,0.036254883,-0.97576904,0.032592773,34.93,0.0,1.0,-8.111969,11.909561,
681.311321,true,true,true,0.125,12.65,0.0,-33621,0,0,0.125,12.65,0.0,0,0,0,0.125,12.65,0.0,0,0,0,0.125,12.65,0.0,0,0,0,0.125,12.65,0.0,4,0,0,0.0,12.65,0.0,0,0,0,0.125,12.700000000000001,0.0,0,0,0,kReverse,kOff,-87.21,2.08,2.68,0.036315918,-1.0076294,0.02508545,34.93,0.0,-2.0,-8.111969,11.909561,
681.33381,true,true,true,0.125,12.65,0.0,-33621,0,0,0.125,12.65,0.0,0,0,0,0.125,12.65,0.0,0,0,0,0.125,12.65,0.0,0,0,0,0.125,12.65,0.0,4,0,0,0.0,12.65,0.0,0,0,0,0.125,12.700000000000001,0.0,0,0,0,kReverse,kOff,-87.2,2.08,2.68,0.03515625,-0.98321533,0.032348633,34.93,0.0,0.0,-8.111969,11.909561,
681.3544440000001,true,true,true,0.125,12.65,0.0,-33621,0,0,0.125,12.65,0.0,0,0,0,0.125,12.65,0.0,0,0,0,0.125,12.65,0.0,0,0,0,0.125,12.65,0.0,4,0,0,0.0,12.65,0.0,0,0,0,0.125,12.700000000000001,0.0,0,0,0,kReverse,kOff,-87.2,2.08,2.68,0.038513184,-0.979187,0.03100586,34.93,0.0,2.0,-8.111969,11.909561,
681.378907,true,true,true,0.125,12.65,0.0,-33621,0,0,0.125,12.65,0.0,0,0,0,0.125,12.65,0.0,0,0,0,0.125,12.65,0.0,0,0,0,0.125,12.65,0.0,4,0,0,0.0,12.65,0.0,0,0,0,0.125,12.700000000000001,0.0,0,0,0,kReverse,kOff,-87.21,2.08,2.68,0.03289795,-0.9842529,0.02923584,34.93,0.0,-3.0,-8.111969,11.909561,
681.394751,true,true,true,0.125,12.65,0.0,-33621,0,0,0.125,12.65,0.0,0,0,0,0.125,12.65,0.0,0,0,0,0.125,12.65,0.0,0,0,0,0.125,12.65,0.0,4,0,0,0.0,12.65,0.0,0,0,0,0.125,12.700000000000001,0.0,0,0,0,kReverse,kOff,-87.21,2.08,2.68,0.034973145,-0.98443604,0.03717041,34.93,0.0,0.0,-8.111969,11.909561,
681.415756,true,true,true,0.125,12.65,0.0,-33621,0,0,0.125,12.65,0.0,0,0,0,0.125,12.65,0.0,0,0,0,0.125,12.65,0.0,0,0,0,0.125,12.65,0.0,4,0,0,0.0,12.65,0.0,0,0,0,0.125,12.700000000000001,0.0,0,0,0,kReverse,kOff,-87.21,2.08,2.68,0.03277588,-0.9789429,0.035461426,34.93,0.0,-1.0,-8.111969,11.909561,
681.434166,true,true,true,0.125,12.65,0.0,-33621,0,0,0.125,12.65,0.0,0,0,0,0.125,12.65,0.0,0,0,0,0.125,12.65,0.0,0,0,0,0.125,12.65,0.0,4,0,0,0.0,12.65,0.0,0,0,0,0.125,12.700000000000001,0.0,0,0,0,kReverse,kOff,-87.2,2.08,2.68,0.03277588,-0.9812012,0.026245117,34.93,0.0,-4.0,-8.111969,11.909561,
681.454289,true,true,true,0.125,12.65,0.0,-33621,0,0,0.125,12.65,0.0,0,0,0,0.125,12.65,0.0,0,0,0,0.125,12.65,0.0,0,0,0,0.125,12.65,0.0,4,0,0,0.0,12.65,0.0,0,0,0,0.125,12.700000000000001,0.0,0,0,0,kReverse,kOff,-87.21,2.08,2.68,0.033203125,-0.98132324,0.029663086,34.93,0.0,-3.0,-8.111969,11.909561,
681.479487,true,true,true,0.125,12.65,0.0,-33621,0,0,0.125,12.65,0.0,0,0,0,0.125,12.65,0.0,0,0,0,0.125,12.65,0.0,0,0,0,0.125,12.65,0.0,4,0,0,0.0,12.65,0.0,0,0,0,0.125,12.700000000000001,0.0,0,0,0,kReverse,kOff,-87.21,2.08,2.68,0.03881836,-0.9847412,0.032714844,34.93,0.0,3.0,-8.111969,11.909561,
681.5021459999999,true,true,true,0.125,12.65,0.0,-33621,0,0,0.125,12.65,0.0,0,0,0,0.125,12.65,0.0,0,0,0,0.125,12.65,0.0,0,0,0,0.125,12.65,0.0,4,0,0,0.0,12.65,0.0,0,0,0,0.125,12.700000000000001,0.0,0,0,0,kReverse,kOff,-87.21,2.08,2.68,0.036010742,-0.98535156,0.03125,34.93,0.0,0.0,-8.111969,11.909561,
681.523784,true,true,true,0.125,12.65,0.0,-33621,0,0,0.125,12.65,0.0,0,0,0,0.125,12.65,0.0,0,0,0,0.125,12.65,0.0,0,0,0,0.125,12.65,0.0,4,0,0,0.0,12.65,0.0,0,0,0,0.125,12.700000000000001,0.0,0,0,0,kReverse,kOff,-87.2,2.08,2.68,-0.02368164,-1.0057983,0.10418701,34.93,0.0,-35.0,-8.1119995,11.909622,
681.544215,true,true,true,10.5,12.65,0.0,-33633,-1,0,7.75,12.65,0.0,0,0,0,0.125,12.65,0.0,0,0,0,0.125,12.65,0.0,0,0,0,0.125,12.65,0.0,4,0,0,0.0,12.65,0.0,0,0,0,0.125,12.700000000000001,0.0,0,0,0,kReverse,kOff,-87.2,2.06,2.67,0.15570068,-0.987854,0.46533203,34.93,0.0,247.0,-8.111877,11.909988,
681.565915,true,true,true,20.625,12.65,0.0,-33680,-11,0,15.5,12.65,0.0,0,0,0,0.125,12.65,0.0,0,0,0,0.125,12.65,0.0,0,0,0,0.125,12.65,0.0,4,0,0,0.0,12.65,0.0,0,0,0,0.125,12.700000000000001,0.0,0,0,0,kReverse,kOff,-87.18,2.17,2.76,-0.61968994,-1.2688599,-0.035583496,34.93,0.0,-657.0,-8.112061,11.9105835,
681.587697,true,true,true,29.875,12.65,0.0,-33759,-42,0,22.875,12.65,0.0,0,0,0,0.125,12.65,0.0,0,0,0,0.125,12.65,0.0,0,0,0,0.125,12.65,0.0,4,0,0,0.0,12.65,0.0,0,0,0,0.125,12.700000000000001,0.0,0,0,0,kReverse,kOff,-87.2,2.06,2.67,0.21282959,-0.84155273,0.0053100586,34.93,0.0,166.0,-8.112762,11.910843,
681.611534,true,true,true,21.875,11.65,0.0,-33981,-191,0,24.125,11.3,0.0,0,0,0,0.125,11.65,0.0,0,0,0,0.125,11.75,0.0,0,0,0,0.125,11.8,0.0,4,0,0,0.0,12.65,0.0,0,0,0,0.125,12.700000000000001,0.0,0,0,0,kReverse,kOff,-87.2,2.09,2.69,-0.022399902,-0.9647217,0.16705322,34.93,0.0,-12.0,-8.1132965,11.911118,
681.633959,true,true,true,15.25,11.65,0.0,-34098,-290,0,16.375,11.3,0.0,0,0,0,0.125,11.65,0.0,0,0,0,0.125,11.75,0.0,0,0,0,0.125,11.8,0.0,4,0,0,0.0,12.65,0.0,0,0,0,0.125,12.0,0.0,0,0,0,kReverse,kOff,-87.14,2.1,2.72,0.09069824,-0.90448,-0.18927002,34.93,0.0,-13.0,-8.113495,11.911209,
681.655625,true,true,true,10.125,11.65,0.0,-34227,-397,0,12.0,11.3,0.0,0,0,0,0.125,11.65,0.0,0,0,0,0.125,11.75,0.0,0,0,0,0.125,11.8,0.0,4,0,0,0.0,12.05,0.0,0,0,0,0.125,12.0,0.0,0,0,0,kReverse,kOff,-87.19,2.09,2.7,0.0020141602,-0.8999634,0.017578125,34.93,0.0,-33.0,-8.1137085,11.911148,
681.675593,true,true,true,7.625,11.65,0.0,-34356,-490,0,9.75,11.3,0.0,0,0,0,0.125,11.65,0.0,0,0,0,0.125,11.75,0.0,0,0,0,0.125,11.8,0.0,4,0,0,0.0,12.05,0.0,0,0,0,0.125,12.0,0.0,0,0,0,kReverse,kOff,-87.14,2.12,2.74,-0.06390381,-1.1515503,-0.02758789,34.93,0.0,-121.0,-8.114319,11.910889,
681.6979889999999,true,true,true,5.875,11.65,0.0,-34491,-560,0,8.0,11.3,0.0,0,0,0,0.125,11.65,0.0,0,0,0,0.125,11.75,0.0,0,0,0,0.125,11.8,0.0,4,0,0,0.0,12.05,0.0,0,0,0,0.125,12.0,0.0,0,0,0,kReverse,kOff,-87.18,2.11,2.72,0.07305908,-1.039856,0.039367676,34.95,0.0,34.0,-8.114822,11.910965,
681.7218469999999,true,true,true,4.75,11.65,0.0,-34625,-606,0,6.0,11.3,0.0,0,0,0,0.125,11.65,0.0,0,0,0,0.125,11.75,0.0,0,0,0,0.125,11.8,0.0,4,0,0,0.0,12.05,0.0,0,0,0,0.125,12.0,0.0,0,0,0,kReverse,kOff,-87.19,2.1,2.7,0.005126953,-0.95788574,-0.0134887695,34.95,0.0,-42.0,-8.1150055,11.911041,
681.74264,true,true,true,4.0,11.65,0.0,-34761,-634,0,4.625,11.3,0.0,0,0,0,0.125,11.65,0.0,0,0,0,0.125,11.75,0.0,0,0,0,0.125,11.8,0.0,4,0,0,0.0,12.05,0.0,0,0,0,0.125,12.0,0.0,0,0,0,kReverse,kOff,-87.24,2.05,2.65,0.13128662,-1.034729,0.14440918,34.95,0.0,123.0,-8.115646,11.911011,
681.762036,true,true,true,3.5,11.65,0.0,-34897,-652,0,4.125,12.25,0.0,0,0,0,0.125,11.65,0.0,0,0,0,0.125,11.75,0.0,0,0,0,0.125,11.8,0.0,4,0,0,0.0,12.05,0.0,0,0,0,0.125,12.0,0.0,0,0,0,kReverse,kOff,-87.2,2.09,2.69,0.09039307,-1.0291748,0.042785645,34.95,0.0,53.0,-8.115845,11.911041,
681.78278,true,true,true,3.25,12.25,0.0,-35035,-664,0,3.625,12.25,0.0,0,0,0,0.125,12.3,0.0,0,0,0,0.125,12.35,0.0,0,0,0,0.125,12.3,0.0,4,0,0,0.0,12.05,0.0,0,0,0,0.125,12.35,0.0,0,0,0,kReverse,kOff,-87.21,2.07,2.67,0.068481445,-1.0071411,0.10266113,34.95,0.0,51.0,-8.115982,11.911102,
681.8023000000001,true,true,true,3.0,12.25,0.0,-35172,-672,0,3.625,12.25,0.0,0,0,0,0.125,12.3,0.0,0,0,0,0.125,12.35,0.0,0,0,0,0.125,12.3,0.0,4,0,0,0.0,12.3,0.0,0,0,0,0.125,12.35,0.0,0,0,0,kReverse,kOff,-87.19,2.09,2.7,0.040527344,-0.8708496,0.11804199,34.95,0.0,35.0,-8.1163025,11.911285,
681.823233,true,true,true,3.0,12.25,0.0,-35309,-678,0,3.125,12.25,0.0,0,0,0,0.125,12.3,0.0,0,0,0,0.125,12.35,0.0,0,0,0,0.125,12.3,0.0,4,0,0,0.0,12.3,0.0,0,0,0,0.125,12.35,0.0,0,0,0,kReverse,kOff,-87.16,2.11,2.72,0.15057373,-1.0795898,0.0053100586,34.95,0.0,95.0,-8.116379,11.911407,
681.844896,true,true,true,3.0,12.25,0.0,-35447,-682,0,3.125,12.25,0.0,0,0,0,0.125,12.3,0.0,0,0,0,0.125,12.35,0.0,0,0,0,0.125,12.3,0.0,4,0,0,0.0,12.3,0.0,0,0,0,0.125,12.35,0.0,0,0,0,kReverse,kOff,-87.2,2.09,2.69,0.0289917,-1.0712891,-0.00592041,34.95,0.0,-22.0,-8.11673,11.911331,
681.866167,true,true,true,2.875,12.25,0.0,-35584,-684,0,3.0,12.25,0.0,0,0,0,0.125,12.3,0.0,0,0,0,0.125,12.35,0.0,0,0,0,0.125,12.3,0.0,4,0,0,0.0,12.3,0.0,0,0,0,0.125,12.35,0.0,0,0,0,kReverse,kOff,-87.22,2.07,2.67,0.047180176,-1.0114746,-0.085510254,34.95,0.0,-26.0,-8.117004,11.911148,
681.887945,true,true,true,2.75,12.25,0.0,-35862,-688,0,3.0,12.25,0.0,0,0,0,0.125,12.3,0.0,0,0,0,0.125,12.35,0.0,0,0,0,0.125,12.3,0.0,4,0,0,0.0,12.3,0.0,0,0,0,0.125,12.35,0.0,0,0,0,kReverse,kOff,-87.22,2.11,2.69,0.07165527,-1.0602417,-0.07336426,34.95,0.0,-2.0,-8.117279,11.910797,
681.912508,true,true,true,2.625,12.25,0.0,-36000,-689,0,3.0,12.3,0.0,0,0,0,0.125,12.3,0.0,0,0,0,0.125,12.35,0.0,0,0,0,0.125,12.3,0.0,4,0,0,0.0,12.3,0.0,0,0,0,0.125,12.35,0.0,0,0,0,kReverse,kOff,-87.21,2.1,2.69,0.13757324,-0.9796753,0.17376709,34.95,0.0,140.0,-8.118011,11.910004,
681.934535,true,true,true,2.625,12.3,0.0,-36138,-689,0,3.0,12.3,0.0,0,0,0,0.125,12.35,0.0,0,0,0,0.125,12.35,0.0,0,0,0,0.125,12.35,0.0,4,0,0,0.0,12.3,0.0,0,0,0,0.125,12.35,0.0,0,0,0,kReverse,kOff,-87.2,2.1,2.7,0.036865234,-0.946228,0.014099121,34.95,0.0,-3.0,-8.118286,11.9096985,
681.955576,true,true,true,2.625,12.3,0.0,-36275,-690,0,3.0,12.3,0.0,0,0,0,0.125,12.35,0.0,0,0,0,0.125,12.35,0.0,0,0,0,0.125,12.35,0.0,4,0,0,0.0,12.35,0.0,0,0,0,0.125,12.4,0.0,0,0,0,kReverse,kOff,-87.19,2.11,2.71,-0.01977539,-0.8864746,-0.12689209,34.95,0.0,-97.0,-8.118835,11.908905,
681.976493,true,true,true,2.625,12.3,0.0,-36414,-690,0,3.0,12.3,0.0,0,0,0,0.125,12.35,0.0,0,0,0,0.125,12.35,0.0,0,0,0,0.125,12.35,0.0,4,0,0,0.0,12.35,0.0,0,0,0,0.125,12.4,0.0,0,0,0,kReverse,kOff,-87.26,2.06,2.64,-6.713867E-4,-0.8031006,0.26483154,34.95,0.0,45.0,-8.119156,11.908539,
682.0055379999999,true,true,true,2.75,12.3,0.0,-36551,-690,0,3.0,12.3,0.0,0,0,0,0.125,12.35,0.0,0,0,0,0.125,12.35,0.0,0,0,0,0.125,12.35,0.0,4,0,0,0.0,12.35,0.0,0,0,0,0.125,12.4,0.0,0,0,0,kReverse,kOff,-87.23,2.06,2.66,0.07537842,-1.013794,-0.076049805,34.95,0.0,3.0,-8.119827,11.907867,
682.0278959999999,true,true,true,2.75,12.3,0.0,-36689,-690,0,3.125,12.3,0.0,0,0,0,0.125,12.35,0.0,0,0,0,0.125,12.35,0.0,0,0,0,0.125,12.35,0.0,4,0,0,0.0,12.35,0.0,0,0,0,0.125,12.4,0.0,0,0,0,kReverse,kOff,-87.24,2.06,2.65,0.11187744,-0.98321533,0.064453125,34.95,0.0,82.0,-8.120544,11.906815,
682.054654,true,true,true,2.625,12.3,0.0,-36966,-689,0,3.125,12.3,0.0,0,0,0,0.125,12.35,0.0,0,0,0,0.125,12.35,0.0,0,0,0,0.125,12.35,0.0,4,0,0,0.0,12.35,0.0,0,0,0,0.125,12.4,0.0,0,0,0,kReverse,kOff,-87.21,2.08,2.68,0.08135986,-0.78356934,0.28326416,34.95,0.0,129.0,-8.121277,11.90567,
682.077813,true,true,true,2.75,12.3,0.0,-37103,-689,0,2.75,12.3,0.0,0,0,0,0.125,12.35,0.0,0,0,0,0.125,12.35,0.0,0,0,0,0.125,12.35,0.0,4,0,0,0.0,12.35,0.0,0,0,0,0.125,12.4,0.0,0,0,0,kReverse,kOff,-87.17,2.11,2.72,0.1027832,-0.82696533,-0.034484863,34.95,0.0,49.0,-8.121536,11.905228,
682.099742,true,true,true,2.625,12.3,0.0,-37242,-689,0,3.0,12.3,0.0,0,0,0,0.125,12.35,0.0,0,0,0,0.125,12.35,0.0,0,0,0,0.125,12.35,0.0,4,0,0,0.0,12.35,0.0,0,0,0,0.125,12.4,0.0,0,0,0,kReverse,kOff,-87.2,2.05,2.67,-0.030944824,-0.9383545,0.018981934,34.95,0.0,-65.0,-8.122314,11.904205,
682.120686,true,true,true,2.75,12.3,0.0,-37379,-689,0,2.75,12.3,0.0,0,0,0,0.125,12.35,0.0,0,0,0,0.125,12.35,0.0,0,0,0,0.125,12.35,0.0,4,0,0,0.0,12.35,0.0,0,0,0,0.125,12.4,0.0,0,0,0,kReverse,kOff,-87.23,2.04,2.65,0.13977051,-0.954895,0.12207031,34.95,0.0,128.0,-8.122742,11.903732,
682.141073,true,true,true,2.75,12.3,0.0,-37517,-689,0,2.75,12.3,0.0,0,0,0,0.125,12.35,0.0,0,0,0,0.125,12.35,0.0,0,0,0,0.125,12.35,0.0,4,0,0,0.0,12.35,0.0,0,0,0,0.125,12.4,0.0,0,0,0,kReverse,kOff,-87.23,2.06,2.66,0.023254395,-0.9607544,0.018615723,34.95,0.0,-14.0,-8.123093,11.903275,
682.163672,true,true,true,2.625,12.3,0.0,-37655,-690,0,2.75,12.3,0.0,0,0,0,0.125,12.35,0.0,0,0,0,0.125,12.35,0.0,0,0,0,0.125,12.35,0.0,4,0,0,0.0,12.35,0.0,0,0,0,0.125,12.4,0.0,0,0,0,kReverse,kOff,-87.18,2.09,2.7,0.048706055,-1.0395508,-0.021240234,34.95,0.0,-7.0,-8.123093,11.902374,
682.1847730000001,true,true,true,2.625,12.3,0.0,-37794,-690,0,2.75,12.3,0.0,0,0,0,0.125,12.35,0.0,0,0,0,0.125,12.35,0.0,0,0,0,0.125,12.35,0.0,4,0,0,0.0,12.35,0.0,0,0,0,0.125,12.4,0.0,0,0,0,kReverse,kOff,-87.16,2.12,2.73,0.0579834,-1.1261597,-0.0256958,34.94,0.0,-3.0,-8.122986,11.901474,
682.2052160000001,true,true,true,2.625,12.3,0.0,-37931,-690,0,2.625,12.3,0.0,0,0,0,0.125,12.35,0.0,0,0,0,0.125,12.35,0.0,0,0,0,0.125,12.35,0.0,4,0,0,0.0,12.35,0.0,0,0,0,0.125,12.4,0.0,0,0,0,kReverse,kOff,-87.16,2.12,2.73,0.0579834,-1.1261597,-0.0256958,34.94,0.0,-3.0,-8.122986,11.901474,
682.226802,true,true,true,2.625,12.3,0.0,-38070,-690,0,3.0,12.3,0.0,0,0,0,0.125,12.35,0.0,0,0,0,0.125,12.35,0.0,0,0,0,0.125,12.35,0.0,4,0,0,0.0,12.35,0.0,0,0,0,0.125,12.4,0.0,0,0,0,kReverse,kOff,-87.22,2.09,2.68,-0.055603027,-0.9556885,0.036987305,34.94,0.0,-84.0,-8.122971,11.901001,
682.249605,true,true,true,2.75,12.3,0.0,-38346,-690,0,2.75,12.25,0.0,0,0,0,0.125,12.35,0.0,0,0,0,0.125,12.35,0.0,0,0,0,0.125,12.35,0.0,4,0,0,0.0,12.35,0.0,0,0,0,0.125,12.4,0.0,0,0,0,kReverse,kOff,-87.21,2.05,2.66,-0.0078125,-0.9918823,-0.041259766,34.94,0.0,-64.0,-8.12291,11.900436,
682.2778589999999,true,true,true,2.75,12.3,0.0,-38484,-690,0,2.75,12.25,0.0,0,0,0,0.125,12.35,0.0,0,0,0,0.125,12.35,0.0,0,0,0,0.125,12.35,0.0,4,0,0,0.0,12.35,0.0,0,0,0,0.125,12.4,0.0,0,0,0,kReverse,kOff,-87.24,2.03,2.63,0.081604004,-0.9824219,0.22094727,34.94,0.0,102.0,-8.122864,11.900101,
682.299932,true,true,true,2.625,12.3,0.0,-38623,-690,0,2.75,12.25,0.0,0,0,0,0.125,12.35,0.0,0,0,0,0.125,12.35,0.0,0,0,0,0.125,12.35,0.0,4,0,0,0.0,12.35,0.0,0,0,0,0.125,12.4,0.0,0,0,0,kReverse,kOff,-87.2,2.03,2.65,0.16473389,-1.0095215,0.0592041,34.94,0.0,130.0,-8.12265,11.900101,
682.321311,true,true,true,2.5,12.3,0.0,-38760,-690,0,2.75,12.25,0.0,0,0,0,0.125,12.35,0.0,0,0,0,0.125,12.35,0.0,0,0,0,0.125,12.35,0.0,4,0,0,0.0,12.35,0.0,0,0,0,0.125,12.4,0.0,0,0,0,kReverse,kOff,-87.18,2.05,2.67,0.14550781,-0.9168091,0.12988281,34.94,0.0,137.0,-8.122269,11.900024,
682.343243,true,true,true,2.5,12.3,0.0,-38898,-690,0,2.75,12.25,0.0,0,0,0,0.125,12.35,0.0,0,0,0,0.125,12.35,0.0,0,0,0,0.125,12.35,0.0,4,0,0,0.0,12.35,0.0,0,0,0,0.125,12.4,0.0,0,0,0,kReverse,kOff,-87.18,2.07,2.69,0.03125,-0.9475708,0.03363037,34.94,0.0,-2.0,-8.121994,11.900009,
682.365071,true,true,true,2.625,12.3,0.0,-39037,-690,0,2.625,12.25,0.0,0,0,0,0.125,12.35,0.0,0,0,0,0.125,12.35,0.0,0,0,0,0.125,12.35,0.0,4,0,0,0.0,12.35,0.0,0,0,0,0.125,12.4,0.0,0,0,0,kReverse,kOff,-87.18,2.03,2.66,0.012756348,-0.9835205,-0.10681152,34.94,0.0,-64.0,-8.121674,11.899826,
682.385562,true,true,true,2.625,12.3,0.0,-39175,-690,0,2.75,12.25,0.0,0,0,0,0.125,12.35,0.0,0,0,0,0.125,12.35,0.0,0,0,0,0.125,12.35,0.0,4,0,0,0.0,12.35,0.0,0,0,0,0.125,12.4,0.0,0,0,0,kReverse,kOff,-87.2,2.04,2.66,0.18170166,-1.0324097,0.13739014,34.94,0.0,169.0,-8.121506,11.899628,
682.409584,true,true,true,2.625,12.3,0.0,-39452,-691,0,2.625,12.3,0.0,0,0,0,0.125,12.35,0.0,0,0,0,0.125,12.35,0.0,0,0,0,0.125,12.35,0.0,4,0,0,0.0,12.35,0.0,0,0,0,0.125,12.4,0.0,0,0,0,kReverse,kOff,-87.15,2.04,2.68,0.0289917,-0.8062134,0.012268066,34.94,0.0,-4.0,-8.12117,11.899368,
682.435557,true,true,true,2.625,12.3,0.0,-39590,-691,0,2.75,12.3,0.0,0,0,0,0.125,12.35,0.0,0,0,0,0.125,12.35,0.0,0,0,0,0.125,12.35,0.0,4,0,0,0.0,12.35,0.0,0,0,0,0.125,12.4,0.0,0,0,0,kReverse,kOff,-87.17,2.03,2.67,0.018920898,-0.9219971,0.17919922,34.94,0.0,32.0,-8.121033,11.899353,
682.456861,true,true,true,2.625,12.3,0.0,-39728,-691,0,3.0,12.3,0.0,0,0,0,0.125,12.35,0.0,0,0,0,0.125,12.35,0.0,0,0,0,0.125,12.35,0.0,4,0,0,0.0,12.35,0.0,0,0,0,0.125,12.4,0.0,0,0,0,kReverse,kOff,-87.13,2.07,2.71,-0.015014648,-1.1172485,-0.20257568,34.94,0.0,-127.0,-8.120544,11.899521,
682.479212,true,true,true,2.625,12.3,0.0,-39867,-691,0,2.75,12.3,0.0,0,0,0,0.125,12.35,0.0,0,0,0,0.125,12.35,0.0,0,0,0,0.125,12.35,0.0,4,0,0,0.0,12.35,0.0,0,0,0,0.125,12.4,0.0,0,0,0,kReverse,kOff,-87.19,2.03,2.66,-0.0501709,-0.9663696,0.16143799,34.94,0.0,-40.0,-8.120422,11.899521,
682.501716,true,true,true,2.75,12.3,0.0,-40004,-691,0,2.625,12.3,0.0,0,0,0,0.125,12.35,0.0,0,0,0,0.125,12.35,0.0,0,0,0,0.125,12.35,0.0,4,0,0,0.0,12.35,0.0,0,0,0,0.125,12.4,0.0,0,0,0,kReverse,kOff,-87.2,2.03,2.65,0.10803223,-1.0939331,0.047973633,34.94,0.0,69.0,-8.120041,11.899567,
682.523669,true,true,true,2.625,12.3,0.0,-40143,-690,0,2.75,12.3,0.0,0,0,0,0.125,12.35,0.0,0,0,0,0.125,12.35,0.0,0,0,0,0.125,12.35,0.0,4,0,0,0.0,12.35,0.0,0,0,0,0.125,12.4,0.0,0,0,0,kReverse,kOff,-87.19,2.06,2.68,-0.0036621094,-1.0696411,-0.0491333,34.94,0.0,-66.0,-8.119797,11.899521,
682.544623,true,true,true,2.75,12.3,0.0,-40280,-690,0,2.75,12.3,0.0,0,0,0,0.125,12.35,0.0,0,0,0,0.125,12.35,0.0,0,0,0,0.125,12.35,0.0,4,0,0,0.0,12.35,0.0,0,0,0,0.125,12.4,0.0,0,0,0,kReverse,kOff,-87.13,2.08,2.72,0.04699707,-1.0679932,-0.049987793,34.94,0.0,-19.0,-8.119186,11.899292,
682.567195,true,true,true,2.75,12.3,0.0,-40419,-690,0,2.75,12.3,0.0,0,0,0,0.125,12.3,0.0,0,0,0,0.125,12.35,0.0,0,0,0,0.125,12.35,0.0,4,0,0,0.0,12.35,0.0,0,0,0,0.125,12.4,0.0,0,0,0,kReverse,kOff,-87.2,2.06,2.67,-0.02722168,-1.0132446,0.049987793,34.94,0.0,-55.0,-8.119278,11.898819,
682.620299,true,true,true,2.75,12.25,0.0,-40833,-690,0,2.75,12.3,0.0,0,0,0,0.125,12.3,0.0,0,0,0,0.125,12.35,0.0,0,0,0,0.125,12.35,0.0,4,0,0,0.0,12.35,0.0,0,0,0,0.125,12.4,0.0,0,0,0,kReverse,kOff,-87.21,2.09,2.68,0.06524658,-0.9758911,0.043701172,34.94,0.0,31.0,-8.119507,11.89827,
682.672809,true,true,true,2.625,12.25,0.0,-41248,-690,0,2.75,12.3,0.0,0,0,0,0.125,12.3,0.0,0,0,0,0.125,12.35,0.0,0,0,0,0.125,12.35,0.0,4,0,0,0.0,12.35,0.0,0,0,0,0.125,12.4,0.0,0,0,0,kReverse,kOff,-87.21,2.1,2.69,0.045166016,-0.9373779,0.18017578,34.94,0.0,56.0,-8.119324,11.898132,
682.718698,true,true,true,1.5,12.25,0.0,-41518,-690,0,1.625,12.6,0.0,0,0,0,0.125,12.6,0.0,0,0,0,0.125,12.65,0.0,0,0,0,0.125,12.6,0.0,4,0,0,0.0,12.35,0.0,0,0,0,0.125,12.4,0.0,0,0,0,kReverse,kOff,-87.21,2.06,2.67,0.014892578,-0.9998779,-0.0491333,34.95,0.0,-45.0,-8.119217,11.897476,
682.7602929999999,true,true,true,0.0,12.6,0.0,-41761,-676,0,0.0,12.6,0.0,0,0,0,0.125,12.6,0.0,0,0,0,0.125,12.65,0.0,0,0,0,0.125,12.6,0.0,4,0,0,0.0,12.55,0.0,0,0,0,0.125,12.65,0.0,0,0,0,kReverse,kOff,-87.22,2.07,2.67,0.0016479492,-1.0582886,0.07519531,34.95,0.0,-22.0,-8.11911,11.897278,
682.800687,true,true,true,0.125,12.6,0.0,-41992,-641,0,0.125,12.6,0.0,0,0,0,0.125,12.6,0.0,0,0,0,0.125,12.65,0.0,0,0,0,0.0,12.6,0.0,4,0,0,0.0,12.55,0.0,0,0,0,0.125,12.65,0.0,0,0,0,kReverse,kOff,-87.17,2.08,2.7,0.027282715,-0.9862671,-0.03314209,34.95,0.0,-28.0,-8.118607,11.897202,
682.851069,true,true,true,0.125,12.6,0.0,-42306,-575,0,0.125,12.6,0.0,0,0,0,0.125,12.6,0.0,0,0,0,0.125,12.65,0.0,0,0,0,0.125,12.6,0.0,4,0,0,0.125,12.55,0.0,0,0,0,0.125,12.65,0.0,0,0,0,kReverse,kOff,-87.19,2.09,2.7,0.0024414062,-0.98114014,-0.07989502,34.95,0.0,-66.0,-8.118256,11.896515,
682.9088889999999,true,true,true,0.125,12.55,0.0,-42588,-517,0,0.125,12.55,0.0,0,0,0,0.125,12.55,0.0,0,0,0,0.125,12.6,0.0,0,0,0,0.125,12.55,0.0,4,0,0,0.0,12.25,0.0,0,0,0,0.125,12.6,0.0,0,0,0,kReverse,kOff,-87.19,2.11,2.71,0.11730957,-0.99194336,0.049560547,34.95,0.0,82.0,-8.117905,11.895248,
682.976646,true,true,true,18.0,12.55,0.0,-42618,-388,0,12.25,12.55,0.0,0,0,0,0.125,12.55,0.0,0,0,0,0.125,12.6,0.0,0,0,0,0.125,12.55,0.0,4,0,0,0.0,12.25,0.0,0,0,0,0.125,12.6,0.0,0,0,0,kReverse,kOff,-87.28,2.16,2.69,0.19403076,-1.1571655,-0.07696533,34.95,0.0,108.0,-8.110519,11.900803,
683.028553,true,true,true,13.375,12.55,0.0,-42504,-150,0,11.125,12.55,0.0,0,0,0,0.125,12.55,0.0,0,0,0,0.125,12.6,0.0,0,0,0,0.125,12.55,0.0,4,0,0,0.0,12.25,0.0,0,0,0,0.125,12.6,0.0,0,0,0,kReverse,kOff,-87.23,2.16,2.73,-5.493164E-4,-0.8679199,-0.18041992,34.95,0.0,-95.0,-8.105988,11.906113,
683.075825,true,true,true,14.875,11.55,0.0,-42202,268,0,14.125,11.7,0.0,0,0,0,0.125,11.75,0.0,0,0,0,0.125,11.75,0.0,0,0,0,0.125,11.7,0.0,4,0,0,0.0,11.75,0.0,0,0,0,0.125,11.7,0.0,0,0,0,kReverse,kOff,-87.27,2.12,2.67,0.05621338,-0.9246826,0.039855957,34.95,0.0,24.0,-8.099899,11.912186,
683.139944,true,true,true,7.0,11.55,0.0,-41822,509,0,9.125,11.7,0.0,0,0,0,0.125,11.75,0.0,0,0,0,0.125,11.75,0.0,0,0,0,0.125,11.7,0.0,4,0,0,0.0,11.75,0.0,0,0,0,0.125,11.7,0.0,0,0,0,kReverse,kOff,-87.26,2.16,2.7,0.06188965,-0.92077637,-0.081848145,34.95,0.0,-7.0,-8.095291,11.9171295,
683.190731,true,true,true,2.75,11.55,0.0,-41408,642,0,6.625,11.7,0.0,0,0,0,0.125,11.75,0.0,0,0,0,0.125,12.25,0.0,0,0,0,0.125,11.7,0.0,4,0,0,0.0,11.75,0.0,0,0,0,0.125,11.7,0.0,0,0,0,kReverse,kOff,-87.26,2.15,2.69,0.03515625,-1.0030518,-0.0064086914,34.95,0.0,-13.0,-8.095398,11.921829,
683.235243,true,true,true,2.125,12.200000000000001,0.0,-41127,679,0,4.0,12.15,0.0,0,0,0,0.125,12.200000000000001,0.0,0,0,0,0.125,12.25,0.0,0,0,0,0.125,12.25,0.0,4,0,0,0.0,12.25,0.0,0,0,0,0.125,12.3,0.0,0,0,0,kReverse,kOff,-87.28,2.13,2.68,0.04498291,-1.1413574,-0.08642578,34.95,0.0,-34.0,-8.0950775,11.931595,
683.319604,true,true,true,1.75,12.200000000000001,0.0,-40561,703,0,3.625,12.15,0.0,0,0,0,0.125,12.200000000000001,0.0,0,0,0,0.125,12.25,0.0,0,0,0,0.125,12.25,0.0,4,0,0,0.0,12.25,0.0,0,0,0,0.125,12.3,0.0,0,0,0,kReverse,kOff,-87.24,2.17,2.72,-0.010437012,-1.0614014,0.009399414,34.95,0.0,-55.0,-8.094833,11.936188,
683.362713,true,true,true,1.75,12.200000000000001,0.0,-40278,706,0,3.5,12.25,0.0,0,0,0,0.125,12.25,0.0,0,0,0,0.125,12.3,0.0,0,0,0,0.125,12.3,0.0,4,0,0,0.0,12.25,0.0,0,0,0,0.125,12.35,0.0,0,0,0,kReverse,kOff,-87.26,2.17,2.71,0.0715332,-1.0327759,0.22045898,34.95,0.0,89.0,-8.094223,11.941635,
683.4147859999999,true,true,true,1.625,12.25,0.0,-39852,708,0,3.5,12.25,0.0,0,0,0,0.125,12.25,0.0,0,0,0,0.125,12.3,0.0,0,0,0,0.125,12.3,0.0,4,0,0,0.0,12.25,0.0,0,0,0,0.125,12.35,0.0,0,0,0,kReverse,kOff,-87.17,2.18,2.77,0.16418457,-1.06604,-0.03479004,34.95,0.0,96.0,-8.092529,11.948242,
683.462171,true,true,true,1.625,12.25,0.0,-39569,708,0,3.625,12.25,0.0,0,0,0,0.125,12.25,0.0,0,0,0,0.125,12.3,0.0,0,0,0,0.125,12.3,0.0,4,0,0,0.0,12.25,0.0,0,0,0,0.125,12.35,0.0,0,0,0,kReverse,kOff,-87.25,2.13,2.69,0.2010498,-0.9822998,0.26116943,34.95,0.0,227.0,-8.090805,11.956436,
683.516765,true,true,true,1.5,12.25,0.0,-39144,708,0,3.5,12.25,0.0,0,0,0,0.125,12.25,0.0,0,0,0,0.125,12.3,0.0,0,0,0,0.125,12.25,0.0,4,0,0,0.0,12.25,0.0,0,0,0,0.125,12.35,0.0,0,0,0,kReverse,kOff,-87.19,2.15,2.73,-0.009521484,-0.93811035,0.081726074,34.95,0.0,-26.0,-8.088806,11.9640045,
683.561869,true,true,true,1.5,12.25,0.0,-38860,708,0,3.5,12.25,0.0,0,0,0,0.125,12.25,0.0,0,0,0,0.125,12.3,0.0,0,0,0,0.125,12.25,0.0,4,0,0,0.0,12.25,0.0,0,0,0,0.125,12.35,0.0,0,0,0,kReverse,kOff,-87.19,2.1,2.7,-0.05444336,-1.0220947,0.05529785,34.95,0.0,-80.0,-8.08577,11.973862,
683.631338,true,true,true,1.625,12.25,0.0,-38294,708,0,3.5,12.25,0.0,0,0,0,0.125,12.25,0.0,0,0,0,0.125,12.3,0.0,0,0,0,0.125,12.25,0.0,4,0,0,0.0,12.25,0.0,0,0,0,0.125,12.35,0.0,0,0,0,kReverse,kOff,-87.17,2.11,2.72,0.17974854,-1.0187988,-0.091308594,34.95,0.0,96.0,-8.081863,11.986053,
683.7033240000001,true,true,true,1.5,12.25,0.0,-37869,707,0,3.875,12.25,0.0,0,0,0,0.125,12.25,0.0,0,0,0,0.125,12.3,0.0,0,0,0,0.125,12.25,0.0,4,0,0,0.0,12.35,0.0,0,0,0,0.125,12.35,0.0,0,0,0,kReverse,kOff,-87.24,2.07,2.66,0.23364258,-1.1607056,-0.043884277,34.98,0.0,157.0,-8.079102,11.988083,
683.752296,true,true,true,0.25,12.25,0.0,-37461,704,0,1.625,12.25,0.0,0,0,0,0.125,12.25,0.0,0,0,0,0.125,12.3,0.0,0,0,0,0.125,12.25,0.0,4,0,0,0.0,12.35,0.0,0,0,0,0.125,12.35,0.0,0,0,0,kReverse,kOff,-87.24,2.13,2.7,0.023132324,-0.8901367,0.1829834,34.98,0.0,38.0,-8.07692,11.987305,
683.811076,true,true,true,0.0,12.25,0.0,-37108,659,0,0.125,12.25,0.0,0,0,0,0.125,12.25,0.0,0,0,0,0.125,12.3,0.0,0,0,0,0.125,12.25,0.0,4,0,0,0.0,12.35,0.0,0,0,0,0.125,12.35,0.0,0,0,0,kReverse,kOff,-87.23,2.1,2.68,0.046813965,-0.9734497,0.009399414,34.98,0.0,3.0,-8.072037,11.98642,
683.875372,true,true,true,0.125,12.55,0.0,-36792,582,0,0.125,12.55,0.0,0,0,0,0.125,12.5,0.0,0,0,0,0.125,12.55,0.0,0,0,0,0.125,12.55,0.0,4,0,0,0.0,12.55,0.0,0,0,0,0.125,12.6,0.0,0,0,0,kReverse,kOff,-87.19,2.12,2.71,0.08123779,-0.99017334,0.014892578,34.98,0.0,37.0,-8.068344,11.984695,
683.940425,true,true,true,0.125,12.55,0.0,-36511,518,0,0.125,12.55,0.0,0,0,0,0.125,12.5,0.0,0,0,0,0.125,12.55,0.0,0,0,0,0.125,12.55,0.0,4,0,0,0.0,12.55,0.0,0,0,0,0.125,12.6,0.0,0,0,0,kReverse,kOff,-87.17,2.13,2.73,0.00982666,-1.0366211,0.039916992,34.98,0.0,-25.0,-8.0642395,11.98288,
684.015091,true,true,true,0.125,12.55,0.0,-36188,441,0,0.125,12.55,0.0,0,0,0,0.125,12.55,0.0,0,0,0,0.125,12.55,0.0,0,0,0,0.125,12.55,0.0,4,0,0,0.0,12.55,0.0,0,0,0,0.125,12.6,0.0,0,0,0,kReverse,kOff,-87.18,2.09,2.7,-0.055358887,-0.8713989,-0.0289917,34.98,0.0,-100.0,-8.061356,11.9826355,
684.069482,true,true,true,0.125,12.55,0.0,-35984,386,0,0.125,12.55,0.0,0,0,0,0.125,12.55,0.0,0,0,0,0.125,12.55,0.0,0,0,0,0.125,12.55,0.0,4,0,0,0.0,12.55,0.0,0,0,0,0.125,12.6,0.0,0,0,0,kReverse,kOff,-87.18,2.12,2.72,-0.035339355,-0.97991943,7.324219E-4,34.98,0.0,-77.0,-8.059311,11.982529,
684.111511,true,true,true,0.125,12.55,0.0,-35863,351,0,0.125,12.55,0.0,0,0,0,0.125,12.55,0.0,0,0,0,0.125,12.55,0.0,0,0,0,0.125,12.55,0.0,4,0,0,0.0,12.55,0.0,0,0,0,0.125,12.6,0.0,0,0,0,kReverse,kOff,-87.16,2.11,2.72,0.037719727,-0.8899536,0.089782715,34.98,0.0,23.0,-8.057983,11.9826355,
684.139501,true,true,true,0.125,12.55,0.0,-35808,335,0,0.125,12.55,0.0,0,0,0,0.125,12.55,0.0,0,0,0,0.125,12.55,0.0,0,0,0,0.125,12.55,0.0,4,0,0,0.0,12.55,0.0,0,0,0,0.125,12.6,0.0,0,0,0,kReverse,kOff,-87.15,2.11,2.73,0.0040283203,-0.9480591,-0.06048584,34.98,0.0,-57.0,-8.056656,11.982864,
684.166118,true,true,true,0.125,12.55,0.0,-35756,318,0,0.125,12.55,0.0,0,0,0,0.125,12.55,0.0,0,0,0,0.125,12.55,0.0,0,0,0,0.125,12.55,0.0,4,0,0,0.0,12.55,0.0,0,0,0,0.125,12.6,0.0,0,0,0,kReverse,kOff,-87.18,2.09,2.7,0.029296875,-1.0415039,0.123291016,34.98,0.0,19.0,-8.056046,11.982956,
684.1873009999999,true,true,true,0.125,12.55,0.0,-35707,302,0,0.125,12.55,0.0,0,0,0,0.125,12.55,0.0,0,0,0,0.125,12.55,0.0,0,0,0,0.125,12.55,0.0,4,0,0,0.0,12.55,0.0,0,0,0,0.125,12.6,0.0,0,0,0,kReverse,kOff,-87.15,2.09,2.72,0.022766113,-1.0896606,-0.041503906,34.98,0.0,-40.0,-8.054779,11.983307,
684.211278,true,true,true,0.125,12.55,0.0,-35618,270,0,0.125,12.55,0.0,0,0,0,0.125,12.55,0.0,0,0,0,0.125,12.55,0.0,0,0,0,0.125,12.55,0.0,4,0,0,0.0,12.55,0.0,0,0,0,0.125,12.6,0.0,0,0,0,kReverse,kOff,-87.14,2.09,2.72,0.054870605,-0.9770508,0.057495117,34.98,0.0,25.0,-8.054169,11.983429,
684.234118,true,true,true,0.125,12.55,0.0,-35579,254,0,0.125,12.55,0.0,0,0,0,0.125,12.55,0.0,0,0,0,0.125,12.55,0.0,0,0,0,0.125,12.55,0.0,4,0,0,0.0,12.55,0.0,0,0,0,0.125,12.6,0.0,0,0,0,kReverse,kOff,-87.15,2.1,2.72,0.048461914,-0.96258545,-0.026977539,34.98,0.0,-5.0,-8.052734,11.983765,
684.2582199999999,true,true,true,0.125,12.55,0.0,-35543,238,0,0.125,12.55,0.0,0,0,0,0.125,12.55,0.0,0,0,0,0.125,12.55,0.0,0,0,0,0.125,12.55,0.0,4,0,0,0.0,12.55,0.0,0,0,0,0.125,12.6,0.0,0,0,0,kReverse,kOff,-87.15,2.1,2.72,0.06329346,-0.9268799,0.07873535,34.98,0.0,42.0,-8.051117,11.98407,
684.282297,true,true,true,0.125,12.55,0.0,-35511,221,0,0.125,12.55,0.0,0,0,0,0.125,12.55,0.0,0,0,0,0.125,12.55,0.0,0,0,0,0.125,12.55,0.0,4,0,0,0.0,12.55,0.0,0,0,0,0.125,12.6,0.0,0,0,0,kReverse,kOff,-87.14,2.1,2.72,0.028564453,-0.97180176,0.08441162,34.98,0.0,9.0,-8.050232,11.984299,
684.303436,true,true,true,0.125,12.55,0.0,-35481,205,0,0.125,12.55,0.0,0,0,0,0.125,12.55,0.0,0,0,0,0.125,12.55,0.0,0,0,0,0.125,12.55,0.0,4,0,0,0.0,12.55,0.0,0,0,0,0.125,12.6,0.0,0,0,0,kReverse,kOff,-87.15,2.08,2.71,0.036315918,-1.0115967,-0.041503906,34.98,0.0,-23.0,-8.048706,11.98465,
684.325029,true,true,true,0.125,12.55,0.0,-35454,189,0,0.125,12.55,0.0,0,0,0,0.125,12.55,0.0,0,0,0,0.125,12.6,0.0,0,0,0,0.125,12.55,0.0,4,0,0,0.0,12.55,0.0,0,0,0,0.125,12.6,0.0,0,0,0,kReverse,kOff,-87.16,2.08,2.7,0.10266113,-0.986084,0.103027344,34.98,0.0,85.0,-8.047958,11.984756,
684.346596,true,true,true,0.125,12.55,0.0,-35430,173,0,0.125,12.55,0.0,0,0,0,0.125,12.55,0.0,0,0,0,0.125,12.6,0.0,0,0,0,0.125,12.55,0.0,4,0,0,0.0,12.55,0.0,0,0,0,0.125,12.6,0.0,0,0,0,kReverse,kOff,-87.14,2.08,2.72,0.072631836,-1.1055298,-6.1035156E-5,34.98,0.0,19.0,-8.046356,11.985123,
684.372046,true,true,true,0.125,12.55,0.0,-35390,143,0,0.125,12.55,0.0,0,0,0,0.125,12.55,0.0,0,0,0,0.125,12.6,0.0,0,0,0,0.125,12.55,0.0,4,0,0,0.0,12.55,0.0,0,0,0,0.125,12.6,0.0,0,0,0,kReverse,kOff,-87.14,2.09,2.72,0.04437256,-0.90423584,0.09277344,34.98,0.0,29.0,-8.045517,11.985321,
684.3925109999999,true,true,true,0.125,12.55,0.0,-35374,129,0,0.125,12.55,0.0,0,0,0,0.125,12.55,0.0,0,0,0,0.125,12.6,0.0,0,0,0,0.125,12.55,0.0,4,0,0,0.0,12.55,0.0,0,0,0,0.125,12.6,0.0,0,0,0,kReverse,kOff,-87.12,2.1,2.74,0.031921387,-1.0169678,-0.008850098,34.98,0.0,-18.0,-8.043808,11.985825,
684.417005,true,true,true,0.125,12.55,0.0,-35360,115,0,0.125,12.55,0.0,0,0,0,0.125,12.55,0.0,0,0,0,0.125,12.6,0.0,0,0,0,0.125,12.55,0.0,4,0,0,0.0,12.55,0.0,0,0,0,0.125,12.6,0.0,0,0,0,kReverse,kOff,-87.13,2.09,2.72,0.03375244,-1.0118408,-0.011047363,34.98,0.0,-17.0,-8.043808,11.986008,
684.44064,true,true,true,0.125,12.55,0.0,-35350,101,0,0.125,12.55,0.0,0,0,0,0.125,12.55,0.0,0,0,0,0.125,12.6,0.0,0,0,0,0.125,12.55,0.0,4,0,0,0.0,12.55,0.0,0,0,0,0.125,12.6,0.0,0,0,0,kReverse,kOff,-87.12,2.1,2.73,0.002319336,-0.9814453,-0.011230469,34.98,0.0,-45.0,-8.043808,11.986435,
684.4604039999999,true,true,true,0.125,12.55,0.0,-35342,87,0,0.125,12.55,0.0,0,0,0,0.125,12.55,0.0,0,0,0,0.125,12.6,0.0,0,0,0,0.125,12.55,0.0,4,0,0,0.0,12.55,0.0,0,0,0,0.125,12.6,0.0,0,0,0,kReverse,kOff,-87.14,2.08,2.72,0.04864502,-0.9567261,0.097961426,34.98,0.0,33.0,-8.0438385,11.986664,
684.484354,true,true,true,0.125,12.55,0.0,-35336,74,0,0.125,12.55,0.0,0,0,0,0.125,12.55,0.0,0,0,0,0.125,12.6,0.0,0,0,0,0.125,12.55,0.0,4,0,0,0.0,12.55,0.0,0,0,0,0.125,12.6,0.0,0,0,0,kReverse,kOff,-87.11,2.1,2.74,0.021240234,-0.98760986,0.020141602,34.98,0.0,-18.0,-8.043747,11.98735,
684.508211,true,true,true,1.0,12.55,0.0,-35328,48,0,0.125,12.55,0.0,0,0,0,0.125,12.55,0.0,0,0,0,0.125,12.6,0.0,0,0,0,0.125,12.55,0.0,4,0,0,0.0,12.55,0.0,0,0,0,0.125,12.55,0.0,0,0,0,kReverse,kOff,-87.11,2.1,2.74,0.021240234,-0.98760986,0.07751465,34.98,0.0,42.0,-8.043732,11.987915,
684.534372,true,true,true,4.75,12.55,0.0,-35309,39,0,4.375,12.55,0.0,0,0,0,0.125,12.55,0.0,0,0,0,0.125,12.6,0.0,0,0,0,0.125,12.55,0.0,4,0,0,0.0,12.35,0.0,0,0,0,0.125,12.55,0.0,0,0,0,kReverse,kOff,-87.16,2.11,2.73,-0.16253662,-0.7593384,-0.17486572,34.98,0.0,-242.0,-8.043869,11.988129,
684.558973,true,true,true,8.75,12.55,0.0,-35268,42,0,7.75,12.55,0.0,0,0,0,0.125,12.55,0.0,0,0,0,0.125,12.6,0.0,0,0,0,0.125,12.55,0.0,4,0,0,0.0,12.35,0.0,0,0,0,0.125,12.55,0.0,0,0,0,kReverse,kOff,-87.14,2.06,2.7,0.3106079,-1.3175659,0.21514893,34.98,0.0,302.0,-8.043945,11.9882965,
684.577888,true,true,true,15.5,12.55,0.0,-35206,62,0,13.25,12.55,0.0,0,0,0,0.125,12.55,0.0,0,0,0,0.125,12.6,0.0,0,0,0,0.125,12.55,0.0,4,0,0,0.0,12.35,0.0,0,0,0,0.125,12.55,0.0,0,0,0,kReverse,kOff,-87.14,2.06,2.7,0.2821045,-1.0325317,-0.09210205,34.98,0.0,193.0,-8.043701,11.988388,
684.601017,true,true,true,19.875,12.55,0.0,-35118,105,0,17.5,12.55,0.0,0,0,0,0.125,12.55,0.0,0,0,0,0.125,12.6,0.0,0,0,0,0.125,12.55,0.0,4,0,0,0.0,12.35,0.0,0,0,0,0.125,12.55,0.0,0,0,0,kReverse,kOff,-87.18,2.05,2.67,0.2854004,-1.2953491,0.10662842,34.98,0.0,246.0,-8.043243,11.988663,
684.621714,true,true,true,20.875,12.55,0.0,-35010,174,0,19.25,12.55,0.0,0,0,0,0.125,12.55,0.0,0,0,0,0.125,12.6,0.0,0,0,0,0.125,12.55,0.0,4,0,0,0.0,12.35,0.0,0,0,0,0.125,12.55,0.0,0,0,0,kReverse,kOff,-87.12,2.06,2.71,0.06402588,-0.9682617,-0.13134766,34.98,0.0,-23.0,-8.042862,11.988739,
684.642147,true,true,true,17.125,12.55,0.0,-34883,267,0,18.125,11.7,0.0,0,0,0,0.125,12.55,0.0,0,0,0,0.125,12.6,0.0,0,0,0,0.125,12.55,0.0,4,0,0,0.0,12.35,0.0,0,0,0,0.125,12.55,0.0,0,0,0,kReverse,kOff,-87.17,2.06,2.68,0.09442139,-1.020813,0.06109619,34.98,0.0,62.0,-8.04245,11.9887085,
684.66396,true,true,true,10.75,11.9,0.0,-34755,363,0,13.625,11.7,0.0,0,0,0,0.125,11.9,0.0,0,0,0,0.125,11.95,0.0,0,0,0,0.125,12.0,0.0,4,0,0,0.0,12.35,0.0,0,0,0,0.125,12.1,0.0,0,0,0,kReverse,kOff,-87.18,2.09,2.7,-0.043273926,-0.81152344,0.11193848,34.98,0.0,-42.0,-8.041626,11.988739,
684.684568,true,true,true,7.5,11.9,0.0,-34624,456,0,10.375,11.7,0.0,0,0,0,0.125,11.9,0.0,0,0,0,0.125,11.95,0.0,0,0,0,0.125,12.0,0.0,4,0,0,0.0,12.1,0.0,0,0,0,0.125,12.1,0.0,0,0,0,kReverse,kOff,-87.22,2.06,2.66,0.17816162,-1.0597534,0.08630371,34.98,0.0,148.0,-8.041168,11.988876,
684.7138,true,true,true,3.625,11.9,0.0,-34359,588,0,7.125,11.7,0.0,0,0,0,0.125,11.9,0.0,0,0,0,0.125,11.95,0.0,0,0,0,0.0,12.0,0.0,4,0,0,0.0,12.1,0.0,0,0,0,0.125,12.1,0.0,0,0,0,kReverse,kOff,-87.17,2.1,2.71,-0.020629883,-0.8534546,0.029052734,34.98,0.0,-49.0,-8.040024,11.989243,
684.740609,true,true,true,2.875,11.9,0.0,-34221,629,0,6.125,11.7,0.0,0,0,0,0.125,11.9,0.0,0,0,0,0.125,11.95,0.0,0,0,0,0.0,12.0,0.0,4,0,0,0.0,12.1,0.0,0,0,0,0.125,12.1,0.0,0,0,0,kReverse,kOff,-87.27,2.03,2.62,0.21478271,-1.0675049,0.033325195,34.98,0.0,167.0,-8.039124,11.989563,
684.761977,true,true,true,2.25,11.9,0.0,-34081,655,0,5.0,11.7,0.0,0,0,0,0.125,11.9,0.0,0,0,0,0.125,11.95,0.0,0,0,0,0.0,12.0,0.0,4,0,0,0.0,12.1,0.0,0,0,0,0.125,12.1,0.0,0,0,0,kReverse,kOff,-87.18,2.12,2.72,-0.0099487305,-0.8378906,-0.029968262,34.99,0.0,-56.0,-8.0385895,11.989609,
684.783473,true,true,true,2.125,11.9,0.0,-33941,672,0,4.625,11.7,0.0,0,0,0,0.125,11.9,0.0,0,0,0,0.125,11.95,0.0,0,0,0,0.125,12.0,0.0,4,0,0,0.0,12.1,0.0,0,0,0,0.125,12.1,0.0,0,0,0,kReverse,kOff,-87.21,2.12,2.7,-0.08703613,-0.9002075,-0.06970215,34.99,0.0,-144.0,-8.037674,11.989517,
684.80551,true,true,true,1.75,11.9,0.0,-33800,683,0,4.0,12.200000000000001,0.0,0,0,0,0.125,12.25,0.0,0,0,0,0.125,12.25,0.0,0,0,0,0.0,12.25,0.0,4,0,0,0.0,12.1,0.0,0,0,0,0.125,12.1,0.0,0,0,0,kReverse,kOff,-87.22,2.08,2.68,0.07879639,-1.0844727,0.14190674,34.99,0.0,70.0,-8.037323,11.989441,
684.824664,true,true,true,1.75,12.200000000000001,0.0,-33659,690,0,4.0,12.200000000000001,0.0,0,0,0,0.125,12.25,0.0,0,0,0,0.125,12.25,0.0,0,0,0,0.0,12.25,0.0,4,0,0,0.0,12.1,0.0,0,0,0,0.125,12.3,0.0,0,0,0,kReverse,kOff,-87.19,2.11,2.71,0.014282227,-0.9335327,0.050476074,34.99,0.0,-12.0,-8.036423,11.989685,
684.8431459999999,true,true,true,1.75,12.200000000000001,0.0,-33519,696,0,3.625,12.200000000000001,0.0,0,0,0,0.125,12.25,0.0,0,0,0,0.125,12.25,0.0,0,0,0,0.0,12.25,0.0,4,0,0,0.0,12.25,0.0,0,0,0,0.125,12.3,0.0,0,0,0,kReverse,kOff,-87.22,2.07,2.67,0.07647705,-0.99334717,0.061462402,34.99,0.0,47.0,-8.03595,11.989883,
684.864505,true,true,true,1.625,12.200000000000001,0.0,-33378,699,0,3.875,12.200000000000001,0.0,0,0,0,0.125,12.25,0.0,0,0,0,0.125,12.25,0.0,0,0,0,0.125,12.25,0.0,4,0,0,0.0,12.25,0.0,0,0,0,0.125,12.3,0.0,0,0,0,kReverse,kOff,-87.28,2.02,2.61,0.10522461,-0.98461914,0.016601562,34.99,0.0,62.0,-8.0354,11.990067,
684.882865,true,true,true,1.625,12.200000000000001,0.0,-33238,702,0,3.625,12.200000000000001,0.0,0,0,0,0.125,12.25,0.0,0,0,0,0.125,12.25,0.0,0,0,0,0.125,12.25,0.0,4,0,0,0.0,12.25,0.0,0,0,0,0.125,12.3,0.0,0,0,0,kReverse,kOff,-87.22,2.1,2.69,0.058776855,-1.0319824,-0.05609131,34.99,0.0,-7.0,-8.034363,11.990112,
684.9035429999999,true,true,true,1.5,12.200000000000001,0.0,-33096,703,0,3.5,12.200000000000001,0.0,0,0,0,0.125,12.25,0.0,0,0,0,0.125,12.25,0.0,0,0,0,0.125,12.25,0.0,4,0,0,0.125,12.25,0.0,0,0,0,0.125,12.3,0.0,0,0,0,kReverse,kOff,-87.21,2.13,2.72,-0.15234375,-0.9011841,-0.11450195,34.99,0.0,-220.0,-8.034027,11.98996,
684.925148,true,true,true,1.5,12.200000000000001,0.0,-32953,704,0,3.25,12.200000000000001,0.0,0,0,0,0.125,12.25,0.0,0,0,0,0.125,12.25,0.0,0,0,0,0.125,12.25,0.0,4,0,0,0.0,12.25,0.0,0,0,0,0.125,12.3,0.0,0,0,0,kReverse,kOff,-87.25,2.08,2.66,0.038085938,-1.0442505,0.014099121,34.99,0.0,-5.0,-8.033844,11.989731,
684.945767,true,true,true,1.625,12.200000000000001,0.0,-32814,704,0,3.25,12.200000000000001,0.0,0,0,0,0.125,12.25,0.0,0,0,0,0.125,12.25,0.0,0,0,0,0.125,12.25,0.0,4,0,0,0.0,12.25,0.0,0,0,0,0.125,12.3,0.0,0,0,0,kReverse,kOff,-87.22,2.13,2.7,-0.06347656,-1.0231934,0.14813232,34.99,0.0,-60.0,-8.033554,11.98909,
684.968592,true,true,true,1.625,12.200000000000001,0.0,-32531,705,0,3.25,12.200000000000001,0.0,0,0,0,0.125,12.25,0.0,0,0,0,0.125,12.3,0.0,0,0,0,0.125,12.3,0.0,4,0,0,0.0,12.25,0.0,0,0,0,0.125,12.3,0.0,0,0,0,kReverse,kOff,-87.3,2.03,2.6,0.16973877,-1.0584106,-0.06719971,34.99,0.0,94.0,-8.033432,11.988571,
684.99564,true,true,true,0.875,12.25,0.0,-32394,705,0,2.75,12.200000000000001,0.0,0,0,0,0.125,12.25,0.0,0,0,0,0.125,12.3,0.0,0,0,0,0.125,12.3,0.0,4,0,0,0.0,12.65,0.0,0,0,0,0.125,12.450000000000001,0.0,0,0,0,kReverse,kOff,-87.23,2.12,2.69,0.083984375,-1.0542603,-0.030639648,34.99,0.0,23.0,-8.033279,11.988129,
685.018926,true,true,true,0.25,12.25,0.0,-32269,701,0,1.875,12.200000000000001,0.0,0,0,0,0.125,12.25,0.0,0,0,0,0.125,12.3,0.0,0,0,0,0.125,12.3,0.0,4,0,0,0.0,12.65,0.0,0,0,0,0.125,12.450000000000001,0.0,0,0,0,kReverse,kOff,-87.21,2.13,2.71,-0.09020996,-0.8942871,-0.10870361,34.99,0.0,-159.0,-8.033371,11.987091,
685.040901,true,true,true,0.0,12.25,0.0,-32169,689,0,0.5,12.200000000000001,0.0,0,0,0,0.125,12.25,0.0,0,0,0,0.125,12.3,0.0,0,0,0,0.125,12.3,0.0,4,0,0,0.0,12.65,0.0,0,0,0,0.125,12.450000000000001,0.0,0,0,0,kReverse,kOff,-87.25,2.07,2.65,0.032165527,-1.132019,-0.07476807,34.99,0.0,-42.0,-8.033646,11.986404,
685.062901,true,true,true,0.0,12.25,0.0,-32105,659,0,0.0,12.200000000000001,0.0,0,0,0,0.125,12.25,0.0,0,0,0,0.125,12.3,0.0,0,0,0,0.125,12.3,0.0,4,0,0,0.0,12.65,0.0,0,0,0,0.125,12.450000000000001,0.0,0,0,0,kReverse,kOff,-87.27,2.12,2.68,0.06939697,-0.93188477,0.17340088,34.99,0.0,78.0,-8.033661,11.9856415,
685.08382,true,true,true,0.125,12.25,0.0,-32064,602,0,0.0,12.200000000000001,0.0,0,0,0,0.125,12.25,0.0,0,0,0,0.125,12.3,0.0,0,0,0,0.125,12.3,0.0,4,0,0,0.0,12.65,0.0,0,0,0,0.125,12.450000000000001,0.0,0,0,0,kReverse,kOff,-87.3,2.13,2.66,-0.14886475,-1.0132446,0.05657959,34.99,0.0,-168.0,-8.0336,11.985535,
685.1039930000001,true,true,true,0.125,12.25,0.0,-32026,521,0,0.125,12.200000000000001,0.0,0,0,0,0.125,12.25,0.0,0,0,0,0.125,12.3,0.0,0,0,0,0.125,12.3,0.0,4,0,0,0.0,12.65,0.0,0,0,0,0.125,12.450000000000001,0.0,0,0,0,kReverse,kOff,-87.33,2.09,2.63,0.06616211,-0.9390869,0.017700195,34.99,0.0,27.0,-8.034027,11.985001,
685.1255749999999,true,true,true,0.125,12.25,0.0,-31992,426,0,0.125,12.55,0.0,0,0,0,0.125,12.55,0.0,0,0,0,0.125,12.55,0.0,0,0,0,0.125,12.55,0.0,4,0,0,0.0,12.65,0.0,0,0,0,0.125,12.450000000000001,0.0,0,0,0,kReverse,kOff,-87.32,2.1,2.64,0.02911377,-0.97924805,0.15777588,34.99,0.0,33.0,-8.034241,11.984711,
685.149899,true,true,true,0.125,12.55,0.0,-31935,255,0,0.125,12.55,0.0,0,0,0,0.125,12.55,0.0,0,0,0,0.125,12.55,0.0,0,0,0,0.0,12.55,0.0,4,0,0,0.0,12.65,0.0,0,0,0,0.125,12.6,0.0,0,0,0,kReverse,kOff,-87.3,2.1,2.65,0.03918457,-0.96569824,0.027160645,34.99,0.0,3.0,-8.034424,11.984512,
685.170505,true,true,true,0.125,12.55,0.0,-31910,200,0,0.125,12.55,0.0,0,0,0,0.125,12.55,0.0,0,0,0,0.125,12.55,0.0,0,0,0,0.0,12.55,0.0,4,0,0,0.0,12.55,0.0,0,0,0,0.125,12.6,0.0,0,0,0,kReverse,kOff,-87.3,2.09,2.65,0.05065918,-1.0180664,-0.027709961,34.99,0.0,-5.0,-8.034424,11.983917,
685.191062,true,true,true,0.125,12.55,0.0,-31888,166,0,0.125,12.55,0.0,0,0,0,0.125,12.55,0.0,0,0,0,0.125,12.55,0.0,0,0,0,0.0,12.55,0.0,4,0,0,0.0,12.55,0.0,0,0,0,0.125,12.6,0.0,0,0,0,kReverse,kOff,-87.33,2.07,2.61,0.006713867,-0.9923096,-0.08984375,34.99,0.0,-64.0,-8.034485,11.983459,
685.214013,true,true,true,0.125,12.55,0.0,-31869,147,0,0.125,12.55,0.0,0,0,0,0.125,12.55,0.0,0,0,0,0.125,12.55,0.0,0,0,0,0.0,12.55,0.0,4,0,0,0.0,12.55,0.0,0,0,0,0.125,12.6,0.0,0,0,0,kReverse,kOff,-87.32,2.08,2.63,0.024291992,-0.9519043,0.025634766,34.99,0.0,-10.0,-8.034546,11.98262,
685.238753,true,true,true,0.125,12.55,0.0,-31852,132,0,0.125,12.55,0.0,0,0,0,0.125,12.55,0.0,0,0,0,0.125,12.55,0.0,0,0,0,0.125,12.55,0.0,4,0,0,0.0,12.55,0.0,0,0,0,0.125,12.6,0.0,0,0,0,kReverse,kOff,-87.31,2.1,2.64,0.015686035,-1.0349731,0.040649414,34.99,0.0,-18.0,-8.034576,11.98262,
685.261018,true,true,true,1.125,12.55,0.0,-31838,118,0,0.75,12.55,0.0,0,0,0,0.125,12.55,0.0,0,0,0,0.125,12.55,0.0,0,0,0,0.125,12.55,0.0,4,0,0,0.0,12.55,0.0,0,0,0,0.125,12.6,0.0,0,0,0,kReverse,kOff,-87.3,2.09,2.64,0.06402588,-1.0356445,0.078186035,34.97,0.0,39.0,-8.034592,11.98262,
685.2823099999999,true,true,true,3.125,12.55,0.0,-31844,101,0,2.5,12.25,0.0,0,0,0,0.125,12.55,0.0,0,0,0,0.125,12.55,0.0,0,0,0,0.125,12.55,0.0,4,0,0,0.0,12.55,0.0,0,0,0,0.125,12.6,0.0,0,0,0,kReverse,kOff,-87.3,2.08,2.63,-0.029174805,-0.82684326,-0.046875,34.97,0.0,-78.0,-8.034409,11.98262,
685.3035520000001,true,true,true,10.875,11.9,0.0,-31870,77,0,8.0,12.25,0.0,0,0,0,0.125,12.05,0.0,0,0,0,0.125,12.0,0.0,0,0,0,0.125,11.8,0.0,4,0,0,0.0,12.55,0.0,0,0,0,0.125,11.3,0.0,0,0,0,kReverse,kOff,-87.3,2.08,2.64,0.006164551,-1.0338745,-0.03265381,34.97,0.0,-49.0,-8.034393,11.982513,
685.3248249999999,true,true,true,23.875,11.9,0.0,-31925,40,0,17.375,12.25,0.0,0,0,0,0.125,12.05,0.0,0,0,0,0.125,12.0,0.0,0,0,0,0.125,11.8,0.0,4,0,0,0.0,10.9,0.0,0,0,0,0.125,11.3,0.0,0,0,0,kReverse,kOff,-87.38,2.11,2.61,0.017211914,-0.9753418,-0.06201172,34.97,0.0,-45.0,-8.033966,11.982437,
685.346571,true,true,true,29.75,11.9,0.0,-32014,-21,0,22.75,12.25,0.0,0,0,0,0.125,12.05,0.0,0,0,0,0.125,12.0,0.0,0,0,0,0.125,11.8,0.0,4,0,0,0.0,10.9,0.0,0,0,0,0.125,11.3,0.0,0,0,0,kReverse,kOff,-87.41,2.09,2.58,-0.08190918,-1.0603638,0.2977295,34.97,0.0,-31.0,-8.033737,11.982574,
685.369842,true,true,true,20.5,11.9,0.0,-32242,-216,0,23.125,12.25,0.0,0,0,0,0.125,12.05,0.0,0,0,0,0.125,12.0,0.0,0,0,0,0.125,11.8,0.0,4,0,0,0.0,10.9,0.0,0,0,0,0.125,11.3,0.0,0,0,0,kReverse,kOff,-87.37,2.07,2.59,0.08331299,-0.97735596,-0.023010254,34.97,0.0,29.0,-8.033508,11.982849,
685.3929790000001,true,true,true,13.5,11.9,0.0,-32368,-330,0,18.5,12.25,0.0,0,0,0,0.125,12.05,0.0,0,0,0,0.125,12.0,0.0,0,0,0,0.125,11.8,0.0,4,0,0,0.0,10.9,0.0,0,0,0,0.125,11.3,0.0,0,0,0,kReverse,kOff,-87.44,2.07,2.56,0.040283203,-1.0004883,0.070007324,34.97,0.0,17.0,-8.032684,11.983536,
685.417694,true,true,true,9.75,11.9,0.0,-32498,-436,0,9.5,12.25,0.0,0,0,0,0.125,12.05,0.0,0,0,0,0.125,12.0,0.0,0,0,0,0.125,11.8,0.0,4,0,0,0.125,10.9,0.0,0,0,0,0.125,11.3,0.0,0,0,0,kReverse,kOff,-87.42,2.06,2.56,0.08477783,-0.98028564,-0.07861328,34.97,0.0,14.0,-8.031586,11.9843445,
685.438743,true,true,true,7.625,11.9,0.0,-32630,-522,0,8.0,12.05,0.0,0,0,0,0.125,12.05,0.0,0,0,0,0.125,12.0,0.0,0,0,0,0.125,11.8,0.0,4,0,0,0.125,10.9,0.0,0,0,0,0.125,11.3,0.0,0,0,0,kReverse,kOff,-87.42,2.06,2.56,-0.047912598,-1.0839844,-0.06829834,34.97,0.0,-112.0,-8.031067,11.984604,
685.458826,true,true,true,6.125,12.1,0.0,-32765,-583,0,5.125,12.05,0.0,0,0,0,0.125,12.1,0.0,0,0,0,0.125,12.200000000000001,0.0,0,0,0,0.125,12.200000000000001,0.0,4,0,0,0.0,10.9,0.0,0,0,0,0.125,12.25,0.0,0,0,0,kReverse,kOff,-87.4,2.1,2.59,-0.009094238,-0.9970703,-0.06121826,34.97,0.0,-70.0,-8.030075,11.9848175,
685.481986,true,true,true,5.125,12.1,0.0,-32900,-622,0,4.375,12.05,0.0,0,0,0,0.125,12.1,0.0,0,0,0,0.125,12.200000000000001,0.0,0,0,0,0.125,12.200000000000001,0.0,4,0,0,0.0,12.200000000000001,0.0,0,0,0,0.125,12.25,0.0,0,0,0,kReverse,kOff,-87.43,2.06,2.55,0.050476074,-0.99261475,0.14208984,34.97,0.0,49.0,-8.029602,11.984909,
685.5164980000001,true,true,true,4.0,12.1,0.0,-33174,-660,0,3.125,12.05,0.0,0,0,0,0.125,12.1,0.0,0,0,0,0.125,12.200000000000001,0.0,0,0,0,0.125,12.200000000000001,0.0,4,0,0,0.0,12.200000000000001,0.0,0,0,0,0.125,12.25,0.0,0,0,0,kReverse,kOff,-87.4,2.08,2.58,-0.023986816,-0.9768677,0.041015625,34.97,0.0,-52.0,-8.028305,11.984924,
685.542918,true,true,true,3.5,12.1,0.0,-33312,-670,0,3.0,12.05,0.0,0,0,0,0.125,12.1,0.0,0,0,0,0.125,12.200000000000001,0.0,0,0,0,0.125,12.200000000000001,0.0,4,0,0,0.0,12.200000000000001,0.0,0,0,0,0.125,12.25,0.0,0,0,0,kReverse,kOff,-87.39,2.06,2.58,0.10864258,-1.0838013,0.07366943,34.97,0.0,79.0,-8.027863,11.984955,
685.5641049999999,true,true,true,3.375,12.1,0.0,-33449,-677,0,2.625,12.05,0.0,0,0,0,0.125,12.1,0.0,0,0,0,0.125,12.200000000000001,0.0,0,0,0,0.125,12.200000000000001,0.0,4,0,0,0.0,12.200000000000001,0.0,0,0,0,0.125,12.25,0.0,0,0,0,kReverse,kOff,-87.35,2.1,2.62,0.057617188,-1.1049805,0.046875,34.97,0.0,21.0,-8.027008,11.984711,
685.5850479999999,true,true,true,3.25,12.1,0.0,-33587,-682,0,2.625,12.05,0.0,0,0,0,0.125,12.1,0.0,0,0,0,0.125,12.200000000000001,0.0,0,0,0,0.125,12.200000000000001,0.0,4,0,0,0.0,12.200000000000001,0.0,0,0,0,0.125,12.25,0.0,0,0,0,kReverse,kOff,-87.34,2.12,2.64,0.07489014,-0.9994507,-0.06854248,34.97,0.0,6.0,-8.026566,11.984467,
685.6063,true,true,true,3.125,12.1,0.0,-33726,-685,0,2.625,12.200000000000001,0.0,0,0,0,0.125,12.25,0.0,0,0,0,0.125,12.25,0.0,0,0,0,0.125,12.3,0.0,4,0,0,0.0,12.200000000000001,0.0,0,0,0,0.125,12.25,0.0,0,0,0,kReverse,kOff,-87.37,2.07,2.59,0.008850098,-1.0049438,0.11932373,34.97,0.0,1.0,-8.025894,11.984055,
685.631653,true,true,true,1.75,12.200000000000001,0.0,-33999,-689,0,2.375,12.200000000000001,0.0,0,0,0,0.125,12.25,0.0,0,0,0,0.125,12.25,0.0,0,0,0,0.125,12.3,0.0,4,0,0,0.0,12.200000000000001,0.0,0,0,0,0.125,12.450000000000001,0.0,0,0,0,kReverse,kOff,-87.38,2.07,2.59,0.09063721,-0.9403076,0.08068848,34.97,0.0,70.0,-8.025558,11.983994,
685.6534889999999,true,true,true,0.75,12.200000000000001,0.0,-34120,-686,0,1.0,12.200000000000001,0.0,0,0,0,0.125,12.25,0.0,0,0,0,0.125,12.25,0.0,0,0,0,0.125,12.3,0.0,4,0,0,0.0,12.6,0.0,0,0,0,0.125,12.450000000000001,0.0,0,0,0,kReverse,kOff,-87.37,2.1,2.61,0.057678223,-1.1964722,0.03491211,34.97,0.0,13.0,-8.0251465,11.983948,
685.676164,true,true,true,0.0,12.200000000000001,0.0,-34219,-675,0,0.25,12.200000000000001,0.0,0,0,0,0.125,12.25,0.0,0,0,0,0.125,12.25,0.0,0,0,0,0.125,12.3,0.0,4,0,0,0.0,12.6,0.0,0,0,0,0.125,12.450000000000001,0.0,0,0,0,kReverse,kOff,-87.36,2.09,2.61,-5.493164E-4,-0.8760376,0.21832275,34.97,0.0,28.0,-8.024445,11.983887,
685.698389,true,true,true,0.0,12.200000000000001,0.0,-34287,-646,0,0.0,12.200000000000001,0.0,0,0,0,0.125,12.25,0.0,0,0,0,0.125,12.25,0.0,0,0,0,0.125,12.3,0.0,4,0,0,0.0,12.6,0.0,0,0,0,0.125,12.450000000000001,0.0,0,0,0,kReverse,kOff,-87.33,2.07,2.61,0.1739502,-0.9552002,0.15203857,34.97,0.0,170.0,-8.023132,11.984924,
685.721724,true,true,true,0.0,12.200000000000001,0.0,-34338,-593,0,0.0,12.200000000000001,0.0,0,0,0,0.125,12.25,0.0,0,0,0,0.125,12.25,0.0,0,0,0,0.125,12.3,0.0,4,0,0,0.0,12.6,0.0,0,0,0,0.125,12.450000000000001,0.0,0,0,0,kReverse,kOff,-87.35,2.08,2.61,0.07470703,-1.0753784,0.0015869141,34.97,0.0,24.0,-8.022217,11.985611,
685.7425969999999,true,true,true,0.125,12.200000000000001,0.0,-34388,-521,0,0.125,12.200000000000001,0.0,0,0,0,0.125,12.25,0.0,0,0,0,0.125,12.25,0.0,0,0,0,0.125,12.3,0.0,4,0,0,0.125,12.6,0.0,0,0,0,0.125,12.450000000000001,0.0,0,0,0,kReverse,kOff,-87.35,2.07,2.61,0.032348633,-0.91760254,-0.019104004,34.97,0.0,-14.0,-8.020615,11.986633,
685.763324,true,true,true,0.125,12.200000000000001,0.0,-34433,-439,0,0.125,12.55,0.0,0,0,0,0.125,12.5,0.0,0,0,0,0.125,12.55,0.0,0,0,0,0.125,12.3,0.0,4,0,0,0.0,12.6,0.0,0,0,0,0.125,12.450000000000001,0.0,0,0,0,kReverse,kOff,-87.35,2.07,2.61,0.032348633,-0.91760254,-0.019104004,34.97,0.0,-14.0,-8.020615,11.986633,
685.787645,true,true,true,0.125,12.55,0.0,-34475,-360,0,0.125,12.55,0.0,0,0,0,0.125,12.5,0.0,0,0,0,0.125,12.55,0.0,0,0,0,0.125,12.55,0.0,4,0,0,0.0,12.6,0.0,0,0,0,0.125,12.6,0.0,0,0,0,kReverse,kOff,-87.35,2.09,2.62,0.06951904,-0.99334717,0.051818848,34.98,0.0,38.0,-8.018982,11.987595,
685.812583,true,true,true,0.125,12.55,0.0,-34549,-250,0,0.125,12.55,0.0,0,0,0,0.125,12.5,0.0,0,0,0,0.125,12.55,0.0,0,0,0,0.125,12.55,0.0,4,0,0,0.0,12.55,0.0,0,0,0,0.125,12.6,0.0,0,0,0,kReverse,kOff,-87.35,2.09,2.62,0.06951904,-0.99334717,0.051818848,34.98,0.0,38.0,-8.018982,11.987595,
685.835381,true,true,true,0.125,12.55,0.0,-34583,-222,0,0.125,12.55,0.0,0,0,0,0.125,12.5,0.0,0,0,0,0.125,12.55,0.0,0,0,0,0.125,12.55,0.0,4,0,0,0.0,12.55,0.0,0,0,0,0.125,12.6,0.0,0,0,0,kReverse,kOff,-87.33,2.1,2.63,-0.0592041,-0.9937744,-0.022277832,34.98,0.0,-106.0,-8.016281,11.989304,
685.8563859999999,true,true,true,0.125,12.55,0.0,-34613,-204,0,0.125,12.55,0.0,0,0,0,0.125,12.5,0.0,0,0,0,0.125,12.55,0.0,0,0,0,0.125,12.55,0.0,4,0,0,0.0,12.55,0.0,0,0,0,0.125,12.6,0.0,0,0,0,kReverse,kOff,-87.36,2.05,2.59,0.083496094,-0.97058105,0.12750244,34.98,0.0,76.0,-8.015427,11.989944,
685.879674,true,true,true,0.125,12.55,0.0,-34641,-188,0,0.125,12.55,0.0,0,0,0,0.125,12.5,0.0,0,0,0,0.125,12.55,0.0,0,0,0,0.125,12.55,0.0,4,0,0,0.0,12.55,0.0,0,0,0,0.125,12.6,0.0,0,0,0,kReverse,kOff,-87.35,2.08,2.61,0.016113281,-0.97753906,-0.020751953,34.98,0.0,-33.0,-8.013504,11.991333,
685.900199,true,true,true,0.125,12.55,0.0,-34666,-174,0,0.125,12.55,0.0,0,0,0,0.125,12.5,0.0,0,0,0,0.125,12.55,0.0,0,0,0,0.125,12.55,0.0,4,0,0,0.0,12.55,0.0,0,0,0,0.125,12.6,0.0,0,0,0,kReverse,kOff,-87.36,2.07,2.6,0.04107666,-0.9503174,0.018432617,34.98,0.0,3.0,-8.012573,11.991989,
685.921415,true,true,true,0.125,12.55,0.0,-34689,-160,0,0.125,12.55,0.0,0,0,0,0.125,12.5,0.0,0,0,0,0.125,12.55,0.0,0,0,0,0.125,12.55,0.0,4,0,0,0.0,12.55,0.0,0,0,0,0.125,12.6,0.0,0,0,0,kReverse,kOff,-87.34,2.07,2.61,0.05670166,-0.9570923,0.014099121,34.98,0.0,16.0,-8.010773,11.993225,
685.942678,true,true,true,0.125,12.55,0.0,-34708,-146,0,0.125,12.55,0.0,0,0,0,0.125,12.55,0.0,0,0,0,0.125,12.55,0.0,0,0,0,0.125,12.55,0.0,4,0,0,0.0,12.55,0.0,0,0,0,0.125,12.6,0.0,0,0,0,kReverse,kOff,-87.36,2.05,2.59,0.025390625,-0.9459839,0.10192871,34.98,0.0,14.0,-8.009857,11.993851,
685.963453,true,true,true,0.125,12.55,0.0,-34724,-132,0,0.125,12.55,0.0,0,0,0,0.125,12.55,0.0,0,0,0,0.125,12.55,0.0,0,0,0,0.125,12.55,0.0,4,0,0,0.0,12.55,0.0,0,0,0,0.125,12.6,0.0,0,0,0,kReverse,kOff,-87.35,2.06,2.6,0.043823242,-0.98046875,-0.021972656,34.98,0.0,-30.0,-8.009888,11.995056,
685.983737,true,true,true,0.125,12.55,0.0,-34739,-119,0,0.125,12.55,0.0,0,0,0,0.125,12.55,0.0,0,0,0,0.125,12.55,0.0,0,0,0,0.125,12.55,0.0,4,0,0,0.0,12.55,0.0,0,0,0,0.125,12.6,0.0,0,0,0,kReverse,kOff,-87.35,2.04,2.59,0.058166504,-1.0001831,0.0770874,34.98,0.0,36.0,-8.009918,11.995605,
686.004735,true,true,true,0.125,12.55,0.0,-34751,-105,0,0.125,12.55,0.0,0,0,0,0.125,12.55,0.0,0,0,0,0.125,12.55,0.0,0,0,0,0.125,12.55,0.0,4,0,0,0.0,12.55,0.0,0,0,0,0.125,12.6,0.0,0,0,0,kReverse,kOff,-87.36,2.05,2.59,0.048034668,-0.9888916,0.1550293,34.98,0.0,50.0,-8.009888,11.996262,
686.026062,true,true,true,0.125,12.55,0.0,-34760,-92,0,0.125,12.55,0.0,0,0,0,0.125,12.55,0.0,0,0,0,0.125,12.55,0.0,0,0,0,0.125,12.55,0.0,4,0,0,0.0,12.55,0.0,0,0,0,0.125,12.6,0.0,0,0,0,kReverse,kOff,-87.34,2.05,2.59,0.02947998,-1.0100098,-0.02319336,34.98,0.0,-22.0,-8.009811,11.99762,
686.050178,true,true,true,0.125,12.55,0.0,-34771,-66,0,0.125,12.55,0.0,0,0,0,0.125,12.55,0.0,0,0,0,0.125,12.55,0.0,0,0,0,0.125,12.55,0.0,4,0,0,0.0,12.55,0.0,0,0,0,0.125,12.6,0.0,0,0,0,kReverse,kOff,-87.36,2.05,2.59,0.053588867,-0.96673584,0.12390137,34.98,0.0,47.0,-8.009781,11.998306,
686.072372,true,true,true,0.125,12.55,0.0,-34774,-53,0,0.125,12.55,0.0,0,0,0,0.125,12.55,0.0,0,0,0,0.125,12.55,0.0,0,0,0,0.125,12.55,0.0,4,0,0,0.0,12.55,0.0,0,0,0,0.125,12.6,0.0,0,0,0,kReverse,kOff,-87.34,2.05,2.6,0.061340332,-0.9902954,0.027160645,34.98,0.0,23.0,-8.009659,11.99968,
686.0940109999999,true,true,true,0.125,12.55,0.0,-34774,-41,0,0.125,12.55,0.0,0,0,0,0.125,12.55,0.0,0,0,0,0.125,12.55,0.0,0,0,0,0.125,12.55,0.0,4,0,0,0.0,12.55,0.0,0,0,0,0.125,12.6,0.0,0,0,0,kReverse,kOff,-87.34,2.06,2.6,0.036010742,-0.9703369,0.061828613,34.98,0.0,11.0,-8.0095825,12.000366,
686.1165599999999,true,true,true,0.125,12.55,0.0,-34774,-30,0,0.125,12.55,0.0,0,0,0,0.125,12.55,0.0,0,0,0,0.125,12.55,0.0,0,0,0,0.125,12.55,0.0,4,0,0,0.0,12.55,0.0,0,0,0,0.125,12.6,0.0,0,0,0,kReverse,kOff,-87.34,2.06,2.6,0.026428223,-0.9954834,-2.4414062E-4,34.98,0.0,-18.0,-8.009491,12.001678,
686.13681,true,true,true,0.125,12.55,0.0,-34774,-20,0,0.125,12.55,0.0,0,0,0,0.125,12.55,0.0,0,0,0,0.125,12.55,0.0,0,0,0,0.125,12.55,0.0,4,0,0,0.0,12.55,0.0,0,0,0,0.125,12.6,0.0,0,0,0,kReverse,kOff,-87.35,2.05,2.59,0.038635254,-0.97906494,0.081970215,34.98,0.0,19.0,-8.009491,12.002335,
686.157706,true,true,true,0.125,12.55,0.0,-34774,-11,0,0.125,12.55,0.0,0,0,0,0.125,12.55,0.0,0,0,0,0.125,12.55,0.0,0,0,0,0.125,12.55,0.0,4,0,0,0.0,12.55,0.0,0,0,0,0.125,12.6,0.0,0,0,0,kReverse,kOff,-87.34,2.05,2.59,0.03491211,-0.98535156,0.015686035,34.98,0.0,-4.0,-8.009491,12.003021,
686.181478,true,true,true,0.125,12.55,0.0,-34774,-5,0,0.125,12.55,0.0,0,0,0,0.125,12.55,0.0,0,0,0,0.125,12.55,0.0,0,0,0,0.125,12.55,0.0,4,0,0,0.0,12.55,0.0,0,0,0,0.125,12.6,0.0,0,0,0,kReverse,kOff,-87.34,2.05,2.6,0.026000977,-0.9821167,0.039367676,34.98,0.0,-5.0,-8.009491,12.003021,
686.203115,true,true,true,0.125,12.55,0.0,-34774,-2,0,0.125,12.55,0.0,0,0,0,0.125,12.55,0.0,0,0,0,0.125,12.55,0.0,0,0,0,0.125,12.55,0.0,4,0,0,0.0,12.55,0.0,0,0,0,0.125,12.6,0.0,0,0,0,kReverse,kOff,-87.33,2.05,2.6,0.031555176,-0.9840088,0.024597168,34.98,0.0,-4.0,-8.009491,12.003021,
686.229117,true,true,true,0.125,12.55,0.0,-34774,0,0,0.125,12.55,0.0,0,0,0,0.125,12.55,0.0,0,0,0,0.125,12.55,0.0,0,0,0,0.125,12.55,0.0,4,0,0,0.0,12.55,0.0,0,0,0,0.125,12.6,0.0,0,0,0,kReverse,kOff,-87.33,2.05,2.6,0.036865234,-0.98760986,0.03869629,34.98,0.0,4.0,-8.009491,12.003021,
686.2498850000001,true,true,true,0.125,12.55,0.0,-34774,0,0,0.125,12.55,0.0,0,0,0,0.125,12.55,0.0,0,0,0,0.125,12.55,0.0,0,0,0,0.125,12.55,0.0,4,0,0,0.0,12.55,0.0,0,0,0,0.125,12.6,0.0,0,0,0,kReverse,kOff,-87.33,2.05,2.61,0.040100098,-0.9857788,0.029418945,34.98,0.0,4.0,-8.009491,12.003021,
686.2711949999999,true,true,true,0.125,12.55,0.0,-34774,0,0,0.125,12.55,0.0,0,0,0,0.125,12.55,0.0,0,0,0,0.125,12.55,0.0,0,0,0,0.125,12.55,0.0,4,0,0,0.0,12.55,0.0,0,0,0,0.125,12.6,0.0,0,0,0,kReverse,kOff,-87.32,2.06,2.61,0.035339355,-0.9805908,0.033813477,34.98,0.0,1.0,-8.009491,12.003021,
686.28851,true,true,true,0.125,12.55,0.0,-34774,0,0,0.125,12.55,0.0,0,0,0,0.125,12.55,0.0,0,0,0,0.125,12.55,0.0,0,0,0,0.125,12.55,0.0,4,0,0,0.0,12.55,0.0,0,0,0,0.125,12.6,0.0,0,0,0,kReverse,kOff,-87.32,2.06,2.61,0.04046631,-0.9812622,0.03314209,34.97,0.0,6.0,-8.009491,12.003021,
686.3091979999999,true,true,true,0.125,12.55,0.0,-34774,0,0,0.125,12.55,0.0,0,0,0,0.125,12.55,0.0,0,0,0,0.125,12.55,0.0,0,0,0,0.125,12.55,0.0,4,0,0,0.0,12.55,0.0,0,0,0,0.125,12.6,0.0,0,0,0,kReverse,kOff,-87.32,2.06,2.61,0.035095215,-0.97784424,0.030883789,34.97,0.0,0.0,-8.009491,12.003021,
686.332222,true,true,true,0.125,12.55,0.0,-34774,0,0,0.125,12.55,0.0,0,0,0,0.125,12.55,0.0,0,0,0,0.125,12.55,0.0,0,0,0,0.125,12.55,0.0,4,0,0,0.0,12.55,0.0,0,0,0,0.125,12.6,0.0,0,0,0,kReverse,kOff,-87.32,2.06,2.61,0.038635254,-0.98498535,0.0335083,34.97,0.0,4.0,-8.009491,12.003021,
686.352642,true,true,true,0.125,12.55,0.0,-34774,0,0,0.125,12.55,0.0,0,0,0,0.125,12.55,0.0,0,0,0,0.125,12.55,0.0,0,0,0,0.125,12.55,0.0,4,0,0,0.0,12.55,0.0,0,0,0,0.125,12.6,0.0,0,0,0,kReverse,kOff,-87.32,2.06,2.61,0.03643799,-0.9846802,0.027770996,34.97,0.0,0.0,-8.009491,12.003021,
686.3751500000001,true,true,true,0.125,12.55,0.0,-34774,0,0,0.125,12.55,0.0,0,0,0,0.125,12.55,0.0,0,0,0,0.125,12.55,0.0,0,0,0,0.125,12.55,0.0,4,0,0,0.0,12.55,0.0,0,0,0,0.125,12.6,0.0,0,0,0,kReverse,kOff,-87.32,2.06,2.61,0.03656006,-0.98339844,0.02911377,34.97,0.0,1.0,-8.009491,12.003021,
