timer,lineLeft,lineCenter,lineRight,LeftFrontCurrent,LeftFrontVoltage,LeftFrontValue,LeftFrontPosition,LeftFrontVelocity,LeftFrontFaults,LeftRearCurrent,LeftRearVoltage,LeftRearValue,LeftRearPosition,LeftRearVelocity,LeftRearFaults,RightFrontCurrent,RightFrontVoltage,RightFrontValue,RightFrontPosition,RightFrontVelocity,RightFrontFaults,RightRearCurrent,RightRearVoltage,RightRearValue,RightRearPosition,RightRearVelocity,RightRearFaults,LiftCurrent,LiftVoltage,LiftValue,LiftPosition,LiftVelocity,LiftFaults,WristCurrent,WristVoltage,WristValue,WristPosition,WristVelocity,WristFaults,RollerCurrent,RollerVoltage,RollerValue,RollerPosition,RollerVelocity,RollerFaults,PushersState,PivotsState,navx_Pitch,navx_Roll,navx_Yaw,navx_XAcc,navx_YAcc,navx_ZAcc,navx_Temp,navx_Bar,navx_Alt,navx_XDis,navx_YDis,
1883.5025489999998,true,true,true,0.125,12.700000000000001,0.0,0,0,0,0.125,12.700000000000001,0.0,0,0,0,0.125,12.65,0.0,0,0,0,0.125,12.75,0.0,0,0,0,0.125,12.700000000000001,0.0,0,0,0,0.0,12.700000000000001,0.0,0,0,0,0.125,12.75,0.0,0,0,0,kReverse,kReverse,-87.07,2.16,2.42,0.036254883,-0.9852295,0.035339355,33.84,0.0,0.0,-7.982498,13.421173,
1883.519636,true,true,true,0.125,12.700000000000001,0.0,0,0,0,0.125,12.700000000000001,0.0,0,0,0,0.125,12.65,0.0,0,0,0,0.125,12.75,0.0,0,0,0,0.125,12.700000000000001,0.0,0,0,0,0.0,12.700000000000001,0.0,0,0,0,0.125,12.75,0.0,0,0,0,kReverse,kReverse,-87.07,2.16,2.41,0.047058105,-0.9963989,0.0071411133,33.84,0.0,5.0,-7.982498,13.421158,
1883.540348,true,true,true,0.125,11.95,0.0,0,0,0,0.125,11.850000000000001,0.0,0,0,0,0.125,11.9,0.0,0,0,0,0.125,11.95,0.0,0,0,0,0.0,12.0,0.0,0,0,0,0.0,12.700000000000001,0.0,0,0,0,0.125,12.1,0.0,0,0,0,kReverse,kReverse,-87.07,2.15,2.4,0.11206055,-1.1254883,0.0211792,33.84,0.0,66.0,-7.9824524,13.421249,
1883.5622879999999,true,true,true,0.125,11.95,0.0,0,0,0,0.125,11.850000000000001,0.0,0,0,0,0.125,11.9,0.0,0,0,0,0.125,11.95,0.0,0,0,0,0.0,12.0,0.0,0,0,0,0.0,12.200000000000001,0.0,0,0,0,0.125,12.1,0.0,0,0,0,kReverse,kReverse,-87.06,2.19,2.44,-0.13201904,-0.4487915,0.070739746,33.84,0.0,-140.0,-7.982437,13.421356,
1883.581154,true,true,true,0.125,11.95,0.0,0,0,0,0.125,11.850000000000001,0.0,0,0,0,0.125,11.9,0.0,0,0,0,0.125,11.95,0.0,0,0,0,0.0,12.0,0.0,0,0,0,0.0,12.200000000000001,0.0,0,0,0,0.125,12.1,0.0,0,0,0,kReverse,kReverse,-87.04,2.18,2.44,0.05859375,-1.1602173,0.15435791,33.84,0.0,28.0,-7.9825745,13.421967,
1883.6043459999999,true,true,true,0.125,11.95,0.0,0,0,0,0.125,11.850000000000001,0.0,0,0,0,0.125,11.9,0.0,0,0,0,0.125,11.95,0.0,0,0,0,0.0,12.0,0.0,0,0,0,0.0,12.200000000000001,0.0,0,0,0,0.125,12.1,0.0,0,0,0,kReverse,kReverse,-87.07,2.16,2.42,0.05456543,-1.0106812,-0.0949707,33.84,0.0,0.0,-7.982605,13.422333,
1883.6274749999998,true,true,true,0.125,11.95,0.0,0,0,0,0.125,11.850000000000001,0.0,0,0,0,0.125,11.9,0.0,0,0,0,0.125,11.95,0.0,0,0,0,0.125,12.0,0.0,0,0,0,0.0,12.200000000000001,0.0,0,0,0,0.125,12.1,0.0,0,0,0,kReverse,kReverse,-87.07,2.19,2.44,0.12298584,-1.180481,0.22576904,33.85,0.0,100.0,-7.9823303,13.423187,
1883.6478089999998,true,true,true,0.125,11.95,0.0,0,0,0,0.125,11.850000000000001,0.0,0,0,0,0.125,11.9,0.0,0,0,0,0.125,11.95,0.0,0,0,0,0.125,12.0,0.0,0,0,0,0.0,12.200000000000001,0.0,0,0,0,0.125,12.1,0.0,0,0,0,kReverse,kReverse,-87.1,2.19,2.44,-0.0028686523,-1.1747437,0.09515381,33.85,0.0,-40.0,-7.982086,13.423859,
1883.668477,true,true,true,0.125,11.95,0.0,0,0,0,0.125,11.850000000000001,0.0,0,0,0,0.125,11.9,0.0,0,0,0,0.125,11.95,0.0,0,0,0,0.125,12.0,0.0,0,0,0,0.0,12.200000000000001,0.0,0,0,0,0.125,12.1,0.0,0,0,0,kReverse,kReverse,-87.07,2.19,2.44,-0.021118164,-1.1366577,0.059753418,33.85,0.0,-61.0,-7.9819336,13.425644,
1883.68948,true,true,true,0.125,11.95,0.0,0,0,0,0.125,12.3,0.0,0,0,0,0.125,12.3,0.0,0,0,0,0.125,12.35,0.0,0,0,0,0.125,12.3,0.0,0,0,0,0.0,12.200000000000001,0.0,0,0,0,0.125,12.1,0.0,0,0,0,kReverse,kReverse,-87.11,2.19,2.43,-0.0026855469,-1.046936,0.1628418,33.85,0.0,-25.0,-7.9819794,13.426727,
1883.7140969999998,true,true,true,0.125,12.3,0.0,0,0,0,0.125,12.3,0.0,0,0,0,0.125,12.3,0.0,0,0,0,0.125,12.35,0.0,0,0,0,0.125,12.3,0.0,0,0,0,0.0,12.3,0.0,0,0,0,0.125,12.35,0.0,0,0,0,kReverse,kReverse,-87.08,2.19,2.44,0.037597656,-0.5890503,-0.048217773,33.85,0.0,6.0,-7.9820557,13.428925,
1883.735592,true,true,true,0.125,12.3,0.0,0,0,0,0.125,12.3,0.0,0,0,0,0.125,12.3,0.0,0,0,0,0.125,12.35,0.0,0,0,0,0.125,12.3,0.0,0,0,0,0.0,12.3,0.0,0,0,0,0.125,12.35,0.0,0,0,0,kReverse,kReverse,-87.04,2.2,2.45,0.08276367,-0.78131104,-0.14465332,33.85,0.0,30.0,-7.9820557,13.429825,
1883.756781,true,true,true,0.125,12.3,0.0,0,0,0,0.125,12.3,0.0,0,0,0,0.125,12.3,0.0,0,0,0,0.125,12.35,0.0,0,0,0,0.125,12.3,0.0,0,0,0,0.0,12.3,0.0,0,0,0,0.125,12.35,0.0,0,0,0,kReverse,kReverse,-87.04,2.21,2.47,0.04638672,-0.76812744,-0.05718994,33.85,0.0,5.0,-7.982086,13.430771,
1883.7936479999998,true,true,true,0.125,12.3,0.0,0,0,0,0.125,12.3,0.0,0,0,0,0.125,12.3,0.0,0,0,0,0.125,12.35,0.0,0,0,0,0.125,12.3,0.0,0,0,0,0.0,12.3,0.0,0,0,0,0.125,12.35,0.0,0,0,0,kReverse,kReverse,-87.08,2.16,2.42,0.13598633,-1.2088013,0.040405273,33.85,0.0,89.0,-7.982025,13.431213,
1883.8200659999998,true,true,true,0.125,12.3,0.0,0,0,0,0.125,12.3,0.0,0,0,0,0.125,12.3,0.0,0,0,0,0.125,12.35,0.0,0,0,0,0.125,12.3,0.0,0,0,0,0.0,12.3,0.0,0,0,0,0.125,12.35,0.0,0,0,0,kReverse,kReverse,-87.1,2.19,2.44,0.09460449,-1.1876831,0.19268799,33.85,0.0,68.0,-7.981659,13.431717,
1883.8466059999998,true,true,true,0.125,12.3,0.0,0,0,0,0.125,12.3,0.0,0,0,0,0.125,12.3,0.0,0,0,0,0.125,12.35,0.0,0,0,0,0.125,12.3,0.0,0,0,0,0.0,12.3,0.0,0,0,0,0.125,12.35,0.0,0,0,0,kReverse,kReverse,-87.06,2.2,2.45,-0.059753418,-1.0701904,0.15844727,33.85,0.0,-84.0,-7.981186,13.433212,
1883.8676939999998,true,true,true,0.125,12.3,0.0,0,0,0,0.125,12.3,0.0,0,0,0,0.125,12.25,0.0,0,0,0,0.125,12.35,0.0,0,0,0,0.0,12.3,0.0,0,0,0,0.0,12.25,0.0,0,0,0,0.125,12.35,0.0,0,0,0,kReverse,kReverse,-87.08,2.19,2.44,-0.011352539,-1.1702881,0.13000488,33.85,0.0,-44.0,-7.981064,13.434265,
1883.890138,true,true,true,0.125,12.3,0.0,0,0,0,0.125,12.3,0.0,0,0,0,0.125,12.25,0.0,0,0,0,0.125,12.35,0.0,0,0,0,0.0,12.3,0.0,0,0,0,0.0,12.25,0.0,0,0,0,0.125,12.35,0.0,0,0,0,kReverse,kReverse,-87.07,2.2,2.45,-0.013000488,-0.71990967,-0.056152344,33.85,0.0,-50.0,-7.980942,13.43634,
1883.910244,true,true,true,0.125,12.3,0.0,0,0,0,0.125,12.3,0.0,0,0,0,0.125,12.25,0.0,0,0,0,0.125,12.35,0.0,0,0,0,0.0,12.3,0.0,0,0,0,0.0,12.25,0.0,0,0,0,0.125,12.35,0.0,0,0,0,kReverse,kReverse,-87.06,2.21,2.46,-0.0065307617,-0.729126,-0.19329834,33.85,0.0,-62.0,-7.9809723,13.437149,
1883.9305559999998,true,true,true,0.125,12.3,0.0,0,0,0,0.125,12.3,0.0,0,0,0,0.125,12.25,0.0,0,0,0,0.125,12.35,0.0,0,0,0,0.125,12.3,0.0,0,0,0,0.0,12.25,0.0,0,0,0,0.125,12.35,0.0,0,0,0,kReverse,kReverse,-87.07,2.2,2.45,0.0423584,-0.81604004,-0.15222168,33.85,0.0,-12.0,-7.9810486,13.437698,
1883.9538939999998,true,true,true,0.125,12.3,0.0,0,0,0,0.125,12.3,0.0,0,0,0,0.125,12.25,0.0,0,0,0,0.125,12.35,0.0,0,0,0,0.0,12.3,0.0,0,0,0,0.0,12.25,0.0,0,0,0,0.125,12.35,0.0,0,0,0,kReverse,kReverse,-87.05,2.22,2.47,0.06188965,-0.95477295,-0.044433594,33.85,0.0,14.0,-7.9812775,13.438095,
1883.9758929999998,true,true,true,0.125,12.3,0.0,0,0,0,0.125,12.3,0.0,0,0,0,0.125,12.25,0.0,0,0,0,0.125,12.35,0.0,0,0,0,0.0,12.3,0.0,0,0,0,0.0,12.25,0.0,0,0,0,0.125,12.35,0.0,0,0,0,kReverse,kReverse,-87.08,2.18,2.43,0.1515503,-1.2577515,0.07421875,33.85,0.0,106.0,-7.981369,13.438095,
1884.002771,true,true,true,0.125,12.3,0.0,0,0,0,0.125,12.25,0.0,0,0,0,0.125,12.25,0.0,0,0,0,0.125,12.35,0.0,0,0,0,0.0,12.3,0.0,0,0,0,0.0,12.25,0.0,0,0,0,0.125,12.35,0.0,0,0,0,kReverse,kReverse,-87.06,2.2,2.45,0.07672119,-1.1642456,0.14923096,33.85,0.0,45.0,-7.981262,13.438187,
1884.0249959999999,true,true,true,0.125,12.25,0.0,0,0,0,0.125,12.25,0.0,0,0,0,0.125,12.25,0.0,0,0,0,0.125,12.3,0.0,0,0,0,0.0,12.25,0.0,0,0,0,0.0,12.25,0.0,0,0,0,0.125,12.35,0.0,0,0,0,kReverse,kReverse,-87.08,2.21,2.46,-0.043945312,-1.0985107,0.24731445,33.85,0.0,-58.0,-7.980942,13.439072,
1884.047429,true,true,true,0.125,12.25,0.0,0,0,0,0.125,12.25,0.0,0,0,0,0.125,12.25,0.0,0,0,0,0.125,12.3,0.0,0,0,0,0.125,12.25,0.0,0,0,0,0.0,12.25,0.0,0,0,0,0.125,12.35,0.0,0,0,0,kReverse,kReverse,-87.08,2.21,2.46,-0.020080566,-1.0553589,0.15979004,33.85,0.0,-44.0,-7.98085,13.439911,
1884.067619,true,true,true,0.125,12.25,0.0,0,0,0,0.125,12.25,0.0,0,0,0,0.125,12.25,0.0,0,0,0,0.125,12.3,0.0,0,0,0,0.125,12.25,0.0,0,0,0,0.0,12.25,0.0,0,0,0,0.125,12.35,0.0,0,0,0,kReverse,kReverse,-87.08,2.22,2.47,0.021118164,-1.0647583,0.09301758,33.85,0.0,-12.0,-7.980789,13.440887,
1884.088832,true,true,true,0.125,12.25,0.0,0,0,0,0.125,12.25,0.0,0,0,0,0.125,12.25,0.0,0,0,0,0.125,12.3,0.0,0,0,0,0.125,12.25,0.0,0,0,0,0.0,12.25,0.0,0,0,0,0.125,12.35,0.0,0,0,0,kReverse,kReverse,-87.05,2.21,2.46,0.02355957,-0.6656494,-0.123168945,33.85,0.0,-20.0,-7.980774,13.442749,
1884.1110219999998,true,true,true,0.125,12.25,0.0,0,0,0,0.125,12.25,0.0,0,0,0,0.125,12.25,0.0,0,0,0,0.125,12.3,0.0,0,0,0,0.125,12.25,0.0,0,0,0,0.0,12.25,0.0,0,0,0,0.125,12.35,0.0,0,0,0,kReverse,kReverse,-87.04,2.21,2.46,0.060180664,-0.788208,-0.19604492,33.85,0.0,0.0,-7.980789,13.443375,
1884.1312679999999,true,true,true,0.125,12.25,0.0,0,0,0,0.125,12.25,0.0,0,0,0,0.125,12.25,0.0,0,0,0,0.125,12.3,0.0,0,0,0,0.125,12.25,0.0,0,0,0,0.0,12.25,0.0,0,0,0,0.125,12.35,0.0,0,0,0,kReverse,kReverse,-87.03,2.23,2.48,0.0010986328,-0.84051514,-0.22528076,33.84,0.0,-64.0,-7.98085,13.44368,
1884.154626,true,true,true,0.125,12.25,0.0,0,0,0,0.125,12.25,0.0,0,0,0,0.125,12.25,0.0,0,0,0,0.125,12.3,0.0,0,0,0,0.125,12.25,0.0,0,0,0,0.0,12.25,0.0,0,0,0,0.125,12.35,0.0,0,0,0,kReverse,kReverse,-87.03,2.22,2.47,0.041870117,-0.8594971,-0.08282471,33.84,0.0,-6.0,-7.980957,13.443741,
1884.177456,true,true,true,0.125,12.25,0.0,0,0,0,0.125,12.25,0.0,0,0,0,0.125,12.25,0.0,0,0,0,0.125,12.25,0.0,0,0,0,0.125,12.25,0.0,0,0,0,0.0,12.25,0.0,0,0,0,0.125,12.35,0.0,0,0,0,kReverse,kReverse,-87.06,2.19,2.44,0.09655762,-1.2050171,0.06890869,33.84,0.0,53.0,-7.981079,13.443558,
1884.202282,true,true,true,0.125,12.25,0.0,0,0,0,0.125,12.25,0.0,0,0,0,0.125,12.25,0.0,0,0,0,0.125,12.25,0.0,0,0,0,0.125,12.25,0.0,0,0,0,0.0,12.25,0.0,0,0,0,0.125,12.35,0.0,0,0,0,kReverse,kReverse,-87.07,2.21,2.46,0.037353516,-1.1968994,0.23754883,33.84,0.0,16.0,-7.9808807,13.443787,
1884.224673,true,true,true,0.125,12.25,0.0,0,0,0,0.125,12.25,0.0,0,0,0,0.125,12.25,0.0,0,0,0,0.125,12.25,0.0,0,0,0,0.125,12.25,0.0,0,0,0,0.0,12.25,0.0,0,0,0,0.125,12.35,0.0,0,0,0,kReverse,kReverse,-87.06,2.21,2.46,-0.068237305,-1.0888062,0.25061035,33.84,0.0,-81.0,-7.980774,13.444305,
1884.247629,true,true,true,0.125,12.25,0.0,0,0,0,0.125,12.25,0.0,0,0,0,0.125,12.25,0.0,0,0,0,0.125,12.25,0.0,0,0,0,0.125,12.25,0.0,0,0,0,0.0,12.25,0.0,0,0,0,0.125,12.35,0.0,0,0,0,kReverse,kReverse,-87.08,2.2,2.45,0.037719727,-0.9522095,0.02722168,33.84,0.0,0.0,-7.9808197,13.445953,
1884.268929,true,true,true,0.125,12.25,0.0,0,0,0,0.125,12.25,0.0,0,0,0,0.125,12.25,0.0,0,0,0,0.125,12.25,0.0,0,0,0,0.125,12.25,0.0,0,0,0,0.0,12.25,0.0,0,0,0,0.125,12.35,0.0,0,0,0,kReverse,kReverse,-87.07,2.21,2.46,-0.012756348,-0.6630249,-0.005859375,33.84,0.0,-41.0,-7.9808807,13.446808,
1884.291922,true,true,true,0.125,12.25,0.0,0,0,0,0.125,12.25,0.0,0,0,0,0.125,12.25,0.0,0,0,0,0.125,12.25,0.0,0,0,0,0.125,12.25,0.0,0,0,0,0.0,12.25,0.0,0,0,0,0.125,12.35,0.0,0,0,0,kReverse,kReverse,-87.03,2.2,2.46,0.06976318,-0.8373413,-0.1729126,33.84,0.0,11.0,-7.981125,13.44812,
1884.312652,true,true,true,0.125,12.25,0.0,0,0,0,0.125,12.25,0.0,0,0,0,0.125,12.25,0.0,0,0,0,0.125,12.25,0.0,0,0,0,0.125,12.25,0.0,0,0,0,0.0,12.25,0.0,0,0,0,0.125,12.35,0.0,0,0,0,kReverse,kReverse,-87.03,2.21,2.46,0.02734375,-0.80529785,-0.21673584,33.84,0.0,-35.0,-7.981262,13.448349,
1884.339733,true,true,true,0.125,12.25,0.0,0,0,0,0.125,12.25,0.0,0,0,0,0.125,12.25,0.0,0,0,0,0.125,12.25,0.0,0,0,0,0.125,12.25,0.0,0,0,0,0.0,12.25,0.0,0,0,0,0.125,12.3,0.0,0,0,0,kReverse,kReverse,-87.04,2.19,2.45,0.10089111,-1.1254272,0.047973633,33.84,0.0,58.0,-7.9816284,13.448257,
1884.364378,true,true,true,0.125,12.25,0.0,0,0,0,0.125,12.25,0.0,0,0,0,0.125,12.25,0.0,0,0,0,0.125,12.25,0.0,0,0,0,0.125,12.25,0.0,0,0,0,0.0,12.25,0.0,0,0,0,0.125,12.3,0.0,0,0,0,kReverse,kReverse,-87.05,2.18,2.44,0.14483643,-1.2567749,0.06756592,33.84,0.0,99.0,-7.9816895,13.448257,
1884.3831329999998,true,true,true,0.125,12.25,0.0,0,0,0,0.125,12.25,0.0,0,0,0,0.125,12.25,0.0,0,0,0,0.125,12.25,0.0,0,0,0,0.125,12.25,0.0,0,0,0,0.0,12.25,0.0,0,0,0,0.125,12.3,0.0,0,0,0,kReverse,kReverse,-87.07,2.21,2.46,0.024597168,-1.1283569,0.2861328,33.84,0.0,12.0,-7.9815826,13.448715,
1884.403112,true,true,true,0.125,12.25,0.0,0,0,0,0.125,12.25,0.0,0,0,0,0.125,12.25,0.0,0,0,0,0.125,12.25,0.0,0,0,0,0.125,12.25,0.0,0,0,0,0.0,12.25,0.0,0,0,0,0.125,12.3,0.0,0,0,0,kReverse,kReverse,-87.06,2.21,2.46,-0.047790527,-1.0824585,0.24401855,33.84,0.0,-62.0,-7.981537,13.449402,
1884.427551,true,true,true,0.125,12.25,0.0,0,0,0,0.125,12.25,0.0,0,0,0,0.125,12.25,0.0,0,0,0,0.125,12.25,0.0,0,0,0,0.125,12.25,0.0,0,0,0,0.0,12.25,0.0,0,0,0,0.125,12.3,0.0,0,0,0,kReverse,kReverse,-87.07,2.21,2.46,0.017578125,-0.93414307,0.11383057,33.84,0.0,-7.0,-7.9816284,13.451279,
1884.447671,true,true,true,0.125,12.25,0.0,0,0,0,0.125,12.25,0.0,0,0,0,0.125,12.25,0.0,0,0,0,0.125,12.25,0.0,0,0,0,0.0,12.25,0.0,0,0,0,0.0,12.25,0.0,0,0,0,0.125,12.3,0.0,0,0,0,kReverse,kReverse,-87.05,2.22,2.47,-0.0025024414,-0.6164551,-0.06591797,33.84,0.0,-37.0,-7.98172,13.452286,
1884.469406,true,true,true,0.125,12.25,0.0,0,0,0,0.125,12.25,0.0,0,0,0,0.125,12.25,0.0,0,0,0,0.125,12.25,0.0,0,0,0,0.0,12.25,0.0,0,0,0,0.0,12.25,0.0,0,0,0,0.125,12.3,0.0,0,0,0,kReverse,kReverse,-87.04,2.2,2.45,0.0635376,-0.8123169,-0.19573975,33.84,0.0,3.0,-7.981949,13.453644,
1884.49052,true,true,true,0.125,12.25,0.0,0,0,0,0.125,12.25,0.0,0,0,0,0.125,12.200000000000001,0.0,0,0,0,0.125,12.25,0.0,0,0,0,0.0,12.25,0.0,0,0,0,0.0,12.25,0.0,0,0,0,0.125,12.3,0.0,0,0,0,kReverse,kReverse,-87.03,2.21,2.47,0.00970459,-0.8616333,-0.1642456,33.84,0.0,-48.0,-7.9821014,13.453903,
1884.513407,true,true,true,0.125,12.25,0.0,0,0,0,0.125,12.25,0.0,0,0,0,0.125,12.200000000000001,0.0,0,0,0,0.125,12.25,0.0,0,0,0,0.125,12.25,0.0,0,0,0,0.0,12.25,0.0,0,0,0,0.125,12.3,0.0,0,0,0,kReverse,kReverse,-87.05,2.18,2.44,0.11450195,-1.2342529,0.01574707,33.84,0.0,63.0,-7.9823303,13.454025,
1884.536297,true,true,true,0.125,12.25,0.0,0,0,0,0.125,12.25,0.0,0,0,0,0.125,12.200000000000001,0.0,0,0,0,0.125,12.25,0.0,0,0,0,0.125,12.25,0.0,0,0,0,0.0,12.25,0.0,0,0,0,0.125,12.3,0.0,0,0,0,kReverse,kReverse,-87.06,2.19,2.44,0.07019043,-1.1981201,0.08355713,33.84,0.0,29.0,-7.9823456,13.454056,
1884.560841,true,true,true,0.125,12.25,0.0,0,0,0,0.125,12.25,0.0,0,0,0,0.125,12.200000000000001,0.0,0,0,0,0.125,12.25,0.0,0,0,0,0.125,12.25,0.0,0,0,0,0.0,12.25,0.0,0,0,0,0.125,12.3,0.0,0,0,0,kReverse,kReverse,-87.09,2.19,2.44,-0.0289917,-1.1034546,0.26690674,33.84,0.0,-41.0,-7.9822235,13.454712,
1884.585024,true,true,true,0.125,12.25,0.0,0,0,0,0.125,12.25,0.0,0,0,0,0.125,12.200000000000001,0.0,0,0,0,0.125,12.25,0.0,0,0,0,0.125,12.25,0.0,0,0,0,0.0,12.25,0.0,0,0,0,0.125,12.3,0.0,0,0,0,kReverse,kReverse,-87.08,2.2,2.45,0.012207031,-1.114563,0.16815186,33.84,0.0,-13.0,-7.982315,13.456406,
1884.607098,true,true,true,0.125,12.25,0.0,0,0,0,0.125,12.25,0.0,0,0,0,0.125,12.200000000000001,0.0,0,0,0,0.125,12.25,0.0,0,0,0,0.125,12.25,0.0,0,0,0,0.0,12.25,0.0,0,0,0,0.125,12.3,0.0,0,0,0,kReverse,kReverse,-87.07,2.2,2.45,0.020751953,-0.7142334,-0.026794434,33.84,0.0,-13.0,-7.982422,13.457413,
1884.628211,true,true,true,0.125,12.25,0.0,0,0,0,0.125,12.25,0.0,0,0,0,0.125,12.200000000000001,0.0,0,0,0,0.125,12.25,0.0,0,0,0,0.0,12.25,0.0,0,0,0,0.0,12.25,0.0,0,0,0,0.125,12.3,0.0,0,0,0,kReverse,kReverse,-87.04,2.2,2.46,0.052978516,-0.78149414,-0.15704346,33.85,0.0,-1.0,-7.9826965,13.458939,
1884.649903,true,true,true,0.125,12.25,0.0,0,0,0,0.125,12.25,0.0,0,0,0,0.125,12.200000000000001,0.0,0,0,0,0.125,12.25,0.0,0,0,0,0.0,12.25,0.0,0,0,0,0.0,12.25,0.0,0,0,0,0.125,12.3,0.0,0,0,0,kReverse,kReverse,-87.03,2.22,2.47,0.021484375,-0.83477783,-0.20837402,33.85,0.0,-41.0,-7.9828796,13.459305,
1884.671795,true,true,true,0.125,12.25,0.0,0,0,0,0.125,12.25,0.0,0,0,0,0.125,12.200000000000001,0.0,0,0,0,0.125,12.25,0.0,0,0,0,0.0,12.25,0.0,0,0,0,0.0,12.25,0.0,0,0,0,0.125,12.3,0.0,0,0,0,kReverse,kReverse,-87.03,2.2,2.45,0.100097656,-1.1992798,0.0048217773,33.85,0.0,48.0,-7.9832306,13.459473,
1884.694755,true,true,true,0.125,12.25,0.0,0,0,0,0.125,12.25,0.0,0,0,0,0.125,12.200000000000001,0.0,0,0,0,0.125,12.25,0.0,0,0,0,0.125,12.25,0.0,0,0,0,0.0,12.25,0.0,0,0,0,0.125,12.3,0.0,0,0,0,kReverse,kReverse,-87.04,2.2,2.45,0.09265137,-1.204773,0.06536865,33.85,0.0,48.0,-7.983307,13.459488,
1884.716815,true,true,true,0.125,12.25,0.0,0,0,0,0.125,12.25,0.0,0,0,0,0.125,12.200000000000001,0.0,0,0,0,0.125,12.25,0.0,0,0,0,0.125,12.25,0.0,0,0,0,0.0,12.25,0.0,0,0,0,0.125,12.3,0.0,0,0,0,kReverse,kReverse,-87.07,2.2,2.45,0.11694336,-1.1936646,0.19165039,33.85,0.0,89.0,-7.9832916,13.45961,
1884.7392889999999,true,true,true,0.125,12.25,0.0,0,0,0,0.125,12.25,0.0,0,0,0,0.125,12.200000000000001,0.0,0,0,0,0.125,12.25,0.0,0,0,0,0.125,12.25,0.0,0,0,0,0.0,12.25,0.0,0,0,0,0.125,12.3,0.0,0,0,0,kReverse,kReverse,-87.06,2.21,2.46,-0.064453125,-1.0767822,0.22302246,33.85,0.0,-81.0,-7.9832306,13.460632,
1884.765149,true,true,true,0.125,12.25,0.0,0,0,0,0.125,12.25,0.0,0,0,0,0.125,12.200000000000001,0.0,0,0,0,0.125,12.25,0.0,0,0,0,0.125,12.25,0.0,0,0,0,0.0,12.25,0.0,0,0,0,0.125,12.3,0.0,0,0,0,kReverse,kReverse,-87.06,2.21,2.46,0.028381348,-0.8063965,-0.010437012,33.85,0.0,-7.0,-7.983429,13.462494,
1884.795132,true,true,true,0.125,12.25,0.0,0,0,0,0.125,12.25,0.0,0,0,0,0.125,12.200000000000001,0.0,0,0,0,0.125,12.25,0.0,0,0,0,0.125,12.25,0.0,0,0,0,0.0,12.25,0.0,0,0,0,0.125,12.3,0.0,0,0,0,kReverse,kReverse,-87.03,2.21,2.46,0.047180176,-0.7338257,-0.15374756,33.85,0.0,-4.0,-7.983734,13.464066,
1884.820491,true,true,true,0.125,12.200000000000001,0.0,0,0,0,0.125,12.25,0.0,0,0,0,0.125,12.200000000000001,0.0,0,0,0,0.125,12.25,0.0,0,0,0,0.125,12.200000000000001,0.0,0,0,0,0.0,12.25,0.0,0,0,0,0.125,12.25,0.0,0,0,0,kReverse,kReverse,-87.03,2.21,2.46,0.047180176,-0.840271,-0.20306396,33.85,0.0,-15.0,-7.983917,13.46463,
1884.844687,true,true,true,0.125,12.200000000000001,0.0,0,0,0,0.125,12.25,0.0,0,0,0,0.125,12.200000000000001,0.0,0,0,0,0.125,12.25,0.0,0,0,0,0.125,12.200000000000001,0.0,0,0,0,0.0,12.200000000000001,0.0,0,0,0,0.125,12.25,0.0,0,0,0,kReverse,kReverse,-87.03,2.2,2.46,0.09051514,-1.1572266,-0.0065307617,33.85,0.0,39.0,-7.9838715,13.464661,
1884.8668539999999,true,true,true,0.125,12.200000000000001,0.0,0,0,0,0.125,12.25,0.0,0,0,0,0.125,12.200000000000001,0.0,0,0,0,0.125,12.25,0.0,0,0,0,0.125,12.200000000000001,0.0,0,0,0,0.0,12.200000000000001,0.0,0,0,0,0.125,12.25,0.0,0,0,0,kReverse,kReverse,-87.06,2.19,2.45,0.12890625,-1.2286377,0.15002441,33.85,0.0,94.0,-7.9835815,13.464752,
1884.889481,true,true,true,0.125,12.200000000000001,0.0,0,0,0,0.125,12.25,0.0,0,0,0,0.125,12.200000000000001,0.0,0,0,0,0.125,12.25,0.0,0,0,0,0.125,12.200000000000001,0.0,0,0,0,0.0,12.200000000000001,0.0,0,0,0,0.125,12.25,0.0,0,0,0,kReverse,kReverse,-87.06,2.2,2.45,0.015625,-1.1751099,0.24505615,33.85,0.0,-2.0,-7.983322,13.465042,
1884.9095849999999,true,true,true,0.125,12.200000000000001,0.0,0,0,0,0.125,12.25,0.0,0,0,0,0.125,12.200000000000001,0.0,0,0,0,0.125,12.25,0.0,0,0,0,0.125,12.200000000000001,0.0,0,0,0,0.0,12.200000000000001,0.0,0,0,0,0.125,12.25,0.0,0,0,0,kReverse,kReverse,-87.06,2.2,2.45,-0.015258789,-1.1498413,0.19519043,33.85,0.0,-38.0,-7.9829865,13.466461,
1884.930047,true,true,true,0.125,12.200000000000001,0.0,0,0,0,0.125,12.25,0.0,0,0,0,0.125,12.200000000000001,0.0,0,0,0,0.125,12.25,0.0,0,0,0,0.125,12.200000000000001,0.0,0,0,0,0.0,12.200000000000001,0.0,0,0,0,0.125,12.25,0.0,0,0,0,kReverse,kReverse,-87.06,2.21,2.46,0.026855469,-0.87005615,0.0095825195,33.85,0.0,-9.0,-7.982895,13.467407,
1884.950143,true,true,true,0.125,12.200000000000001,0.0,0,0,0,0.125,12.25,0.0,0,0,0,0.125,12.200000000000001,0.0,0,0,0,0.125,12.25,0.0,0,0,0,0.125,12.200000000000001,0.0,0,0,0,0.0,12.200000000000001,0.0,0,0,0,0.125,12.25,0.0,0,0,0,kReverse,kReverse,-87.05,2.2,2.46,-0.014526367,-0.58514404,-0.04876709,33.85,0.0,-45.0,-7.982849,13.468292,
1884.971122,true,true,true,0.125,12.200000000000001,0.0,0,0,0,0.125,12.200000000000001,0.0,0,0,0,0.125,12.200000000000001,0.0,0,0,0,0.125,12.25,0.0,0,0,0,0.125,12.200000000000001,0.0,0,0,0,0.0,12.200000000000001,0.0,0,0,0,0.125,12.25,0.0,0,0,0,kReverse,kReverse,-87.02,2.2,2.46,0.050720215,-0.84313965,-0.21264648,33.85,0.0,-13.0,-7.982834,13.469528,
1884.997848,true,true,true,0.125,12.200000000000001,0.0,0,0,0,0.125,12.200000000000001,0.0,0,0,0,0.125,12.200000000000001,0.0,0,0,0,0.125,12.25,0.0,0,0,0,0.125,12.200000000000001,0.0,0,0,0,0.0,12.200000000000001,0.0,0,0,0,0.125,12.25,0.0,0,0,0,kReverse,kReverse,-87.02,2.21,2.47,0.07086182,-0.84332275,-0.12872314,33.85,0.0,17.0,-7.982834,13.469742,
1885.0199679999998,true,true,true,0.125,12.200000000000001,0.0,0,0,0,0.125,12.200000000000001,0.0,0,0,0,0.125,12.200000000000001,0.0,0,0,0,0.125,12.25,0.0,0,0,0,0.125,12.200000000000001,0.0,0,0,0,0.0,12.200000000000001,0.0,0,0,0,0.125,12.25,0.0,0,0,0,kReverse,kReverse,-87.03,2.19,2.45,0.10614014,-1.2073364,0.07849121,33.85,0.0,63.0,-7.9826965,13.469833,
1885.041947,true,true,true,0.125,12.200000000000001,0.0,0,0,0,0.125,12.200000000000001,0.0,0,0,0,0.125,12.200000000000001,0.0,0,0,0,0.125,12.25,0.0,0,0,0,0.125,12.200000000000001,0.0,0,0,0,0.0,12.200000000000001,0.0,0,0,0,0.125,12.25,0.0,0,0,0,kReverse,kReverse,-87.03,2.19,2.45,0.10614014,-1.2073364,0.07849121,33.85,0.0,63.0,-7.9826965,13.469833,
1885.065105,true,true,true,0.125,12.200000000000001,0.0,0,0,0,0.125,12.200000000000001,0.0,0,0,0,0.125,12.200000000000001,0.0,0,0,0,0.125,12.25,0.0,0,0,0,0.125,12.200000000000001,0.0,0,0,0,0.0,12.200000000000001,0.0,0,0,0,0.125,12.25,0.0,0,0,0,kReverse,kReverse,-87.04,2.21,2.46,-0.07232666,-1.0604248,0.24578857,33.85,0.0,-85.0,-7.9819336,13.4709015,
1885.0874860000001,true,true,true,0.125,12.200000000000001,0.0,0,0,0,0.125,12.200000000000001,0.0,0,0,0,0.125,12.200000000000001,0.0,0,0,0,0.125,12.25,0.0,0,0,0,0.125,12.200000000000001,0.0,0,0,0,0.0,12.200000000000001,0.0,0,0,0,0.125,12.25,0.0,0,0,0,kReverse,kReverse,-87.04,2.21,2.46,-0.07232666,-1.0604248,0.24578857,33.85,0.0,-85.0,-7.9819336,13.4709015,
1885.1078929999999,true,true,true,0.125,12.200000000000001,0.0,0,0,0,0.125,12.200000000000001,0.0,0,0,0,0.125,12.200000000000001,0.0,0,0,0,0.125,12.25,0.0,0,0,0,0.125,12.200000000000001,0.0,0,0,0,0.0,12.200000000000001,0.0,0,0,0,0.125,12.25,0.0,0,0,0,kReverse,kReverse,-87.05,2.2,2.46,0.026367188,-0.8782959,0.005554199,33.85,0.0,-10.0,-7.981674,13.472778,
1885.128481,true,true,true,0.125,12.200000000000001,0.0,0,0,0,0.125,12.200000000000001,0.0,0,0,0,0.125,12.200000000000001,0.0,0,0,0,0.125,12.25,0.0,0,0,0,0.125,12.200000000000001,0.0,0,0,0,0.0,12.200000000000001,0.0,0,0,0,0.125,12.25,0.0,0,0,0,kReverse,kReverse,-87.01,2.2,2.47,0.040405273,-0.7034302,-0.11035156,33.85,0.0,-4.0,-7.9815216,13.474518,
1885.153247,true,true,true,0.125,12.200000000000001,0.0,0,0,0,0.125,12.200000000000001,0.0,0,0,0,0.125,12.200000000000001,0.0,0,0,0,0.125,12.25,0.0,0,0,0,0.125,12.200000000000001,0.0,0,0,0,0.0,12.200000000000001,0.0,0,0,0,0.125,12.25,0.0,0,0,0,kReverse,kReverse,-87.01,2.2,2.47,0.050048828,-0.83374023,-0.21887207,33.87,0.0,-14.0,-7.981476,13.475067,
1885.177011,true,true,true,0.125,12.200000000000001,0.0,0,0,0,0.125,12.200000000000001,0.0,0,0,0,0.125,12.200000000000001,0.0,0,0,0,0.125,12.25,0.0,0,0,0,0.125,12.200000000000001,0.0,0,0,0,0.0,12.200000000000001,0.0,0,0,0,0.125,12.25,0.0,0,0,0,kReverse,kReverse,-87.01,2.2,2.47,0.064331055,-0.8554077,-0.14868164,33.87,0.0,8.0,-7.981476,13.475311,
1885.1989339999998,true,true,true,0.125,12.200000000000001,0.0,0,0,0,0.125,12.200000000000001,0.0,0,0,0,0.125,12.200000000000001,0.0,0,0,0,0.125,12.25,0.0,0,0,0,0.125,12.200000000000001,0.0,0,0,0,0.0,12.200000000000001,0.0,0,0,0,0.125,12.25,0.0,0,0,0,kReverse,kReverse,-87.02,2.18,2.45,0.105041504,-1.2025146,0.08026123,33.87,0.0,63.0,-7.9813538,13.475464,
1885.222922,true,true,true,0.125,12.200000000000001,0.0,0,0,0,0.125,12.200000000000001,0.0,0,0,0,0.125,12.200000000000001,0.0,0,0,0,0.125,12.25,0.0,0,0,0,0.125,12.200000000000001,0.0,0,0,0,0.0,12.200000000000001,0.0,0,0,0,0.125,12.25,0.0,0,0,0,kReverse,kReverse,-87.05,2.2,2.45,0.011962891,-1.1571045,0.2444458,33.87,0.0,-5.0,-7.98085,13.475983,
1885.244581,true,true,true,0.125,12.200000000000001,0.0,0,0,0,0.125,12.200000000000001,0.0,0,0,0,0.125,12.200000000000001,0.0,0,0,0,0.125,12.25,0.0,0,0,0,0.125,12.200000000000001,0.0,0,0,0,0.0,12.200000000000001,0.0,0,0,0,0.125,12.25,0.0,0,0,0,kReverse,kReverse,-87.04,2.2,2.46,-0.07556152,-1.0532227,0.23431396,33.87,0.0,-89.0,-7.9806366,13.476624,
1885.2704469999999,true,true,true,0.125,12.200000000000001,0.0,0,0,0,0.125,12.200000000000001,0.0,0,0,0,0.125,12.200000000000001,0.0,0,0,0,0.125,12.25,0.0,0,0,0,0.125,12.200000000000001,0.0,0,0,0,0.0,12.200000000000001,0.0,0,0,0,0.125,12.25,0.0,0,0,0,kReverse,kReverse,-87.05,2.2,2.46,0.033691406,-0.85528564,-0.004638672,33.87,0.0,-3.0,-7.980377,13.478561,
1885.291456,true,true,true,0.125,12.200000000000001,0.0,0,0,0,0.125,12.200000000000001,0.0,0,0,0,0.125,12.200000000000001,0.0,0,0,0,0.125,12.25,0.0,0,0,0,0.125,12.200000000000001,0.0,0,0,0,0.0,12.200000000000001,0.0,0,0,0,0.125,12.25,0.0,0,0,0,kReverse,kReverse,-87.01,2.2,2.47,0.04937744,-0.7194214,-0.11853027,33.87,0.0,2.0,-7.98024,13.480362,
1885.317282,true,true,true,0.125,12.200000000000001,0.0,0,0,0,0.125,12.200000000000001,0.0,0,0,0,0.125,12.200000000000001,0.0,0,0,0,0.125,12.25,0.0,0,0,0,0.125,12.200000000000001,0.0,0,0,0,0.0,12.200000000000001,0.0,0,0,0,0.125,12.25,0.0,0,0,0,kReverse,kReverse,-87.01,2.2,2.46,0.05065918,-0.838562,-0.23156738,33.87,0.0,-15.0,-7.980179,13.4809265,
1885.340122,true,true,true,0.125,12.200000000000001,0.0,0,0,0,0.125,12.200000000000001,0.0,0,0,0,0.125,12.200000000000001,0.0,0,0,0,0.125,12.25,0.0,0,0,0,0.125,12.200000000000001,0.0,0,0,0,0.0,12.200000000000001,0.0,0,0,0,0.125,12.25,0.0,0,0,0,kReverse,kReverse,-87.02,2.19,2.45,0.10070801,-1.1914673,0.006164551,33.87,0.0,49.0,-7.980133,13.481354,
1885.363426,true,true,true,0.125,12.200000000000001,0.0,0,0,0,0.125,12.200000000000001,0.0,0,0,0,0.125,12.200000000000001,0.0,0,0,0,0.125,12.25,0.0,0,0,0,0.125,12.200000000000001,0.0,0,0,0,0.0,12.200000000000001,0.0,0,0,0,0.125,12.25,0.0,0,0,0,kReverse,kReverse,-87.02,2.18,2.45,0.10308838,-1.2120361,0.08013916,33.87,0.0,61.0,-7.980011,13.481506,
1885.387285,true,true,true,0.125,12.200000000000001,0.0,0,0,0,0.125,12.200000000000001,0.0,0,0,0,0.125,12.200000000000001,0.0,0,0,0,0.125,12.25,0.0,0,0,0,0.125,12.200000000000001,0.0,0,0,0,0.0,12.200000000000001,0.0,0,0,0,0.125,12.25,0.0,0,0,0,kReverse,kReverse,-87.05,2.2,2.45,-0.008117676,-1.1471558,0.24304199,33.87,0.0,-25.0,-7.9795227,13.482208,
1885.407662,true,true,true,0.125,12.200000000000001,0.0,0,0,0,0.125,12.200000000000001,0.0,0,0,0,0.125,12.200000000000001,0.0,0,0,0,0.125,12.25,0.0,0,0,0,0.125,12.200000000000001,0.0,0,0,0,0.0,12.200000000000001,0.0,0,0,0,0.125,12.25,0.0,0,0,0,kReverse,kReverse,-87.04,2.2,2.45,-0.08239746,-1.0648804,0.19140625,33.87,0.0,-102.0,-7.9793396,13.482925,
1885.4291429999998,true,true,true,0.125,12.200000000000001,0.0,0,0,0,0.125,12.200000000000001,0.0,0,0,0,0.125,12.200000000000001,0.0,0,0,0,0.125,12.25,0.0,0,0,0,0.125,12.200000000000001,0.0,0,0,0,0.0,12.200000000000001,0.0,0,0,0,0.125,12.25,0.0,0,0,0,kReverse,kReverse,-87.05,2.2,2.45,0.02520752,-0.79577637,0.0025634766,33.87,0.0,-8.0,-7.9791718,13.484879,
1885.4508939999998,true,true,true,0.125,12.200000000000001,0.0,0,0,0,0.125,12.200000000000001,0.0,0,0,0,0.125,12.200000000000001,0.0,0,0,0,0.125,12.200000000000001,0.0,0,0,0,0.125,12.200000000000001,0.0,0,0,0,0.0,12.200000000000001,0.0,0,0,0,0.125,12.25,0.0,0,0,0,kReverse,kReverse,-87.04,2.2,2.45,-0.0073242188,-0.59295654,-0.07550049,33.87,0.0,-42.0,-7.979141,13.485809,
1885.4787239999998,true,true,true,0.125,12.200000000000001,0.0,0,0,0,0.125,12.200000000000001,0.0,0,0,0,0.125,12.200000000000001,0.0,0,0,0,0.125,12.200000000000001,0.0,0,0,0,0.125,12.200000000000001,0.0,0,0,0,0.0,12.200000000000001,0.0,0,0,0,0.125,12.25,0.0,0,0,0,kReverse,kReverse,-87.01,2.2,2.46,0.038208008,-0.85632324,-0.21447754,33.87,0.0,-26.0,-7.9791565,13.487061,
1885.5049439999998,true,true,true,0.125,12.200000000000001,0.0,0,0,0,0.125,12.200000000000001,0.0,0,0,0,0.125,12.200000000000001,0.0,0,0,0,0.125,12.200000000000001,0.0,0,0,0,0.125,12.200000000000001,0.0,0,0,0,0.0,12.200000000000001,0.0,0,0,0,0.125,12.25,0.0,0,0,0,kReverse,kReverse,-87.02,2.18,2.44,0.11529541,-1.2263794,0.031311035,33.87,0.0,66.0,-7.979126,13.487473,
1885.5268159999998,true,true,true,0.125,12.200000000000001,0.0,0,0,0,0.125,12.200000000000001,0.0,0,0,0,0.125,12.200000000000001,0.0,0,0,0,0.125,12.200000000000001,0.0,0,0,0,0.125,12.200000000000001,0.0,0,0,0,0.0,12.200000000000001,0.0,0,0,0,0.125,12.25,0.0,0,0,0,kReverse,kReverse,-87.02,2.18,2.45,0.09838867,-1.2161255,0.079589844,33.87,0.0,56.0,-7.9789886,13.48764,
1885.54793,true,true,true,0.125,12.200000000000001,0.0,0,0,0,0.125,12.200000000000001,0.0,0,0,0,0.125,12.200000000000001,0.0,0,0,0,0.125,12.200000000000001,0.0,0,0,0,0.125,12.200000000000001,0.0,0,0,0,0.0,12.200000000000001,0.0,0,0,0,0.125,12.25,0.0,0,0,0,kReverse,kReverse,-87.05,2.19,2.45,-0.030578613,-1.1062012,0.26501465,33.87,0.0,-43.0,-7.978531,13.488419,
1885.5722179999998,true,true,true,0.125,12.200000000000001,0.0,0,0,0,0.125,12.200000000000001,0.0,0,0,0,0.125,12.200000000000001,0.0,0,0,0,0.125,12.200000000000001,0.0,0,0,0,0.125,12.200000000000001,0.0,0,0,0,0.0,12.200000000000001,0.0,0,0,0,0.125,12.25,0.0,0,0,0,kReverse,kReverse,-87.04,2.19,2.45,-0.07897949,-1.0962524,0.15197754,33.87,0.0,-22.0,-7.978348,13.490143,
1885.599262,true,true,true,0.125,12.200000000000001,0.0,0,0,0,0.125,12.200000000000001,0.0,0,0,0,0.125,12.200000000000001,0.0,0,0,0,0.125,12.200000000000001,0.0,0,0,0,0.125,12.200000000000001,0.0,0,0,0,0.0,12.200000000000001,0.0,0,0,0,0.125,12.25,0.0,0,0,0,kReverse,kReverse,-87.04,2.21,2.46,0.011169434,-0.6890869,-0.0059814453,33.87,0.0,-19.0,-7.9783325,13.49115,
1885.620875,true,true,true,0.125,12.200000000000001,0.0,0,0,0,0.125,12.200000000000001,0.0,0,0,0,0.125,12.200000000000001,0.0,0,0,0,0.125,12.200000000000001,0.0,0,0,0,0.125,12.200000000000001,0.0,0,0,0,0.0,12.200000000000001,0.0,0,0,0,0.125,12.25,0.0,0,0,0,kReverse,kReverse,-87.02,2.21,2.47,0.011657715,-0.62677,-0.110961914,33.87,0.0,-29.0,-7.978348,13.492035,
1885.6422719999998,true,true,true,0.125,12.200000000000001,0.0,0,0,0,0.125,12.200000000000001,0.0,0,0,0,0.125,12.200000000000001,0.0,0,0,0,0.125,12.200000000000001,0.0,0,0,0,0.125,12.200000000000001,0.0,0,0,0,0.0,12.200000000000001,0.0,0,0,0,0.125,12.25,0.0,0,0,0,kReverse,kReverse,-87.0,2.21,2.47,0.040222168,-0.8989258,-0.20513916,33.87,0.0,-25.0,-7.9784393,13.493103,
1885.6669849999998,true,true,true,0.125,12.200000000000001,0.0,0,0,0,0.125,12.200000000000001,0.0,0,0,0,0.125,12.200000000000001,0.0,0,0,0,0.125,12.200000000000001,0.0,0,0,0,0.125,12.200000000000001,0.0,0,0,0,0.0,12.200000000000001,0.0,0,0,0,0.125,12.25,0.0,0,0,0,kReverse,kReverse,-87.01,2.2,2.46,0.105651855,-1.0063477,-0.036865234,33.85,0.0,57.0,-7.97847,13.493271,
1885.687577,true,true,true,0.125,12.200000000000001,0.0,0,0,0,0.125,12.200000000000001,0.0,0,0,0,0.125,12.200000000000001,0.0,0,0,0,0.125,12.200000000000001,0.0,0,0,0,0.125,12.200000000000001,0.0,0,0,0,0.0,12.200000000000001,0.0,0,0,0,0.125,12.25,0.0,0,0,0,kReverse,kReverse,-87.02,2.19,2.46,0.088378906,-1.2153931,0.096191406,33.85,0.0,48.0,-7.978241,13.493561,
1885.707484,true,true,true,0.125,12.200000000000001,0.0,0,0,0,0.125,12.200000000000001,0.0,0,0,0,0.125,12.200000000000001,0.0,0,0,0,0.125,12.200000000000001,0.0,0,0,0,0.125,12.200000000000001,0.0,0,0,0,0.0,12.200000000000001,0.0,0,0,0,0.125,12.25,0.0,0,0,0,kReverse,kReverse,-87.05,2.2,2.45,0.062316895,-1.1577148,0.20153809,33.85,0.0,38.0,-7.9780273,13.493866,
1885.729223,true,true,true,0.125,12.200000000000001,0.0,0,0,0,0.125,12.200000000000001,0.0,0,0,0,0.125,12.200000000000001,0.0,0,0,0,0.125,12.200000000000001,0.0,0,0,0,0.125,12.200000000000001,0.0,0,0,0,0.0,12.200000000000001,0.0,0,0,0,0.125,12.25,0.0,0,0,0,kReverse,kReverse,-87.04,2.2,2.45,-0.053527832,-1.0720825,0.11444092,33.85,0.0,-83.0,-7.9777374,13.49527,
1885.750572,true,true,true,0.125,12.200000000000001,0.0,0,0,0,0.125,12.200000000000001,0.0,0,0,0,0.125,12.200000000000001,0.0,0,0,0,0.125,12.200000000000001,0.0,0,0,0,0.125,12.200000000000001,0.0,0,0,0,0.0,12.200000000000001,0.0,0,0,0,0.125,12.25,0.0,0,0,0,kReverse,kReverse,-87.04,2.2,2.46,1.2207031E-4,-0.61053467,-0.01965332,33.85,0.0,-28.0,-7.977707,13.497208,
1885.77603,true,true,true,0.125,12.200000000000001,0.0,0,0,0,0.125,12.200000000000001,0.0,0,0,0,0.125,12.200000000000001,0.0,0,0,0,0.125,12.200000000000001,0.0,0,0,0,0.125,12.200000000000001,0.0,0,0,0,0.0,12.200000000000001,0.0,0,0,0,0.125,12.25,0.0,0,0,0,kReverse,kReverse,-87.02,2.19,2.45,0.03894043,-0.7071533,-0.15100098,33.85,0.0,-10.0,-7.9777374,13.498047,
1885.8005769999997,true,true,true,0.125,12.200000000000001,0.0,0,0,0,0.125,12.200000000000001,0.0,0,0,0,0.125,12.200000000000001,0.0,0,0,0,0.125,12.200000000000001,0.0,0,0,0,0.125,12.200000000000001,0.0,0,0,0,0.0,12.200000000000001,0.0,0,0,0,0.125,12.25,0.0,0,0,0,kReverse,kReverse,-87.01,2.19,2.46,0.053710938,-0.80633545,-0.20684814,33.85,0.0,-7.0,-7.977783,13.498611,
1885.820271,true,true,true,0.125,12.200000000000001,0.0,0,0,0,0.125,12.200000000000001,0.0,0,0,0,0.125,12.200000000000001,0.0,0,0,0,0.125,12.200000000000001,0.0,0,0,0,0.125,12.200000000000001,0.0,0,0,0,0.0,12.200000000000001,0.0,0,0,0,0.125,12.25,0.0,0,0,0,kReverse,kReverse,-87.03,2.18,2.44,0.12414551,-1.1050415,0.044799805,33.85,0.0,81.0,-7.9777374,13.499084,
1885.8452209999998,true,true,true,0.125,12.200000000000001,0.0,0,0,0,0.125,12.200000000000001,0.0,0,0,0,0.125,12.200000000000001,0.0,0,0,0,0.125,12.200000000000001,0.0,0,0,0,0.125,12.200000000000001,0.0,0,0,0,0.0,12.200000000000001,0.0,0,0,0,0.125,12.25,0.0,0,0,0,kReverse,kReverse,-87.04,2.19,2.45,0.06549072,-1.1901855,0.13439941,33.85,0.0,31.0,-7.9772797,13.499588,
1885.879332,true,true,true,0.125,12.200000000000001,0.0,0,0,0,0.125,12.200000000000001,0.0,0,0,0,0.125,12.200000000000001,0.0,0,0,0,0.125,12.200000000000001,0.0,0,0,0,0.0,12.200000000000001,0.0,0,0,0,0.0,12.200000000000001,0.0,0,0,0,0.125,12.25,0.0,0,0,0,kReverse,kReverse,-87.06,2.19,2.44,-0.058776855,-1.0821533,0.23925781,33.85,0.0,-73.0,-7.976776,13.5008545,
1885.902005,true,true,true,0.125,12.200000000000001,0.0,0,0,0,0.125,12.200000000000001,0.0,0,0,0,0.125,12.200000000000001,0.0,0,0,0,0.125,12.200000000000001,0.0,0,0,0,0.0,12.200000000000001,0.0,0,0,0,0.0,12.200000000000001,0.0,0,0,0,0.125,12.25,0.0,0,0,0,kReverse,kReverse,-87.04,2.2,2.45,-0.009643555,-1.0266724,0.04498291,33.85,0.0,-47.0,-7.976654,13.501801,
1885.924814,true,true,true,0.125,12.200000000000001,0.0,0,0,0,0.125,12.200000000000001,0.0,0,0,0,0.125,12.200000000000001,0.0,0,0,0,0.125,12.200000000000001,0.0,0,0,0,0.125,12.200000000000001,0.0,0,0,0,0.0,12.200000000000001,0.0,0,0,0,0.125,12.25,0.0,0,0,0,kReverse,kReverse,-87.02,2.21,2.47,-2.4414062E-4,-0.59747314,-0.08013916,33.85,0.0,-36.0,-7.9765472,13.503723,
1885.95047,true,true,true,0.125,12.200000000000001,0.0,0,0,0,0.125,12.200000000000001,0.0,0,0,0,0.125,12.200000000000001,0.0,0,0,0,0.125,12.200000000000001,0.0,0,0,0,0.125,12.200000000000001,0.0,0,0,0,0.0,12.200000000000001,0.0,0,0,0,0.125,12.25,0.0,0,0,0,kReverse,kReverse,-87.0,2.21,2.47,0.059387207,-0.8153076,-0.1885376,33.85,0.0,0.0,-7.976532,13.504898,
1885.970961,true,true,true,0.125,12.200000000000001,0.0,0,0,0,0.125,12.200000000000001,0.0,0,0,0,0.125,12.200000000000001,0.0,0,0,0,0.125,12.200000000000001,0.0,0,0,0,0.125,12.200000000000001,0.0,0,0,0,0.0,12.200000000000001,0.0,0,0,0,0.125,12.25,0.0,0,0,0,kReverse,kReverse,-87.02,2.21,2.47,0.07550049,-1.1081543,-0.06945801,33.85,0.0,18.0,-7.976532,13.505096,
1885.994277,true,true,true,0.125,12.200000000000001,0.0,0,0,0,0.125,12.200000000000001,0.0,0,0,0,0.125,12.200000000000001,0.0,0,0,0,0.125,12.200000000000001,0.0,0,0,0,0.125,12.200000000000001,0.0,0,0,0,0.0,12.200000000000001,0.0,0,0,0,0.125,12.25,0.0,0,0,0,kReverse,kReverse,-87.04,2.18,2.44,0.14660645,-1.2543335,0.12908936,33.85,0.0,108.0,-7.9762573,13.505493,
1886.016341,true,true,true,0.125,12.200000000000001,0.0,0,0,0,0.125,12.200000000000001,0.0,0,0,0,0.125,12.200000000000001,0.0,0,0,0,0.125,12.200000000000001,0.0,0,0,0,0.125,12.200000000000001,0.0,0,0,0,0.0,12.200000000000001,0.0,0,0,0,0.125,12.25,0.0,0,0,0,kReverse,kReverse,-87.05,2.19,2.45,0.018676758,-1.1694946,0.18475342,33.85,0.0,-7.0,-7.975998,13.505875,
1886.040291,true,true,true,0.125,12.200000000000001,0.0,0,0,0,0.125,12.200000000000001,0.0,0,0,0,0.125,12.200000000000001,0.0,0,0,0,0.125,12.200000000000001,0.0,0,0,0,0.125,12.200000000000001,0.0,0,0,0,0.0,12.200000000000001,0.0,0,0,0,0.125,12.25,0.0,0,0,0,kReverse,kReverse,-87.05,2.19,2.45,-0.016662598,-1.1343994,0.2062378,33.85,0.0,-38.0,-7.9756775,13.507385,
1886.0617189999998,true,true,true,0.125,12.200000000000001,0.0,0,0,0,0.125,12.200000000000001,0.0,0,0,0,0.125,12.200000000000001,0.0,0,0,0,0.125,12.200000000000001,0.0,0,0,0,0.125,12.200000000000001,0.0,0,0,0,0.0,12.200000000000001,0.0,0,0,0,0.125,12.25,0.0,0,0,0,kReverse,kReverse,-87.05,2.19,2.45,0.020141602,-0.8937378,0.0064697266,33.85,0.0,-17.0,-7.9756165,13.508362,
1886.084071,true,true,true,0.125,12.200000000000001,0.0,0,0,0,0.125,12.200000000000001,0.0,0,0,0,0.125,12.200000000000001,0.0,0,0,0,0.125,12.200000000000001,0.0,0,0,0,0.125,12.200000000000001,0.0,0,0,0,0.0,12.200000000000001,0.0,0,0,0,0.125,12.25,0.0,0,0,0,kReverse,kReverse,-87.02,2.19,2.46,0.038330078,-0.7050171,-0.10687256,33.85,0.0,-5.0,-7.975586,13.510193,
1886.108369,true,true,true,0.125,12.200000000000001,0.0,0,0,0,0.125,12.200000000000001,0.0,0,0,0,0.125,12.15,0.0,0,0,0,0.125,12.200000000000001,0.0,0,0,0,0.0,12.200000000000001,0.0,0,0,0,0.0,12.200000000000001,0.0,0,0,0,0.125,12.25,0.0,0,0,0,kReverse,kReverse,-87.02,2.19,2.45,0.09075928,-0.89764404,-0.10015869,33.85,0.0,38.0,-7.975586,13.511078,
1886.131324,true,true,true,0.125,12.200000000000001,0.0,0,0,0,0.125,12.200000000000001,0.0,0,0,0,0.125,12.15,0.0,0,0,0,0.125,12.200000000000001,0.0,0,0,0,0.0,12.200000000000001,0.0,0,0,0,0.0,12.200000000000001,0.0,0,0,0,0.125,12.25,0.0,0,0,0,kReverse,kReverse,-87.03,2.17,2.44,0.11804199,-1.2211304,0.03125,33.85,0.0,69.0,-7.9754944,13.511276,
1886.151107,true,true,true,0.125,12.200000000000001,0.0,0,0,0,0.125,12.200000000000001,0.0,0,0,0,0.125,12.15,0.0,0,0,0,0.125,12.200000000000001,0.0,0,0,0,0.0,12.200000000000001,0.0,0,0,0,0.0,12.200000000000001,0.0,0,0,0,0.125,12.25,0.0,0,0,0,kReverse,kReverse,-87.05,2.19,2.44,0.09716797,-1.2017822,0.15948486,33.9,0.0,65.0,-7.975052,13.51181,
1886.178953,true,true,true,0.125,12.200000000000001,0.0,0,0,0,0.125,12.200000000000001,0.0,0,0,0,0.125,12.15,0.0,0,0,0,0.125,12.200000000000001,0.0,0,0,0,0.125,12.200000000000001,0.0,0,0,0,0.0,12.200000000000001,0.0,0,0,0,0.125,12.25,0.0,0,0,0,kReverse,kReverse,-87.06,2.19,2.44,-0.05041504,-1.0880127,0.23278809,33.9,0.0,-66.0,-7.9747925,13.512344,
1886.201895,true,true,true,0.125,12.200000000000001,0.0,0,0,0,0.125,12.200000000000001,0.0,0,0,0,0.125,12.15,0.0,0,0,0,0.125,12.200000000000001,0.0,0,0,0,0.125,12.200000000000001,0.0,0,0,0,0.0,12.200000000000001,0.0,0,0,0,0.125,12.25,0.0,0,0,0,kReverse,kReverse,-87.05,2.19,2.45,9.1552734E-4,-1.0611572,0.14337158,33.9,0.0,-25.0,-7.974594,13.514038,
1886.224558,true,true,true,0.125,12.200000000000001,0.0,0,0,0,0.125,12.200000000000001,0.0,0,0,0,0.125,12.15,0.0,0,0,0,0.125,12.200000000000001,0.0,0,0,0,0.0,12.200000000000001,0.0,0,0,0,0.0,12.200000000000001,0.0,0,0,0,0.125,12.25,0.0,0,0,0,kReverse,kReverse,-87.04,2.2,2.46,-0.00390625,-0.65216064,-0.017150879,33.9,0.0,-33.0,-7.974579,13.515015,
1886.248183,true,true,true,0.125,12.200000000000001,0.0,0,0,0,0.125,12.200000000000001,0.0,0,0,0,0.125,12.15,0.0,0,0,0,0.125,12.200000000000001,0.0,0,0,0,0.0,12.200000000000001,0.0,0,0,0,0.0,12.200000000000001,0.0,0,0,0,0.125,12.25,0.0,0,0,0,kReverse,kReverse,-87.03,2.2,2.46,0.021057129,-0.65301514,-0.123291016,33.9,0.0,-22.0,-7.974594,13.515869,
1886.269775,true,true,true,0.125,12.15,0.0,0,0,0,0.125,12.200000000000001,0.0,0,0,0,0.125,12.15,0.0,0,0,0,0.125,12.200000000000001,0.0,0,0,0,0.0,12.200000000000001,0.0,0,0,0,0.0,12.200000000000001,0.0,0,0,0,0.125,12.25,0.0,0,0,0,kReverse,kReverse,-87.02,2.21,2.45,0.12310791,-1.069519,0.01739502,33.9,0.0,78.0,-7.974701,13.5169525,
1886.2925619999999,true,true,true,0.125,12.15,0.0,0,0,0,0.125,12.200000000000001,0.0,0,0,0,0.125,12.15,0.0,0,0,0,0.125,12.200000000000001,0.0,0,0,0,0.0,12.200000000000001,0.0,0,0,0,0.0,12.200000000000001,0.0,0,0,0,0.125,12.25,0.0,0,0,0,kReverse,kReverse,-87.02,2.19,2.45,0.12310791,-1.069519,0.01739502,33.9,0.0,78.0,-7.974701,13.5169525,
1886.304158,true,true,true,0.125,12.15,0.0,0,0,0,0.125,12.200000000000001,0.0,0,0,0,0.125,12.15,0.0,0,0,0,0.125,12.200000000000001,0.0,0,0,0,0.0,12.200000000000001,0.0,0,0,0,0.0,12.200000000000001,0.0,0,0,0,0.125,12.25,0.0,0,0,0,kReverse,kReverse,-87.02,2.19,2.45,0.12310791,-1.069519,0.01739502,33.9,0.0,78.0,-7.974701,13.5169525,
1886.317781,true,true,true,0.125,12.15,0.0,0,0,0,0.125,12.200000000000001,0.0,0,0,0,0.125,12.15,0.0,0,0,0,0.125,12.200000000000001,0.0,0,0,0,0.0,12.200000000000001,0.0,0,0,0,0.0,12.200000000000001,0.0,0,0,0,0.125,12.25,0.0,0,0,0,kReverse,kReverse,-87.04,2.17,2.43,0.15557861,-1.2713013,0.1083374,33.9,0.0,114.0,-7.974579,13.51712,
1886.330387,true,true,true,0.125,12.15,0.0,0,0,0,0.125,12.200000000000001,0.0,0,0,0,0.125,12.15,0.0,0,0,0,0.125,12.200000000000001,0.0,0,0,0,0.0,12.200000000000001,0.0,0,0,0,0.0,12.200000000000001,0.0,0,0,0,0.125,12.25,0.0,0,0,0,kReverse,kReverse,-87.03,2.19,2.45,0.07531738,-1.2025146,0.11981201,33.9,0.0,38.0,-7.97435,13.5173645,
1886.3439239999998,true,true,true,0.125,12.15,0.0,0,0,0,0.125,12.200000000000001,0.0,0,0,0,0.125,12.15,0.0,0,0,0,0.125,12.200000000000001,0.0,0,0,0,0.0,12.200000000000001,0.0,0,0,0,0.0,12.200000000000001,0.0,0,0,0,0.125,12.25,0.0,0,0,0,kReverse,kReverse,-87.05,2.2,2.46,0.007385254,-1.1054077,0.21948242,33.9,0.0,-11.0,-7.974106,13.5177765,
1886.3566809999998,true,true,true,0.125,12.15,0.0,0,0,0,0.125,12.200000000000001,0.0,0,0,0,0.125,12.15,0.0,0,0,0,0.125,12.200000000000001,0.0,0,0,0,0.125,12.200000000000001,0.0,0,0,0,0.0,12.200000000000001,0.0,0,0,0,0.125,12.25,0.0,0,0,0,kReverse,kReverse,-87.05,2.2,2.45,-0.020874023,-1.0490723,0.057434082,33.9,0.0,-57.0,-7.9738007,13.519348,
1886.386317,true,true,true,0.125,12.15,0.0,0,0,0,0.125,12.200000000000001,0.0,0,0,0,0.125,12.15,0.0,0,0,0,0.125,12.200000000000001,0.0,0,0,0,0.125,12.200000000000001,0.0,0,0,0,0.0,12.200000000000001,0.0,0,0,0,0.125,12.25,0.0,0,0,0,kReverse,kReverse,-87.05,2.21,2.46,-0.026611328,-0.76605225,0.08947754,33.9,0.0,-47.0,-7.97377,13.520294,
1886.408252,true,true,true,0.125,12.15,0.0,0,0,0,0.125,12.200000000000001,0.0,0,0,0,0.125,12.15,0.0,0,0,0,0.125,12.200000000000001,0.0,0,0,0,0.125,12.200000000000001,0.0,0,0,0,0.0,12.200000000000001,0.0,0,0,0,0.125,12.25,0.0,0,0,0,kReverse,kReverse,-87.01,2.19,2.46,0.05493164,-0.78118896,-0.19458008,33.9,0.0,-3.0,-7.9738617,13.521927,
1886.4307119999999,true,true,true,0.125,12.15,0.0,0,0,0,0.125,12.200000000000001,0.0,0,0,0,0.125,12.15,0.0,0,0,0,0.125,12.200000000000001,0.0,0,0,0,0.125,12.15,0.0,0,0,0,0.0,12.15,0.0,0,0,0,0.125,12.200000000000001,0.0,0,0,0,kReverse,kReverse,-87.01,2.2,2.46,0.070007324,-0.829834,-0.18200684,33.9,0.0,10.0,-7.9738617,13.522339,
1886.45301,true,true,true,0.125,12.15,0.0,0,0,0,0.125,12.200000000000001,0.0,0,0,0,0.125,12.15,0.0,0,0,0,0.125,12.200000000000001,0.0,0,0,0,0.125,12.15,0.0,0,0,0,0.0,12.15,0.0,0,0,0,0.125,12.200000000000001,0.0,0,0,0,kReverse,kReverse,-87.02,2.18,2.44,0.1305542,-1.1871338,0.11114502,33.9,0.0,93.0,-7.9737396,13.522705,
1886.4793319999999,true,true,true,0.125,12.15,0.0,0,0,0,0.125,12.200000000000001,0.0,0,0,0,0.125,12.15,0.0,0,0,0,0.125,12.200000000000001,0.0,0,0,0,0.125,12.15,0.0,0,0,0,0.0,12.15,0.0,0,0,0,0.125,12.200000000000001,0.0,0,0,0,kReverse,kReverse,-87.03,2.18,2.45,0.0021972656,-1.1295776,0.1850586,33.9,0.0,-22.0,-7.973175,13.523392,
1886.503307,true,true,true,0.125,12.15,0.0,0,0,0,0.125,12.200000000000001,0.0,0,0,0,0.125,12.15,0.0,0,0,0,0.125,12.200000000000001,0.0,0,0,0,0.125,12.15,0.0,0,0,0,0.0,12.15,0.0,0,0,0,0.125,12.200000000000001,0.0,0,0,0,kReverse,kReverse,-87.04,2.2,2.45,-0.08508301,-1.0391846,0.22717285,33.9,0.0,-99.0,-7.972946,13.524063,
1886.526345,true,true,true,0.125,12.15,0.0,0,0,0,0.125,12.200000000000001,0.0,0,0,0,0.125,12.15,0.0,0,0,0,0.125,12.200000000000001,0.0,0,0,0,0.125,12.15,0.0,0,0,0,0.0,12.15,0.0,0,0,0,0.125,12.200000000000001,0.0,0,0,0,kReverse,kReverse,-87.04,2.2,2.46,0.015075684,-0.81256104,-0.0075683594,33.9,0.0,-20.0,-7.972687,13.526016,
1886.558341,true,true,true,0.125,12.15,0.0,0,0,0,0.125,12.200000000000001,0.0,0,0,0,0.125,12.15,0.0,0,0,0,0.125,12.200000000000001,0.0,0,0,0,0.125,12.15,0.0,0,0,0,0.0,12.15,0.0,0,0,0,0.125,12.200000000000001,0.0,0,0,0,kReverse,kReverse,-87.01,2.2,2.46,0.034973145,-0.7554321,-0.12939453,33.9,0.0,-14.0,-7.9726257,13.527771,
1886.5839959999998,true,true,true,0.125,12.15,0.0,0,0,0,0.125,12.15,0.0,0,0,0,0.125,12.15,0.0,0,0,0,0.125,12.200000000000001,0.0,0,0,0,0.125,12.15,0.0,0,0,0,0.0,12.15,0.0,0,0,0,0.125,12.200000000000001,0.0,0,0,0,kReverse,kReverse,-87.01,2.2,2.46,0.116882324,-0.9906616,-0.03894043,33.9,0.0,68.0,-7.97258,13.52858,
1886.6088099999997,true,true,true,0.125,12.15,0.0,0,0,0,0.125,12.15,0.0,0,0,0,0.125,12.15,0.0,0,0,0,0.125,12.200000000000001,0.0,0,0,0,0.125,12.15,0.0,0,0,0,0.0,12.15,0.0,0,0,0,0.125,12.200000000000001,0.0,0,0,0,kReverse,kReverse,-87.02,2.18,2.44,0.13189697,-1.2479248,0.088256836,33.9,0.0,89.0,-7.9724274,13.528839,
1886.629927,true,true,true,0.125,12.15,0.0,0,0,0,0.125,12.15,0.0,0,0,0,0.125,12.15,0.0,0,0,0,0.125,12.200000000000001,0.0,0,0,0,0.125,12.15,0.0,0,0,0,0.0,12.15,0.0,0,0,0,0.125,12.200000000000001,0.0,0,0,0,kReverse,kReverse,-87.04,2.2,2.45,0.05480957,-1.1433716,0.19830322,33.9,0.0,31.0,-7.9718475,13.529572,
1886.653907,true,true,true,0.125,12.15,0.0,0,0,0,0.125,12.15,0.0,0,0,0,0.125,12.15,0.0,0,0,0,0.125,12.200000000000001,0.0,0,0,0,0.125,12.15,0.0,0,0,0,0.0,12.15,0.0,0,0,0,0.125,12.200000000000001,0.0,0,0,0,kReverse,kReverse,-87.04,2.2,2.45,-0.05718994,-1.0554199,0.24780273,33.9,0.0,-69.0,-7.9715576,13.530273,
1886.678027,true,true,true,0.125,12.15,0.0,0,0,0,0.125,12.15,0.0,0,0,0,0.125,12.15,0.0,0,0,0,0.125,12.200000000000001,0.0,0,0,0,0.125,12.15,0.0,0,0,0,0.0,12.15,0.0,0,0,0,0.125,12.200000000000001,0.0,0,0,0,kReverse,kReverse,-87.04,2.21,2.46,-0.018127441,-0.88812256,0.11682129,33.88,0.0,-40.0,-7.9712524,13.53215,
1886.705691,true,true,true,0.125,12.15,0.0,0,0,0,0.125,12.15,0.0,0,0,0,0.125,12.15,0.0,0,0,0,0.125,12.200000000000001,0.0,0,0,0,0.125,12.15,0.0,0,0,0,0.0,12.15,0.0,0,0,0,0.125,12.200000000000001,0.0,0,0,0,kReverse,kReverse,-87.01,2.19,2.45,0.052368164,-0.74731445,-0.16027832,33.88,0.0,0.0,-7.9711914,13.533997,
1886.7277459999998,true,true,true,0.125,12.15,0.0,0,0,0,0.125,12.15,0.0,0,0,0,0.125,12.15,0.0,0,0,0,0.125,12.200000000000001,0.0,0,0,0,0.125,12.15,0.0,0,0,0,0.0,12.15,0.0,0,0,0,0.125,12.200000000000001,0.0,0,0,0,kReverse,kReverse,-87.0,2.2,2.47,0.053344727,-0.81884766,-0.18945312,33.88,0.0,-6.0,-7.9711914,13.534546,
1886.74932,true,true,true,0.125,12.15,0.0,0,0,0,0.125,12.15,0.0,0,0,0,0.125,12.15,0.0,0,0,0,0.125,12.200000000000001,0.0,0,0,0,0.125,12.15,0.0,0,0,0,0.0,12.15,0.0,0,0,0,0.125,12.200000000000001,0.0,0,0,0,kReverse,kReverse,-87.02,2.18,2.44,0.13354492,-1.1699219,0.09436035,33.88,0.0,94.0,-7.9710846,13.535126,
1886.7703999999999,true,true,true,0.125,12.15,0.0,0,0,0,0.125,12.15,0.0,0,0,0,0.125,12.15,0.0,0,0,0,0.125,12.200000000000001,0.0,0,0,0,0.125,12.15,0.0,0,0,0,0.0,12.15,0.0,0,0,0,0.125,12.200000000000001,0.0,0,0,0,kReverse,kReverse,-87.03,2.17,2.44,0.15124512,-1.269043,0.1138916,33.88,0.0,110.0,-7.9708557,13.535461,
1886.7910200000001,true,true,true,0.125,12.15,0.0,0,0,0,0.125,12.15,0.0,0,0,0,0.125,12.15,0.0,0,0,0,0.125,12.200000000000001,0.0,0,0,0,0.125,12.15,0.0,0,0,0,0.0,12.15,0.0,0,0,0,0.125,12.200000000000001,0.0,0,0,0,kReverse,kReverse,-87.05,2.2,2.45,-0.0703125,-1.0400391,0.24212646,33.88,0.0,-82.0,-7.9703217,13.53656,
1886.8145939999997,true,true,true,0.125,12.15,0.0,0,0,0,0.125,12.15,0.0,0,0,0,0.125,12.15,0.0,0,0,0,0.125,12.200000000000001,0.0,0,0,0,0.125,12.15,0.0,0,0,0,0.0,12.15,0.0,0,0,0,0.125,12.200000000000001,0.0,0,0,0,kReverse,kReverse,-87.04,2.19,2.45,-0.018615723,-1.1238403,0.21673584,33.88,0.0,-38.0,-7.970169,13.537506,
1886.840095,true,true,true,0.125,12.15,0.0,0,0,0,0.125,12.15,0.0,0,0,0,0.125,12.15,0.0,0,0,0,0.125,12.200000000000001,0.0,0,0,0,0.125,12.15,0.0,0,0,0,0.0,12.15,0.0,0,0,0,0.125,12.200000000000001,0.0,0,0,0,kReverse,kReverse,-87.03,2.21,2.46,-0.029968262,-0.59002686,-6.1035156E-4,33.88,0.0,-54.0,-7.9700317,13.539551,
1886.8636139999999,true,true,true,0.125,12.15,0.0,0,0,0,0.125,12.15,0.0,0,0,0,0.125,12.15,0.0,0,0,0,0.125,12.200000000000001,0.0,0,0,0,0.125,12.15,0.0,0,0,0,0.0,12.15,0.0,0,0,0,0.125,12.200000000000001,0.0,0,0,0,kReverse,kReverse,-86.99,2.21,2.47,0.026733398,-0.71813965,-0.117004395,33.88,0.0,-19.0,-7.970047,13.540451,
1886.886734,true,true,true,0.125,12.15,0.0,0,0,0,0.125,12.15,0.0,0,0,0,0.125,12.15,0.0,0,0,0,0.125,12.200000000000001,0.0,0,0,0,0.125,12.15,0.0,0,0,0,0.0,12.15,0.0,0,0,0,0.125,12.200000000000001,0.0,0,0,0,kReverse,kReverse,-87.01,2.2,2.46,0.1104126,-0.9466553,-0.051635742,33.88,0.0,62.0,-7.970001,13.541428,
1886.908569,true,true,true,0.125,12.15,0.0,0,0,0,0.125,12.15,0.0,0,0,0,0.125,12.15,0.0,0,0,0,0.125,12.200000000000001,0.0,0,0,0,0.125,12.15,0.0,0,0,0,0.0,12.15,0.0,0,0,0,0.125,12.200000000000001,0.0,0,0,0,kReverse,kReverse,-87.02,2.17,2.44,0.12591553,-1.2411499,0.048828125,33.88,0.0,78.0,-7.969879,13.541733,
1886.92789,true,true,true,0.125,12.15,0.0,0,0,0,0.125,12.15,0.0,0,0,0,0.125,12.15,0.0,0,0,0,0.125,12.200000000000001,0.0,0,0,0,0.125,12.15,0.0,0,0,0,0.0,12.15,0.0,0,0,0,0.125,12.200000000000001,0.0,0,0,0,kReverse,kReverse,-87.04,2.19,2.44,0.064331055,-1.1566162,0.17858887,33.88,0.0,37.0,-7.969345,13.54248,
1886.9478629999999,true,true,true,0.125,12.15,0.0,0,0,0,0.125,12.15,0.0,0,0,0,0.125,12.15,0.0,0,0,0,0.125,12.200000000000001,0.0,0,0,0,0.125,12.15,0.0,0,0,0,0.0,12.15,0.0,0,0,0,0.125,12.200000000000001,0.0,0,0,0,kReverse,kReverse,-87.05,2.19,2.45,-0.053710938,-1.0654297,0.2506714,33.88,0.0,-66.0,-7.969055,13.543152,
1886.96897,true,true,true,0.125,12.15,0.0,0,0,0,0.125,12.15,0.0,0,0,0,0.125,12.15,0.0,0,0,0,0.125,12.200000000000001,0.0,0,0,0,0.125,12.15,0.0,0,0,0,0.0,12.15,0.0,0,0,0,0.125,12.200000000000001,0.0,0,0,0,kReverse,kReverse,-87.05,2.2,2.45,-0.019226074,-0.92163086,0.11102295,33.88,0.0,-43.0,-7.968796,13.545029,
1886.988768,true,true,true,0.125,12.15,0.0,0,0,0,0.125,12.15,0.0,0,0,0,0.125,12.15,0.0,0,0,0,0.125,12.200000000000001,0.0,0,0,0,0.125,12.15,0.0,0,0,0,0.0,12.15,0.0,0,0,0,0.125,12.200000000000001,0.0,0,0,0,kReverse,kReverse,-87.03,2.2,2.46,-0.013427734,-0.5845337,-0.04937744,33.88,0.0,-44.0,-7.9687653,13.546036,
1887.009111,true,true,true,0.125,12.15,0.0,0,0,0,0.125,12.15,0.0,0,0,0,0.125,12.15,0.0,0,0,0,0.125,12.200000000000001,0.0,0,0,0,0.125,12.15,0.0,0,0,0,0.0,12.15,0.0,0,0,0,0.125,12.200000000000001,0.0,0,0,0,kReverse,kReverse,-87.01,2.19,2.45,0.04559326,-0.7324219,-0.14068604,33.88,0.0,-4.0,-7.9687653,13.54689,
1887.030281,true,true,true,0.125,12.15,0.0,0,0,0,0.125,12.15,0.0,0,0,0,0.125,12.15,0.0,0,0,0,0.125,12.200000000000001,0.0,0,0,0,0.125,12.15,0.0,0,0,0,0.0,12.15,0.0,0,0,0,0.125,12.200000000000001,0.0,0,0,0,kReverse,kReverse,-87.01,2.2,2.46,0.090148926,-1.0784912,-0.08850098,33.88,0.0,31.0,-7.96875,13.547806,
1887.054731,true,true,true,0.125,12.15,0.0,0,0,0,0.125,12.15,0.0,0,0,0,0.125,12.15,0.0,0,0,0,0.125,12.200000000000001,0.0,0,0,0,0.125,12.15,0.0,0,0,0,0.0,12.15,0.0,0,0,0,0.125,12.200000000000001,0.0,0,0,0,kReverse,kReverse,-87.02,2.18,2.44,0.13964844,-1.166626,0.10089111,33.88,0.0,101.0,-7.968643,13.54808,
1887.075146,true,true,true,0.125,12.15,0.0,0,0,0,0.125,12.15,0.0,0,0,0,0.125,12.15,0.0,0,0,0,0.125,12.200000000000001,0.0,0,0,0,0.125,12.15,0.0,0,0,0,0.0,12.15,0.0,0,0,0,0.125,12.200000000000001,0.0,0,0,0,kReverse,kReverse,-87.04,2.19,2.45,0.015075684,-1.1422119,0.15350342,33.88,0.0,-13.0,-7.9680786,13.548874,
1887.097765,true,true,true,0.125,12.15,0.0,0,0,0,0.125,12.15,0.0,0,0,0,0.125,12.15,0.0,0,0,0,0.125,12.200000000000001,0.0,0,0,0,0.125,12.15,0.0,0,0,0,0.0,12.15,0.0,0,0,0,0.125,12.200000000000001,0.0,0,0,0,kReverse,kReverse,-87.05,2.19,2.45,-0.077819824,-1.0352173,0.23638916,33.88,0.0,-90.0,-7.967819,13.549561,
1887.1191529999999,true,true,true,0.125,12.15,0.0,0,0,0,0.125,12.15,0.0,0,0,0,0.125,12.15,0.0,0,0,0,0.125,12.200000000000001,0.0,0,0,0,0.125,12.15,0.0,0,0,0,0.0,12.15,0.0,0,0,0,0.125,12.200000000000001,0.0,0,0,0,kReverse,kReverse,-87.04,2.2,2.45,-4.272461E-4,-0.8566284,-0.023498535,33.88,0.0,-39.0,-7.96756,13.551529,
1887.142129,true,true,true,0.125,12.15,0.0,0,0,0,0.125,12.15,0.0,0,0,0,0.125,12.15,0.0,0,0,0,0.125,12.200000000000001,0.0,0,0,0,0.125,12.15,0.0,0,0,0,0.0,12.15,0.0,0,0,0,0.125,12.200000000000001,0.0,0,0,0,kReverse,kReverse,-87.04,2.2,2.46,-0.03265381,-0.5961304,-0.024169922,33.88,0.0,-60.0,-7.9675293,13.55249,
1887.16724,true,true,true,0.125,12.15,0.0,0,0,0,0.125,12.15,0.0,0,0,0,0.125,12.15,0.0,0,0,0,0.125,12.200000000000001,0.0,0,0,0,0.125,12.15,0.0,0,0,0,0.0,12.15,0.0,0,0,0,0.125,12.200000000000001,0.0,0,0,0,kReverse,kReverse,-87.0,2.2,2.46,0.0713501,-0.8739624,-0.2444458,33.88,0.0,1.0,-7.9675903,13.553879,
1887.188686,true,true,true,0.125,12.15,0.0,0,0,0,0.125,12.15,0.0,0,0,0,0.125,12.15,0.0,0,0,0,0.125,12.200000000000001,0.0,0,0,0,0.125,12.15,0.0,0,0,0,0.0,12.15,0.0,0,0,0,0.125,12.200000000000001,0.0,0,0,0,kReverse,kReverse,-87.02,2.19,2.45,0.11846924,-0.98461914,-0.039855957,33.9,0.0,70.0,-7.967575,13.554184,
1887.208204,true,true,true,0.125,12.15,0.0,0,0,0,0.125,12.15,0.0,0,0,0,0.125,12.1,0.0,0,0,0,0.125,12.200000000000001,0.0,0,0,0,0.125,12.15,0.0,0,0,0,0.0,12.15,0.0,0,0,0,0.125,12.200000000000001,0.0,0,0,0,kReverse,kReverse,-87.02,2.18,2.45,0.10601807,-1.208313,0.10205078,33.9,0.0,66.0,-7.967209,13.554749,
1887.234209,true,true,true,0.125,12.15,0.0,0,0,0,0.125,12.15,0.0,0,0,0,0.125,12.1,0.0,0,0,0,0.125,12.200000000000001,0.0,0,0,0,0.125,12.15,0.0,0,0,0,0.0,12.15,0.0,0,0,0,0.125,12.200000000000001,0.0,0,0,0,kReverse,kReverse,-87.05,2.19,2.45,-0.056030273,-1.052002,0.23016357,33.9,0.0,-70.0,-7.9666443,13.555878,
1887.2654459999999,true,true,true,0.125,12.15,0.0,0,0,0,0.125,12.15,0.0,0,0,0,0.125,12.1,0.0,0,0,0,0.125,12.200000000000001,0.0,0,0,0,0.125,12.15,0.0,0,0,0,0.0,12.15,0.0,0,0,0,0.125,12.200000000000001,0.0,0,0,0,kReverse,kReverse,-87.05,2.2,2.45,-0.027893066,-0.83636475,0.09307861,33.9,0.0,-51.0,-7.966446,13.557663,
1887.316554,true,true,true,0.125,12.15,0.0,0,0,0,0.125,12.15,0.0,0,0,0,0.125,12.1,0.0,0,0,0,0.125,12.200000000000001,0.0,0,0,0,0.125,12.15,0.0,0,0,0,0.0,12.15,0.0,0,0,0,0.125,12.200000000000001,0.0,0,0,0,kReverse,kReverse,-87.02,2.17,2.44,0.14581299,-1.1954346,0.10406494,33.9,0.0,107.0,-7.9662933,13.5603485,
1887.3798729999999,true,true,true,0.125,12.15,0.0,0,0,0,0.125,12.15,0.0,0,0,0,0.125,12.1,0.0,0,0,0,0.125,12.15,0.0,0,0,0,0.125,12.15,0.0,0,0,0,0.0,12.15,0.0,0,0,0,0.125,12.200000000000001,0.0,0,0,0,kReverse,kReverse,-87.05,2.19,2.44,-0.095825195,-1.0387573,0.18792725,33.9,0.0,-114.0,-7.965393,13.561813,
1887.414664,true,true,true,0.125,12.15,0.0,0,0,0,0.125,12.15,0.0,0,0,0,0.125,12.1,0.0,0,0,0,0.125,12.15,0.0,0,0,0,0.125,12.15,0.0,0,0,0,0.0,12.15,0.0,0,0,0,0.125,12.200000000000001,0.0,0,0,0,kReverse,kReverse,-87.05,2.19,2.45,-0.023376465,-1.1143188,0.18408203,33.9,0.0,-46.0,-7.9652405,13.562714,
1887.434665,true,true,true,0.125,12.15,0.0,0,0,0,0.125,12.15,0.0,0,0,0,0.125,12.1,0.0,0,0,0,0.125,12.15,0.0,0,0,0,0.125,12.15,0.0,0,0,0,0.0,12.15,0.0,0,0,0,0.125,12.200000000000001,0.0,0,0,0,kReverse,kReverse,-87.04,2.2,2.45,-0.009277344,-0.7529907,-0.014526367,33.9,0.0,-43.0,-7.965164,13.56369,
1887.462173,true,true,true,0.125,12.15,0.0,0,0,0,0.125,12.15,0.0,0,0,0,0.125,12.1,0.0,0,0,0,0.125,12.15,0.0,0,0,0,0.125,12.15,0.0,0,0,0,0.0,12.15,0.0,0,0,0,0.125,12.200000000000001,0.0,0,0,0,kReverse,kReverse,-87.0,2.19,2.46,0.045776367,-0.78222656,-0.15374756,33.9,0.0,-7.0,-7.9651794,13.565323,
1887.4883439999999,true,true,true,0.125,12.15,0.0,0,0,0,0.125,12.15,0.0,0,0,0,0.125,12.1,0.0,0,0,0,0.125,12.15,0.0,0,0,0,0.125,12.15,0.0,0,0,0,0.0,12.15,0.0,0,0,0,0.125,12.200000000000001,0.0,0,0,0,kReverse,kReverse,-87.01,2.2,2.46,0.08276367,-0.9413452,-0.18554688,33.9,0.0,17.0,-7.9651794,13.56604,
1887.5099,true,true,true,0.125,12.15,0.0,0,0,0,0.125,12.15,0.0,0,0,0,0.125,12.1,0.0,0,0,0,0.125,12.15,0.0,0,0,0,0.125,12.15,0.0,0,0,0,0.0,12.15,0.0,0,0,0,0.125,12.200000000000001,0.0,0,0,0,kReverse,kReverse,-87.04,2.16,2.43,0.1515503,-1.2634277,0.10882568,33.9,0.0,110.0,-7.9648895,13.566315,
1887.5318979999997,true,true,true,0.125,12.15,0.0,0,0,0,0.125,12.15,0.0,0,0,0,0.125,12.1,0.0,0,0,0,0.125,12.15,0.0,0,0,0,0.0,12.15,0.0,0,0,0,0.0,12.15,0.0,0,0,0,0.125,12.200000000000001,0.0,0,0,0,kReverse,kReverse,-87.05,2.19,2.45,-0.01184082,-1.0725708,0.19854736,33.9,0.0,-31.0,-7.9642334,13.5672,
1887.559116,true,true,true,0.125,12.15,0.0,0,0,0,0.125,12.15,0.0,0,0,0,0.125,12.1,0.0,0,0,0,0.125,12.15,0.0,0,0,0,0.0,12.15,0.0,0,0,0,0.0,12.15,0.0,0,0,0,0.125,12.200000000000001,0.0,0,0,0,kReverse,kReverse,-87.05,2.19,2.45,-0.061584473,-1.0824585,0.23052979,33.9,0.0,-77.0,-7.9639893,13.567978,
1887.580099,true,true,true,0.125,12.15,0.0,0,0,0,0.125,12.15,0.0,0,0,0,0.125,12.1,0.0,0,0,0,0.125,12.15,0.0,0,0,0,0.0,12.15,0.0,0,0,0,0.0,12.15,0.0,0,0,0,0.125,12.200000000000001,0.0,0,0,0,kReverse,kReverse,-87.05,2.2,2.46,-0.039611816,-0.6809082,0.08880615,33.9,0.0,-56.0,-7.9637604,13.5698395,
1887.605791,true,true,true,0.125,12.15,0.0,0,0,0,0.125,12.15,0.0,0,0,0,0.125,12.1,0.0,0,0,0,0.125,12.15,0.0,0,0,0,0.125,12.15,0.0,0,0,0,0.0,12.15,0.0,0,0,0,0.125,12.200000000000001,0.0,0,0,0,kReverse,kReverse,-87.02,2.2,2.46,0.005004883,-0.6324463,-0.09777832,33.9,0.0,-34.0,-7.963745,13.57077,
1887.6273589999998,true,true,true,0.125,12.15,0.0,0,0,0,0.125,12.15,0.0,0,0,0,0.125,12.1,0.0,0,0,0,0.125,12.15,0.0,0,0,0,0.125,12.15,0.0,0,0,0,0.0,12.15,0.0,0,0,0,0.125,12.200000000000001,0.0,0,0,0,kReverse,kReverse,-87.02,2.19,2.46,0.09753418,-0.8768921,-0.107543945,33.9,0.0,45.0,-7.9636993,13.571838,
1887.6482859999999,true,true,true,0.125,12.15,0.0,0,0,0,0.125,12.15,0.0,0,0,0,0.125,12.1,0.0,0,0,0,0.125,12.15,0.0,0,0,0,0.125,12.15,0.0,0,0,0,0.0,12.15,0.0,0,0,0,0.125,12.200000000000001,0.0,0,0,0,kReverse,kReverse,-87.03,2.17,2.44,0.1282959,-1.204895,0.01586914,33.9,0.0,78.0,-7.9635773,13.572113,
1887.667622,true,true,true,0.125,12.15,0.0,0,0,0,0.125,12.15,0.0,0,0,0,0.125,12.1,0.0,0,0,0,0.125,12.15,0.0,0,0,0,0.125,12.15,0.0,0,0,0,0.0,12.15,0.0,0,0,0,0.125,12.200000000000001,0.0,0,0,0,kReverse,kReverse,-87.05,2.18,2.43,0.10076904,-1.1969604,0.13677979,33.9,0.0,66.0,-7.9629974,13.572754,
1887.6879959999999,true,true,true,0.125,12.15,0.0,0,0,0,0.125,12.1,0.0,0,0,0,0.125,12.1,0.0,0,0,0,0.125,12.15,0.0,0,0,0,0.125,12.15,0.0,0,0,0,0.0,12.15,0.0,0,0,0,0.125,12.200000000000001,0.0,0,0,0,kReverse,kReverse,-87.05,2.19,2.44,-0.05206299,-1.0789795,0.2144165,33.9,0.0,-69.0,-7.9626465,13.573303,
1887.7104579999998,true,true,true,0.125,12.15,0.0,0,0,0,0.125,12.1,0.0,0,0,0,0.125,12.1,0.0,0,0,0,0.125,12.15,0.0,0,0,0,0.125,12.15,0.0,0,0,0,0.0,12.1,0.0,0,0,0,0.125,12.200000000000001,0.0,0,0,0,kReverse,kReverse,-87.05,2.19,2.45,-0.016113281,-1.0073242,0.14483643,33.91,0.0,-40.0,-7.962311,13.574966,
1887.732013,true,true,true,0.125,12.15,0.0,0,0,0,0.125,12.1,0.0,0,0,0,0.125,12.1,0.0,0,0,0,0.125,12.15,0.0,0,0,0,0.125,12.15,0.0,0,0,0,0.0,12.1,0.0,0,0,0,0.125,12.200000000000001,0.0,0,0,0,kReverse,kReverse,-87.04,2.2,2.46,-0.027770996,-0.6196289,-0.030517578,33.91,0.0,-57.0,-7.962265,13.575928,
