timer,lineLeft,lineCenter,lineRight,LeftFrontCurrent,LeftFrontVoltage,LeftFrontValue,LeftFrontPosition,LeftFrontVelocity,LeftFrontFaults,LeftRearCurrent,LeftRearVoltage,LeftRearValue,LeftRearPosition,LeftRearVelocity,LeftRearFaults,RightFrontCurrent,RightFrontVoltage,RightFrontValue,RightFrontPosition,RightFrontVelocity,RightFrontFaults,RightRearCurrent,RightRearVoltage,RightRearValue,RightRearPosition,RightRearVelocity,RightRearFaults,LiftCurrent,LiftVoltage,LiftValue,LiftPosition,LiftVelocity,LiftFaults,WristCurrent,WristVoltage,WristValue,WristPosition,WristVelocity,WristFaults,RollerCurrent,RollerVoltage,RollerValue,RollerPosition,RollerVelocity,RollerFaults,PushersState,PivotsState,navx_Pitch,navx_Roll,navx_Yaw,navx_XAcc,navx_YAcc,navx_ZAcc,navx_Temp,navx_Bar,navx_Alt,navx_XDis,navx_YDis,
1819.624525,true,true,true,0.125,12.700000000000001,0.0,0,0,0,0.125,12.700000000000001,0.0,0,0,0,0.125,12.700000000000001,0.0,0,0,0,0.125,12.75,0.0,0,0,0,0.0,12.700000000000001,0.0,0,0,0,0.0,12.700000000000001,0.0,0,0,0,0.125,12.75,0.0,0,0,0,kForward,kReverse,-87.1,2.16,2.4,0.023071289,-0.9818115,0.03161621,33.69,0.0,-14.0,-8.012329,12.716476,
1819.6516849999998,true,true,true,0.125,12.700000000000001,0.0,0,0,0,0.125,12.700000000000001,0.0,0,0,0,0.125,12.700000000000001,0.0,0,0,0,0.125,12.75,0.0,0,0,0,0.0,12.700000000000001,0.0,0,0,0,0.0,12.700000000000001,0.0,0,0,0,0.125,12.75,0.0,0,0,0,kReverse,kReverse,-87.09,2.17,2.41,0.02960205,-0.9738159,0.0847168,33.69,0.0,0.0,-8.012299,12.716507,
1819.679649,true,true,true,0.125,12.700000000000001,0.0,0,0,0,0.125,12.700000000000001,0.0,0,0,0,0.125,12.700000000000001,0.0,0,0,0,0.125,12.75,0.0,0,0,0,0.125,12.700000000000001,0.0,0,0,0,0.0,12.700000000000001,0.0,0,0,0,0.125,12.75,0.0,0,0,0,kReverse,kReverse,-87.1,2.15,2.39,0.13317871,-1.2874146,0.0289917,33.69,0.0,82.0,-8.012207,12.716553,
1819.7008489999998,true,true,true,0.125,12.35,0.0,0,0,0,0.125,12.3,0.0,0,0,0,0.125,12.3,0.0,0,0,0,0.125,12.35,0.0,0,0,0,0.125,12.35,0.0,0,0,0,0.0,12.700000000000001,0.0,0,0,0,0.125,12.4,0.0,0,0,0,kReverse,kReverse,-87.13,2.14,2.38,-0.11682129,-0.85894775,0.1619873,33.69,0.0,-131.0,-8.012238,12.716751,
1819.7245999999998,true,true,true,0.125,12.35,0.0,0,0,0,0.125,12.3,0.0,0,0,0,0.125,12.3,0.0,0,0,0,0.125,12.35,0.0,0,0,0,0.125,12.35,0.0,0,0,0,0.0,12.4,0.0,0,0,0,0.125,12.4,0.0,0,0,0,kReverse,kReverse,-87.12,2.13,2.37,0.034301758,-0.8899536,0.076416016,33.69,0.0,6.0,-8.012421,12.717041,
1819.7411269999998,true,true,true,0.125,12.35,0.0,0,0,0,0.125,12.3,0.0,0,0,0,0.125,12.3,0.0,0,0,0,0.125,12.35,0.0,0,0,0,0.125,12.35,0.0,0,0,0,0.0,12.4,0.0,0,0,0,0.125,12.4,0.0,0,0,0,kReverse,kReverse,-87.14,2.14,2.38,-0.103759766,-0.8557129,-0.16143799,33.69,0.0,-158.0,-8.012711,12.717239,
1819.761673,true,true,true,0.125,12.35,0.0,0,0,0,0.125,12.3,0.0,0,0,0,0.125,12.3,0.0,0,0,0,0.125,12.35,0.0,0,0,0,0.125,12.35,0.0,0,0,0,0.0,12.4,0.0,0,0,0,0.125,12.4,0.0,0,0,0,kReverse,kReverse,-87.1,2.15,2.39,-0.02368164,-0.72406006,-0.15655518,33.69,0.0,-72.0,-8.01355,12.716888,
1819.788623,true,true,true,0.125,12.35,0.0,0,0,0,0.125,12.3,0.0,0,0,0,0.125,12.3,0.0,0,0,0,0.125,12.35,0.0,0,0,0,0.125,12.35,0.0,0,0,0,0.0,12.4,0.0,0,0,0,0.125,12.4,0.0,0,0,0,kReverse,kReverse,-87.1,2.13,2.37,0.019714355,-0.7157593,0.04736328,33.69,0.0,-4.0,-8.014481,12.71582,
1819.809673,true,true,true,0.125,12.35,0.0,0,0,0,0.125,12.3,0.0,0,0,0,0.125,12.3,0.0,0,0,0,0.125,12.35,0.0,0,0,0,0.125,12.35,0.0,0,0,0,0.0,12.4,0.0,0,0,0,0.125,12.4,0.0,0,0,0,kReverse,kReverse,-87.12,2.1,2.34,-0.037902832,-0.7420654,-0.2109375,33.69,0.0,-93.0,-8.015015,12.715118,
1819.831176,true,true,true,0.125,12.35,0.0,0,0,0,0.125,12.3,0.0,0,0,0,0.125,12.3,0.0,0,0,0,0.125,12.35,0.0,0,0,0,0.125,12.35,0.0,0,0,0,0.0,12.4,0.0,0,0,0,0.125,12.4,0.0,0,0,0,kReverse,kReverse,-87.13,2.08,2.33,-0.0036621094,-0.75177,-0.14282227,33.69,0.0,-51.0,-8.016205,12.713074,
1819.8540329999998,true,true,true,0.125,12.4,0.0,0,0,0,0.125,12.4,0.0,0,0,0,0.125,12.4,0.0,0,0,0,0.125,12.450000000000001,0.0,0,0,0,0.125,12.4,0.0,0,0,0,0.0,12.4,0.0,0,0,0,0.125,12.450000000000001,0.0,0,0,0,kReverse,kReverse,-87.15,2.07,2.31,0.061340332,-0.7553711,-0.036621094,33.68,0.0,26.0,-8.016846,12.711792,
1819.8810219999998,true,true,true,0.125,12.4,0.0,0,0,0,0.125,12.4,0.0,0,0,0,0.125,12.4,0.0,0,0,0,0.125,12.450000000000001,0.0,0,0,0,0.125,12.4,0.0,0,0,0,0.0,12.4,0.0,0,0,0,0.125,12.450000000000001,0.0,0,0,0,kReverse,kReverse,-87.12,2.08,2.32,0.006958008,-0.6828613,-0.049072266,33.68,0.0,-26.0,-8.018082,12.709061,
1819.906119,true,true,true,0.125,12.4,0.0,0,0,0,0.125,12.4,0.0,0,0,0,0.125,12.4,0.0,0,0,0,0.125,12.450000000000001,0.0,0,0,0,0.125,12.4,0.0,0,0,0,0.0,12.4,0.0,0,0,0,0.125,12.450000000000001,0.0,0,0,0,kReverse,kReverse,-87.1,2.06,2.32,0.011474609,-0.7404175,-0.10107422,33.68,0.0,-30.0,-8.019333,12.706253,
1819.927049,true,true,true,0.125,12.4,0.0,0,0,0,0.125,12.4,0.0,0,0,0,0.125,12.4,0.0,0,0,0,0.125,12.450000000000001,0.0,0,0,0,0.125,12.4,0.0,0,0,0,0.0,12.4,0.0,0,0,0,0.125,12.450000000000001,0.0,0,0,0,kReverse,kReverse,-87.11,2.06,2.31,0.00982666,-0.8048096,-0.15240479,33.68,0.0,-41.0,-8.02002,12.704636,
1819.9490499999997,true,true,true,0.125,12.4,0.0,0,0,0,0.125,12.4,0.0,0,0,0,0.125,12.4,0.0,0,0,0,0.125,12.450000000000001,0.0,0,0,0,0.125,12.4,0.0,0,0,0,0.0,12.4,0.0,0,0,0,0.125,12.450000000000001,0.0,0,0,0,kReverse,kReverse,-87.1,2.06,2.31,0.024780273,-0.7833252,-0.1251831,33.68,0.0,-22.0,-8.021545,12.70076,
1819.97073,true,true,true,0.125,12.4,0.0,0,0,0,0.125,12.4,0.0,0,0,0,0.125,12.4,0.0,0,0,0,0.125,12.450000000000001,0.0,0,0,0,0.0,12.4,0.0,0,0,0,0.0,12.4,0.0,0,0,0,0.125,12.450000000000001,0.0,0,0,0,kReverse,kReverse,-87.11,2.05,2.31,0.013671875,-0.7345581,-0.0061035156,33.68,0.0,-16.0,-8.022369,12.698593,
1819.9987139999998,true,true,true,0.125,12.4,0.0,0,0,0,0.125,12.4,0.0,0,0,0,0.125,12.4,0.0,0,0,0,0.125,12.450000000000001,0.0,0,0,0,0.0,12.4,0.0,0,0,0,0.0,12.4,0.0,0,0,0,0.125,12.450000000000001,0.0,0,0,0,kReverse,kReverse,-87.09,2.04,2.29,0.0048828125,-0.7125244,0.022277832,33.68,0.0,-20.0,-8.024094,12.694275,
1820.0238809999998,true,true,true,0.125,12.4,0.0,0,0,0,0.125,12.4,0.0,0,0,0,0.125,12.4,0.0,0,0,0,0.125,12.4,0.0,0,0,0,0.0,12.4,0.0,0,0,0,0.0,12.4,0.0,0,0,0,0.125,12.450000000000001,0.0,0,0,0,kReverse,kReverse,-87.07,2.02,2.29,-0.020629883,-0.770874,-0.08905029,33.68,0.0,-61.0,-8.0260315,12.689774,
1820.049836,true,true,true,0.125,12.4,0.0,0,0,0,0.125,12.4,0.0,0,0,0,0.125,12.4,0.0,0,0,0,0.125,12.4,0.0,0,0,0,0.125,12.4,0.0,0,0,0,0.0,12.4,0.0,0,0,0,0.125,12.450000000000001,0.0,0,0,0,kReverse,kReverse,-87.05,2.01,2.28,-0.045043945,-0.7607422,-0.089538574,33.68,0.0,-85.0,-8.028351,12.684723,
1820.0719249999997,true,true,true,0.125,12.4,0.0,0,0,0,0.125,12.4,0.0,0,0,0,0.125,12.4,0.0,0,0,0,0.125,12.4,0.0,0,0,0,0.125,12.4,0.0,0,0,0,0.0,12.4,0.0,0,0,0,0.125,12.450000000000001,0.0,0,0,0,kReverse,kReverse,-87.04,2.0,2.27,-0.016235352,-0.75494385,-0.022766113,33.68,0.0,-48.0,-8.029663,12.682022,
1820.095989,true,true,true,0.125,12.4,0.0,0,0,0,0.125,12.4,0.0,0,0,0,0.125,12.4,0.0,0,0,0,0.125,12.4,0.0,0,0,0,0.125,12.4,0.0,0,0,0,0.0,12.4,0.0,0,0,0,0.125,12.450000000000001,0.0,0,0,0,kReverse,kReverse,-87.0,1.99,2.27,-0.015014648,-0.75079346,-0.039978027,33.68,0.0,-49.0,-8.032501,12.6763,
1820.12048,true,true,true,0.125,12.4,0.0,0,0,0,0.125,12.4,0.0,0,0,0,0.125,12.4,0.0,0,0,0,0.125,12.4,0.0,0,0,0,0.125,12.4,0.0,0,0,0,0.0,12.4,0.0,0,0,0,0.125,12.450000000000001,0.0,0,0,0,kReverse,kReverse,-86.99,1.99,2.27,-0.017150879,-0.7661133,-0.0791626,33.68,0.0,-56.0,-8.034027,12.673264,
1820.143118,true,true,true,0.125,12.4,0.0,0,0,0,0.125,12.4,0.0,0,0,0,0.125,12.4,0.0,0,0,0,0.125,12.4,0.0,0,0,0,0.125,12.4,0.0,0,0,0,0.0,12.4,0.0,0,0,0,0.125,12.450000000000001,0.0,0,0,0,kReverse,kReverse,-86.98,1.98,2.26,-0.0146484375,-0.78125,-0.11425781,33.68,0.0,-59.0,-8.037338,12.666702,
1820.1670649999999,true,true,true,0.125,12.4,0.0,0,0,0,0.125,12.4,0.0,0,0,0,0.125,12.4,0.0,0,0,0,0.125,12.4,0.0,0,0,0,0.125,12.4,0.0,0,0,0,0.0,12.4,0.0,0,0,0,0.125,12.450000000000001,0.0,0,0,0,kReverse,kReverse,-86.96,1.98,2.27,-0.034179688,-0.7791748,-0.13458252,33.68,0.0,-81.0,-8.039139,12.663132,
1820.187857,true,true,true,0.125,12.4,0.0,0,0,0,0.125,12.4,0.0,0,0,0,0.125,12.35,0.0,0,0,0,0.125,12.4,0.0,0,0,0,0.125,12.4,0.0,0,0,0,0.0,12.4,0.0,0,0,0,0.125,12.450000000000001,0.0,0,0,0,kReverse,kReverse,-86.95,1.98,2.26,-0.03894043,-0.79473877,-0.13470459,33.68,0.0,-86.0,-8.043076,12.655289,
1820.210139,true,true,true,0.125,12.4,0.0,0,0,0,0.125,12.4,0.0,0,0,0,0.125,12.35,0.0,0,0,0,0.125,12.4,0.0,0,0,0,0.125,12.4,0.0,0,0,0,0.0,12.4,0.0,0,0,0,0.125,12.450000000000001,0.0,0,0,0,kReverse,kReverse,-86.93,1.97,2.27,-0.026123047,-0.7921753,-0.17254639,33.68,0.0,-78.0,-8.045212,12.651016,
1820.231616,true,true,true,0.125,12.4,0.0,0,0,0,0.125,12.4,0.0,0,0,0,0.125,12.35,0.0,0,0,0,0.125,12.4,0.0,0,0,0,0.125,12.4,0.0,0,0,0,0.0,12.4,0.0,0,0,0,0.125,12.450000000000001,0.0,0,0,0,kReverse,kReverse,-86.93,1.98,2.27,-0.04071045,-0.7958374,-0.2267456,33.68,0.0,-99.0,-8.049866,12.641586,
1820.2571509999998,true,true,true,0.125,12.4,0.0,0,0,0,0.125,12.4,0.0,0,0,0,0.125,12.35,0.0,0,0,0,0.125,12.4,0.0,0,0,0,0.125,12.4,0.0,0,0,0,0.0,12.4,0.0,0,0,0,0.125,12.450000000000001,0.0,0,0,0,kReverse,kReverse,-86.92,1.99,2.28,-0.064697266,-0.81451416,-0.23181152,33.68,0.0,-124.0,-8.052414,12.636383,
1820.281382,true,true,true,0.125,12.4,0.0,0,0,0,0.125,12.4,0.0,0,0,0,0.125,12.35,0.0,0,0,0,0.125,12.4,0.0,0,0,0,0.125,12.4,0.0,0,0,0,0.0,12.4,0.0,0,0,0,0.125,12.450000000000001,0.0,0,0,0,kReverse,kReverse,-86.93,1.99,2.28,-0.068359375,-0.81604004,-0.22473145,33.68,0.0,-127.0,-8.058014,12.624893,
1820.3057219999998,true,true,true,0.125,12.4,0.0,0,0,0,0.125,12.4,0.0,0,0,0,0.125,12.35,0.0,0,0,0,0.125,12.4,0.0,0,0,0,0.125,12.4,0.0,0,0,0,0.0,12.4,0.0,0,0,0,0.125,12.450000000000001,0.0,0,0,0,kReverse,kReverse,-86.93,2.0,2.28,-0.06665039,-0.82629395,-0.23583984,33.68,0.0,-127.0,-8.064285,12.611923,
1820.328214,true,true,true,0.125,12.4,0.0,0,0,0,0.125,12.4,0.0,0,0,0,0.125,12.35,0.0,0,0,0,0.125,12.4,0.0,0,0,0,0.125,12.4,0.0,0,0,0,0.0,12.4,0.0,0,0,0,0.125,12.450000000000001,0.0,0,0,0,kReverse,kReverse,-86.93,2.0,2.29,-0.061340332,-0.828125,-0.27593994,33.68,0.0,-127.0,-8.067673,12.604889,
1820.3505719999998,true,true,true,0.125,12.4,0.0,0,0,0,0.125,12.4,0.0,0,0,0,0.125,12.35,0.0,0,0,0,0.125,12.4,0.0,0,0,0,0.125,12.4,0.0,0,0,0,0.0,12.4,0.0,0,0,0,0.125,12.4,0.0,0,0,0,kReverse,kReverse,-86.93,2.01,2.3,-0.05706787,-0.8362427,-0.2625122,33.67,0.0,-122.0,-8.075012,12.589722,
1820.372099,true,true,true,0.125,12.4,0.0,0,0,0,0.125,12.4,0.0,0,0,0,0.125,12.35,0.0,0,0,0,0.125,12.4,0.0,0,0,0,0.125,12.4,0.0,0,0,0,0.0,12.4,0.0,0,0,0,0.125,12.4,0.0,0,0,0,kReverse,kReverse,-86.94,2.02,2.3,-0.077819824,-0.83703613,-0.24499512,33.67,0.0,-140.0,-8.078949,12.581589,
1820.3928489999998,true,true,true,0.125,12.4,0.0,0,0,0,0.125,12.4,0.0,0,0,0,0.125,12.35,0.0,0,0,0,0.125,12.4,0.0,0,0,0,0.125,12.4,0.0,0,0,0,0.0,12.4,0.0,0,0,0,0.125,12.4,0.0,0,0,0,kReverse,kReverse,-86.96,2.02,2.3,-0.07110596,-0.84069824,-0.21679688,33.67,0.0,-130.0,-8.087341,12.56427,
1820.426119,true,true,true,0.125,12.4,0.0,0,0,0,0.125,12.4,0.0,0,0,0,0.125,12.35,0.0,0,0,0,0.125,12.4,0.0,0,0,0,0.125,12.4,0.0,0,0,0,0.0,12.4,0.0,0,0,0,0.125,12.4,0.0,0,0,0,kReverse,kReverse,-86.99,2.03,2.3,-0.06225586,-0.83135986,-0.20257568,33.67,0.0,-119.0,-8.09639,12.545654,
1820.4465089999999,true,true,true,0.125,12.4,0.0,0,0,0,0.125,12.4,0.0,0,0,0,0.125,12.35,0.0,0,0,0,0.125,12.4,0.0,0,0,0,0.125,12.4,0.0,0,0,0,0.0,12.4,0.0,0,0,0,0.125,12.4,0.0,0,0,0,kReverse,kReverse,-87.0,2.03,2.3,-0.039855957,-0.86279297,-0.1373291,33.67,0.0,-90.0,-8.101135,12.535919,
1820.468471,true,true,true,0.125,12.4,0.0,0,0,0,0.125,12.4,0.0,0,0,0,0.125,12.35,0.0,0,0,0,0.125,12.4,0.0,0,0,0,0.125,12.4,0.0,0,0,0,0.0,12.4,0.0,0,0,0,0.125,12.4,0.0,0,0,0,kReverse,kReverse,-87.02,2.03,2.3,-0.024841309,-0.89453125,-0.097351074,33.67,0.0,-72.0,-8.111008,12.515778,
1820.490212,true,true,true,0.125,12.4,0.0,0,0,0,0.125,12.35,0.0,0,0,0,0.125,12.35,0.0,0,0,0,0.125,12.4,0.0,0,0,0,0.0,12.35,0.0,0,0,0,0.0,12.4,0.0,0,0,0,0.125,12.4,0.0,0,0,0,kReverse,kReverse,-87.02,2.04,2.31,-0.01739502,-0.89208984,-0.08129883,33.67,0.0,-62.0,-8.116089,12.505447,
1820.511961,true,true,true,0.125,12.35,0.0,0,0,0,0.125,12.35,0.0,0,0,0,0.125,12.35,0.0,0,0,0,0.125,12.4,0.0,0,0,0,0.0,12.35,0.0,0,0,0,0.0,12.35,0.0,0,0,0,0.125,12.4,0.0,0,0,0,kReverse,kReverse,-87.03,2.03,2.3,0.016967773,-0.94470215,-0.0107421875,33.67,0.0,-22.0,-8.126434,12.484543,
1820.53521,true,true,true,0.125,12.35,0.0,0,0,0,0.125,12.35,0.0,0,0,0,0.125,12.35,0.0,0,0,0,0.125,12.4,0.0,0,0,0,0.0,12.35,0.0,0,0,0,0.0,12.35,0.0,0,0,0,0.125,12.4,0.0,0,0,0,kReverse,kReverse,-87.02,2.03,2.3,0.0036010742,-0.9581909,0.04901123,33.67,0.0,-28.0,-8.131668,12.47403,
1820.557413,true,true,true,0.125,12.35,0.0,0,0,0,0.125,12.35,0.0,0,0,0,0.125,12.35,0.0,0,0,0,0.125,12.4,0.0,0,0,0,0.125,12.35,0.0,0,0,0,0.0,12.35,0.0,0,0,0,0.125,12.4,0.0,0,0,0,kReverse,kReverse,-87.02,2.02,2.29,0.022155762,-1.0071411,0.09466553,33.67,0.0,-6.0,-8.136917,12.45311,
1820.5822879999998,true,true,true,0.125,12.35,0.0,0,0,0,0.125,12.35,0.0,0,0,0,0.125,12.35,0.0,0,0,0,0.125,12.4,0.0,0,0,0,0.125,12.35,0.0,0,0,0,0.0,12.35,0.0,0,0,0,0.125,12.4,0.0,0,0,0,kReverse,kReverse,-87.02,2.02,2.29,0.022155762,-1.0071411,0.09466553,33.67,0.0,-6.0,-8.136917,12.45311,
1820.6045279999998,true,true,true,0.125,12.35,0.0,0,0,0,0.125,12.35,0.0,0,0,0,0.125,12.35,0.0,0,0,0,0.125,12.4,0.0,0,0,0,0.125,12.35,0.0,0,0,0,0.0,12.35,0.0,0,0,0,0.125,12.4,0.0,0,0,0,kReverse,kReverse,-87.01,2.01,2.28,0.026977539,-1.0435181,0.16827393,33.67,0.0,6.0,-8.136887,12.432541,
1820.6273959999999,true,true,true,0.125,12.35,0.0,0,0,0,0.125,12.35,0.0,0,0,0,0.125,12.35,0.0,0,0,0,0.125,12.4,0.0,0,0,0,0.125,12.35,0.0,0,0,0,0.0,12.35,0.0,0,0,0,0.125,12.4,0.0,0,0,0,kReverse,kReverse,-87.02,2.0,2.27,0.08679199,-1.1201172,0.18414307,33.67,0.0,64.0,-8.13681,12.422516,
1820.648534,true,true,true,0.125,12.35,0.0,0,0,0,0.125,12.35,0.0,0,0,0,0.125,12.35,0.0,0,0,0,0.125,12.4,0.0,0,0,0,0.125,12.35,0.0,0,0,0,0.0,12.35,0.0,0,0,0,0.125,12.4,0.0,0,0,0,kReverse,kReverse,-87.01,2.0,2.27,0.09588623,-1.1845703,0.21484375,33.67,0.0,74.0,-8.136444,12.403061,
1820.669483,true,true,true,0.125,12.35,0.0,0,0,0,0.125,12.35,0.0,0,0,0,0.125,12.35,0.0,0,0,0,0.125,12.4,0.0,0,0,0,0.125,12.35,0.0,0,0,0,0.0,12.35,0.0,0,0,0,0.125,12.4,0.0,0,0,0,kReverse,kReverse,-87.02,2.01,2.28,0.109436035,-1.1973267,0.27270508,33.67,0.0,94.0,-8.135727,12.3845215,
1820.6904949999998,true,true,true,0.125,12.35,0.0,0,0,0,0.125,12.35,0.0,0,0,0,0.125,12.35,0.0,0,0,0,0.125,12.4,0.0,0,0,0,0.125,12.35,0.0,0,0,0,0.0,12.35,0.0,0,0,0,0.125,12.4,0.0,0,0,0,kReverse,kReverse,-87.01,2.01,2.28,0.09887695,-1.1646118,0.24731445,33.67,0.0,82.0,-8.135208,12.375656,
1820.7122319999999,true,true,true,0.125,12.35,0.0,0,0,0,0.125,12.35,0.0,0,0,0,0.125,12.35,0.0,0,0,0,0.125,12.4,0.0,0,0,0,0.125,12.35,0.0,0,0,0,0.0,12.35,0.0,0,0,0,0.125,12.4,0.0,0,0,0,kReverse,kReverse,-87.03,2.01,2.28,0.13110352,-1.2127075,0.28125,33.67,0.0,116.0,-8.134537,12.367081,
1820.7380719999999,true,true,true,0.125,12.35,0.0,0,0,0,0.125,12.35,0.0,0,0,0,0.125,12.35,0.0,0,0,0,0.125,12.4,0.0,0,0,0,0.125,12.35,0.0,0,0,0,0.0,12.35,0.0,0,0,0,0.125,12.4,0.0,0,0,0,kReverse,kReverse,-87.05,2.02,2.29,0.12133789,-1.2182617,0.27233887,33.67,0.0,105.0,-8.132797,12.350754,
1820.7612849999998,true,true,true,0.125,12.35,0.0,0,0,0,0.125,12.35,0.0,0,0,0,0.125,12.35,0.0,0,0,0,0.125,12.4,0.0,0,0,0,0.125,12.35,0.0,0,0,0,0.0,12.35,0.0,0,0,0,0.125,12.4,0.0,0,0,0,kReverse,kReverse,-87.06,2.03,2.29,0.12390137,-1.2030029,0.26013184,33.67,0.0,106.0,-8.130508,12.335541,
1820.793057,true,true,true,0.125,12.35,0.0,0,0,0,0.125,12.35,0.0,0,0,0,0.125,12.35,0.0,0,0,0,0.125,12.4,0.0,0,0,0,0.125,12.35,0.0,0,0,0,0.0,12.35,0.0,0,0,0,0.125,12.4,0.0,0,0,0,kReverse,kReverse,-87.05,2.04,2.3,0.07531738,-1.1677856,0.23400879,33.67,0.0,56.0,-8.127762,12.321411,
1820.817544,true,true,true,0.125,12.35,0.0,0,0,0,0.125,12.35,0.0,0,0,0,0.125,12.35,0.0,0,0,0,0.125,12.35,0.0,0,0,0,0.125,12.35,0.0,0,0,0,0.0,12.35,0.0,0,0,0,0.125,12.4,0.0,0,0,0,kReverse,kReverse,-87.05,2.05,2.3,0.061584473,-1.1484375,0.2062378,33.67,0.0,40.0,-8.124725,12.308334,
1820.8437419999998,true,true,true,0.125,12.35,0.0,0,0,0,0.125,12.35,0.0,0,0,0,0.125,12.35,0.0,0,0,0,0.125,12.35,0.0,0,0,0,0.125,12.35,0.0,0,0,0,0.0,12.35,0.0,0,0,0,0.125,12.4,0.0,0,0,0,kReverse,kReverse,-87.05,2.04,2.3,0.020446777,-1.1512451,0.21643066,33.67,0.0,0.0,-8.123138,12.302139,
1820.865171,true,true,true,0.125,12.35,0.0,0,0,0,0.125,12.35,0.0,0,0,0,0.125,12.35,0.0,0,0,0,0.125,12.35,0.0,0,0,0,0.125,12.35,0.0,0,0,0,0.0,12.35,0.0,0,0,0,0.125,12.4,0.0,0,0,0,kReverse,kReverse,-87.06,2.03,2.29,0.06555176,-1.1303711,0.21014404,33.71,0.0,21.0,-8.119873,12.290466,
1820.88715,true,true,true,0.125,12.35,0.0,0,0,0,0.125,12.35,0.0,0,0,0,0.125,12.35,0.0,0,0,0,0.125,12.35,0.0,0,0,0,0.125,12.35,0.0,0,0,0,0.0,12.35,0.0,0,0,0,0.125,12.4,0.0,0,0,0,kReverse,kReverse,-87.05,2.02,2.29,0.066223145,-1.0910034,0.1416626,33.71,0.0,39.0,-8.118179,12.284927,
1820.9087459999998,true,true,true,0.125,12.35,0.0,0,0,0,0.125,12.35,0.0,0,0,0,0.125,12.35,0.0,0,0,0,0.125,12.35,0.0,0,0,0,0.125,12.35,0.0,0,0,0,0.0,12.35,0.0,0,0,0,0.125,12.4,0.0,0,0,0,kReverse,kReverse,-87.05,2.02,2.28,0.09008789,-1.0567627,0.12286377,33.71,0.0,62.0,-8.114655,12.274292,
1820.9308369999999,true,true,true,0.125,12.35,0.0,0,0,0,0.125,12.35,0.0,0,0,0,0.125,12.35,0.0,0,0,0,0.125,12.35,0.0,0,0,0,0.125,12.35,0.0,0,0,0,0.0,12.35,0.0,0,0,0,0.125,12.4,0.0,0,0,0,kReverse,kReverse,-87.04,2.02,2.29,0.06939697,-1.076294,0.11199951,33.71,0.0,39.0,-8.112793,12.2691345,
1820.954998,true,true,true,0.125,12.35,0.0,0,0,0,0.125,12.35,0.0,0,0,0,0.125,12.35,0.0,0,0,0,0.125,12.35,0.0,0,0,0,0.125,12.35,0.0,0,0,0,0.0,12.35,0.0,0,0,0,0.125,12.4,0.0,0,0,0,kReverse,kReverse,-87.05,2.03,2.29,0.08618164,-1.0375366,0.07946777,33.71,0.0,53.0,-8.108871,12.258957,
1820.9805459999998,true,true,true,0.125,12.35,0.0,0,0,0,0.125,12.35,0.0,0,0,0,0.125,12.35,0.0,0,0,0,0.125,12.35,0.0,0,0,0,0.125,12.35,0.0,0,0,0,0.0,12.35,0.0,0,0,0,0.125,12.4,0.0,0,0,0,kReverse,kReverse,-87.05,2.04,2.3,0.08502197,-0.9437866,0.011657715,33.71,0.0,47.0,-8.104645,12.248779,
1821.0078299999998,true,true,true,0.125,12.35,0.0,0,0,0,0.125,12.35,0.0,0,0,0,0.125,12.35,0.0,0,0,0,0.125,12.35,0.0,0,0,0,0.125,12.35,0.0,0,0,0,0.0,12.35,0.0,0,0,0,0.125,12.4,0.0,0,0,0,kReverse,kReverse,-87.05,2.05,2.31,0.076416016,-0.84033203,-0.010986328,33.71,0.0,40.0,-8.1024475,12.243637,
1821.028436,true,true,true,0.125,12.35,0.0,0,0,0,0.125,12.35,0.0,0,0,0,0.125,12.35,0.0,0,0,0,0.125,12.35,0.0,0,0,0,0.125,12.35,0.0,0,0,0,0.0,12.35,0.0,0,0,0,0.125,12.4,0.0,0,0,0,kReverse,kReverse,-87.06,2.06,2.32,0.054626465,-0.7715454,-0.05303955,33.71,0.0,16.0,-8.097931,12.2330475,
1821.0496799999999,true,true,true,0.125,12.35,0.0,0,0,0,0.125,12.35,0.0,0,0,0,0.125,12.35,0.0,0,0,0,0.125,12.35,0.0,0,0,0,0.125,12.35,0.0,0,0,0,0.0,12.35,0.0,0,0,0,0.125,12.4,0.0,0,0,0,kReverse,kReverse,-87.06,2.06,2.32,0.04949951,-0.78515625,-0.07763672,33.71,0.0,7.0,-8.097931,12.22757,
1821.073048,true,true,true,0.125,12.35,0.0,0,0,0,0.125,12.35,0.0,0,0,0,0.125,12.35,0.0,0,0,0,0.125,12.35,0.0,0,0,0,0.125,12.35,0.0,0,0,0,0.0,12.35,0.0,0,0,0,0.125,12.4,0.0,0,0,0,kReverse,kReverse,-87.05,2.06,2.32,0.030090332,-0.74194336,-0.09643555,33.71,0.0,-11.0,-8.097961,12.21611,
1821.1007339999999,true,true,true,0.125,12.35,0.0,0,0,0,0.125,12.35,0.0,0,0,0,0.125,12.35,0.0,0,0,0,0.125,12.35,0.0,0,0,0,0.125,12.35,0.0,0,0,0,0.0,12.35,0.0,0,0,0,0.125,12.4,0.0,0,0,0,kReverse,kReverse,-87.03,2.07,2.33,0.018859863,-0.77526855,-0.1453247,33.71,0.0,-30.0,-8.098022,12.210098,
1821.1201479999997,true,true,true,0.125,12.35,0.0,0,0,0,0.125,12.35,0.0,0,0,0,0.125,12.35,0.0,0,0,0,0.125,12.35,0.0,0,0,0,0.125,12.35,0.0,0,0,0,0.0,12.35,0.0,0,0,0,0.125,12.4,0.0,0,0,0,kReverse,kReverse,-87.02,2.05,2.32,8.544922E-4,-0.8081665,-0.1885376,33.71,0.0,-54.0,-8.098312,12.197372,
1821.142213,true,true,true,0.125,12.35,0.0,0,0,0,0.125,12.35,0.0,0,0,0,0.125,12.35,0.0,0,0,0,0.125,12.35,0.0,0,0,0,0.125,12.35,0.0,0,0,0,0.0,12.35,0.0,0,0,0,0.125,12.4,0.0,0,0,0,kReverse,kReverse,-87.02,2.06,2.32,-0.013977051,-0.8031616,-0.16082764,33.71,0.0,-65.0,-8.0985565,12.190613,
1821.162679,true,true,true,0.125,12.35,0.0,0,0,0,0.125,12.35,0.0,0,0,0,0.125,12.35,0.0,0,0,0,0.125,12.35,0.0,0,0,0,0.125,12.35,0.0,0,0,0,0.0,12.35,0.0,0,0,0,0.125,12.4,0.0,0,0,0,kReverse,kReverse,-87.01,2.05,2.32,-0.020324707,-0.8416748,-0.2541504,33.71,0.0,-85.0,-8.098923,12.183533,
1821.180139,true,true,true,0.125,12.35,0.0,0,0,0,0.125,12.35,0.0,0,0,0,0.125,12.35,0.0,0,0,0,0.125,12.35,0.0,0,0,0,0.125,12.35,0.0,0,0,0,0.0,12.35,0.0,0,0,0,0.125,12.4,0.0,0,0,0,kReverse,kReverse,-87.0,2.08,2.35,-0.038635254,-0.8446655,-0.28051758,33.71,0.0,-107.0,-8.100052,12.16832,
1821.205716,true,true,true,0.125,12.35,0.0,0,0,0,0.125,12.35,0.0,0,0,0,0.125,12.35,0.0,0,0,0,0.125,12.35,0.0,0,0,0,0.125,12.35,0.0,0,0,0,0.0,12.35,0.0,0,0,0,0.125,12.4,0.0,0,0,0,kReverse,kReverse,-87.01,2.1,2.36,-0.04284668,-0.8596802,-0.23937988,33.71,0.0,-107.0,-8.101791,12.151718,
1821.22789,true,true,true,0.125,12.35,0.0,0,0,0,0.125,12.35,0.0,0,0,0,0.125,12.35,0.0,0,0,0,0.125,12.35,0.0,0,0,0,0.125,12.35,0.0,0,0,0,0.0,12.35,0.0,0,0,0,0.125,12.4,0.0,0,0,0,kReverse,kReverse,-87.02,2.1,2.36,-0.0579834,-0.8243408,-0.18060303,33.71,0.0,-113.0,-8.10289,12.142929,
1821.250044,true,true,true,0.125,12.35,0.0,0,0,0,0.125,12.35,0.0,0,0,0,0.125,12.35,0.0,0,0,0,0.125,12.35,0.0,0,0,0,0.125,12.35,0.0,0,0,0,0.0,12.35,0.0,0,0,0,0.125,12.4,0.0,0,0,0,kReverse,kReverse,-87.02,2.11,2.37,-0.026733398,-0.8852539,-0.0869751,33.71,0.0,-73.0,-8.105469,12.124649,
1821.270707,true,true,true,0.125,12.35,0.0,0,0,0,0.125,12.35,0.0,0,0,0,0.125,12.35,0.0,0,0,0,0.125,12.35,0.0,0,0,0,0.125,12.35,0.0,0,0,0,0.0,12.35,0.0,0,0,0,0.125,12.4,0.0,0,0,0,kReverse,kReverse,-87.02,2.1,2.36,-0.012145996,-0.93029785,-0.05078125,33.71,0.0,-56.0,-8.106903,12.11528,
1821.291821,true,true,true,0.125,12.35,0.0,0,0,0,0.125,12.35,0.0,0,0,0,0.125,12.3,0.0,0,0,0,0.125,12.35,0.0,0,0,0,0.125,12.35,0.0,0,0,0,0.0,12.35,0.0,0,0,0,0.125,12.35,0.0,0,0,0,kReverse,kReverse,-87.02,2.09,2.35,0.00793457,-1.0125122,0.05114746,33.71,0.0,-27.0,-8.109909,12.096329,
1821.317264,true,true,true,0.125,12.35,0.0,0,0,0,0.125,12.35,0.0,0,0,0,0.125,12.3,0.0,0,0,0,0.125,12.35,0.0,0,0,0,0.125,12.35,0.0,0,0,0,0.0,12.35,0.0,0,0,0,0.125,12.35,0.0,0,0,0,kReverse,kReverse,-87.04,2.07,2.33,0.055603027,-1.0900879,0.064941406,33.71,0.0,18.0,-8.111435,12.086868,
1821.341103,true,true,true,0.125,12.35,0.0,0,0,0,0.125,12.35,0.0,0,0,0,0.125,12.3,0.0,0,0,0,0.125,12.35,0.0,0,0,0,0.125,12.35,0.0,0,0,0,0.0,12.35,0.0,0,0,0,0.125,12.35,0.0,0,0,0,kReverse,kReverse,-87.04,2.07,2.33,0.093688965,-1.1764526,0.15130615,33.71,0.0,63.0,-8.11441,12.068253,
1821.3663119999999,true,true,true,0.125,12.35,0.0,0,0,0,0.125,12.35,0.0,0,0,0,0.125,12.3,0.0,0,0,0,0.125,12.35,0.0,0,0,0,0.125,12.35,0.0,0,0,0,0.0,12.35,0.0,0,0,0,0.125,12.35,0.0,0,0,0,kReverse,kReverse,-87.03,2.08,2.34,0.06500244,-1.1419067,0.19866943,33.71,0.0,42.0,-8.115784,12.059174,
1821.38862,true,true,true,0.125,12.35,0.0,0,0,0,0.125,12.35,0.0,0,0,0,0.125,12.3,0.0,0,0,0,0.125,12.35,0.0,0,0,0,0.125,12.35,0.0,0,0,0,0.0,12.35,0.0,0,0,0,0.125,12.35,0.0,0,0,0,kReverse,kReverse,-87.03,2.09,2.35,0.11248779,-1.1967163,0.24639893,33.7,0.0,92.0,-8.118225,12.041702,
1821.410818,true,true,true,0.125,12.35,0.0,0,0,0,0.125,12.35,0.0,0,0,0,0.125,12.3,0.0,0,0,0,0.125,12.35,0.0,0,0,0,0.125,12.35,0.0,0,0,0,0.0,12.35,0.0,0,0,0,0.125,12.35,0.0,0,0,0,kReverse,kReverse,-87.04,2.11,2.37,0.115112305,-1.2076416,0.27252197,33.7,0.0,97.0,-8.120102,12.025314,
1821.435313,true,true,true,0.125,12.35,0.0,0,0,0,0.125,12.35,0.0,0,0,0,0.125,12.3,0.0,0,0,0,0.125,12.35,0.0,0,0,0,0.125,12.35,0.0,0,0,0,0.0,12.35,0.0,0,0,0,0.125,12.35,0.0,0,0,0,kReverse,kReverse,-87.05,2.12,2.37,0.107788086,-1.1889038,0.2703247,33.7,0.0,90.0,-8.12085,12.017563,
1821.457865,true,true,true,0.125,12.3,0.0,0,0,0,0.125,12.3,0.0,0,0,0,0.125,12.3,0.0,0,0,0,0.125,12.35,0.0,0,0,0,0.125,12.35,0.0,0,0,0,0.0,12.35,0.0,0,0,0,0.125,12.35,0.0,0,0,0,kReverse,kReverse,-87.06,2.12,2.37,0.034729004,-1.1185303,0.28485107,33.7,0.0,23.0,-8.122086,12.003006,
1821.481497,true,true,true,0.125,12.3,0.0,0,0,0,0.125,12.3,0.0,0,0,0,0.125,12.3,0.0,0,0,0,0.125,12.35,0.0,0,0,0,0.125,12.35,0.0,0,0,0,0.0,12.3,0.0,0,0,0,0.125,12.35,0.0,0,0,0,kReverse,kReverse,-87.05,2.11,2.37,0.018432617,-1.1627197,0.27685547,33.7,0.0,4.0,-8.12265,11.996231,
1821.506382,true,true,true,0.125,12.3,0.0,0,0,0,0.125,12.3,0.0,0,0,0,0.125,12.3,0.0,0,0,0,0.125,12.35,0.0,0,0,0,0.125,12.35,0.0,0,0,0,0.0,12.3,0.0,0,0,0,0.125,12.35,0.0,0,0,0,kReverse,kReverse,-87.05,2.11,2.36,0.011962891,-1.125,0.2321167,33.7,0.0,-5.0,-8.123215,11.983551,
1821.527189,true,true,true,0.125,12.3,0.0,0,0,0,0.125,12.3,0.0,0,0,0,0.125,12.3,0.0,0,0,0,0.125,12.35,0.0,0,0,0,0.125,12.35,0.0,0,0,0,0.0,12.3,0.0,0,0,0,0.125,12.35,0.0,0,0,0,kReverse,kReverse,-87.05,2.1,2.35,0.04498291,-1.0869751,0.18115234,33.7,0.0,22.0,-8.123199,11.97757,
1821.5476159999998,true,true,true,0.125,12.3,0.0,0,0,0,0.125,12.3,0.0,0,0,0,0.125,12.3,0.0,0,0,0,0.125,12.35,0.0,0,0,0,0.125,12.35,0.0,0,0,0,0.0,12.3,0.0,0,0,0,0.125,12.35,0.0,0,0,0,kReverse,kReverse,-87.05,2.09,2.35,0.09210205,-1.0444336,0.08459473,33.7,0.0,59.0,-8.123077,11.966064,
1821.5703029999997,true,true,true,0.125,12.3,0.0,0,0,0,0.125,12.3,0.0,0,0,0,0.125,12.3,0.0,0,0,0,0.125,12.35,0.0,0,0,0,0.125,12.35,0.0,0,0,0,0.0,12.3,0.0,0,0,0,0.125,12.35,0.0,0,0,0,kReverse,kReverse,-87.04,2.11,2.36,0.071777344,-1.0068359,0.06933594,33.7,0.0,38.0,-8.122925,11.960403,
1821.5922859999998,true,true,true,0.125,12.3,0.0,0,0,0,0.125,12.3,0.0,0,0,0,0.125,12.3,0.0,0,0,0,0.125,12.35,0.0,0,0,0,0.125,12.35,0.0,0,0,0,0.0,12.3,0.0,0,0,0,0.125,12.35,0.0,0,0,0,kReverse,kReverse,-87.04,2.12,2.37,0.06213379,-0.8970337,-0.021972656,33.7,0.0,22.0,-8.122467,11.94899,
1821.616994,true,true,true,0.125,12.3,0.0,0,0,0,0.125,12.3,0.0,0,0,0,0.125,12.3,0.0,0,0,0,0.125,12.35,0.0,0,0,0,0.125,12.3,0.0,0,0,0,0.0,12.3,0.0,0,0,0,0.125,12.35,0.0,0,0,0,kReverse,kReverse,-87.05,2.12,2.38,0.05078125,-0.7620239,-0.07318115,33.7,0.0,9.0,-8.122192,11.937134,
1821.6424909999998,true,true,true,0.125,12.3,0.0,0,0,0,0.125,12.3,0.0,0,0,0,0.125,12.3,0.0,0,0,0,0.125,12.35,0.0,0,0,0,0.125,12.3,0.0,0,0,0,0.0,12.3,0.0,0,0,0,0.125,12.35,0.0,0,0,0,kReverse,kReverse,-87.04,2.12,2.38,0.025146484,-0.73864746,-0.12512207,33.7,0.0,-20.0,-8.122208,11.930954,
1821.659774,true,true,true,0.125,12.3,0.0,0,0,0,0.125,12.3,0.0,0,0,0,0.125,12.3,0.0,0,0,0,0.125,12.35,0.0,0,0,0,0.125,12.3,0.0,0,0,0,0.0,12.3,0.0,0,0,0,0.125,12.35,0.0,0,0,0,kReverse,kReverse,-87.04,2.12,2.38,0.025146484,-0.73864746,-0.118652344,33.7,0.0,-5.0,-8.122238,11.924591,
1821.688201,true,true,true,0.125,12.3,0.0,0,0,0,0.125,12.3,0.0,0,0,0,0.125,12.3,0.0,0,0,0,0.125,12.35,0.0,0,0,0,0.125,12.3,0.0,0,0,0,0.0,12.3,0.0,0,0,0,0.125,12.35,0.0,0,0,0,kReverse,kReverse,-87.02,2.11,2.37,0.025878906,-0.7861328,-0.17895508,33.7,0.0,-28.0,-8.122284,11.917969,
1821.7110579999999,true,true,true,0.125,12.3,0.0,0,0,0,0.125,12.3,0.0,0,0,0,0.125,12.3,0.0,0,0,0,0.125,12.35,0.0,0,0,0,0.125,12.3,0.0,0,0,0,0.0,12.3,0.0,0,0,0,0.125,12.35,0.0,0,0,0,kReverse,kReverse,-87.02,2.1,2.36,-0.0033569336,-0.85369873,-0.23010254,33.7,0.0,-66.0,-8.122528,11.903946,
1821.7306019999999,true,true,true,0.125,12.3,0.0,0,0,0,0.125,12.3,0.0,0,0,0,0.125,12.3,0.0,0,0,0,0.125,12.35,0.0,0,0,0,0.125,12.3,0.0,0,0,0,0.0,12.3,0.0,0,0,0,0.125,12.35,0.0,0,0,0,kReverse,kReverse,-87.02,2.12,2.38,-0.027832031,-0.84088135,-0.20373535,33.7,0.0,-87.0,-8.122787,11.896469,
1821.7509679999998,true,true,true,0.125,12.3,0.0,0,0,0,0.125,12.3,0.0,0,0,0,0.125,12.3,0.0,0,0,0,0.125,12.35,0.0,0,0,0,0.125,12.3,0.0,0,0,0,0.0,12.3,0.0,0,0,0,0.125,12.35,0.0,0,0,0,kReverse,kReverse,-87.01,2.15,2.4,-0.06536865,-0.81573486,-0.20159912,33.7,0.0,-123.0,-8.123703,11.880478,
1821.771378,true,true,true,0.125,12.3,0.0,0,0,0,0.125,12.3,0.0,0,0,0,0.125,12.3,0.0,0,0,0,0.125,12.35,0.0,0,0,0,0.125,12.3,0.0,0,0,0,0.0,12.3,0.0,0,0,0,0.125,12.35,0.0,0,0,0,kReverse,kReverse,-87.02,2.15,2.4,-0.033081055,-0.85858154,-0.20318604,33.7,0.0,-93.0,-8.124374,11.872025,
1821.7936479999998,true,true,true,0.125,12.3,0.0,0,0,0,0.125,12.3,0.0,0,0,0,0.125,12.3,0.0,0,0,0,0.125,12.35,0.0,0,0,0,0.125,12.3,0.0,0,0,0,0.0,12.3,0.0,0,0,0,0.125,12.35,0.0,0,0,0,kReverse,kReverse,-87.03,2.15,2.4,-0.034851074,-0.83062744,-0.12426758,33.7,0.0,-84.0,-8.125183,11.863312,
1821.816386,true,true,true,0.125,12.3,0.0,0,0,0,0.125,12.3,0.0,0,0,0,0.125,12.3,0.0,0,0,0,0.125,12.35,0.0,0,0,0,0.125,12.3,0.0,0,0,0,0.0,12.3,0.0,0,0,0,0.125,12.35,0.0,0,0,0,kReverse,kReverse,-87.05,2.13,2.38,0.026367188,-0.9694824,-0.032348633,33.7,0.0,-17.0,-8.127029,11.845428,
1821.8384199999998,true,true,true,0.125,12.3,0.0,0,0,0,0.125,12.3,0.0,0,0,0,0.125,12.3,0.0,0,0,0,0.125,12.35,0.0,0,0,0,0.125,12.3,0.0,0,0,0,0.0,12.3,0.0,0,0,0,0.125,12.35,0.0,0,0,0,kReverse,kReverse,-87.05,2.12,2.37,0.012878418,-1.0140381,0.024475098,33.7,0.0,-25.0,-8.128006,11.836365,
1821.861034,true,true,true,0.125,12.3,0.0,0,0,0,0.125,12.3,0.0,0,0,0,0.125,12.3,0.0,0,0,0,0.125,12.35,0.0,0,0,0,0.125,12.3,0.0,0,0,0,0.0,12.3,0.0,0,0,0,0.125,12.35,0.0,0,0,0,kReverse,kReverse,-87.06,2.1,2.36,0.049316406,-1.1305542,0.124816895,33.7,0.0,17.0,-8.129913,11.836441,
1821.880253,true,true,true,0.125,12.3,0.0,0,0,0,0.125,12.3,0.0,0,0,0,0.125,12.3,0.0,0,0,0,0.125,12.35,0.0,0,0,0,0.125,12.3,0.0,0,0,0,0.0,12.3,0.0,0,0,0,0.125,12.35,0.0,0,0,0,kReverse,kReverse,-87.06,2.11,2.36,0.09539795,-1.166687,0.23687744,33.68,0.0,75.0,-8.131531,11.837067,
1821.9155779999999,true,true,true,0.125,12.3,0.0,0,0,0,0.125,12.3,0.0,0,0,0,0.125,12.3,0.0,0,0,0,0.125,12.35,0.0,0,0,0,0.125,12.3,0.0,0,0,0,0.0,12.3,0.0,0,0,0,0.125,12.35,0.0,0,0,0,kReverse,kReverse,-87.07,2.12,2.37,0.107788086,-1.1893921,0.2883911,33.68,0.0,93.0,-8.132614,11.83873,
1821.9464229999999,true,true,true,0.125,12.3,0.0,0,0,0,0.125,12.3,0.0,0,0,0,0.125,12.25,0.0,0,0,0,0.125,12.3,0.0,0,0,0,0.125,12.3,0.0,0,0,0,0.0,12.3,0.0,0,0,0,0.125,12.35,0.0,0,0,0,kReverse,kReverse,-87.09,2.12,2.37,0.09942627,-1.1752319,0.27062988,33.68,0.0,83.0,-8.13298,11.840012,
1821.968003,true,true,true,0.125,12.3,0.0,0,0,0,0.125,12.3,0.0,0,0,0,0.125,12.25,0.0,0,0,0,0.125,12.3,0.0,0,0,0,0.125,12.3,0.0,0,0,0,0.0,12.3,0.0,0,0,0,0.125,12.35,0.0,0,0,0,kReverse,kReverse,-87.09,2.12,2.36,0.015136719,-1.1044312,0.2949829,33.68,0.0,5.0,-8.133469,11.843613,
1821.9874519999998,true,true,true,0.125,12.3,0.0,0,0,0,0.125,12.3,0.0,0,0,0,0.125,12.25,0.0,0,0,0,0.125,12.3,0.0,0,0,0,0.0,12.3,0.0,0,0,0,0.0,12.3,0.0,0,0,0,0.125,12.35,0.0,0,0,0,kReverse,kReverse,-87.09,2.1,2.35,0.0034179688,-1.100708,0.23602295,33.68,0.0,-12.0,-8.133469,11.848511,
1822.010091,true,true,true,0.125,12.3,0.0,0,0,0,0.125,12.3,0.0,0,0,0,0.125,12.25,0.0,0,0,0,0.125,12.3,0.0,0,0,0,0.0,12.3,0.0,0,0,0,0.0,12.3,0.0,0,0,0,0.125,12.35,0.0,0,0,0,kReverse,kReverse,-87.08,2.1,2.35,0.012939453,-1.1281128,0.19909668,33.68,0.0,-8.0,-8.133469,11.851349,
1822.0336029999999,true,true,true,0.125,12.3,0.0,0,0,0,0.125,12.3,0.0,0,0,0,0.125,12.25,0.0,0,0,0,0.125,12.3,0.0,0,0,0,0.0,12.3,0.0,0,0,0,0.0,12.3,0.0,0,0,0,0.125,12.35,0.0,0,0,0,kReverse,kReverse,-87.09,2.11,2.35,0.059387207,-1.0437012,0.10491943,33.68,0.0,29.0,-8.133377,11.857483,
1822.0596269999999,true,true,true,0.125,12.3,0.0,0,0,0,0.125,12.3,0.0,0,0,0,0.125,12.25,0.0,0,0,0,0.125,12.3,0.0,0,0,0,0.125,12.3,0.0,0,0,0,0.0,12.3,0.0,0,0,0,0.125,12.35,0.0,0,0,0,kReverse,kReverse,-87.09,2.11,2.36,0.07513428,-0.92419434,0.0022583008,33.68,0.0,36.0,-8.13327,11.860626,
1822.0817319999999,true,true,true,0.125,12.3,0.0,0,0,0,0.125,12.3,0.0,0,0,0,0.125,12.25,0.0,0,0,0,0.125,12.3,0.0,0,0,0,0.125,12.3,0.0,0,0,0,0.0,12.3,0.0,0,0,0,0.125,12.35,0.0,0,0,0,kReverse,kReverse,-87.07,2.13,2.37,0.045043945,-0.74591064,-0.09326172,33.68,0.0,2.0,-8.132935,11.8667145,
1822.107883,true,true,true,0.125,12.25,0.0,0,0,0,0.125,12.3,0.0,0,0,0,0.125,12.25,0.0,0,0,0,0.125,12.3,0.0,0,0,0,0.125,12.3,0.0,0,0,0,0.0,12.25,0.0,0,0,0,0.125,12.35,0.0,0,0,0,kReverse,kReverse,-87.06,2.13,2.38,0.028930664,-0.72161865,-0.13500977,33.68,0.0,-17.0,-8.132935,11.872177,
1822.131383,true,true,true,0.125,12.25,0.0,0,0,0,0.125,12.3,0.0,0,0,0,0.125,12.25,0.0,0,0,0,0.125,12.3,0.0,0,0,0,0.125,12.3,0.0,0,0,0,0.0,12.25,0.0,0,0,0,0.125,12.35,0.0,0,0,0,kReverse,kReverse,-87.06,2.12,2.37,0.03503418,-0.7492676,-0.14520264,33.68,0.0,-13.0,-8.132935,11.874588,
1822.152359,true,true,true,0.125,12.25,0.0,0,0,0,0.125,12.3,0.0,0,0,0,0.125,12.25,0.0,0,0,0,0.125,12.3,0.0,0,0,0,0.125,12.3,0.0,0,0,0,0.0,12.25,0.0,0,0,0,0.125,12.35,0.0,0,0,0,kReverse,kReverse,-87.04,2.12,2.38,0.003967285,-0.8204346,-0.18798828,33.68,0.0,-52.0,-8.133041,11.878555,
1822.176321,true,true,true,0.125,12.25,0.0,0,0,0,0.125,12.3,0.0,0,0,0,0.125,12.25,0.0,0,0,0,0.125,12.3,0.0,0,0,0,0.125,12.3,0.0,0,0,0,0.0,12.25,0.0,0,0,0,0.125,12.35,0.0,0,0,0,kReverse,kReverse,-87.03,2.13,2.38,8.544922E-4,-0.857666,-0.2454834,33.68,0.0,-64.0,-8.133209,11.880066,
1822.200366,true,true,true,0.125,12.25,0.0,0,0,0,0.125,12.3,0.0,0,0,0,0.125,12.25,0.0,0,0,0,0.125,12.3,0.0,0,0,0,0.0,12.3,0.0,0,0,0,0.0,12.25,0.0,0,0,0,0.125,12.35,0.0,0,0,0,kReverse,kReverse,-87.01,2.15,2.41,-0.034729004,-0.83587646,-0.21685791,33.68,0.0,-95.0,-8.133896,11.88208,
1822.224852,true,true,true,0.125,12.25,0.0,0,0,0,0.125,12.3,0.0,0,0,0,0.125,12.25,0.0,0,0,0,0.125,12.3,0.0,0,0,0,0.0,12.3,0.0,0,0,0,0.0,12.25,0.0,0,0,0,0.125,12.35,0.0,0,0,0,kReverse,kReverse,-87.02,2.16,2.41,-0.042175293,-0.8222656,-0.14556885,33.68,0.0,-94.0,-8.134445,11.882645,
1822.248369,true,true,true,0.125,12.25,0.0,0,0,0,0.125,12.25,0.0,0,0,0,0.125,12.25,0.0,0,0,0,0.125,12.3,0.0,0,0,0,0.0,12.3,0.0,0,0,0,0.0,12.25,0.0,0,0,0,0.125,12.35,0.0,0,0,0,kReverse,kReverse,-87.04,2.14,2.39,0.027160645,-0.9503174,-0.039611816,33.68,0.0,-17.0,-8.135788,11.88324,
1822.270926,true,true,true,0.125,12.25,0.0,0,0,0,0.125,12.25,0.0,0,0,0,0.125,12.25,0.0,0,0,0,0.125,12.3,0.0,0,0,0,0.125,12.3,0.0,0,0,0,0.0,12.25,0.0,0,0,0,0.125,12.35,0.0,0,0,0,kReverse,kReverse,-87.06,2.11,2.37,0.09710693,-1.1401367,0.078552246,33.68,0.0,59.0,-8.137222,11.883591,
1822.2915130000001,true,true,true,0.125,12.25,0.0,0,0,0,0.125,12.25,0.0,0,0,0,0.125,12.25,0.0,0,0,0,0.125,12.3,0.0,0,0,0,0.125,12.3,0.0,0,0,0,0.0,12.25,0.0,0,0,0,0.125,12.35,0.0,0,0,0,kReverse,kReverse,-87.05,2.12,2.38,0.052124023,-1.1253662,0.15014648,33.68,0.0,23.0,-8.137863,11.883881,
1822.3120589999999,true,true,true,0.125,12.25,0.0,0,0,0,0.125,12.25,0.0,0,0,0,0.125,12.25,0.0,0,0,0,0.125,12.3,0.0,0,0,0,0.125,12.3,0.0,0,0,0,0.0,12.25,0.0,0,0,0,0.125,12.35,0.0,0,0,0,kReverse,kReverse,-87.06,2.13,2.37,0.14135742,-1.2404175,0.20397949,33.68,0.0,113.0,-8.138412,11.884338,
1822.339422,true,true,true,0.125,12.25,0.0,0,0,0,0.125,12.25,0.0,0,0,0,0.125,12.25,0.0,0,0,0,0.125,12.3,0.0,0,0,0,0.125,12.3,0.0,0,0,0,0.0,12.25,0.0,0,0,0,0.125,12.35,0.0,0,0,0,kReverse,kReverse,-87.06,2.14,2.39,0.13995361,-1.2294312,0.28851318,33.68,0.0,123.0,-8.139114,11.886017,
1822.3639879999998,true,true,true,0.125,12.25,0.0,0,0,0,0.125,12.25,0.0,0,0,0,0.125,12.25,0.0,0,0,0,0.125,12.3,0.0,0,0,0,0.125,12.3,0.0,0,0,0,0.0,12.25,0.0,0,0,0,0.125,12.35,0.0,0,0,0,kReverse,kReverse,-87.08,2.14,2.39,0.043395996,-1.125,0.28198242,33.68,0.0,30.0,-8.139343,11.888931,
1822.3873959999999,true,true,true,0.125,12.25,0.0,0,0,0,0.125,12.25,0.0,0,0,0,0.125,12.25,0.0,0,0,0,0.125,12.3,0.0,0,0,0,0.125,12.3,0.0,0,0,0,0.0,12.25,0.0,0,0,0,0.125,12.35,0.0,0,0,0,kReverse,kReverse,-87.08,2.14,2.38,0.0021362305,-1.1817017,0.28851318,33.68,0.0,-11.0,-8.139404,11.890884,
1822.408829,true,true,true,0.125,12.25,0.0,0,0,0,0.125,12.25,0.0,0,0,0,0.125,12.25,0.0,0,0,0,0.125,12.3,0.0,0,0,0,0.125,12.3,0.0,0,0,0,0.0,12.25,0.0,0,0,0,0.125,12.35,0.0,0,0,0,kReverse,kReverse,-87.08,2.12,2.37,-6.1035156E-4,-1.1624756,0.22741699,33.67,0.0,-20.0,-8.139618,11.895706,
1822.430674,true,true,true,0.125,12.25,0.0,0,0,0,0.125,12.25,0.0,0,0,0,0.125,12.25,0.0,0,0,0,0.125,12.3,0.0,0,0,0,0.125,12.25,0.0,0,0,0,0.0,12.25,0.0,0,0,0,0.125,12.35,0.0,0,0,0,kReverse,kReverse,-87.08,2.12,2.36,0.05126953,-1.0935059,0.15289307,33.67,0.0,24.0,-8.13974,11.898453,
1822.452654,true,true,true,0.125,12.25,0.0,0,0,0,0.125,12.25,0.0,0,0,0,0.125,12.25,0.0,0,0,0,0.125,12.3,0.0,0,0,0,0.125,12.25,0.0,0,0,0,0.0,12.25,0.0,0,0,0,0.125,12.35,0.0,0,0,0,kReverse,kReverse,-87.08,2.13,2.37,0.07476807,-0.92718506,0.019104004,33.67,0.0,38.0,-8.139877,11.904297,
1822.476945,true,true,true,0.125,12.25,0.0,0,0,0,0.125,12.25,0.0,0,0,0,0.125,12.25,0.0,0,0,0,0.125,12.3,0.0,0,0,0,0.125,12.25,0.0,0,0,0,0.0,12.25,0.0,0,0,0,0.125,12.35,0.0,0,0,0,kReverse,kReverse,-87.07,2.14,2.38,0.06213379,-0.8708496,0.0033569336,33.67,0.0,26.0,-8.139893,11.907211,
1822.5007449999998,true,true,true,0.125,12.25,0.0,0,0,0,0.125,12.25,0.0,0,0,0,0.125,12.25,0.0,0,0,0,0.125,12.3,0.0,0,0,0,0.125,12.25,0.0,0,0,0,0.0,12.25,0.0,0,0,0,0.125,12.35,0.0,0,0,0,kReverse,kReverse,-87.06,2.14,2.39,0.035217285,-0.7333374,-0.10205078,33.67,0.0,-7.0,-8.139877,11.912674,
1822.527301,true,true,true,0.125,12.25,0.0,0,0,0,0.125,12.25,0.0,0,0,0,0.125,12.25,0.0,0,0,0,0.125,12.3,0.0,0,0,0,0.125,12.25,0.0,0,0,0,0.0,12.25,0.0,0,0,0,0.125,12.35,0.0,0,0,0,kReverse,kReverse,-87.06,2.13,2.38,0.028503418,-0.7336426,-0.16845703,33.67,0.0,-15.0,-8.139938,11.917297,
1822.54748,true,true,true,0.125,12.25,0.0,0,0,0,0.125,12.25,0.0,0,0,0,0.125,12.25,0.0,0,0,0,0.125,12.3,0.0,0,0,0,0.125,12.25,0.0,0,0,0,0.0,12.25,0.0,0,0,0,0.125,12.35,0.0,0,0,0,kReverse,kReverse,-87.05,2.12,2.37,0.029052734,-0.8387451,-0.23065186,33.67,0.0,-33.0,-8.140015,11.919174,
1822.570673,true,true,true,0.125,12.25,0.0,0,0,0,0.125,12.25,0.0,0,0,0,0.125,12.25,0.0,0,0,0,0.125,12.3,0.0,0,0,0,0.125,12.25,0.0,0,0,0,0.0,12.25,0.0,0,0,0,0.125,12.35,0.0,0,0,0,kReverse,kReverse,-87.03,2.14,2.4,-0.027160645,-0.83935547,-0.25982666,33.67,0.0,-93.0,-8.140427,11.92189,
1822.5919179999999,true,true,true,0.125,12.25,0.0,0,0,0,0.125,12.25,0.0,0,0,0,0.125,12.25,0.0,0,0,0,0.125,12.3,0.0,0,0,0,0.125,12.25,0.0,0,0,0,0.0,12.25,0.0,0,0,0,0.125,12.35,0.0,0,0,0,kReverse,kReverse,-87.03,2.16,2.41,-0.052124023,-0.8088379,-0.19195557,33.67,0.0,-108.0,-8.140823,11.922745,
1822.615218,true,true,true,0.125,12.25,0.0,0,0,0,0.125,12.25,0.0,0,0,0,0.125,12.25,0.0,0,0,0,0.125,12.3,0.0,0,0,0,0.125,12.25,0.0,0,0,0,0.0,12.25,0.0,0,0,0,0.125,12.35,0.0,0,0,0,kReverse,kReverse,-87.05,2.15,2.39,8.544922E-4,-0.88378906,-0.08001709,33.67,0.0,-45.0,-8.141968,11.923706,
1822.637423,true,true,true,0.125,12.25,0.0,0,0,0,0.125,12.25,0.0,0,0,0,0.125,12.25,0.0,0,0,0,0.125,12.3,0.0,0,0,0,0.125,12.25,0.0,0,0,0,0.0,12.25,0.0,0,0,0,0.125,12.35,0.0,0,0,0,kReverse,kReverse,-87.05,2.14,2.39,0.02532959,-0.9885254,-0.0056762695,33.67,0.0,-16.0,-8.142624,11.923996,
1822.660562,true,true,true,0.125,12.25,0.0,0,0,0,0.125,12.25,0.0,0,0,0,0.125,12.25,0.0,0,0,0,0.125,12.3,0.0,0,0,0,0.125,12.25,0.0,0,0,0,0.0,12.25,0.0,0,0,0,0.125,12.35,0.0,0,0,0,kReverse,kReverse,-87.06,2.12,2.37,0.051818848,-1.097168,0.117248535,33.67,0.0,20.0,-8.14386,11.924576,
1822.685858,true,true,true,0.125,12.25,0.0,0,0,0,0.125,12.25,0.0,0,0,0,0.125,12.25,0.0,0,0,0,0.125,12.3,0.0,0,0,0,0.125,12.25,0.0,0,0,0,0.0,12.25,0.0,0,0,0,0.125,12.35,0.0,0,0,0,kReverse,kReverse,-87.06,2.14,2.38,0.09136963,-1.1449585,0.23602295,33.67,0.0,71.0,-8.144745,11.925751,
1822.71138,true,true,true,0.125,12.25,0.0,0,0,0,0.125,12.25,0.0,0,0,0,0.125,12.25,0.0,0,0,0,0.125,12.3,0.0,0,0,0,0.125,12.25,0.0,0,0,0,0.0,12.25,0.0,0,0,0,0.125,12.35,0.0,0,0,0,kReverse,kReverse,-87.08,2.14,2.38,0.14245605,-1.22229,0.28125,33.67,0.0,124.0,-8.144989,11.926712,
1822.735475,true,true,true,0.125,12.25,0.0,0,0,0,0.125,12.25,0.0,0,0,0,0.125,12.25,0.0,0,0,0,0.125,12.25,0.0,0,0,0,0.125,12.25,0.0,0,0,0,0.0,12.25,0.0,0,0,0,0.125,12.35,0.0,0,0,0,kReverse,kReverse,-87.09,2.14,2.38,0.039123535,-1.1273804,0.2732544,33.67,0.0,25.0,-8.145157,11.929565,
1822.757464,true,true,true,0.125,12.25,0.0,0,0,0,0.125,12.25,0.0,0,0,0,0.125,12.25,0.0,0,0,0,0.125,12.25,0.0,0,0,0,0.125,12.25,0.0,0,0,0,0.0,12.25,0.0,0,0,0,0.125,12.35,0.0,0,0,0,kReverse,kReverse,-87.09,2.13,2.38,-0.002746582,-1.1964722,0.26934814,33.67,0.0,-19.0,-8.145218,11.9314575,
1822.7791969999998,true,true,true,0.125,12.25,0.0,0,0,0,0.125,12.25,0.0,0,0,0,0.125,12.25,0.0,0,0,0,0.125,12.25,0.0,0,0,0,0.125,12.25,0.0,0,0,0,0.0,12.25,0.0,0,0,0,0.125,12.35,0.0,0,0,0,kReverse,kReverse,-87.1,2.11,2.36,-0.0018920898,-1.1643066,0.2111206,33.67,0.0,-23.0,-8.1454315,11.936127,
1822.8014789999997,true,true,true,0.125,12.25,0.0,0,0,0,0.125,12.25,0.0,0,0,0,0.125,12.25,0.0,0,0,0,0.125,12.25,0.0,0,0,0,0.125,12.25,0.0,0,0,0,0.0,12.25,0.0,0,0,0,0.125,12.35,0.0,0,0,0,kReverse,kReverse,-87.11,2.1,2.35,0.05078125,-1.0803223,0.1484375,33.67,0.0,24.0,-8.145554,11.938782,
1822.8259839999998,true,true,true,0.125,12.25,0.0,0,0,0,0.125,12.25,0.0,0,0,0,0.125,12.25,0.0,0,0,0,0.125,12.25,0.0,0,0,0,0.125,12.25,0.0,0,0,0,0.0,12.25,0.0,0,0,0,0.125,12.35,0.0,0,0,0,kReverse,kReverse,-87.09,2.12,2.37,0.06341553,-0.8769531,-0.018981934,33.67,0.0,24.0,-8.145706,11.944382,
1822.848832,true,true,true,0.125,12.25,0.0,0,0,0,0.125,12.25,0.0,0,0,0,0.125,12.25,0.0,0,0,0,0.125,12.25,0.0,0,0,0,0.125,12.25,0.0,0,0,0,0.0,12.25,0.0,0,0,0,0.125,12.35,0.0,0,0,0,kReverse,kReverse,-87.09,2.13,2.37,0.04840088,-0.8175049,-0.023254395,33.67,0.0,11.0,-8.145721,11.947113,
1822.870655,true,true,true,0.125,12.25,0.0,0,0,0,0.125,12.25,0.0,0,0,0,0.125,12.25,0.0,0,0,0,0.125,12.25,0.0,0,0,0,0.0,12.25,0.0,0,0,0,0.0,12.25,0.0,0,0,0,0.125,12.35,0.0,0,0,0,kReverse,kReverse,-87.08,2.13,2.37,0.038330078,-0.7341919,-0.12176514,33.67,0.0,-7.0,-8.145813,11.952118,
1822.895881,true,true,true,0.125,12.25,0.0,0,0,0,0.125,12.25,0.0,0,0,0,0.125,12.25,0.0,0,0,0,0.125,12.25,0.0,0,0,0,0.0,12.25,0.0,0,0,0,0.0,12.25,0.0,0,0,0,0.125,12.3,0.0,0,0,0,kReverse,kReverse,-87.08,2.12,2.36,0.031982422,-0.7854004,-0.17755127,33.67,0.0,-22.0,-8.145889,11.954285,
1822.91935,true,true,true,0.125,12.25,0.0,0,0,0,0.125,12.25,0.0,0,0,0,0.125,12.25,0.0,0,0,0,0.125,12.25,0.0,0,0,0,0.0,12.25,0.0,0,0,0,0.0,12.25,0.0,0,0,0,0.125,12.3,0.0,0,0,0,kReverse,kReverse,-87.07,2.12,2.36,0.025939941,-0.81866455,-0.19659424,33.67,0.0,-31.0,-8.146011,11.9561615,
1822.939013,true,true,true,0.125,12.25,0.0,0,0,0,0.125,12.25,0.0,0,0,0,0.125,12.25,0.0,0,0,0,0.125,12.25,0.0,0,0,0,0.125,12.25,0.0,0,0,0,0.0,12.25,0.0,0,0,0,0.125,12.3,0.0,0,0,0,kReverse,kReverse,-87.06,2.11,2.37,0.018127441,-0.8574829,-0.24255371,33.67,0.0,-46.0,-8.146179,11.957703,
1822.961014,true,true,true,0.125,12.25,0.0,0,0,0,0.125,12.25,0.0,0,0,0,0.125,12.25,0.0,0,0,0,0.125,12.25,0.0,0,0,0,0.125,12.25,0.0,0,0,0,0.0,12.25,0.0,0,0,0,0.125,12.3,0.0,0,0,0,kReverse,kReverse,-87.04,2.14,2.4,-0.024841309,-0.8372803,-0.21392822,33.67,0.0,-85.0,-8.146835,11.959763,
1822.9916749999998,true,true,true,0.125,12.25,0.0,0,0,0,0.125,12.25,0.0,0,0,0,0.125,12.25,0.0,0,0,0,0.125,12.25,0.0,0,0,0,0.125,12.25,0.0,0,0,0,0.0,12.25,0.0,0,0,0,0.125,12.3,0.0,0,0,0,kReverse,kReverse,-87.07,2.12,2.37,0.062316895,-1.0046997,0.009094238,33.67,0.0,21.0,-8.148529,11.961136,
1823.021184,true,true,true,0.125,12.25,0.0,0,0,0,0.125,12.25,0.0,0,0,0,0.125,12.25,0.0,0,0,0,0.125,12.25,0.0,0,0,0,0.125,12.25,0.0,0,0,0,0.0,12.25,0.0,0,0,0,0.125,12.3,0.0,0,0,0,kReverse,kReverse,-87.07,2.12,2.36,0.05279541,-1.076477,0.07397461,33.67,0.0,17.0,-8.149094,11.961487,
1823.0461799999998,true,true,true,0.125,12.25,0.0,0,0,0,0.125,12.25,0.0,0,0,0,0.125,12.25,0.0,0,0,0,0.125,12.25,0.0,0,0,0,0.0,12.25,0.0,0,0,0,0.0,12.25,0.0,0,0,0,0.125,12.3,0.0,0,0,0,kReverse,kReverse,-87.08,2.12,2.37,0.078430176,-1.1256714,0.1963501,33.67,0.0,55.0,-8.149979,11.962509,
1823.0710869999998,true,true,true,0.125,12.25,0.0,0,0,0,0.125,12.25,0.0,0,0,0,0.125,12.25,0.0,0,0,0,0.125,12.25,0.0,0,0,0,0.0,12.25,0.0,0,0,0,0.0,12.25,0.0,0,0,0,0.125,12.3,0.0,0,0,0,kReverse,kReverse,-87.09,2.14,2.38,0.09051514,-1.1755371,0.26135254,33.67,0.0,73.0,-8.150391,11.964462,
1823.091406,true,true,true,0.125,12.25,0.0,0,0,0,0.125,12.25,0.0,0,0,0,0.125,12.25,0.0,0,0,0,0.125,12.25,0.0,0,0,0,0.125,12.25,0.0,0,0,0,0.0,12.25,0.0,0,0,0,0.125,12.3,0.0,0,0,0,kReverse,kReverse,-87.1,2.14,2.38,0.053894043,-1.1409302,0.28649902,33.67,0.0,41.0,-8.150467,11.965897,
1823.1224679999998,true,true,true,0.125,12.25,0.0,0,0,0,0.125,12.25,0.0,0,0,0,0.125,12.25,0.0,0,0,0,0.125,12.25,0.0,0,0,0,0.0,12.25,0.0,0,0,0,0.0,12.25,0.0,0,0,0,0.125,12.3,0.0,0,0,0,kReverse,kReverse,-87.11,2.13,2.37,-0.02947998,-1.0999756,0.24816895,33.67,0.0,-44.0,-8.1506195,11.969711,
1823.1406309999998,true,true,true,0.125,12.25,0.0,0,0,0,0.125,12.25,0.0,0,0,0,0.125,12.25,0.0,0,0,0,0.125,12.25,0.0,0,0,0,0.0,12.25,0.0,0,0,0,0.0,12.25,0.0,0,0,0,0.125,12.3,0.0,0,0,0,kReverse,kReverse,-87.11,2.13,2.37,-0.008056641,-1.1790161,0.24041748,33.67,0.0,-27.0,-8.150757,11.972076,
1823.161145,true,true,true,0.125,12.25,0.0,0,0,0,0.125,12.25,0.0,0,0,0,0.125,12.25,0.0,0,0,0,0.125,12.25,0.0,0,0,0,0.0,12.25,0.0,0,0,0,0.0,12.25,0.0,0,0,0,0.125,12.3,0.0,0,0,0,kReverse,kReverse,-87.11,2.13,2.37,0.061462402,-1.0499268,0.1307373,33.67,0.0,33.0,-8.1510315,11.977341,
1823.1839129999998,true,true,true,0.125,12.25,0.0,0,0,0,0.125,12.25,0.0,0,0,0,0.125,12.25,0.0,0,0,0,0.125,12.25,0.0,0,0,0,0.125,12.25,0.0,0,0,0,0.0,12.25,0.0,0,0,0,0.125,12.3,0.0,0,0,0,kReverse,kReverse,-87.1,2.13,2.37,0.064941406,-0.87872314,-0.023498535,33.67,0.0,25.0,-8.151108,11.980072,
1823.204501,true,true,true,0.125,12.25,0.0,0,0,0,0.125,12.25,0.0,0,0,0,0.125,12.25,0.0,0,0,0,0.125,12.25,0.0,0,0,0,0.125,12.25,0.0,0,0,0,0.0,12.25,0.0,0,0,0,0.125,12.3,0.0,0,0,0,kReverse,kReverse,-87.08,2.15,2.39,0.019897461,-0.70635986,-0.10827637,33.67,0.0,-22.0,-8.151215,11.985245,
1823.226987,true,true,true,0.125,12.25,0.0,0,0,0,0.125,12.25,0.0,0,0,0,0.125,12.25,0.0,0,0,0,0.125,12.25,0.0,0,0,0,0.0,12.25,0.0,0,0,0,0.0,12.25,0.0,0,0,0,0.125,12.3,0.0,0,0,0,kReverse,kReverse,-87.09,2.13,2.38,0.034240723,-0.74645996,-0.122802734,33.67,0.0,-11.0,-8.151291,11.987579,
1823.2490759999998,true,true,true,0.125,12.25,0.0,0,0,0,0.125,12.25,0.0,0,0,0,0.125,12.25,0.0,0,0,0,0.125,12.25,0.0,0,0,0,0.0,12.25,0.0,0,0,0,0.0,12.25,0.0,0,0,0,0.125,12.3,0.0,0,0,0,kReverse,kReverse,-87.07,2.13,2.37,0.01953125,-0.82458496,-0.20336914,33.67,0.0,-39.0,-8.151535,11.99147,
1823.269431,true,true,true,0.125,12.25,0.0,0,0,0,0.125,12.25,0.0,0,0,0,0.125,12.25,0.0,0,0,0,0.125,12.25,0.0,0,0,0,0.125,12.25,0.0,0,0,0,0.0,12.25,0.0,0,0,0,0.125,12.3,0.0,0,0,0,kReverse,kReverse,-87.06,2.13,2.38,0.019897461,-0.864563,-0.23937988,33.67,0.0,-45.0,-8.151733,11.992935,
1823.2905999999998,true,true,true,0.125,12.25,0.0,0,0,0,0.125,12.25,0.0,0,0,0,0.125,12.25,0.0,0,0,0,0.125,12.25,0.0,0,0,0,0.125,12.25,0.0,0,0,0,0.0,12.25,0.0,0,0,0,0.125,12.3,0.0,0,0,0,kReverse,kReverse,-87.05,2.15,2.39,-0.020202637,-0.83587646,-0.1942749,33.67,0.0,-78.0,-8.152451,11.994843,
1823.314628,true,true,true,0.125,12.25,0.0,0,0,0,0.125,12.25,0.0,0,0,0,0.125,12.25,0.0,0,0,0,0.125,12.25,0.0,0,0,0,0.125,12.25,0.0,0,0,0,0.0,12.25,0.0,0,0,0,0.125,12.3,0.0,0,0,0,kReverse,kReverse,-87.07,2.14,2.39,-0.014343262,-0.8434448,-0.09918213,33.67,0.0,-61.0,-8.152969,11.995407,
1823.340568,true,true,true,0.125,12.25,0.0,0,0,0,0.125,12.25,0.0,0,0,0,0.125,12.25,0.0,0,0,0,0.125,12.25,0.0,0,0,0,0.125,12.25,0.0,0,0,0,0.0,12.25,0.0,0,0,0,0.125,12.3,0.0,0,0,0,kReverse,kReverse,-87.09,2.11,2.35,0.083496094,-1.0526123,0.026367188,33.67,0.0,43.0,-8.154114,11.996216,
1823.3631309999998,true,true,true,0.125,12.25,0.0,0,0,0,0.125,12.25,0.0,0,0,0,0.125,12.25,0.0,0,0,0,0.125,12.25,0.0,0,0,0,0.125,12.25,0.0,0,0,0,0.0,12.25,0.0,0,0,0,0.125,12.3,0.0,0,0,0,kReverse,kReverse,-87.09,2.11,2.35,0.042541504,-1.0865479,0.08477783,33.67,0.0,8.0,-8.154633,11.996613,
1823.3865959999998,true,true,true,0.125,12.25,0.0,0,0,0,0.125,12.25,0.0,0,0,0,0.125,12.25,0.0,0,0,0,0.125,12.25,0.0,0,0,0,0.125,12.25,0.0,0,0,0,0.0,12.25,0.0,0,0,0,0.125,12.3,0.0,0,0,0,kReverse,kReverse,-87.09,2.12,2.37,0.081726074,-1.1339722,0.22045898,33.67,0.0,61.0,-8.1553955,11.997833,
1823.408872,true,true,true,0.125,12.25,0.0,0,0,0,0.125,12.25,0.0,0,0,0,0.125,12.25,0.0,0,0,0,0.125,12.25,0.0,0,0,0,0.125,12.25,0.0,0,0,0,0.0,12.25,0.0,0,0,0,0.125,12.3,0.0,0,0,0,kReverse,kReverse,-87.11,2.13,2.37,0.13085938,-1.2179565,0.2786255,33.67,0.0,113.0,-8.155594,11.998825,
1823.430599,true,true,true,0.125,12.25,0.0,0,0,0,0.125,12.25,0.0,0,0,0,0.125,12.25,0.0,0,0,0,0.125,12.25,0.0,0,0,0,0.125,12.25,0.0,0,0,0,0.0,12.25,0.0,0,0,0,0.125,12.3,0.0,0,0,0,kReverse,kReverse,-87.1,2.14,2.38,0.011962891,-1.1008911,0.288208,33.68,0.0,1.0,-8.155746,12.001755,
1823.451865,true,true,true,0.125,12.25,0.0,0,0,0,0.125,12.25,0.0,0,0,0,0.125,12.25,0.0,0,0,0,0.125,12.25,0.0,0,0,0,0.125,12.25,0.0,0,0,0,0.0,12.25,0.0,0,0,0,0.125,12.3,0.0,0,0,0,kReverse,kReverse,-87.11,2.13,2.37,-0.023132324,-1.1934204,0.26586914,33.68,0.0,-39.0,-8.155838,12.003708,
1823.4775989999998,true,true,true,0.125,12.25,0.0,0,0,0,0.125,12.25,0.0,0,0,0,0.125,12.25,0.0,0,0,0,0.125,12.25,0.0,0,0,0,0.125,12.25,0.0,0,0,0,0.0,12.25,0.0,0,0,0,0.125,12.3,0.0,0,0,0,kReverse,kReverse,-87.12,2.12,2.36,0.02154541,-1.1488037,0.20336914,33.68,0.0,0.0,-8.156128,12.008438,
1823.499363,true,true,true,0.125,12.25,0.0,0,0,0,0.125,12.25,0.0,0,0,0,0.125,12.25,0.0,0,0,0,0.125,12.25,0.0,0,0,0,0.125,12.25,0.0,0,0,0,0.0,12.25,0.0,0,0,0,0.125,12.3,0.0,0,0,0,kReverse,kReverse,-87.1,2.13,2.37,0.05908203,-0.92962646,0.06121826,33.68,0.0,27.0,-8.156311,12.013702,
1823.524853,true,true,true,0.125,12.25,0.0,0,0,0,0.125,12.25,0.0,0,0,0,0.125,12.25,0.0,0,0,0,0.125,12.25,0.0,0,0,0,0.125,12.25,0.0,0,0,0,0.0,12.25,0.0,0,0,0,0.125,12.3,0.0,0,0,0,kReverse,kReverse,-87.09,2.14,2.38,0.038635254,-0.7484741,-0.080444336,33.68,0.0,-2.0,-8.156357,12.016312,
1823.5477179999998,true,true,true,0.125,12.25,0.0,0,0,0,0.125,12.25,0.0,0,0,0,0.125,12.25,0.0,0,0,0,0.125,12.25,0.0,0,0,0,0.125,12.25,0.0,0,0,0,0.0,12.25,0.0,0,0,0,0.125,12.3,0.0,0,0,0,kReverse,kReverse,-87.09,2.13,2.37,0.024414062,-0.73706055,-0.14196777,33.68,0.0,-23.0,-8.156372,12.021057,
1823.5689579999998,true,true,true,0.125,12.25,0.0,0,0,0,0.125,12.25,0.0,0,0,0,0.125,12.25,0.0,0,0,0,0.125,12.25,0.0,0,0,0,0.125,12.25,0.0,0,0,0,0.0,12.25,0.0,0,0,0,0.125,12.3,0.0,0,0,0,kReverse,kReverse,-87.08,2.13,2.37,0.04095459,-0.8065796,-0.18475342,33.68,0.0,-15.0,-8.156433,12.023087,
1823.5897759999998,true,true,true,0.125,12.25,0.0,0,0,0,0.125,12.25,0.0,0,0,0,0.125,12.25,0.0,0,0,0,0.125,12.25,0.0,0,0,0,0.125,12.25,0.0,0,0,0,0.0,12.25,0.0,0,0,0,0.125,12.3,0.0,0,0,0,kReverse,kReverse,-87.06,2.15,2.39,-0.013427734,-0.8309326,-0.23162842,33.68,0.0,-76.0,-8.156647,12.026154,
1823.6103329999999,true,true,true,0.125,12.25,0.0,0,0,0,0.125,12.25,0.0,0,0,0,0.125,12.25,0.0,0,0,0,0.125,12.25,0.0,0,0,0,0.125,12.25,0.0,0,0,0,0.0,12.25,0.0,0,0,0,0.125,12.3,0.0,0,0,0,kReverse,kReverse,-87.04,2.16,2.4,-0.00970459,-0.8362427,-0.23059082,33.68,0.0,-72.0,-8.156891,12.027191,
1823.636129,true,true,true,0.125,12.25,0.0,0,0,0,0.125,12.25,0.0,0,0,0,0.125,12.25,0.0,0,0,0,0.125,12.25,0.0,0,0,0,0.125,12.25,0.0,0,0,0,0.0,12.25,0.0,0,0,0,0.125,12.3,0.0,0,0,0,kReverse,kReverse,-87.06,2.15,2.39,0.02911377,-0.9354248,-0.072265625,33.68,0.0,-18.0,-8.157669,12.028503,
1823.6655359999997,true,true,true,0.125,12.25,0.0,0,0,0,0.125,12.25,0.0,0,0,0,0.125,12.25,0.0,0,0,0,0.125,12.25,0.0,0,0,0,0.125,12.25,0.0,0,0,0,0.0,12.25,0.0,0,0,0,0.125,12.3,0.0,0,0,0,kReverse,kReverse,-87.09,2.12,2.36,0.04626465,-1.0808105,0.07678223,33.68,0.0,10.0,-8.158447,12.029465,
1823.687401,true,true,true,0.125,12.25,0.0,0,0,0,0.125,12.25,0.0,0,0,0,0.125,12.200000000000001,0.0,0,0,0,0.125,12.25,0.0,0,0,0,0.125,12.25,0.0,0,0,0,0.0,12.25,0.0,0,0,0,0.125,12.3,0.0,0,0,0,kReverse,kReverse,-87.1,2.12,2.36,0.1293335,-1.2078247,0.15289307,33.68,0.0,97.0,-8.158768,12.030045,
1823.71077,true,true,true,0.125,12.25,0.0,0,0,0,0.125,12.25,0.0,0,0,0,0.125,12.200000000000001,0.0,0,0,0,0.125,12.25,0.0,0,0,0,0.125,12.25,0.0,0,0,0,0.0,12.25,0.0,0,0,0,0.125,12.3,0.0,0,0,0,kReverse,kReverse,-87.11,2.13,2.37,0.12738037,-1.2022705,0.27581787,33.68,0.0,110.0,-8.159058,12.031845,
1823.7315409999999,true,true,true,0.125,12.25,0.0,0,0,0,0.125,12.25,0.0,0,0,0,0.125,12.200000000000001,0.0,0,0,0,0.125,12.25,0.0,0,0,0,0.125,12.25,0.0,0,0,0,0.0,12.25,0.0,0,0,0,0.125,12.3,0.0,0,0,0,kReverse,kReverse,-87.1,2.14,2.38,0.057678223,-1.182251,0.26568604,33.68,0.0,40.0,-8.159058,12.033188,
1823.751666,true,true,true,0.125,12.25,0.0,0,0,0,0.125,12.25,0.0,0,0,0,0.125,12.200000000000001,0.0,0,0,0,0.125,12.25,0.0,0,0,0,0.125,12.25,0.0,0,0,0,0.0,12.25,0.0,0,0,0,0.125,12.3,0.0,0,0,0,kReverse,kReverse,-87.11,2.14,2.38,-0.030212402,-1.1990967,0.2614746,33.68,0.0,-47.0,-8.159027,12.036819,
1823.7767419999998,true,true,true,0.125,12.25,0.0,0,0,0,0.125,12.25,0.0,0,0,0,0.125,12.200000000000001,0.0,0,0,0,0.125,12.25,0.0,0,0,0,0.125,12.25,0.0,0,0,0,0.0,12.25,0.0,0,0,0,0.125,12.3,0.0,0,0,0,kReverse,kReverse,-87.12,2.13,2.37,0.0014038086,-1.114624,0.21551514,33.68,0.0,-18.0,-8.159073,12.039078,
1823.79998,true,true,true,0.125,12.25,0.0,0,0,0,0.125,12.25,0.0,0,0,0,0.125,12.200000000000001,0.0,0,0,0,0.125,12.25,0.0,0,0,0,0.125,12.25,0.0,0,0,0,0.0,12.25,0.0,0,0,0,0.125,12.3,0.0,0,0,0,kReverse,kReverse,-87.11,2.14,2.38,0.07977295,-0.9970703,0.048034668,33.68,0.0,43.0,-8.159149,12.044174,
1823.826362,true,true,true,0.125,12.25,0.0,0,0,0,0.125,12.25,0.0,0,0,0,0.125,12.200000000000001,0.0,0,0,0,0.125,12.25,0.0,0,0,0,0.125,12.25,0.0,0,0,0,0.0,12.25,0.0,0,0,0,0.125,12.3,0.0,0,0,0,kReverse,kReverse,-87.1,2.15,2.39,0.055664062,-0.8820801,0.030639648,33.68,0.0,22.0,-8.159119,12.046768,
1823.847873,true,true,true,0.125,12.25,0.0,0,0,0,0.125,12.25,0.0,0,0,0,0.125,12.200000000000001,0.0,0,0,0,0.125,12.25,0.0,0,0,0,0.0,12.25,0.0,0,0,0,0.0,12.25,0.0,0,0,0,0.125,12.3,0.0,0,0,0,kReverse,kReverse,-87.09,2.15,2.39,0.04107666,-0.7468872,-0.107177734,33.68,0.0,-3.0,-8.159088,12.051666,
1823.8695189999999,true,true,true,0.125,12.25,0.0,0,0,0,0.125,12.25,0.0,0,0,0,0.125,12.200000000000001,0.0,0,0,0,0.125,12.25,0.0,0,0,0,0.0,12.25,0.0,0,0,0,0.0,12.25,0.0,0,0,0,0.125,12.3,0.0,0,0,0,kReverse,kReverse,-87.07,2.15,2.39,0.026184082,-0.8215332,-0.21380615,33.68,0.0,-34.0,-8.159119,12.05571,
1823.889392,true,true,true,0.125,12.25,0.0,0,0,0,0.125,12.25,0.0,0,0,0,0.125,12.200000000000001,0.0,0,0,0,0.125,12.25,0.0,0,0,0,0.0,12.25,0.0,0,0,0,0.0,12.25,0.0,0,0,0,0.125,12.3,0.0,0,0,0,kReverse,kReverse,-87.07,2.15,2.39,0.034606934,-0.85791016,-0.23052979,33.68,0.0,-29.0,-8.159195,12.057251,
1823.910476,true,true,true,0.125,12.25,0.0,0,0,0,0.125,12.25,0.0,0,0,0,0.125,12.200000000000001,0.0,0,0,0,0.125,12.25,0.0,0,0,0,0.0,12.25,0.0,0,0,0,0.0,12.25,0.0,0,0,0,0.125,12.3,0.0,0,0,0,kReverse,kReverse,-87.04,2.17,2.42,-0.034057617,-0.8092041,-0.23577881,33.68,0.0,-96.0,-8.159363,12.058441,
1823.93165,true,true,true,0.125,12.25,0.0,0,0,0,0.125,12.25,0.0,0,0,0,0.125,12.200000000000001,0.0,0,0,0,0.125,12.25,0.0,0,0,0,0.0,12.25,0.0,0,0,0,0.0,12.25,0.0,0,0,0,0.125,12.3,0.0,0,0,0,kReverse,kReverse,-87.06,2.16,2.41,0.016662598,-0.8753052,-0.08190918,33.69,0.0,-30.0,-8.159973,12.059967,
1823.95933,true,true,true,0.125,12.25,0.0,0,0,0,0.125,12.25,0.0,0,0,0,0.125,12.200000000000001,0.0,0,0,0,0.125,12.25,0.0,0,0,0,0.0,12.25,0.0,0,0,0,0.0,12.25,0.0,0,0,0,0.125,12.3,0.0,0,0,0,kReverse,kReverse,-87.07,2.15,2.39,0.03314209,-0.9904785,-0.024719238,33.69,0.0,-11.0,-8.160339,12.060501,
1823.9849849999998,true,true,true,0.125,12.25,0.0,0,0,0,0.125,12.25,0.0,0,0,0,0.125,12.200000000000001,0.0,0,0,0,0.125,12.25,0.0,0,0,0,0.0,12.25,0.0,0,0,0,0.0,12.25,0.0,0,0,0,0.125,12.3,0.0,0,0,0,kReverse,kReverse,-87.09,2.13,2.37,0.107788086,-1.1065063,0.055725098,33.69,0.0,68.0,-8.160675,12.061005,
1824.0064549999997,true,true,true,0.125,12.25,0.0,0,0,0,0.125,12.25,0.0,0,0,0,0.125,12.200000000000001,0.0,0,0,0,0.125,12.25,0.0,0,0,0,0.125,12.25,0.0,0,0,0,0.0,12.25,0.0,0,0,0,0.125,12.3,0.0,0,0,0,kReverse,kReverse,-87.11,2.13,2.37,0.14202881,-1.2221069,0.2144165,33.69,0.0,116.0,-8.161148,12.062286,
1824.029179,true,true,true,0.125,12.200000000000001,0.0,0,0,0,0.125,12.25,0.0,0,0,0,0.125,12.200000000000001,0.0,0,0,0,0.125,12.25,0.0,0,0,0,0.125,12.25,0.0,0,0,0,0.0,12.25,0.0,0,0,0,0.125,12.3,0.0,0,0,0,kReverse,kReverse,-87.1,2.15,2.39,0.07720947,-1.1426392,0.23272705,33.69,0.0,57.0,-8.161209,12.063248,
1824.0501359999998,true,true,true,0.125,12.200000000000001,0.0,0,0,0,0.125,12.25,0.0,0,0,0,0.125,12.200000000000001,0.0,0,0,0,0.125,12.25,0.0,0,0,0,0.125,12.25,0.0,0,0,0,0.0,12.25,0.0,0,0,0,0.125,12.3,0.0,0,0,0,kReverse,kReverse,-87.11,2.15,2.39,0.0036010742,-1.1929932,0.27093506,33.69,0.0,-12.0,-8.161148,12.066101,
1824.0702689999998,true,true,true,0.125,12.200000000000001,0.0,0,0,0,0.125,12.25,0.0,0,0,0,0.125,12.200000000000001,0.0,0,0,0,0.125,12.25,0.0,0,0,0,0.125,12.25,0.0,0,0,0,0.0,12.25,0.0,0,0,0,0.125,12.3,0.0,0,0,0,kReverse,kReverse,-87.13,2.13,2.37,-0.030761719,-1.0997314,0.25061035,33.69,0.0,-45.0,-8.161148,12.068008,
1824.094797,true,true,true,0.125,12.200000000000001,0.0,0,0,0,0.125,12.25,0.0,0,0,0,0.125,12.200000000000001,0.0,0,0,0,0.125,12.25,0.0,0,0,0,0.125,12.25,0.0,0,0,0,0.0,12.25,0.0,0,0,0,0.125,12.3,0.0,0,0,0,kReverse,kReverse,-87.12,2.13,2.37,0.0501709,-1.0905762,0.13604736,33.69,0.0,21.0,-8.161255,12.072601,
1824.118753,true,true,true,0.125,12.200000000000001,0.0,0,0,0,0.125,12.25,0.0,0,0,0,0.125,12.200000000000001,0.0,0,0,0,0.125,12.25,0.0,0,0,0,0.125,12.25,0.0,0,0,0,0.0,12.25,0.0,0,0,0,0.125,12.3,0.0,0,0,0,kReverse,kReverse,-87.12,2.14,2.38,0.05999756,-1.0213013,0.114746094,33.69,0.0,31.0,-8.16127,12.077637,
1824.1504479999999,true,true,true,0.125,12.200000000000001,0.0,0,0,0,0.125,12.25,0.0,0,0,0,0.125,12.200000000000001,0.0,0,0,0,0.125,12.25,0.0,0,0,0,0.125,12.25,0.0,0,0,0,0.0,12.25,0.0,0,0,0,0.125,12.3,0.0,0,0,0,kReverse,kReverse,-87.08,2.16,2.4,0.016784668,-0.71325684,-0.12542725,33.69,0.0,-28.0,-8.16127,12.082306,
1824.1726139999998,true,true,true,0.125,12.200000000000001,0.0,0,0,0,0.125,12.25,0.0,0,0,0,0.125,12.200000000000001,0.0,0,0,0,0.125,12.25,0.0,0,0,0,0.125,12.200000000000001,0.0,0,0,0,0.0,12.25,0.0,0,0,0,0.125,12.25,0.0,0,0,0,kReverse,kReverse,-87.07,2.15,2.4,0.040527344,-0.791626,-0.17999268,33.69,0.0,-14.0,-8.161316,12.08432,
1824.20212,true,true,true,0.125,12.200000000000001,0.0,0,0,0,0.125,12.25,0.0,0,0,0,0.125,12.200000000000001,0.0,0,0,0,0.125,12.25,0.0,0,0,0,0.125,12.200000000000001,0.0,0,0,0,0.0,12.200000000000001,0.0,0,0,0,0.125,12.25,0.0,0,0,0,kReverse,kReverse,-87.05,2.17,2.41,-0.01184082,-0.82159424,-0.25177002,33.69,0.0,-76.0,-8.16153,12.087402,
1824.226547,true,true,true,0.125,12.200000000000001,0.0,0,0,0,0.125,12.25,0.0,0,0,0,0.125,12.200000000000001,0.0,0,0,0,0.125,12.25,0.0,0,0,0,0.125,12.200000000000001,0.0,0,0,0,0.0,12.200000000000001,0.0,0,0,0,0.125,12.25,0.0,0,0,0,kReverse,kReverse,-87.04,2.17,2.42,0.005065918,-0.8383179,-0.22338867,33.69,0.0,-57.0,-8.161758,12.088425,
1824.24814,true,true,true,0.125,12.200000000000001,0.0,0,0,0,0.125,12.25,0.0,0,0,0,0.125,12.200000000000001,0.0,0,0,0,0.125,12.25,0.0,0,0,0,0.125,12.200000000000001,0.0,0,0,0,0.0,12.200000000000001,0.0,0,0,0,0.125,12.25,0.0,0,0,0,kReverse,kReverse,-87.06,2.16,2.41,0.03479004,-0.96032715,-0.05126953,33.69,0.0,-11.0,-8.16243,12.089737,
1824.270022,true,true,true,0.125,12.200000000000001,0.0,0,0,0,0.125,12.25,0.0,0,0,0,0.125,12.200000000000001,0.0,0,0,0,0.125,12.25,0.0,0,0,0,0.125,12.200000000000001,0.0,0,0,0,0.0,12.200000000000001,0.0,0,0,0,0.125,12.25,0.0,0,0,0,kReverse,kReverse,-87.08,2.14,2.38,0.047546387,-1.0872192,0.10131836,33.69,0.0,14.0,-8.16304,12.090805,
1824.2921509999999,true,true,true,0.125,12.200000000000001,0.0,0,0,0,0.125,12.25,0.0,0,0,0,0.125,12.200000000000001,0.0,0,0,0,0.125,12.25,0.0,0,0,0,0.125,12.200000000000001,0.0,0,0,0,0.0,12.200000000000001,0.0,0,0,0,0.125,12.25,0.0,0,0,0,kReverse,kReverse,-87.09,2.14,2.38,0.14099121,-1.21344,0.17681885,33.69,0.0,111.0,-8.163254,12.091476,
1824.315416,true,true,true,0.125,12.200000000000001,0.0,0,0,0,0.125,12.25,0.0,0,0,0,0.125,12.200000000000001,0.0,0,0,0,0.125,12.25,0.0,0,0,0,0.125,12.200000000000001,0.0,0,0,0,0.0,12.200000000000001,0.0,0,0,0,0.125,12.25,0.0,0,0,0,kReverse,kReverse,-87.1,2.16,2.39,0.0927124,-1.1810913,0.30169678,33.69,0.0,79.0,-8.163345,12.093536,
