timer,lineLeft,lineCenter,lineRight,LeftFrontCurrent,LeftFrontVoltage,LeftFrontValue,LeftFrontPosition,LeftFrontVelocity,LeftFrontFaults,LeftRearCurrent,LeftRearVoltage,LeftRearValue,LeftRearPosition,LeftRearVelocity,LeftRearFaults,RightFrontCurrent,RightFrontVoltage,RightFrontValue,RightFrontPosition,RightFrontVelocity,RightFrontFaults,RightRearCurrent,RightRearVoltage,RightRearValue,RightRearPosition,RightRearVelocity,RightRearFaults,LiftCurrent,LiftVoltage,LiftValue,LiftPosition,LiftVelocity,LiftFaults,WristCurrent,WristVoltage,WristValue,WristPosition,WristVelocity,WristFaults,RollerCurrent,RollerVoltage,RollerValue,RollerPosition,RollerVelocity,RollerFaults,PushersState,PivotsState,navx_Pitch,navx_Roll,navx_Yaw,navx_XAcc,navx_YAcc,navx_ZAcc,navx_Temp,navx_Bar,navx_Alt,navx_XDis,navx_YDis,
188.005853,true,true,true,0.125,12.65,0.0,0,0,0,0.125,12.65,0.0,0,0,0,0.125,12.65,0.0,0,0,0,0.125,12.65,0.0,0,0,0,0.125,12.65,0.0,4,0,0,0.0,12.65,0.0,0,0,0,0.125,12.75,0.0,0,0,0,kOff,kOff,-87.1,2.14,2.63,0.036499023,-0.9845581,0.034362793,34.69,0.0,0.0,-8.12001,11.751343,
188.036422,true,true,true,0.125,12.65,0.0,0,0,0,0.125,12.65,0.0,0,0,0,0.125,12.65,0.0,0,0,0,0.125,12.65,0.0,0,0,0,0.125,12.65,0.0,4,0,0,0.0,12.65,0.0,0,0,0,0.125,12.75,0.0,0,0,0,kReverse,kOff,-87.1,2.14,2.64,0.03387451,-0.9816284,0.03326416,34.69,0.0,-2.0,-8.12001,11.751343,
188.061206,true,true,true,0.125,12.65,0.0,0,0,0,0.125,12.65,0.0,0,0,0,0.125,12.65,0.0,0,0,0,0.125,12.65,0.0,0,0,0,0.125,12.65,0.0,4,0,0,0.0,12.65,0.0,0,0,0,0.125,12.75,0.0,0,0,0,kReverse,kOff,-87.1,2.14,2.64,0.04058838,-0.982605,0.03643799,34.69,0.0,4.0,-8.12001,11.751343,
188.07756,true,true,true,0.125,12.65,0.0,0,0,0,0.125,12.65,0.0,0,0,0,0.125,12.65,0.0,0,0,0,0.125,12.65,0.0,0,0,0,0.125,12.65,0.0,4,0,0,0.0,12.65,0.0,0,0,0,0.125,12.75,0.0,0,0,0,kReverse,kOff,-87.1,2.14,2.64,0.03564453,-0.98272705,0.039916992,34.69,0.0,0.0,-8.12001,11.751343,
188.10397500000002,true,true,true,0.125,12.65,0.0,0,0,0,0.125,12.65,0.0,0,0,0,0.125,12.65,0.0,0,0,0,0.125,12.65,0.0,0,0,0,0.125,12.65,0.0,4,0,0,0.0,12.65,0.0,0,0,0,0.125,12.75,0.0,0,0,0,kReverse,kOff,-87.1,2.14,2.63,0.0357666,-0.982605,0.032348633,34.69,0.0,-1.0,-8.12001,11.751343,
188.12849400000002,true,true,true,0.125,12.65,0.0,0,0,0,0.125,12.65,0.0,0,0,0,0.125,12.65,0.0,0,0,0,0.125,12.65,0.0,0,0,0,0.125,12.65,0.0,4,0,0,0.0,12.65,0.0,0,0,0,0.125,12.75,0.0,0,0,0,kReverse,kOff,-87.1,2.14,2.63,0.038085938,-0.98413086,0.030090332,34.69,0.0,0.0,-8.12001,11.751343,
188.153782,true,true,true,0.125,12.65,0.0,0,0,0,0.125,12.65,0.0,0,0,0,0.125,12.65,0.0,0,0,0,0.125,12.65,0.0,0,0,0,0.125,12.65,0.0,4,0,0,0.0,12.65,0.0,0,0,0,0.125,12.75,0.0,0,0,0,kReverse,kOff,-87.1,2.14,2.63,0.036010742,-0.98095703,0.034057617,34.69,0.0,0.0,-8.12001,11.751343,
188.177636,true,true,true,0.125,12.65,0.0,0,0,0,0.125,12.65,0.0,0,0,0,0.125,12.65,0.0,0,0,0,0.125,12.65,0.0,0,0,0,0.125,12.65,0.0,4,0,0,0.0,12.65,0.0,0,0,0,0.125,12.75,0.0,0,0,0,kReverse,kOff,-87.1,2.13,2.63,0.03668213,-0.9819336,0.032226562,34.69,0.0,0.0,-8.12001,11.751343,
188.2038,true,true,true,0.125,12.65,0.0,0,0,0,0.125,12.65,0.0,0,0,0,0.125,12.65,0.0,0,0,0,0.125,12.65,0.0,0,0,0,0.125,12.65,0.0,4,0,0,0.0,12.65,0.0,0,0,0,0.125,12.75,0.0,0,0,0,kReverse,kOff,-87.1,2.14,2.63,0.036865234,-0.9844971,0.035705566,34.69,0.0,0.0,-8.12001,11.751343,
188.223492,true,true,true,0.125,12.65,0.0,0,0,0,0.125,12.65,0.0,0,0,0,0.125,12.65,0.0,0,0,0,0.125,12.65,0.0,0,0,0,0.125,12.65,0.0,4,0,0,0.0,12.65,0.0,0,0,0,0.125,12.75,0.0,0,0,0,kReverse,kOff,-87.1,2.14,2.63,0.03729248,-0.9795532,0.039123535,34.69,0.0,2.0,-8.12001,11.751343,
188.24403099999998,true,true,true,0.125,12.65,0.0,0,0,0,0.125,12.65,0.0,0,0,0,0.125,12.65,0.0,0,0,0,0.125,12.65,0.0,0,0,0,0.125,12.65,0.0,4,0,0,0.0,12.65,0.0,0,0,0,0.125,12.75,0.0,0,0,0,kReverse,kOff,-87.1,2.14,2.63,0.034240723,-0.9836426,0.034973145,34.69,0.0,-2.0,-8.12001,11.751343,
188.26484299999998,true,true,true,0.125,12.65,0.0,0,0,0,0.125,12.65,0.0,0,0,0,0.125,12.65,0.0,0,0,0,0.125,12.65,0.0,0,0,0,0.0,12.65,0.0,4,0,0,0.0,12.65,0.0,0,0,0,0.125,12.75,0.0,0,0,0,kReverse,kOff,-87.1,2.14,2.63,0.03466797,-0.9819336,0.03527832,34.69,0.0,-1.0,-8.12001,11.751343,
188.286883,true,true,true,0.125,12.65,0.0,0,0,0,0.125,12.65,0.0,0,0,0,0.125,12.65,0.0,0,0,0,0.125,12.65,0.0,0,0,0,0.0,12.65,0.0,4,0,0,0.0,12.65,0.0,0,0,0,0.125,12.75,0.0,0,0,0,kReverse,kOff,-87.1,2.14,2.63,0.037353516,-0.9818115,0.038146973,34.69,0.0,1.0,-8.12001,11.751343,
188.30822199999997,true,true,true,0.125,12.65,0.0,0,0,0,0.125,12.65,0.0,0,0,0,0.125,12.65,0.0,0,0,0,0.125,12.65,0.0,0,0,0,0.125,12.65,0.0,4,0,0,0.0,12.65,0.0,0,0,0,0.125,12.75,0.0,0,0,0,kReverse,kOff,-87.1,2.14,2.63,0.0345459,-0.98236084,0.028320312,34.69,0.0,-3.0,-8.12001,11.751343,
188.32868,true,true,true,0.125,12.65,0.0,0,0,0,0.125,12.65,0.0,0,0,0,0.125,12.65,0.0,0,0,0,0.125,12.65,0.0,0,0,0,0.125,12.65,0.0,4,0,0,0.0,12.65,0.0,0,0,0,0.125,12.75,0.0,0,0,0,kReverse,kOff,-87.1,2.14,2.63,0.03942871,-0.98101807,0.028198242,34.69,0.0,1.0,-8.12001,11.751343,
188.349258,true,true,true,0.125,12.65,0.0,0,0,0,0.125,12.65,0.0,0,0,0,0.125,12.65,0.0,0,0,0,0.125,12.65,0.0,0,0,0,0.125,12.65,0.0,4,0,0,0.0,12.65,0.0,0,0,0,0.125,12.75,0.0,0,0,0,kReverse,kOff,-87.1,2.14,2.63,0.03942871,-0.98431396,0.033569336,34.69,0.0,2.0,-8.12001,11.751343,
188.368609,true,true,true,0.125,12.65,0.0,0,0,0,0.125,12.65,0.0,0,0,0,0.125,12.65,0.0,0,0,0,0.125,12.65,0.0,0,0,0,0.125,12.65,0.0,4,0,0,0.0,12.65,0.0,0,0,0,0.125,12.75,0.0,0,0,0,kReverse,kOff,-87.1,2.14,2.63,0.03668213,-0.9837036,0.03100586,34.7,0.0,0.0,-8.12001,11.751343,
188.38832399999998,true,true,true,0.125,12.65,0.0,0,0,0,0.125,12.65,0.0,0,0,0,0.125,12.65,0.0,0,0,0,0.125,12.65,0.0,0,0,0,0.125,12.65,0.0,4,0,0,0.0,12.65,0.0,0,0,0,0.125,12.75,0.0,0,0,0,kReverse,kOff,-87.1,2.14,2.63,0.036193848,-0.98187256,0.035705566,34.7,0.0,0.0,-8.12001,11.751343,
188.413086,true,true,true,0.125,12.65,0.0,0,0,0,0.125,12.65,0.0,0,0,0,0.125,12.65,0.0,0,0,0,0.125,12.65,0.0,0,0,0,0.125,12.65,0.0,4,0,0,0.0,12.65,0.0,0,0,0,0.125,12.75,0.0,0,0,0,kReverse,kOff,-87.1,2.14,2.63,0.034973145,-0.98358154,0.029052734,34.7,0.0,-2.0,-8.12001,11.751343,
188.434936,true,true,true,0.125,12.65,0.0,0,0,0,0.125,12.65,0.0,0,0,0,0.125,12.65,0.0,0,0,0,0.125,12.65,0.0,0,0,0,0.125,12.65,0.0,4,0,0,0.0,12.65,0.0,0,0,0,0.125,12.75,0.0,0,0,0,kReverse,kOff,-87.1,2.14,2.63,0.03704834,-0.9838257,0.027038574,34.7,0.0,-1.0,-8.12001,11.751343,
188.45423,true,true,true,0.125,12.65,0.0,0,0,0,0.125,12.65,0.0,0,0,0,0.125,12.65,0.0,0,0,0,0.125,12.65,0.0,0,0,0,0.125,12.65,0.0,4,0,0,0.0,12.65,0.0,0,0,0,0.125,12.75,0.0,0,0,0,kReverse,kOff,-87.11,2.14,2.63,0.03845215,-0.9845581,0.030395508,34.7,0.0,0.0,-8.12001,11.751343,
188.477992,true,true,true,0.125,12.65,0.0,0,0,0,0.125,12.65,0.0,0,0,0,0.125,12.65,0.0,0,0,0,0.125,12.65,0.0,0,0,0,0.125,12.65,0.0,4,0,0,0.0,12.65,0.0,0,0,0,0.125,12.75,0.0,0,0,0,kReverse,kOff,-87.11,2.14,2.63,0.03503418,-0.9842529,0.034484863,34.7,0.0,-1.0,-8.12001,11.751343,
188.494291,true,true,true,0.125,12.65,0.0,0,0,0,0.125,12.65,0.0,0,0,0,0.125,12.65,0.0,0,0,0,0.125,12.65,0.0,0,0,0,0.125,12.65,0.0,4,0,0,0.0,12.65,0.0,0,0,0,0.125,12.75,0.0,0,0,0,kReverse,kOff,-87.11,2.14,2.63,0.034362793,-0.984375,0.029846191,34.7,0.0,-3.0,-8.12001,11.751343,
188.52252,true,true,true,0.125,12.65,0.0,0,0,0,0.125,12.65,0.0,0,0,0,0.125,12.65,0.0,0,0,0,0.125,12.65,0.0,0,0,0,0.125,12.65,0.0,4,0,0,0.0,12.65,0.0,0,0,0,0.125,12.75,0.0,0,0,0,kReverse,kOff,-87.11,2.14,2.63,0.038330078,-0.9829712,0.03149414,34.7,0.0,1.0,-8.12001,11.751343,
188.54432799999998,true,true,true,0.125,12.65,0.0,0,0,0,0.125,12.65,0.0,0,0,0,0.125,12.65,0.0,0,0,0,0.125,12.65,0.0,0,0,0,0.125,12.65,0.0,4,0,0,0.0,12.65,0.0,0,0,0,0.125,12.75,0.0,0,0,0,kReverse,kOff,-87.11,2.14,2.63,0.03656006,-0.98217773,0.03253174,34.7,0.0,0.0,-8.12001,11.751343,
188.56483599999999,true,true,true,0.125,12.65,0.0,0,0,0,0.125,12.65,0.0,0,0,0,0.125,12.65,0.0,0,0,0,0.125,12.65,0.0,0,0,0,0.125,12.65,0.0,4,0,0,0.0,12.65,0.0,0,0,0,0.125,12.75,0.0,0,0,0,kReverse,kOff,-87.11,2.14,2.63,0.03765869,-0.98327637,0.034423828,34.7,0.0,1.0,-8.12001,11.751343,
188.585408,true,true,true,0.125,12.65,0.0,0,0,0,0.125,12.65,0.0,0,0,0,0.125,12.65,0.0,0,0,0,0.125,12.65,0.0,0,0,0,0.125,12.65,0.0,4,0,0,0.0,12.65,0.0,0,0,0,0.125,12.75,0.0,0,0,0,kReverse,kOff,-87.11,2.14,2.63,0.036376953,-0.98547363,0.032958984,34.7,0.0,0.0,-8.12001,11.751343,
188.606223,true,true,true,0.125,12.65,0.0,0,0,0,0.125,12.65,0.0,0,0,0,0.125,12.65,0.0,0,0,0,0.125,12.65,0.0,0,0,0,0.0,12.65,0.0,4,0,0,0.0,12.65,0.0,0,0,0,0.125,12.75,0.0,0,0,0,kReverse,kOff,-87.11,2.14,2.63,0.034423828,-0.98565674,0.035583496,34.7,0.0,-1.0,-8.12001,11.751343,
188.626913,true,true,true,0.125,12.65,0.0,0,0,0,0.125,12.65,0.0,0,0,0,0.125,12.65,0.0,0,0,0,0.125,12.65,0.0,0,0,0,0.0,12.65,0.0,4,0,0,0.0,12.65,0.0,0,0,0,0.125,12.75,0.0,0,0,0,kReverse,kOff,-87.11,2.14,2.63,0.03778076,-0.9851074,0.03326416,34.7,0.0,0.0,-8.12001,11.751343,
188.648267,true,true,true,0.125,12.65,0.0,0,0,0,0.125,12.65,0.0,0,0,0,0.125,12.65,0.0,0,0,0,0.125,12.65,0.0,0,0,0,0.0,12.65,0.0,4,0,0,0.0,12.65,0.0,0,0,0,0.125,12.75,0.0,0,0,0,kReverse,kOff,-87.11,2.14,2.63,0.03656006,-0.9834595,0.037231445,34.7,0.0,0.0,-8.12001,11.751343,
188.674394,true,true,true,0.125,12.65,0.0,0,0,0,0.125,12.65,0.0,0,0,0,0.125,12.65,0.0,0,0,0,0.125,12.65,0.0,0,0,0,0.0,12.65,0.0,4,0,0,0.0,12.65,0.0,0,0,0,0.125,12.75,0.0,0,0,0,kReverse,kOff,-87.11,2.14,2.63,0.037719727,-0.98516846,0.034851074,34.7,0.0,1.0,-8.12001,11.751343,
188.700518,true,true,true,0.125,12.65,0.0,0,0,0,0.125,12.65,0.0,0,0,0,0.125,12.65,0.0,0,0,0,0.125,12.65,0.0,0,0,0,0.0,12.65,0.0,4,0,0,0.0,12.65,0.0,0,0,0,0.125,12.75,0.0,0,0,0,kReverse,kOff,-87.11,2.14,2.63,0.034118652,-0.98291016,0.03515625,34.7,0.0,-2.0,-8.12001,11.751343,
188.724056,true,true,true,0.125,12.65,0.0,0,0,0,0.125,12.65,0.0,0,0,0,0.125,12.65,0.0,0,0,0,0.125,12.65,0.0,0,0,0,0.125,12.65,0.0,4,0,0,0.0,12.65,0.0,0,0,0,0.125,12.75,0.0,0,0,0,kReverse,kOff,-87.11,2.14,2.63,0.03918457,-0.9850464,0.029418945,34.7,0.0,1.0,-8.12001,11.751343,
188.74587,true,true,true,0.125,12.65,0.0,0,0,0,0.125,12.65,0.0,0,0,0,0.125,12.65,0.0,0,0,0,0.125,12.65,0.0,0,0,0,0.125,12.65,0.0,4,0,0,0.0,12.65,0.0,0,0,0,0.125,12.75,0.0,0,0,0,kReverse,kOff,-87.11,2.14,2.63,0.037841797,-0.9816284,0.036315918,34.7,0.0,1.0,-8.12001,11.751343,
188.76646599999998,true,true,true,0.125,12.65,0.0,0,0,0,0.125,12.65,0.0,0,0,0,0.125,12.65,0.0,0,0,0,0.125,12.65,0.0,0,0,0,0.125,12.65,0.0,4,0,0,0.0,12.65,0.0,0,0,0,0.125,12.75,0.0,0,0,0,kReverse,kOff,-87.11,2.14,2.63,0.038513184,-0.9831543,0.031311035,34.7,0.0,1.0,-8.12001,11.751343,
188.78671099999997,true,true,true,0.125,12.65,0.0,0,0,0,0.125,12.65,0.0,0,0,0,0.125,12.65,0.0,0,0,0,0.125,12.65,0.0,0,0,0,0.125,12.65,0.0,4,0,0,0.0,12.65,0.0,0,0,0,0.125,12.75,0.0,0,0,0,kReverse,kOff,-87.11,2.14,2.63,0.035217285,-0.9840088,0.033996582,34.7,0.0,-1.0,-8.12001,11.751343,
188.80855799999998,true,true,true,0.125,12.65,0.0,0,0,0,0.125,12.65,0.0,0,0,0,0.125,12.65,0.0,0,0,0,0.125,12.65,0.0,0,0,0,0.125,12.65,0.0,4,0,0,0.0,12.65,0.0,0,0,0,0.125,12.75,0.0,0,0,0,kReverse,kOff,-87.11,2.14,2.63,0.035827637,-0.98168945,0.036254883,34.7,0.0,0.0,-8.12001,11.751343,
188.83128699999997,true,true,true,0.125,12.65,0.0,0,0,0,0.125,12.65,0.0,0,0,0,0.125,12.65,0.0,0,0,0,0.125,12.65,0.0,0,0,0,0.125,12.65,0.0,4,0,0,0.0,12.65,0.0,0,0,0,0.125,12.75,0.0,0,0,0,kReverse,kOff,-87.11,2.13,2.63,0.03881836,-0.982666,0.03668213,34.7,0.0,2.0,-8.12001,11.751343,
188.853634,true,true,true,0.125,12.65,0.0,0,0,0,0.125,12.65,0.0,0,0,0,0.125,12.65,0.0,0,0,0,0.125,12.65,0.0,0,0,0,0.125,12.65,0.0,4,0,0,0.0,12.65,0.0,0,0,0,0.125,12.75,0.0,0,0,0,kReverse,kOff,-87.11,2.13,2.63,0.03564453,-0.98272705,0.0335083,34.7,0.0,0.0,-8.12001,11.751343,
188.877232,true,true,true,0.125,12.65,0.0,0,0,0,0.125,12.65,0.0,0,0,0,0.125,12.65,0.0,0,0,0,0.125,12.65,0.0,0,0,0,0.125,12.65,0.0,4,0,0,0.0,12.65,0.0,0,0,0,0.125,12.75,0.0,0,0,0,kReverse,kOff,-87.11,2.13,2.63,0.03363037,-0.9844971,0.03466797,34.71,0.0,-2.0,-8.12001,11.751343,
188.899935,true,true,true,0.125,12.65,0.0,0,0,0,0.125,12.65,0.0,0,0,0,0.125,12.65,0.0,0,0,0,0.125,12.65,0.0,0,0,0,0.125,12.65,0.0,4,0,0,0.0,12.65,0.0,0,0,0,0.125,12.75,0.0,0,0,0,kReverse,kOff,-87.11,2.13,2.63,0.036865234,-0.98327637,0.03503418,34.71,0.0,0.0,-8.12001,11.751343,
188.92421399999998,true,true,true,0.125,12.65,0.0,0,0,0,0.125,12.65,0.0,0,0,0,0.125,12.65,0.0,0,0,0,0.125,12.65,0.0,0,0,0,0.125,12.65,0.0,4,0,0,0.0,12.65,0.0,0,0,0,0.125,12.75,0.0,0,0,0,kReverse,kOff,-87.11,2.14,2.63,0.03338623,-0.9837036,0.03302002,34.71,0.0,-3.0,-8.12001,11.751343,
188.94616499999998,true,true,true,0.125,12.65,0.0,0,0,0,0.125,12.65,0.0,0,0,0,0.125,12.65,0.0,0,0,0,0.125,12.65,0.0,0,0,0,0.0,12.65,0.0,4,0,0,0.0,12.65,0.0,0,0,0,0.125,12.75,0.0,0,0,0,kReverse,kOff,-87.11,2.13,2.63,0.036499023,-0.9862671,0.031677246,34.71,0.0,0.0,-8.12001,11.751343,
188.96936499999998,true,true,true,0.125,12.65,0.0,0,0,0,0.125,12.65,0.0,0,0,0,0.125,12.65,0.0,0,0,0,0.125,12.65,0.0,0,0,0,0.0,12.65,0.0,4,0,0,0.0,12.65,0.0,0,0,0,0.125,12.75,0.0,0,0,0,kReverse,kOff,-87.11,2.13,2.63,0.03717041,-0.986145,0.03918457,34.71,0.0,1.0,-8.12001,11.751343,
188.99381599999998,true,true,true,0.125,12.65,0.0,0,0,0,0.125,12.65,0.0,0,0,0,0.125,12.65,0.0,0,0,0,0.125,12.65,0.0,0,0,0,0.125,12.65,0.0,4,0,0,0.0,12.65,0.0,0,0,0,0.125,12.75,0.0,0,0,0,kReverse,kOff,-87.11,2.13,2.63,0.03643799,-0.98443604,0.029663086,34.71,0.0,-1.0,-8.12001,11.751343,
189.016977,true,true,true,0.125,12.65,0.0,0,0,0,0.125,12.65,0.0,0,0,0,0.125,12.65,0.0,0,0,0,0.125,12.65,0.0,0,0,0,0.125,12.65,0.0,4,0,0,0.0,12.65,0.0,0,0,0,0.125,12.75,0.0,0,0,0,kReverse,kOff,-87.11,2.13,2.63,0.03753662,-0.9817505,0.038269043,34.71,0.0,2.0,-8.12001,11.751343,
189.04053299999998,true,true,true,0.125,12.65,0.0,0,0,0,0.125,12.65,0.0,0,0,0,0.125,12.65,0.0,0,0,0,0.125,12.65,0.0,0,0,0,0.125,12.65,0.0,4,0,0,0.0,12.65,0.0,0,0,0,0.125,12.75,0.0,0,0,0,kReverse,kOff,-87.1,2.14,2.63,0.03692627,-0.9867554,0.040283203,34.71,0.0,1.0,-8.12001,11.751343,
189.061179,true,true,true,0.125,12.65,0.0,0,0,0,0.125,12.65,0.0,0,0,0,0.125,12.65,0.0,0,0,0,0.125,12.65,0.0,0,0,0,0.125,12.65,0.0,4,0,0,0.0,12.65,0.0,0,0,0,0.125,12.75,0.0,0,0,0,kReverse,kOff,-87.1,2.14,2.63,0.04034424,-0.98046875,0.03375244,34.71,0.0,3.0,-8.12001,11.751343,
189.093592,true,true,true,0.125,12.65,0.0,0,0,0,0.125,12.65,0.0,0,0,0,0.125,12.65,0.0,0,0,0,0.125,12.65,0.0,0,0,0,0.125,12.65,0.0,4,0,0,0.0,12.65,0.0,0,0,0,0.125,12.75,0.0,0,0,0,kReverse,kOff,-87.1,2.14,2.63,0.03668213,-0.9834595,0.029968262,34.71,0.0,0.0,-8.12001,11.751343,
189.120516,true,true,true,0.125,12.65,0.0,0,0,0,0.125,12.65,0.0,0,0,0,0.125,12.65,0.0,0,0,0,0.125,12.65,0.0,0,0,0,0.125,12.65,0.0,4,0,0,0.0,12.65,0.0,0,0,0,0.125,12.75,0.0,0,0,0,kReverse,kOff,-87.1,2.14,2.63,0.03918457,-0.9863281,0.02746582,34.71,0.0,0.0,-8.12001,11.751343,
189.14415,true,true,true,0.125,12.65,0.0,0,0,0,0.125,12.65,0.0,0,0,0,0.125,12.65,0.0,0,0,0,0.125,12.65,0.0,0,0,0,0.125,12.65,0.0,4,0,0,0.0,12.65,0.0,0,0,0,0.125,12.75,0.0,0,0,0,kReverse,kOff,-87.1,2.14,2.63,0.0368042,-0.98553467,0.03881836,34.71,0.0,1.0,-8.12001,11.751343,
189.16460999999998,true,true,true,0.125,12.65,0.0,0,0,0,0.125,12.65,0.0,0,0,0,0.125,12.65,0.0,0,0,0,0.125,12.65,0.0,0,0,0,0.125,12.65,0.0,4,0,0,0.0,12.65,0.0,0,0,0,0.125,12.75,0.0,0,0,0,kReverse,kOff,-87.1,2.14,2.63,0.034362793,-0.98236084,0.032226562,34.71,0.0,-2.0,-8.12001,11.751343,
189.184765,true,true,true,0.125,12.65,0.0,0,0,0,0.125,12.65,0.0,0,0,0,0.125,12.65,0.0,0,0,0,0.125,12.65,0.0,0,0,0,0.125,12.65,0.0,4,0,0,0.0,12.65,0.0,0,0,0,0.125,12.75,0.0,0,0,0,kReverse,kOff,-87.1,2.13,2.63,0.036071777,-0.98413086,0.03326416,34.71,0.0,0.0,-8.12001,11.751343,
189.206257,true,true,true,0.125,12.65,0.0,0,0,0,0.125,12.65,0.0,0,0,0,0.125,12.65,0.0,0,0,0,0.125,12.65,0.0,0,0,0,0.125,12.65,0.0,4,0,0,0.0,12.65,0.0,0,0,0,0.125,12.75,0.0,0,0,0,kReverse,kOff,-87.1,2.13,2.63,0.034057617,-0.98205566,0.03363037,34.71,0.0,-2.0,-8.12001,11.751343,
189.232711,true,true,true,0.125,12.65,0.0,0,0,0,0.125,12.65,0.0,0,0,0,0.125,12.65,0.0,0,0,0,0.125,12.65,0.0,0,0,0,0.125,12.65,0.0,4,0,0,0.0,12.65,0.0,0,0,0,0.125,12.75,0.0,0,0,0,kReverse,kOff,-87.1,2.13,2.63,0.03778076,-0.9812622,0.035217285,34.71,0.0,1.0,-8.12001,11.751343,
189.25606399999998,true,true,true,0.125,12.65,0.0,0,0,0,0.125,12.65,0.0,0,0,0,0.125,12.65,0.0,0,0,0,0.125,12.65,0.0,0,0,0,0.125,12.65,0.0,4,0,0,0.0,12.65,0.0,0,0,0,0.125,12.75,0.0,0,0,0,kReverse,kOff,-87.1,2.14,2.63,0.03869629,-0.9812012,0.0345459,34.71,0.0,2.0,-8.12001,11.751343,
189.276193,true,true,true,0.125,12.65,0.0,0,0,0,0.125,12.65,0.0,0,0,0,0.125,12.65,0.0,0,0,0,0.125,12.65,0.0,0,0,0,0.125,12.65,0.0,4,0,0,0.0,12.65,0.0,0,0,0,0.125,12.75,0.0,0,0,0,kReverse,kOff,-87.1,2.14,2.63,0.03704834,-0.98394775,0.028503418,34.71,0.0,-1.0,-8.12001,11.751343,
189.299763,true,true,true,0.125,12.65,0.0,0,0,0,0.125,12.65,0.0,0,0,0,0.125,12.65,0.0,0,0,0,0.125,12.65,0.0,0,0,0,0.125,12.65,0.0,4,0,0,0.0,12.65,0.0,0,0,0,0.125,12.75,0.0,0,0,0,kReverse,kOff,-87.1,2.14,2.63,0.03515625,-0.9852905,0.02545166,34.71,0.0,-3.0,-8.12001,11.751343,
189.317316,true,true,true,0.125,12.65,0.0,0,0,0,0.125,12.65,0.0,0,0,0,0.125,12.65,0.0,0,0,0,0.125,12.65,0.0,0,0,0,0.125,12.65,0.0,4,0,0,0.0,12.65,0.0,0,0,0,0.125,12.75,0.0,0,0,0,kReverse,kOff,-87.1,2.14,2.63,0.0357666,-0.98272705,0.02923584,34.71,0.0,-2.0,-8.12001,11.751343,
189.33972999999997,true,true,true,0.125,12.65,0.0,0,0,0,0.125,12.65,0.0,0,0,0,0.125,12.65,0.0,0,0,0,0.125,12.65,0.0,0,0,0,0.125,12.65,0.0,4,0,0,0.0,12.65,0.0,0,0,0,0.125,12.75,0.0,0,0,0,kReverse,kOff,-87.1,2.14,2.63,0.03363037,-0.9824829,0.033447266,34.71,0.0,-3.0,-8.12001,11.751343,
189.36176799999998,true,true,true,0.125,12.65,0.0,0,0,0,0.125,12.65,0.0,0,0,0,0.125,12.65,0.0,0,0,0,0.125,12.65,0.0,0,0,0,0.125,12.65,0.0,4,0,0,0.0,12.65,0.0,0,0,0,0.125,12.75,0.0,0,0,0,kReverse,kOff,-87.1,2.14,2.63,0.03491211,-0.982666,0.029724121,34.71,0.0,-2.0,-8.12001,11.751343,
189.37973499999998,true,true,true,0.125,12.65,0.0,0,0,0,0.125,12.65,0.0,0,0,0,0.125,12.65,0.0,0,0,0,0.125,12.65,0.0,0,0,0,0.125,12.65,0.0,4,0,0,0.0,12.65,0.0,0,0,0,0.125,12.75,0.0,0,0,0,kReverse,kOff,-87.11,2.13,2.63,0.03857422,-0.9867554,0.031433105,34.71,0.0,1.0,-8.12001,11.751343,
189.39913099999998,true,true,true,0.125,12.65,0.0,0,0,0,0.125,12.65,0.0,0,0,0,0.125,12.65,0.0,0,0,0,0.125,12.65,0.0,0,0,0,0.125,12.65,0.0,4,0,0,0.0,12.65,0.0,0,0,0,0.125,12.75,0.0,0,0,0,kReverse,kOff,-87.1,2.14,2.63,0.037353516,-0.98480225,0.03387451,34.7,0.0,0.0,-8.12001,11.751343,
189.422704,true,true,true,0.125,12.65,0.0,0,0,0,0.125,12.65,0.0,0,0,0,0.125,12.65,0.0,0,0,0,0.125,12.65,0.0,0,0,0,0.125,12.65,0.0,4,0,0,0.0,12.65,0.0,0,0,0,0.125,12.75,0.0,0,0,0,kReverse,kOff,-87.1,2.14,2.63,0.037597656,-0.98461914,0.031311035,34.7,0.0,-1.0,-8.12001,11.751343,
189.444418,true,true,true,0.125,12.65,0.0,0,0,0,0.125,12.65,0.0,0,0,0,0.125,12.65,0.0,0,0,0,0.125,12.65,0.0,0,0,0,0.125,12.65,0.0,4,0,0,0.0,12.65,0.0,0,0,0,0.125,12.75,0.0,0,0,0,kReverse,kOff,-87.1,2.14,2.63,0.038513184,-0.9833374,0.028259277,34.7,0.0,0.0,-8.12001,11.751343,
189.465993,true,true,true,0.125,12.65,0.0,0,0,0,0.125,12.65,0.0,0,0,0,0.125,12.65,0.0,0,0,0,0.125,12.65,0.0,0,0,0,0.125,12.65,0.0,4,0,0,0.0,12.65,0.0,0,0,0,0.125,12.75,0.0,0,0,0,kReverse,kOff,-87.1,2.14,2.63,0.0368042,-0.98291016,0.030151367,34.7,0.0,0.0,-8.12001,11.751343,
189.489903,true,true,true,0.125,12.65,0.0,0,0,0,0.125,12.65,0.0,0,0,0,0.125,12.65,0.0,0,0,0,0.125,12.65,0.0,0,0,0,0.0,12.65,0.0,4,0,0,0.0,12.65,0.0,0,0,0,0.125,12.75,0.0,0,0,0,kReverse,kOff,-87.1,2.14,2.63,0.034118652,-0.98046875,0.03253174,34.7,0.0,-2.0,-8.12001,11.751343,
189.510084,true,true,true,0.125,12.65,0.0,0,0,0,0.125,12.65,0.0,0,0,0,0.125,12.65,0.0,0,0,0,0.125,12.65,0.0,0,0,0,0.0,12.65,0.0,4,0,0,0.0,12.65,0.0,0,0,0,0.125,12.75,0.0,0,0,0,kReverse,kOff,-87.1,2.14,2.63,0.039733887,-0.9840088,0.031188965,34.7,0.0,2.0,-8.12001,11.751343,
189.53212399999998,true,true,true,0.125,12.65,0.0,0,0,0,0.125,12.65,0.0,0,0,0,0.125,12.65,0.0,0,0,0,0.125,12.65,0.0,0,0,0,0.0,12.65,0.0,4,0,0,0.0,12.65,0.0,0,0,0,0.125,12.75,0.0,0,0,0,kReverse,kOff,-87.1,2.14,2.63,0.036254883,-0.98651123,0.035461426,34.7,0.0,0.0,-8.12001,11.751343,
189.55728699999997,true,true,true,0.125,12.65,0.0,0,0,0,0.125,12.65,0.0,0,0,0,0.125,12.65,0.0,0,0,0,0.125,12.65,0.0,0,0,0,0.125,12.65,0.0,4,0,0,0.0,12.65,0.0,0,0,0,0.125,12.75,0.0,0,0,0,kReverse,kOff,-87.1,2.14,2.63,0.03778076,-0.98413086,0.03302002,34.7,0.0,0.0,-8.12001,11.751343,
189.576663,true,true,true,0.125,12.65,0.0,0,0,0,0.125,12.65,0.0,0,0,0,0.125,12.65,0.0,0,0,0,0.125,12.65,0.0,0,0,0,0.125,12.65,0.0,4,0,0,0.0,12.65,0.0,0,0,0,0.125,12.75,0.0,0,0,0,kReverse,kOff,-87.1,2.14,2.63,0.034484863,-0.98461914,0.033813477,34.7,0.0,-2.0,-8.12001,11.751343,
189.599121,true,true,true,0.125,12.65,0.0,0,0,0,0.125,12.65,0.0,0,0,0,0.125,12.65,0.0,0,0,0,0.125,12.65,0.0,0,0,0,0.125,12.65,0.0,4,0,0,0.0,12.65,0.0,0,0,0,0.125,12.75,0.0,0,0,0,kReverse,kOff,-87.1,2.14,2.63,0.037841797,-0.9838867,0.03253174,34.7,0.0,0.0,-8.12001,11.751343,
189.619209,true,true,true,0.125,12.65,0.0,0,0,0,0.125,12.65,0.0,0,0,0,0.125,12.65,0.0,0,0,0,0.125,12.65,0.0,0,0,0,0.125,12.65,0.0,4,0,0,0.0,12.65,0.0,0,0,0,0.125,12.75,0.0,0,0,0,kReverse,kOff,-87.1,2.14,2.63,0.03729248,-0.9852905,0.035827637,34.7,0.0,0.0,-8.12001,11.751343,
189.64181399999998,true,true,true,0.125,12.65,0.0,0,0,0,0.125,12.65,0.0,0,0,0,0.125,12.65,0.0,0,0,0,0.125,12.65,0.0,0,0,0,0.125,12.65,0.0,4,0,0,0.0,12.65,0.0,0,0,0,0.125,12.75,0.0,0,0,0,kReverse,kOff,-87.1,2.14,2.63,0.03503418,-0.9840088,0.034606934,34.7,0.0,-1.0,-8.12001,11.751343,
189.658927,true,true,true,0.125,12.65,0.0,0,0,0,0.125,12.65,0.0,0,0,0,0.125,12.65,0.0,0,0,0,0.125,12.65,0.0,0,0,0,0.125,12.65,0.0,4,0,0,0.0,12.65,0.0,0,0,0,0.125,12.75,0.0,0,0,0,kReverse,kOff,-87.1,2.14,2.63,0.035827637,-0.98431396,0.034484863,34.7,0.0,0.0,-8.12001,11.751343,
189.681704,true,true,true,0.125,12.65,0.0,0,0,0,0.125,12.65,0.0,0,0,0,0.125,12.65,0.0,0,0,0,0.125,12.65,0.0,0,0,0,0.125,12.65,0.0,4,0,0,0.0,12.65,0.0,0,0,0,0.125,12.75,0.0,0,0,0,kReverse,kOff,-87.1,2.14,2.63,0.0368042,-0.9847412,0.034179688,34.7,0.0,0.0,-8.12001,11.751343,
189.70528,true,true,true,0.125,12.65,0.0,0,0,0,0.125,12.65,0.0,0,0,0,0.125,12.65,0.0,0,0,0,0.125,12.65,0.0,0,0,0,0.125,12.65,0.0,4,0,0,0.0,12.65,0.0,0,0,0,0.125,12.75,0.0,0,0,0,kReverse,kOff,-87.1,2.14,2.63,0.036132812,-0.9827881,0.03503418,34.7,0.0,0.0,-8.12001,11.751343,
189.72912399999998,true,true,true,0.125,12.65,0.0,0,0,0,0.125,12.65,0.0,0,0,0,0.125,12.65,0.0,0,0,0,0.125,12.65,0.0,0,0,0,0.125,12.65,0.0,4,0,0,0.0,12.65,0.0,0,0,0,0.125,12.75,0.0,0,0,0,kReverse,kOff,-87.1,2.14,2.63,0.036315918,-0.98272705,0.036010742,34.7,0.0,0.0,-8.12001,11.751343,
189.753448,true,true,true,0.125,12.65,0.0,0,0,0,0.125,12.65,0.0,0,0,0,0.125,12.65,0.0,0,0,0,0.125,12.65,0.0,0,0,0,0.125,12.65,0.0,4,0,0,0.0,12.65,0.0,0,0,0,0.125,12.75,0.0,0,0,0,kReverse,kOff,-87.1,2.14,2.63,0.035461426,-0.98376465,0.031982422,34.7,0.0,-1.0,-8.12001,11.751343,
189.782534,true,true,true,0.125,12.65,0.0,0,0,0,0.125,12.65,0.0,0,0,0,0.125,12.65,0.0,0,0,0,0.125,12.65,0.0,0,0,0,0.125,12.65,0.0,4,0,0,0.0,12.65,0.0,0,0,0,0.125,12.75,0.0,0,0,0,kReverse,kOff,-87.1,2.14,2.63,0.035705566,-0.9789429,0.03277588,34.7,0.0,-1.0,-8.12001,11.751343,
189.796236,true,true,true,0.125,12.65,0.0,0,0,0,0.125,12.65,0.0,0,0,0,0.125,12.65,0.0,0,0,0,0.125,12.65,0.0,0,0,0,0.125,12.65,0.0,4,0,0,0.0,12.65,0.0,0,0,0,0.125,12.75,0.0,0,0,0,kReverse,kOff,-87.11,2.13,2.63,0.03643799,-0.9824829,0.038024902,34.7,0.0,0.0,-8.12001,11.751343,
189.81014100000002,true,true,true,0.125,12.65,0.0,0,0,0,0.125,12.65,0.0,0,0,0,0.125,12.65,0.0,0,0,0,0.125,12.65,0.0,0,0,0,0.125,12.65,0.0,4,0,0,0.0,12.65,0.0,0,0,0,0.125,12.75,0.0,0,0,0,kReverse,kOff,-87.11,2.13,2.63,0.03643799,-0.9824829,0.038024902,34.7,0.0,0.0,-8.12001,11.751343,
189.823003,true,true,true,0.125,12.65,0.0,0,0,0,0.125,12.65,0.0,0,0,0,0.125,12.65,0.0,0,0,0,0.125,12.65,0.0,0,0,0,0.125,12.65,0.0,4,0,0,0.0,12.65,0.0,0,0,0,0.125,12.75,0.0,0,0,0,kReverse,kOff,-87.11,2.13,2.63,0.034484863,-0.9824219,0.03253174,34.7,0.0,-2.0,-8.12001,11.751343,
189.83527299999997,true,true,true,0.125,12.65,0.0,0,0,0,0.125,12.65,0.0,0,0,0,0.125,12.65,0.0,0,0,0,0.125,12.65,0.0,0,0,0,0.125,12.65,0.0,4,0,0,0.0,12.65,0.0,0,0,0,0.125,12.75,0.0,0,0,0,kReverse,kOff,-87.1,2.13,2.63,0.03515625,-0.97998047,0.03387451,34.7,0.0,-1.0,-8.12001,11.751343,
189.847808,true,true,true,0.125,12.65,0.0,0,0,0,0.125,12.65,0.0,0,0,0,0.125,12.65,0.0,0,0,0,0.125,12.65,0.0,0,0,0,0.125,12.65,0.0,4,0,0,0.0,12.65,0.0,0,0,0,0.125,12.75,0.0,0,0,0,kReverse,kOff,-87.1,2.13,2.63,0.037109375,-0.98413086,0.037719727,34.7,0.0,1.0,-8.12001,11.751343,
189.86009099999998,true,true,true,0.125,12.65,0.0,0,0,0,0.125,12.65,0.0,0,0,0,0.125,12.65,0.0,0,0,0,0.125,12.65,0.0,0,0,0,0.125,12.65,0.0,4,0,0,0.0,12.65,0.0,0,0,0,0.125,12.75,0.0,0,0,0,kReverse,kOff,-87.1,2.13,2.63,0.034240723,-0.98291016,0.03326416,34.7,0.0,-2.0,-8.12001,11.751343,
189.88519,true,true,true,0.125,12.65,0.0,0,0,0,0.125,12.65,0.0,0,0,0,0.125,12.65,0.0,0,0,0,0.125,12.65,0.0,0,0,0,0.125,12.65,0.0,4,0,0,0.0,12.65,0.0,0,0,0,0.125,12.75,0.0,0,0,0,kReverse,kOff,-87.1,2.13,2.63,0.035217285,-0.9862671,0.0345459,34.72,0.0,-1.0,-8.12001,11.751343,
189.91624099999999,true,true,true,0.125,12.65,0.0,0,0,0,0.125,12.65,0.0,0,0,0,0.125,12.65,0.0,0,0,0,0.125,12.65,0.0,0,0,0,0.125,12.65,0.0,4,0,0,0.0,12.65,0.0,0,0,0,0.125,12.75,0.0,0,0,0,kReverse,kOff,-87.1,2.13,2.63,0.038391113,-0.9835205,0.028869629,34.72,0.0,0.0,-8.12001,11.751343,
189.94377400000002,true,true,true,0.125,12.65,0.0,0,0,0,0.125,12.65,0.0,0,0,0,0.125,12.65,0.0,0,0,0,0.125,12.65,0.0,0,0,0,0.125,12.65,0.0,4,0,0,0.0,12.65,0.0,0,0,0,0.125,12.75,0.0,0,0,0,kReverse,kOff,-87.1,2.13,2.63,0.03466797,-0.9857178,0.03466797,34.72,0.0,-1.0,-8.12001,11.751343,
189.963587,true,true,true,0.125,12.65,0.0,0,0,0,0.125,12.65,0.0,0,0,0,0.125,12.65,0.0,0,0,0,0.125,12.65,0.0,0,0,0,0.125,12.65,0.0,4,0,0,0.0,12.65,0.0,0,0,0,0.125,12.75,0.0,0,0,0,kReverse,kOff,-87.1,2.13,2.63,0.03704834,-0.98321533,0.033081055,34.72,0.0,0.0,-8.12001,11.751343,
189.98615700000002,true,true,true,0.125,12.65,0.0,0,0,0,0.125,12.65,0.0,0,0,0,0.125,12.65,0.0,0,0,0,0.125,12.65,0.0,0,0,0,0.125,12.65,0.0,4,0,0,0.0,12.65,0.0,0,0,0,0.125,12.75,0.0,0,0,0,kReverse,kOff,-87.1,2.13,2.63,0.03753662,-0.9841919,0.036254883,34.72,0.0,1.0,-8.12001,11.751343,
190.007679,true,true,true,0.125,12.65,0.0,0,0,0,0.125,12.65,0.0,0,0,0,0.125,12.65,0.0,0,0,0,0.125,12.65,0.0,0,0,0,0.125,12.65,0.0,4,0,0,0.0,12.65,0.0,0,0,0,0.125,12.75,0.0,0,0,0,kReverse,kOff,-87.1,2.13,2.63,0.03479004,-0.98724365,0.03503418,34.72,0.0,-1.0,-8.12001,11.751343,
190.028535,true,true,true,0.125,12.65,0.0,0,0,0,0.125,12.65,0.0,0,0,0,0.125,12.65,0.0,0,0,0,0.125,12.65,0.0,0,0,0,0.125,12.65,0.0,4,0,0,0.0,12.65,0.0,0,0,0,0.125,12.75,0.0,0,0,0,kReverse,kOff,-87.1,2.13,2.63,0.036499023,-0.98223877,0.033691406,34.72,0.0,0.0,-8.12001,11.751343,
190.051201,true,true,true,0.125,12.65,0.0,0,0,0,0.125,12.65,0.0,0,0,0,0.125,12.65,0.0,0,0,0,0.125,12.65,0.0,0,0,0,0.125,12.65,0.0,4,0,0,0.0,12.65,0.0,0,0,0,0.125,12.75,0.0,0,0,0,kReverse,kOff,-87.1,2.13,2.63,0.034362793,-0.98339844,0.03375244,34.72,0.0,-2.0,-8.12001,11.751343,
190.074918,true,true,true,0.125,12.65,0.0,0,0,0,0.125,12.65,0.0,0,0,0,0.125,12.65,0.0,0,0,0,0.125,12.65,0.0,0,0,0,0.125,12.65,0.0,4,0,0,0.0,12.65,0.0,0,0,0,0.125,12.75,0.0,0,0,0,kReverse,kOff,-87.1,2.13,2.63,0.039611816,-0.9848633,0.032409668,34.72,0.0,2.0,-8.12001,11.751343,
190.095818,true,true,true,0.125,12.65,0.0,0,0,0,0.125,12.65,0.0,0,0,0,0.125,12.65,0.0,0,0,0,0.125,12.65,0.0,0,0,0,0.125,12.65,0.0,4,0,0,0.0,12.65,0.0,0,0,0,0.125,12.75,0.0,0,0,0,kReverse,kOff,-87.1,2.13,2.63,0.0357666,-0.9810791,0.036987305,34.72,0.0,0.0,-8.12001,11.751343,
190.129956,true,true,true,0.125,12.65,0.0,0,0,0,0.125,12.65,0.0,0,0,0,0.125,12.65,0.0,0,0,0,0.125,12.65,0.0,0,0,0,0.125,12.65,0.0,4,0,0,0.0,12.65,0.0,0,0,0,0.125,12.75,0.0,0,0,0,kReverse,kOff,-87.1,2.13,2.62,0.036865234,-0.98498535,0.035888672,34.72,0.0,0.0,-8.12001,11.751343,
190.15376799999999,true,true,true,0.125,12.65,0.0,0,0,0,0.125,12.65,0.0,0,0,0,0.125,12.65,0.0,0,0,0,0.125,12.65,0.0,0,0,0,0.125,12.65,0.0,4,0,0,0.0,12.65,0.0,0,0,0,0.125,12.75,0.0,0,0,0,kReverse,kOff,-87.1,2.13,2.63,0.03503418,-0.9844971,0.03338623,34.72,0.0,-1.0,-8.12001,11.751343,
190.175687,true,true,true,0.125,12.65,0.0,0,0,0,0.125,12.65,0.0,0,0,0,0.125,12.65,0.0,0,0,0,0.125,12.65,0.0,0,0,0,0.125,12.65,0.0,4,0,0,0.0,12.65,0.0,0,0,0,0.125,12.75,0.0,0,0,0,kReverse,kOff,-87.1,2.13,2.63,0.0368042,-0.9840698,0.030517578,34.72,0.0,0.0,-8.12001,11.751343,
190.19838499999997,true,true,true,0.125,12.65,0.0,0,0,0,0.125,12.65,0.0,0,0,0,0.125,12.65,0.0,0,0,0,0.125,12.65,0.0,0,0,0,0.125,12.65,0.0,4,0,0,0.0,12.65,0.0,0,0,0,0.125,12.75,0.0,0,0,0,kReverse,kOff,-87.1,2.13,2.62,0.037231445,-0.98309326,0.032287598,34.72,0.0,0.0,-8.12001,11.751343,
190.22456,true,true,true,0.125,12.65,0.0,0,0,0,0.125,12.65,0.0,0,0,0,0.125,12.65,0.0,0,0,0,0.125,12.65,0.0,0,0,0,0.125,12.65,0.0,4,0,0,0.0,12.65,0.0,0,0,0,0.125,12.75,0.0,0,0,0,kReverse,kOff,-87.1,2.13,2.62,0.039001465,-0.98236084,0.034240723,34.72,0.0,2.0,-8.12001,11.751343,
190.244712,true,true,true,0.125,12.65,0.0,0,0,0,0.125,12.65,0.0,0,0,0,0.125,12.65,0.0,0,0,0,0.125,12.65,0.0,0,0,0,0.125,12.65,0.0,4,0,0,0.0,12.65,0.0,0,0,0,0.125,12.75,0.0,0,0,0,kReverse,kOff,-87.1,2.13,2.62,0.036987305,-0.9837036,0.034179688,34.72,0.0,0.0,-8.12001,11.751343,
190.265513,true,true,true,0.125,12.65,0.0,0,0,0,0.125,12.65,0.0,0,0,0,0.125,12.65,0.0,0,0,0,0.125,12.65,0.0,0,0,0,0.125,12.65,0.0,4,0,0,0.0,12.65,0.0,0,0,0,0.125,12.75,0.0,0,0,0,kReverse,kOff,-87.1,2.13,2.63,0.037963867,-0.9838867,0.034851074,34.72,0.0,1.0,-8.12001,11.751343,
190.28851799999998,true,true,true,0.125,12.65,0.0,0,0,0,0.125,12.65,0.0,0,0,0,0.125,12.65,0.0,0,0,0,0.125,12.65,0.0,0,0,0,0.125,12.65,0.0,4,0,0,0.0,12.65,0.0,0,0,0,0.125,12.75,0.0,0,0,0,kReverse,kOff,-87.1,2.13,2.62,0.037109375,-0.9822998,0.034729004,34.72,0.0,0.0,-8.12001,11.751343,
190.307544,true,true,true,0.125,12.65,0.0,0,0,0,0.125,12.65,0.0,0,0,0,0.125,12.65,0.0,0,0,0,0.125,12.65,0.0,0,0,0,0.125,12.65,0.0,4,0,0,0.0,12.65,0.0,0,0,0,0.125,12.75,0.0,0,0,0,kReverse,kOff,-87.09,2.13,2.63,0.038208008,-0.9837036,0.03338623,34.72,0.0,1.0,-8.12001,11.751343,
190.32843499999998,true,true,true,0.125,12.65,0.0,0,0,0,0.125,12.65,0.0,0,0,0,0.125,12.65,0.0,0,0,0,0.125,12.65,0.0,0,0,0,0.125,12.65,0.0,4,0,0,0.0,12.65,0.0,0,0,0,0.125,12.75,0.0,0,0,0,kReverse,kOff,-87.1,2.13,2.63,0.035949707,-0.9842529,0.03289795,34.72,0.0,0.0,-8.12001,11.751343,
190.351383,true,true,true,0.125,12.65,0.0,0,0,0,0.125,12.65,0.0,0,0,0,0.125,12.65,0.0,0,0,0,0.125,12.65,0.0,0,0,0,0.125,12.65,0.0,4,0,0,0.625,12.65,0.0,0,0,0,0.125,12.75,0.0,0,0,0,kReverse,kOff,-87.09,2.13,2.64,0.036865234,-0.98657227,0.030639648,34.72,0.0,0.0,-8.12001,11.751343,
190.375449,true,true,true,0.125,12.65,0.0,0,0,0,0.125,12.65,0.0,0,0,0,0.125,12.65,0.0,0,0,0,0.125,12.65,0.0,0,0,0,0.125,12.65,0.0,4,0,0,0.875,12.65,0.0,0,0,0,0.125,12.75,0.0,0,0,0,kReverse,kOff,-87.09,2.13,2.63,0.04034424,-0.9848633,0.030578613,34.72,0.0,2.0,-8.12001,11.751343,
190.399008,true,true,true,0.125,12.65,0.0,0,0,0,0.125,12.6,0.0,0,0,0,0.125,12.65,0.0,0,0,0,0.125,12.65,0.0,0,0,0,0.125,12.65,0.0,4,0,0,1.25,12.65,0.0,0,0,0,0.125,12.75,0.0,0,0,0,kReverse,kOff,-87.1,2.13,2.63,0.034301758,-0.98321533,0.031311035,34.74,0.0,-2.0,-8.12001,11.751343,
190.42503399999998,true,true,true,0.125,12.6,0.0,0,0,0,0.125,12.6,0.0,0,0,0,0.125,12.6,0.0,0,0,0,0.125,12.6,0.0,0,0,0,0.125,12.6,0.0,4,0,0,1.25,12.65,0.0,0,0,0,0.125,12.65,0.0,0,0,0,kReverse,kOff,-87.1,2.13,2.63,0.034301758,-0.98321533,0.031311035,34.74,0.0,-2.0,-8.12001,11.751343,
190.44476600000002,true,true,true,0.125,12.6,0.0,0,0,0,0.125,12.6,0.0,0,0,0,0.125,12.6,0.0,0,0,0,0.125,12.6,0.0,0,0,0,0.125,12.6,0.0,4,0,0,1.25,12.6,0.0,0,0,0,0.125,12.65,0.0,0,0,0,kReverse,kOff,-87.1,2.13,2.63,0.042297363,-0.9984131,0.033081055,34.74,0.0,4.0,-8.12001,11.751343,
190.463975,true,true,true,0.125,12.6,0.0,0,0,0,0.125,12.6,0.0,0,0,0,0.125,12.6,0.0,0,0,0,0.125,12.6,0.0,0,0,0,0.125,12.6,0.0,4,0,0,1.5,12.6,0.0,0,0,0,0.125,12.65,0.0,0,0,0,kReverse,kOff,-87.09,2.13,2.64,0.04711914,-0.97210693,0.03656006,34.74,0.0,11.0,-8.12001,11.751343,
190.48316699999998,true,true,true,0.125,12.6,0.0,0,0,0,0.125,12.6,0.0,0,0,0,0.125,12.6,0.0,0,0,0,0.125,12.6,0.0,0,0,0,0.125,12.6,0.0,4,0,0,1.75,12.6,0.0,0,0,0,0.125,12.65,0.0,0,0,0,kReverse,kOff,-87.09,2.13,2.64,0.055603027,-1.0137329,0.045043945,34.74,0.0,19.0,-8.12001,11.751343,
190.502641,true,true,true,0.125,12.6,0.0,0,0,0,0.125,12.6,0.0,0,0,0,0.125,12.6,0.0,0,0,0,0.125,12.6,0.0,0,0,0,0.125,12.6,0.0,4,0,0,1.875,12.6,0.0,0,0,0,0.125,12.65,0.0,0,0,0,kReverse,kOff,-87.11,2.12,2.62,0.008178711,-0.97662354,-0.012878418,34.74,0.0,-38.0,-8.120041,11.751312,
190.52552899999998,true,true,true,0.125,12.6,0.0,0,0,0,0.125,12.6,0.0,0,0,0,0.125,12.6,0.0,0,0,0,0.125,12.6,0.0,0,0,0,0.125,12.6,0.0,4,0,0,1.875,12.6,0.0,0,0,0,0.125,12.65,0.0,0,0,0,kReverse,kOff,-87.1,2.13,2.62,0.07122803,-0.95526123,0.08691406,34.74,0.0,47.0,-8.120071,11.7512665,
190.54592399999999,true,true,true,0.125,12.6,0.0,0,0,0,0.125,12.6,0.0,0,0,0,0.125,12.6,0.0,0,0,0,0.125,12.6,0.0,0,0,0,0.125,12.6,0.0,4,0,0,1.125,12.6,0.0,0,0,0,0.125,12.65,0.0,0,0,0,kReverse,kOff,-87.11,2.15,2.64,0.04309082,-0.9957886,0.020690918,34.74,0.0,2.0,-8.120087,11.751144,
190.56645799999998,true,true,true,0.125,12.6,0.0,0,0,0,0.125,12.6,0.0,0,0,0,0.125,12.6,0.0,0,0,0,0.125,12.6,0.0,0,0,0,0.125,12.6,0.0,4,0,0,0.625,12.6,0.0,0,0,0,0.125,12.65,0.0,0,0,0,kReverse,kOff,-87.1,2.15,2.64,0.029968262,-0.96069336,0.022094727,34.74,0.0,-8.0,-8.120087,11.751053,
190.588389,true,true,true,0.125,12.65,0.0,0,0,0,0.125,12.6,0.0,0,0,0,0.125,12.6,0.0,0,0,0,0.125,12.65,0.0,0,0,0,0.125,12.65,0.0,4,0,0,0.25,12.6,0.0,0,0,0,0.125,12.700000000000001,0.0,0,0,0,kReverse,kOff,-87.1,2.15,2.64,0.048950195,-0.96777344,0.094055176,34.74,0.0,27.0,-8.120071,11.750992,
190.61020299999998,true,true,true,0.125,12.65,0.0,0,0,0,0.125,12.6,0.0,0,0,0,0.125,12.6,0.0,0,0,0,0.125,12.65,0.0,0,0,0,0.125,12.65,0.0,4,0,0,0.0,12.65,0.0,0,0,0,0.125,12.700000000000001,0.0,0,0,0,kReverse,kOff,-87.09,2.15,2.64,0.03753662,-1.00177,0.008911133,34.74,0.0,-6.0,-8.11998,11.750977,
190.62915099999998,true,true,true,0.125,12.65,0.0,0,0,0,0.125,12.6,0.0,0,0,0,0.125,12.6,0.0,0,0,0,0.125,12.65,0.0,0,0,0,0.125,12.65,0.0,4,0,0,0.0,12.65,0.0,0,0,0,0.125,12.700000000000001,0.0,0,0,0,kReverse,kOff,-87.09,2.14,2.64,0.019714355,-0.9772339,0.0064086914,34.74,0.0,-23.0,-8.119965,11.750931,
190.64985099999998,true,true,true,0.125,12.65,0.0,0,0,0,0.125,12.6,0.0,0,0,0,0.125,12.6,0.0,0,0,0,0.125,12.65,0.0,0,0,0,0.125,12.65,0.0,4,0,0,0.0,12.65,0.0,0,0,0,0.125,12.700000000000001,0.0,0,0,0,kReverse,kOff,-87.1,2.13,2.63,0.03729248,-0.99279785,0.02166748,34.74,0.0,-2.0,-8.119934,11.750885,
190.67016499999997,true,true,true,0.125,12.65,0.0,0,0,0,0.125,12.6,0.0,0,0,0,0.125,12.6,0.0,0,0,0,0.125,12.65,0.0,0,0,0,0.125,12.65,0.0,4,0,0,0.0,12.65,0.0,0,0,0,0.125,12.700000000000001,0.0,0,0,0,kReverse,kOff,-87.11,2.13,2.62,0.020019531,-1.005249,-0.016052246,34.74,0.0,-29.0,-8.119949,11.7508545,
190.695421,true,true,true,0.125,12.65,0.0,0,0,0,0.125,12.6,0.0,0,0,0,0.125,12.6,0.0,0,0,0,0.125,12.65,0.0,0,0,0,0.125,12.65,0.0,4,0,0,0.0,12.65,0.0,0,0,0,0.125,12.700000000000001,0.0,0,0,0,kReverse,kOff,-87.11,2.13,2.62,0.024841309,-0.95977783,0.082214355,34.74,0.0,33.0,-8.119995,11.750824,
190.717769,true,true,true,0.125,12.65,0.0,0,0,0,0.125,12.65,0.0,0,0,0,0.125,12.6,0.0,0,0,0,0.125,12.65,0.0,0,0,0,0.125,12.65,0.0,4,0,0,0.0,12.65,0.0,0,0,0,0.125,12.700000000000001,0.0,0,0,0,kReverse,kOff,-87.08,2.13,2.64,0.032714844,-1.0045776,0.025512695,34.74,0.0,-6.0,-8.11998,11.7508545,
190.738352,true,true,true,0.125,12.65,0.0,0,0,0,0.125,12.65,0.0,0,0,0,0.125,12.65,0.0,0,0,0,0.125,12.65,0.0,0,0,0,0.125,12.65,0.0,4,0,0,0.0,12.65,0.0,0,0,0,0.125,12.700000000000001,0.0,0,0,0,kReverse,kOff,-87.1,2.14,2.63,0.0335083,-0.9970093,-0.039489746,34.74,0.0,-21.0,-8.119995,11.750824,
190.758573,true,true,true,0.125,12.65,0.0,0,0,0,0.125,12.65,0.0,0,0,0,0.125,12.65,0.0,0,0,0,0.125,12.65,0.0,0,0,0,0.125,12.65,0.0,4,0,0,0.0,12.65,0.0,0,0,0,0.125,12.75,0.0,0,0,0,kReverse,kOff,-87.1,2.14,2.64,0.02734375,-0.98638916,0.052001953,34.74,0.0,-4.0,-8.120041,11.750702,
190.784045,true,true,true,0.125,12.65,0.0,0,0,0,0.125,12.65,0.0,0,0,0,0.125,12.65,0.0,0,0,0,0.125,12.65,0.0,0,0,0,0.125,12.65,0.0,4,0,0,0.0,12.65,0.0,0,0,0,0.125,12.75,0.0,0,0,0,kReverse,kOff,-87.1,2.13,2.63,0.051513672,-0.97454834,0.059753418,34.74,0.0,21.0,-8.120026,11.750626,
190.807332,true,true,true,0.125,12.65,0.0,0,0,0,0.125,12.65,0.0,0,0,0,0.125,12.65,0.0,0,0,0,0.125,12.65,0.0,0,0,0,0.0,12.65,0.0,4,0,0,0.0,12.65,0.0,0,0,0,0.125,12.75,0.0,0,0,0,kReverse,kOff,-87.09,2.14,2.64,0.01550293,-0.9902954,0.033813477,34.74,0.0,-20.0,-8.12001,11.75061,
190.829547,true,true,true,0.125,12.65,0.0,0,0,0,0.125,12.65,0.0,0,0,0,0.125,12.65,0.0,0,0,0,0.125,12.65,0.0,0,0,0,0.0,12.65,0.0,4,0,0,0.0,12.65,0.0,0,0,0,0.125,12.75,0.0,0,0,0,kReverse,kOff,-87.1,2.13,2.63,0.028747559,-0.97869873,0.015625,34.74,0.0,-11.0,-8.12001,11.75061,
190.851487,true,true,true,0.125,12.65,0.0,0,0,0,0.125,12.65,0.0,0,0,0,0.125,12.65,0.0,0,0,0,0.125,12.65,0.0,0,0,0,0.0,12.65,0.0,4,0,0,0.0,12.65,0.0,0,0,0,0.125,12.75,0.0,0,0,0,kReverse,kOff,-87.11,2.13,2.62,0.030151367,-0.9929199,0.0345459,34.74,0.0,-6.0,-8.12001,11.75061,
190.87803200000002,true,true,true,0.125,12.65,0.0,0,0,0,0.125,12.65,0.0,0,0,0,0.125,12.65,0.0,0,0,0,0.125,12.65,0.0,0,0,0,0.0,12.65,0.0,4,0,0,0.0,12.65,0.0,0,0,0,0.125,12.75,0.0,0,0,0,kReverse,kOff,-87.09,2.13,2.63,0.038330078,-0.97662354,0.040039062,34.74,0.0,3.0,-8.12001,11.75061,
190.905718,true,true,true,0.125,12.65,0.0,0,0,0,0.125,12.65,0.0,0,0,0,0.125,12.65,0.0,0,0,0,0.125,12.65,0.0,0,0,0,0.0,12.65,0.0,4,0,0,0.0,12.65,0.0,0,0,0,0.125,12.75,0.0,0,0,0,kReverse,kOff,-87.09,2.13,2.64,0.0413208,-0.98327637,0.015991211,34.76,0.0,0.0,-8.12001,11.75061,
190.92683499999998,true,true,true,0.125,12.65,0.0,0,0,0,0.125,12.65,0.0,0,0,0,0.125,12.65,0.0,0,0,0,0.125,12.65,0.0,0,0,0,0.0,12.65,0.0,4,0,0,0.0,12.65,0.0,0,0,0,0.125,12.75,0.0,0,0,0,kReverse,kOff,-87.09,2.14,2.64,0.03656006,-0.97680664,0.030822754,34.76,0.0,0.0,-8.12001,11.75061,
190.947805,true,true,true,0.125,12.65,0.0,0,0,0,0.125,12.65,0.0,0,0,0,0.125,12.65,0.0,0,0,0,0.125,12.65,0.0,0,0,0,0.125,12.65,0.0,4,0,0,0.0,12.65,0.0,0,0,0,0.125,12.75,0.0,0,0,0,kReverse,kOff,-87.1,2.14,2.63,0.03765869,-0.9829712,0.03479004,34.76,0.0,1.0,-8.12001,11.75061,
190.968957,true,true,true,0.125,12.65,0.0,0,0,0,0.125,12.65,0.0,0,0,0,0.125,12.65,0.0,0,0,0,0.125,12.65,0.0,0,0,0,0.125,12.65,0.0,4,0,0,0.0,12.65,0.0,0,0,0,0.125,12.75,0.0,0,0,0,kReverse,kOff,-87.09,2.13,2.64,0.040283203,-0.9777832,0.04724121,34.76,0.0,6.0,-8.12001,11.75061,
190.990183,true,true,true,0.125,12.65,0.0,0,0,0,0.125,12.65,0.0,0,0,0,0.125,12.65,0.0,0,0,0,0.125,12.65,0.0,0,0,0,0.125,12.65,0.0,4,0,0,0.0,12.65,0.0,0,0,0,0.125,12.75,0.0,0,0,0,kReverse,kOff,-87.09,2.13,2.63,0.03491211,-0.98791504,0.023742676,34.76,0.0,-4.0,-8.12001,11.75061,
191.02294199999997,true,true,true,0.125,12.65,0.0,0,0,0,0.125,12.65,0.0,0,0,0,0.125,12.65,0.0,0,0,0,0.125,12.65,0.0,0,0,0,0.125,12.65,0.0,4,0,0,0.0,12.65,0.0,0,0,0,0.125,12.75,0.0,0,0,0,kReverse,kOff,-87.1,2.13,2.62,0.032836914,-0.98083496,0.032165527,34.76,0.0,-3.0,-8.12001,11.75061,
191.045706,true,true,true,0.125,12.65,0.0,0,0,0,0.125,12.65,0.0,0,0,0,0.125,12.65,0.0,0,0,0,0.125,12.65,0.0,0,0,0,0.125,12.65,0.0,4,0,0,0.0,12.65,0.0,0,0,0,0.125,12.75,0.0,0,0,0,kReverse,kOff,-87.1,2.13,2.62,0.037353516,-0.9850464,0.038879395,34.76,0.0,1.0,-8.12001,11.75061,
191.06768599999998,true,true,true,0.125,12.65,0.0,0,0,0,0.125,12.65,0.0,0,0,0,0.125,12.65,0.0,0,0,0,0.125,12.65,0.0,0,0,0,0.125,12.65,0.0,4,0,0,0.625,12.65,0.0,0,0,0,0.125,12.700000000000001,0.0,0,0,0,kReverse,kOff,-87.09,2.13,2.63,0.041870117,-0.9818115,0.03942871,34.76,0.0,6.0,-8.12001,11.75061,
191.089801,true,true,true,0.125,12.65,0.0,0,0,0,0.125,12.65,0.0,0,0,0,0.125,12.65,0.0,0,0,0,0.125,12.65,0.0,0,0,0,0.125,12.65,0.0,4,0,0,1.75,12.55,0.0,0,0,0,0.125,12.700000000000001,0.0,0,0,0,kReverse,kOff,-87.09,2.13,2.64,0.044189453,-1.0003052,0.016723633,34.76,0.0,2.0,-8.12001,11.75061,
191.111585,true,true,true,0.125,12.65,0.0,0,0,0,0.125,12.65,0.0,0,0,0,0.125,12.65,0.0,0,0,0,0.125,12.65,0.0,0,0,0,0.125,12.65,0.0,4,0,0,5.75,12.55,0.0,0,0,0,0.125,12.700000000000001,0.0,0,0,0,kReverse,kOff,-87.1,2.14,2.64,0.04937744,-0.9771118,0.041870117,34.76,0.0,14.0,-8.12001,11.75061,
191.145118,true,true,true,0.125,12.65,0.0,0,0,0,0.125,12.65,0.0,0,0,0,0.125,12.65,0.0,0,0,0,0.125,12.65,0.0,0,0,0,0.125,12.65,0.0,4,0,0,6.0,12.55,0.0,0,0,0,0.125,12.700000000000001,0.0,0,0,0,kReverse,kOff,-87.09,2.14,2.64,0.008911133,-0.9857788,-0.020751953,34.76,0.0,-40.0,-8.120041,11.750565,
191.172394,true,true,true,0.125,12.65,0.0,0,0,0,0.125,12.65,0.0,0,0,0,0.125,12.65,0.0,0,0,0,0.125,12.65,0.0,0,0,0,0.125,12.65,0.0,4,0,0,6.375,12.55,0.0,0,0,0,0.125,12.700000000000001,0.0,0,0,0,kReverse,kOff,-87.11,2.13,2.62,0.03186035,-1.0217285,-0.059631348,34.76,0.0,-29.0,-8.120056,11.750458,
191.19738199999998,true,true,true,0.125,12.65,0.0,0,0,0,0.125,12.35,0.0,0,0,0,0.125,12.65,0.0,0,0,0,0.125,12.65,0.0,0,0,0,0.125,12.65,0.0,4,0,0,8.25,12.55,0.0,0,0,0,0.125,12.700000000000001,0.0,0,0,0,kReverse,kOff,-87.13,2.13,2.62,-0.019836426,-1.0491333,0.055236816,34.76,0.0,-52.0,-8.120117,11.750351,
191.22149599999997,true,true,true,0.125,12.25,0.0,0,0,0,0.125,12.35,0.0,0,0,0,0.125,12.25,0.0,0,0,0,0.125,12.3,0.0,0,0,0,0.125,12.25,0.0,4,0,0,11.25,12.55,0.0,0,0,0,0.125,12.3,0.0,0,0,0,kReverse,kOff,-87.07,2.15,2.65,0.10595703,-1.0270996,-0.048461914,34.76,0.0,44.0,-8.120148,11.750519,
191.244821,true,true,true,0.125,12.25,0.0,0,0,0,0.125,12.35,0.0,0,0,0,0.125,12.25,0.0,0,0,0,0.125,12.3,0.0,0,0,0,0.125,12.25,0.0,4,0,0,12.0,12.15,0.0,0,0,0,0.125,12.3,0.0,0,0,0,kReverse,kOff,-87.11,2.15,2.64,-0.036499023,-1.0008545,0.13323975,34.76,0.0,-47.0,-8.120117,11.750641,
191.26397199999997,true,true,true,0.125,12.25,0.0,0,0,0,0.125,12.35,0.0,0,0,0,0.125,12.25,0.0,0,0,0,0.125,12.3,0.0,0,0,0,0.125,12.25,0.0,4,0,0,11.875,12.15,0.0,0,0,0,0.125,12.3,0.0,0,0,0,kReverse,kOff,-87.09,2.14,2.65,-0.012817383,-1.0762329,0.10021973,34.76,0.0,-35.0,-8.120316,11.750687,
191.286484,true,true,true,0.125,12.25,0.0,0,0,0,0.125,12.35,0.0,0,0,0,0.125,12.25,0.0,0,0,0,0.125,12.3,0.0,0,0,0,0.125,12.25,0.0,4,0,0,11.75,12.15,0.0,0,0,0,0.125,12.3,0.0,0,0,0,kReverse,kOff,-87.09,2.08,2.59,-0.051879883,-0.855896,0.1942749,34.76,0.0,-40.0,-8.120453,11.751251,
191.308248,true,true,true,0.125,12.25,0.0,0,0,0,0.125,12.35,0.0,0,0,0,0.125,12.25,0.0,0,0,0,0.125,12.3,0.0,0,0,0,0.125,12.25,0.0,4,0,0,11.875,12.15,0.0,0,0,0,0.125,12.3,0.0,0,0,0,kReverse,kOff,-87.1,2.07,2.58,-0.14569092,-0.96813965,0.1574707,34.76,0.0,-145.0,-8.120636,11.751907,
191.33010199999998,true,true,true,0.125,12.25,0.0,0,0,0,0.125,12.35,0.0,0,0,0,0.125,12.25,0.0,0,0,0,0.125,12.3,0.0,0,0,0,0.125,12.25,0.0,4,0,0,12.125,12.15,0.0,0,0,0,0.125,12.3,0.0,0,0,0,kReverse,kOff,-87.17,2.01,2.51,0.25378418,-0.8413696,0.06341553,34.76,0.0,225.0,-8.120972,11.75322,
191.353007,true,true,true,0.125,12.25,0.0,0,0,0,0.125,12.35,0.0,0,0,0,0.125,12.25,0.0,0,0,0,0.125,12.3,0.0,0,0,0,0.125,12.25,0.0,4,0,0,11.75,12.15,0.0,0,0,0,0.125,12.3,0.0,0,0,0,kReverse,kOff,-87.0,2.11,2.66,0.24212646,-1.0335083,-0.070129395,34.76,0.0,170.0,-8.120789,11.753723,
191.374535,true,true,true,0.125,12.25,0.0,0,0,0,0.125,12.200000000000001,0.0,0,0,0,0.125,12.25,0.0,0,0,0,0.125,12.25,0.0,0,0,0,0.0,12.25,0.0,4,0,0,11.375,12.15,0.0,0,0,0,0.125,12.35,0.0,0,0,0,kReverse,kOff,-87.11,2.08,2.59,-0.18780518,-1.0145264,-0.056030273,34.76,0.0,-240.0,-8.1202545,11.754822,
191.403348,true,true,true,0.125,12.25,0.0,0,0,0,0.125,12.200000000000001,0.0,0,0,0,0.125,12.25,0.0,0,0,0,0.125,12.25,0.0,0,0,0,0.0,12.25,0.0,4,0,0,11.0,12.1,0.0,0,0,0,0.125,12.35,0.0,0,0,0,kReverse,kOff,-87.23,1.98,2.47,-0.024658203,-0.881958,-0.1484375,34.76,0.0,-97.0,-8.120285,11.755295,
191.42443899999998,true,true,true,0.125,12.25,0.0,0,0,0,0.125,12.200000000000001,0.0,0,0,0,0.125,12.25,0.0,0,0,0,0.125,12.25,0.0,0,0,0,0.0,12.25,0.0,4,0,0,10.125,12.1,0.0,0,0,0,0.125,12.35,0.0,0,0,0,kReverse,kOff,-87.13,2.08,2.74,0.15649414,-1.0612793,0.113708496,34.76,0.0,130.0,-8.119751,11.756241,
191.44358799999998,true,true,true,0.125,12.25,0.0,0,0,0,0.125,12.200000000000001,0.0,0,0,0,0.125,12.25,0.0,0,0,0,0.125,12.25,0.0,0,0,0,0.125,12.25,0.0,4,0,0,8.25,12.1,0.0,0,0,0,0.125,12.35,0.0,0,0,0,kReverse,kOff,-86.95,2.23,2.76,-0.30200195,-1.0011597,-0.16784668,34.76,0.0,-380.0,-8.119522,11.756714,
191.465957,true,true,true,0.125,12.25,0.0,0,0,0,0.125,12.200000000000001,0.0,0,0,0,0.125,12.25,0.0,0,0,0,0.125,12.25,0.0,0,0,0,0.125,12.25,0.0,4,0,0,6.875,12.1,0.0,0,0,0,0.125,12.35,0.0,0,0,0,kReverse,kOff,-87.14,2.11,2.6,0.22790527,-1.1920776,0.09161377,34.76,0.0,190.0,-8.119873,11.757156,
191.488474,true,true,true,0.125,12.25,0.0,0,0,0,0.125,12.200000000000001,0.0,0,0,0,0.125,12.25,0.0,0,0,0,0.125,12.25,0.0,0,0,0,0.125,12.25,0.0,4,0,0,5.625,12.1,0.0,0,0,0,0.125,12.35,0.0,0,0,0,kReverse,kOff,-87.0,2.19,2.71,0.17523193,-1.0166016,0.22277832,34.76,0.0,178.0,-8.119797,11.757416,
191.512206,true,true,true,0.125,12.25,0.0,0,0,0,0.125,12.200000000000001,0.0,0,0,0,0.125,12.25,0.0,0,0,0,0.125,12.25,0.0,0,0,0,0.125,12.25,0.0,4,0,0,6.625,12.1,0.0,0,0,0,0.125,12.35,0.0,0,0,0,kReverse,kOff,-87.09,2.1,2.61,-0.074645996,-1.0905762,-0.19189453,34.76,0.0,-167.0,-8.12001,11.758392,
191.534568,true,true,true,0.125,12.35,0.0,0,0,0,0.125,12.4,0.0,0,0,0,0.125,12.35,0.0,0,0,0,0.125,12.4,0.0,0,0,0,0.125,12.4,0.0,4,0,0,6.625,12.1,0.0,0,0,0,0.125,12.35,0.0,0,0,0,kReverse,kOff,-87.09,2.1,2.61,-0.074645996,-1.0905762,-0.19189453,34.76,0.0,-167.0,-8.12001,11.758392,
191.56047099999998,true,true,true,0.125,12.35,0.0,0,0,0,0.125,12.4,0.0,0,0,0,0.125,12.35,0.0,0,0,0,0.125,12.4,0.0,0,0,0,0.125,12.4,0.0,4,0,0,6.25,12.35,0.0,0,0,0,0.125,12.450000000000001,0.0,0,0,0,kReverse,kOff,-87.01,2.16,2.69,0.21539307,-0.80181885,0.16900635,34.76,0.0,213.0,-8.120316,11.759262,
191.58003699999998,true,true,true,0.125,12.35,0.0,0,0,0,0.125,12.4,0.0,0,0,0,0.125,12.35,0.0,0,0,0,0.125,12.4,0.0,0,0,0,0.125,12.4,0.0,4,0,0,5.375,12.35,0.0,0,0,0,0.125,12.450000000000001,0.0,0,0,0,kReverse,kOff,-87.01,2.19,2.7,-0.0040893555,-0.9716797,-0.022644043,34.76,0.0,-54.0,-8.120239,11.759781,
191.596689,true,true,true,0.125,12.35,0.0,0,0,0,0.125,12.4,0.0,0,0,0,0.125,12.35,0.0,0,0,0,0.125,12.4,0.0,0,0,0,0.125,12.4,0.0,4,0,0,4.25,12.35,0.0,0,0,0,0.125,12.450000000000001,0.0,0,0,0,kReverse,kOff,-87.07,2.14,2.64,-0.10247803,-1.0618896,-0.103881836,34.76,0.0,-172.0,-8.120316,11.760208,
191.61881599999998,true,true,true,0.125,12.35,0.0,0,0,0,0.125,12.4,0.0,0,0,0,0.125,12.35,0.0,0,0,0,0.125,12.4,0.0,0,0,0,0.125,12.4,0.0,4,0,0,3.125,12.35,0.0,0,0,0,0.125,12.450000000000001,0.0,0,0,0,kReverse,kOff,-87.09,2.08,2.59,0.09173584,-0.93621826,0.15539551,34.76,0.0,86.0,-8.120651,11.761047,
191.638441,true,true,true,0.125,12.35,0.0,0,0,0,0.125,12.4,0.0,0,0,0,0.125,12.35,0.0,0,0,0,0.125,12.4,0.0,0,0,0,0.125,12.4,0.0,4,0,0,1.75,12.35,0.0,0,0,0,0.125,12.450000000000001,0.0,0,0,0,kReverse,kOff,-87.05,2.11,2.63,0.032287598,-0.9925537,-0.08544922,34.76,0.0,-34.0,-8.120758,11.76149,
191.659119,true,true,true,0.125,12.35,0.0,0,0,0,0.125,12.4,0.0,0,0,0,0.125,12.35,0.0,0,0,0,0.125,12.4,0.0,0,0,0,0.125,12.4,0.0,4,0,0,1.0,12.35,0.0,0,0,0,0.125,12.450000000000001,0.0,0,0,0,kReverse,kOff,-87.14,2.03,2.54,0.05078125,-0.9812012,0.17468262,34.76,0.0,50.0,-8.121277,11.762299,
191.680254,true,true,true,0.125,12.35,0.0,0,0,0,0.125,12.6,0.0,0,0,0,0.125,12.35,0.0,0,0,0,0.125,12.4,0.0,0,0,0,0.125,12.4,0.0,4,0,0,0.25,12.35,0.0,0,0,0,0.125,12.450000000000001,0.0,0,0,0,kReverse,kOff,-87.07,2.08,2.6,0.09777832,-1.0376587,-0.051513672,34.76,0.0,36.0,-8.121521,11.762772,
191.703148,true,true,true,0.125,12.6,0.0,0,0,0,0.125,12.6,0.0,0,0,0,0.125,12.6,0.0,0,0,0,0.125,12.6,0.0,0,0,0,0.125,12.6,0.0,4,0,0,0.125,12.35,0.0,0,0,0,0.125,12.65,0.0,0,0,0,kReverse,kOff,-87.07,2.12,2.64,-0.058044434,-0.94403076,-0.017211914,34.76,0.0,-102.0,-8.122009,11.763428,
191.724728,true,true,true,0.125,12.6,0.0,0,0,0,0.125,12.6,0.0,0,0,0,0.125,12.6,0.0,0,0,0,0.125,12.6,0.0,0,0,0,0.125,12.6,0.0,4,0,0,0.0,12.6,0.0,0,0,0,0.125,12.65,0.0,0,0,0,kReverse,kOff,-87.09,2.09,2.61,0.07550049,-1.0043335,0.08892822,34.76,0.0,50.0,-8.12233,11.763733,
191.745162,true,true,true,0.125,12.6,0.0,0,0,0,0.125,12.6,0.0,0,0,0,0.125,12.6,0.0,0,0,0,0.125,12.6,0.0,0,0,0,0.125,12.6,0.0,4,0,0,0.0,12.6,0.0,0,0,0,0.125,12.65,0.0,0,0,0,kReverse,kOff,-87.06,2.13,2.65,0.10925293,-1.0057373,0.034484863,34.76,0.0,69.0,-8.122559,11.764053,
191.76581099999999,true,true,true,0.125,12.6,0.0,0,0,0,0.125,12.6,0.0,0,0,0,0.125,12.6,0.0,0,0,0,0.125,12.6,0.0,0,0,0,0.125,12.6,0.0,4,0,0,0.0,12.6,0.0,0,0,0,0.125,12.65,0.0,0,0,0,kReverse,kOff,-87.04,2.16,2.67,0.020629883,-0.9672241,0.0256958,34.76,0.0,-17.0,-8.122986,11.7643585,
191.783133,true,true,true,0.125,12.6,0.0,0,0,0,0.125,12.6,0.0,0,0,0,0.125,12.6,0.0,0,0,0,0.125,12.6,0.0,0,0,0,0.125,12.6,0.0,4,0,0,0.0,12.6,0.0,0,0,0,0.125,12.65,0.0,0,0,0,kReverse,kOff,-87.06,2.14,2.65,0.0647583,-0.97491455,-0.035705566,34.76,0.0,10.0,-8.122986,11.7642975,
191.80847599999998,true,true,true,0.125,12.6,0.0,0,0,0,0.125,12.6,0.0,0,0,0,0.125,12.6,0.0,0,0,0,0.125,12.6,0.0,0,0,0,0.125,12.6,0.0,4,0,0,0.0,12.6,0.0,0,0,0,0.125,12.65,0.0,0,0,0,kReverse,kOff,-87.06,2.14,2.65,0.03869629,-0.9708252,0.17773438,34.76,0.0,37.0,-8.123001,11.764053,
191.83715399999997,true,true,true,0.125,12.6,0.0,0,0,0,0.125,12.6,0.0,0,0,0,0.125,12.6,0.0,0,0,0,0.125,12.6,0.0,0,0,0,0.125,12.6,0.0,4,0,0,0.0,12.6,0.0,0,0,0,0.125,12.65,0.0,0,0,0,kReverse,kOff,-87.01,2.13,2.66,0.0032348633,-1.0117188,0.009277344,34.76,0.0,-40.0,-8.123093,11.76384,
191.857567,true,true,true,0.125,12.6,0.0,0,0,0,0.125,12.6,0.0,0,0,0,0.125,12.6,0.0,0,0,0,0.125,12.65,0.0,0,0,0,0.125,12.6,0.0,4,0,0,0.0,12.6,0.0,0,0,0,0.125,12.65,0.0,0,0,0,kReverse,kOff,-87.1,2.14,2.63,0.10211182,-0.99786377,0.27075195,34.76,0.0,121.0,-8.123138,11.763596,
191.879044,true,true,true,0.125,12.6,0.0,0,0,0,0.125,12.6,0.0,0,0,0,0.125,12.6,0.0,0,0,0,0.125,12.65,0.0,0,0,0,0.125,12.6,0.0,4,0,0,0.0,12.6,0.0,0,0,0,0.125,12.65,0.0,0,0,0,kReverse,kOff,-86.98,2.16,2.7,0.010314941,-0.9677124,-0.024658203,34.76,0.0,-40.0,-8.123123,11.7634735,
191.898184,true,true,true,0.125,12.6,0.0,0,0,0,0.125,12.6,0.0,0,0,0,0.125,12.6,0.0,0,0,0,0.125,12.65,0.0,0,0,0,0.125,12.6,0.0,4,0,0,0.0,12.6,0.0,0,0,0,0.125,12.65,0.0,0,0,0,kReverse,kOff,-87.1,2.13,2.63,0.09881592,-0.9951782,0.2062378,34.76,0.0,102.0,-8.1232605,11.763016,
191.919935,true,true,true,0.125,12.6,0.0,0,0,0,0.125,12.6,0.0,0,0,0,0.125,12.6,0.0,0,0,0,0.125,12.65,0.0,0,0,0,0.125,12.6,0.0,4,0,0,0.0,12.6,0.0,0,0,0,0.125,12.65,0.0,0,0,0,kReverse,kOff,-87.05,2.13,2.65,-0.014343262,-0.9953613,-0.07635498,34.76,0.0,-77.0,-8.123306,11.762833,
191.94019999999998,true,true,true,0.125,12.6,0.0,0,0,0,0.125,12.6,0.0,0,0,0,0.125,12.6,0.0,0,0,0,0.125,12.65,0.0,0,0,0,0.125,12.6,0.0,4,0,0,0.0,12.6,0.0,0,0,0,0.125,12.65,0.0,0,0,0,kReverse,kOff,-87.1,2.11,2.66,0.001159668,-0.95983887,0.023742676,34.75,0.0,-36.0,-8.123428,11.762482,
191.961609,true,true,true,0.125,12.6,0.0,0,0,0,0.125,12.6,0.0,0,0,0,0.125,12.6,0.0,0,0,0,0.125,12.65,0.0,0,0,0,0.125,12.6,0.0,4,0,0,0.0,12.6,0.0,0,0,0,0.125,12.65,0.0,0,0,0,kReverse,kOff,-87.08,2.13,2.63,0.06414795,-1.038147,0.035217285,34.75,0.0,24.0,-8.123489,11.762482,
191.98493599999998,true,true,true,0.125,12.6,0.0,0,0,0,0.125,12.6,0.0,0,0,0,0.125,12.6,0.0,0,0,0,0.125,12.65,0.0,0,0,0,0.125,12.6,0.0,4,0,0,0.0,12.6,0.0,0,0,0,0.125,12.65,0.0,0,0,0,kReverse,kOff,-87.1,2.13,2.63,0.016174316,-0.9706421,0.024047852,34.75,0.0,-21.0,-8.123642,11.76236,
192.007692,true,true,true,0.125,12.6,0.0,0,0,0,0.125,12.6,0.0,0,0,0,0.125,12.6,0.0,0,0,0,0.125,12.65,0.0,0,0,0,0.125,12.6,0.0,4,0,0,0.0,12.6,0.0,0,0,0,0.125,12.65,0.0,0,0,0,kReverse,kOff,-87.07,2.13,2.64,0.0725708,-0.9957886,0.0793457,34.75,0.0,45.0,-8.1237335,11.762299,
192.02933299999998,true,true,true,0.125,12.6,0.0,0,0,0,0.125,12.6,0.0,0,0,0,0.125,12.6,0.0,0,0,0,0.125,12.65,0.0,0,0,0,0.125,12.6,0.0,4,0,0,0.0,12.6,0.0,0,0,0,0.125,12.700000000000001,0.0,0,0,0,kReverse,kOff,-87.07,2.13,2.64,0.07873535,-0.9812622,0.066711426,34.75,0.0,48.0,-8.123886,11.7621765,
192.05001499999997,true,true,true,0.125,12.6,0.0,0,0,0,0.125,12.6,0.0,0,0,0,0.125,12.6,0.0,0,0,0,0.125,12.65,0.0,0,0,0,0.125,12.6,0.0,4,0,0,0.0,12.6,0.0,0,0,0,0.125,12.700000000000001,0.0,0,0,0,kReverse,kOff,-87.05,2.15,2.66,0.012939453,-0.9835205,0.0020141602,34.75,0.0,-31.0,-8.123947,11.762131,
192.070889,true,true,true,0.125,12.6,0.0,0,0,0,0.125,12.6,0.0,0,0,0,0.125,12.6,0.0,0,0,0,0.125,12.65,0.0,0,0,0,0.125,12.6,0.0,4,0,0,0.0,12.6,0.0,0,0,0,0.125,12.700000000000001,0.0,0,0,0,kReverse,kOff,-87.08,2.13,2.64,0.049194336,-0.94348145,0.032409668,34.75,0.0,13.0,-8.1241455,11.762039,
192.093946,true,true,true,0.125,12.6,0.0,0,0,0,0.125,12.6,0.0,0,0,0,0.125,12.6,0.0,0,0,0,0.125,12.65,0.0,0,0,0,0.125,12.6,0.0,4,0,0,0.125,12.6,0.0,0,0,0,0.125,12.700000000000001,0.0,0,0,0,kReverse,kOff,-87.08,2.13,2.63,0.026062012,-0.99823,0.06304932,34.75,0.0,-3.0,-8.124252,11.76207,
192.117671,true,true,true,0.125,12.6,0.0,0,0,0,0.125,12.6,0.0,0,0,0,0.125,12.6,0.0,0,0,0,0.125,12.65,0.0,0,0,0,0.125,12.6,0.0,4,0,0,0.0,12.6,0.0,0,0,0,0.125,12.700000000000001,0.0,0,0,0,kReverse,kOff,-87.07,2.12,2.63,0.05895996,-1.0009155,0.01751709,34.75,0.0,16.0,-8.124252,11.7621155,
192.13943799999998,true,true,true,0.125,12.6,0.0,0,0,0,0.125,12.6,0.0,0,0,0,0.125,12.6,0.0,0,0,0,0.125,12.65,0.0,0,0,0,0.125,12.6,0.0,4,0,0,0.0,12.6,0.0,0,0,0,0.125,12.700000000000001,0.0,0,0,0,kReverse,kOff,-87.06,2.13,2.64,0.038024902,-0.99108887,0.024047852,34.75,0.0,-1.0,-8.124252,11.762146,
192.161777,true,true,true,0.125,12.6,0.0,0,0,0,0.125,12.65,0.0,0,0,0,0.125,12.6,0.0,0,0,0,0.125,12.65,0.0,0,0,0,0.125,12.6,0.0,4,0,0,0.0,12.6,0.0,0,0,0,0.125,12.700000000000001,0.0,0,0,0,kReverse,kOff,-87.07,2.14,2.64,0.022277832,-0.980896,-6.713867E-4,34.75,0.0,-22.0,-8.124268,11.762161,
192.182622,true,true,true,0.125,12.6,0.0,0,0,0,0.125,12.65,0.0,0,0,0,0.125,12.6,0.0,0,0,0,0.125,12.65,0.0,0,0,0,0.125,12.65,0.0,4,0,0,0.0,12.6,0.0,0,0,0,0.125,12.700000000000001,0.0,0,0,0,kReverse,kOff,-87.07,2.14,2.64,0.033935547,-0.9707031,0.074279785,34.75,0.0,7.0,-8.124313,11.7621765,
192.20549899999997,true,true,true,0.125,12.6,0.0,0,0,0,0.125,12.65,0.0,0,0,0,0.125,12.6,0.0,0,0,0,0.125,12.65,0.0,0,0,0,0.125,12.65,0.0,4,0,0,0.0,12.6,0.0,0,0,0,0.125,12.700000000000001,0.0,0,0,0,kReverse,kOff,-87.07,2.14,2.65,0.040283203,-0.9741821,0.046569824,34.75,0.0,6.0,-8.124313,11.762253,
192.226592,true,true,true,0.125,12.6,0.0,0,0,0,0.125,12.65,0.0,0,0,0,0.125,12.6,0.0,0,0,0,0.125,12.65,0.0,0,0,0,0.125,12.65,0.0,4,0,0,0.0,12.6,0.0,0,0,0,0.125,12.700000000000001,0.0,0,0,0,kReverse,kOff,-87.06,2.14,2.65,0.028259277,-0.9867554,0.01727295,34.75,0.0,-12.0,-8.124313,11.762253,
192.246187,true,true,true,0.125,12.6,0.0,0,0,0,0.125,12.65,0.0,0,0,0,0.125,12.6,0.0,0,0,0,0.125,12.65,0.0,0,0,0,0.125,12.65,0.0,4,0,0,0.0,12.6,0.0,0,0,0,0.125,12.700000000000001,0.0,0,0,0,kReverse,kOff,-87.07,2.14,2.65,0.04321289,-0.99261475,0.034851074,34.75,0.0,5.0,-8.124313,11.762253,
192.267676,true,true,true,0.125,12.6,0.0,0,0,0,0.125,12.65,0.0,0,0,0,0.125,12.6,0.0,0,0,0,0.125,12.65,0.0,0,0,0,0.125,12.65,0.0,4,0,0,0.0,12.6,0.0,0,0,0,0.125,12.700000000000001,0.0,0,0,0,kReverse,kOff,-87.07,2.13,2.64,0.047180176,-0.98272705,0.040283203,34.75,0.0,11.0,-8.124313,11.762253,
192.289244,true,true,true,0.125,12.6,0.0,0,0,0,0.125,12.65,0.0,0,0,0,0.125,12.6,0.0,0,0,0,0.125,12.65,0.0,0,0,0,0.125,12.65,0.0,4,0,0,0.0,12.6,0.0,0,0,0,0.125,12.700000000000001,0.0,0,0,0,kReverse,kOff,-87.07,2.13,2.64,0.045043945,-0.9885864,0.039978027,34.75,0.0,9.0,-8.124313,11.762253,
192.312937,true,true,true,0.125,12.6,0.0,0,0,0,0.125,12.65,0.0,0,0,0,0.125,12.6,0.0,0,0,0,0.125,12.65,0.0,0,0,0,0.125,12.65,0.0,4,0,0,0.0,12.6,0.0,0,0,0,0.125,12.700000000000001,0.0,0,0,0,kReverse,kOff,-87.07,2.14,2.64,0.038879395,-0.97509766,0.023864746,34.75,0.0,0.0,-8.124313,11.762253,
192.3372,true,true,true,0.125,12.65,0.0,0,0,0,0.125,12.65,0.0,0,0,0,0.125,12.6,0.0,0,0,0,0.125,12.65,0.0,0,0,0,0.125,12.65,0.0,4,0,0,0.0,12.6,0.0,0,0,0,0.125,12.700000000000001,0.0,0,0,0,kReverse,kOff,-87.08,2.13,2.64,0.03387451,-0.97198486,0.03466797,34.75,0.0,-2.0,-8.124313,11.762253,
192.371099,true,true,true,0.125,12.65,0.0,0,0,0,0.125,12.65,0.0,0,0,0,0.125,12.6,0.0,0,0,0,0.125,12.65,0.0,0,0,0,0.125,12.65,0.0,4,0,0,0.0,12.6,0.0,0,0,0,0.125,12.700000000000001,0.0,0,0,0,kReverse,kOff,-87.07,2.14,2.65,0.04559326,-0.9923706,0.055480957,34.75,0.0,13.0,-8.124313,11.762253,
192.395579,true,true,true,0.125,12.65,0.0,0,0,0,0.125,12.65,0.0,0,0,0,0.125,12.6,0.0,0,0,0,0.125,12.65,0.0,0,0,0,0.125,12.65,0.0,4,0,0,0.0,12.6,0.0,0,0,0,0.125,12.700000000000001,0.0,0,0,0,kReverse,kOff,-87.07,2.14,2.64,0.034240723,-0.9864502,0.016540527,34.75,0.0,-6.0,-8.124313,11.762253,
192.419547,true,true,true,0.125,12.65,0.0,0,0,0,0.125,12.65,0.0,0,0,0,0.125,12.6,0.0,0,0,0,0.125,12.65,0.0,0,0,0,0.125,12.65,0.0,4,0,0,0.0,12.6,0.0,0,0,0,0.125,12.700000000000001,0.0,0,0,0,kReverse,kOff,-87.08,2.14,2.64,0.03692627,-0.9838257,0.030334473,34.75,0.0,0.0,-8.124313,11.762253,
192.443307,true,true,true,0.125,12.65,0.0,0,0,0,0.125,12.65,0.0,0,0,0,0.125,12.6,0.0,0,0,0,0.125,12.65,0.0,0,0,0,0.125,12.65,0.0,4,0,0,0.0,12.6,0.0,0,0,0,0.125,12.700000000000001,0.0,0,0,0,kReverse,kOff,-87.08,2.13,2.64,0.0446167,-0.9735718,0.045776367,34.78,0.0,10.0,-8.124313,11.762253,
192.46453699999998,true,true,true,0.125,12.65,0.0,0,0,0,0.125,12.65,0.0,0,0,0,0.125,12.6,0.0,0,0,0,0.125,12.65,0.0,0,0,0,0.125,12.65,0.0,4,0,0,0.0,12.6,0.0,0,0,0,0.125,12.700000000000001,0.0,0,0,0,kReverse,kOff,-87.07,2.14,2.64,0.04071045,-0.99401855,0.047973633,34.78,0.0,6.0,-8.124313,11.762253,
192.48594999999997,true,true,true,0.125,12.65,0.0,0,0,0,0.125,12.65,0.0,0,0,0,0.125,12.6,0.0,0,0,0,0.125,12.65,0.0,0,0,0,0.125,12.65,0.0,4,0,0,0.0,12.6,0.0,0,0,0,0.125,12.700000000000001,0.0,0,0,0,kReverse,kOff,-87.08,2.13,2.64,0.038513184,-0.9812012,0.023864746,34.78,0.0,0.0,-8.124313,11.762253,
192.50770799999998,true,true,true,0.125,12.65,0.0,0,0,0,0.125,12.65,0.0,0,0,0,0.125,12.6,0.0,0,0,0,0.125,12.65,0.0,0,0,0,0.125,12.65,0.0,4,0,0,0.0,12.6,0.0,0,0,0,0.125,12.700000000000001,0.0,0,0,0,kReverse,kOff,-87.08,2.13,2.64,0.030700684,-0.98535156,0.035461426,34.78,0.0,-5.0,-8.124313,11.762253,
192.529113,true,true,true,0.125,12.65,0.0,0,0,0,0.125,12.65,0.0,0,0,0,0.125,12.6,0.0,0,0,0,0.125,12.65,0.0,0,0,0,0.125,12.65,0.0,4,0,0,0.0,12.65,0.0,0,0,0,0.125,12.700000000000001,0.0,0,0,0,kReverse,kOff,-87.08,2.13,2.64,0.03857422,-0.9830322,0.030334473,34.78,0.0,0.0,-8.124313,11.762253,
192.55860199999998,true,true,true,0.125,12.65,0.0,0,0,0,0.125,12.65,0.0,0,0,0,0.125,12.6,0.0,0,0,0,0.125,12.65,0.0,0,0,0,0.0,12.65,0.0,4,0,0,0.0,12.65,0.0,0,0,0,0.125,12.700000000000001,0.0,0,0,0,kReverse,kOff,-87.07,2.13,2.64,0.040527344,-0.979187,0.041809082,34.78,0.0,5.0,-8.124313,11.762253,
192.582973,true,true,true,0.125,12.65,0.0,0,0,0,0.125,12.65,0.0,0,0,0,0.125,12.6,0.0,0,0,0,0.125,12.65,0.0,0,0,0,0.0,12.65,0.0,4,0,0,0.0,12.65,0.0,0,0,0,0.125,12.700000000000001,0.0,0,0,0,kReverse,kOff,-87.09,2.13,2.64,0.037353516,-0.9802246,0.0211792,34.78,0.0,-2.0,-8.124313,11.762253,
192.60427099999998,true,true,true,0.125,12.65,0.0,0,0,0,0.125,12.65,0.0,0,0,0,0.125,12.6,0.0,0,0,0,0.125,12.65,0.0,0,0,0,0.0,12.65,0.0,4,0,0,0.0,12.65,0.0,0,0,0,0.125,12.700000000000001,0.0,0,0,0,kReverse,kOff,-87.09,2.13,2.64,0.03375244,-0.98187256,0.038513184,34.78,0.0,-1.0,-8.124313,11.762253,
192.62612,true,true,true,0.125,12.65,0.0,0,0,0,0.125,12.65,0.0,0,0,0,0.125,12.6,0.0,0,0,0,0.125,12.65,0.0,0,0,0,0.0,12.65,0.0,4,0,0,0.0,12.65,0.0,0,0,0,0.125,12.700000000000001,0.0,0,0,0,kReverse,kOff,-87.09,2.13,2.64,0.03857422,-0.977417,0.05041504,34.78,0.0,6.0,-8.124313,11.762253,
192.64796099999998,true,true,true,0.125,12.65,0.0,0,0,0,0.125,12.65,0.0,0,0,0,0.125,12.6,0.0,0,0,0,0.125,12.65,0.0,0,0,0,0.125,12.6,0.0,4,0,0,0.0,12.65,0.0,0,0,0,0.125,12.700000000000001,0.0,0,0,0,kReverse,kOff,-87.08,2.13,2.63,0.03741455,-0.98620605,0.021240234,34.78,0.0,-2.0,-8.124313,11.762253,
