timer,lineLeft,lineCenter,lineRight,LeftFrontCurrent,LeftFrontVoltage,LeftFrontValue,LeftFrontPosition,LeftFrontVelocity,LeftFrontFaults,LeftRearCurrent,LeftRearVoltage,LeftRearValue,LeftRearPosition,LeftRearVelocity,LeftRearFaults,RightFrontCurrent,RightFrontVoltage,RightFrontValue,RightFrontPosition,RightFrontVelocity,RightFrontFaults,RightRearCurrent,RightRearVoltage,RightRearValue,RightRearPosition,RightRearVelocity,RightRearFaults,LiftCurrent,LiftVoltage,LiftValue,LiftPosition,LiftVelocity,LiftFaults,WristCurrent,WristVoltage,WristValue,WristPosition,WristVelocity,WristFaults,RollerCurrent,RollerVoltage,RollerValue,RollerPosition,RollerVelocity,RollerFaults,PushersState,PivotsState,navx_Pitch,navx_Roll,navx_Yaw,navx_XAcc,navx_YAcc,navx_ZAcc,navx_Temp,navx_Bar,navx_Alt,navx_XDis,navx_YDis,
201.36860000000001,true,true,true,0.125,12.8,0.0,-44,0,0,0.125,12.8,0.0,0,0,0,0.125,12.8,0.0,-50,0,0,0.125,12.8,0.0,0,0,0,0.0,12.8,0.0,0,0,0,0.0,12.8,0.0,0,0,0,0.125,12.85,0.0,0,0,0,kReverse,kOff,-86.17,1.71,1.68,0.028137207,-0.9857788,0.0592041,32.85,0.0,-1.0,-0.0063476562,-0.04486084,
201.38655300000002,true,true,true,0.125,12.8,0.0,-44,0,0,0.125,12.8,0.0,0,0,0,0.125,12.8,0.0,-50,0,0,0.125,12.8,0.0,0,0,0,0.0,12.8,0.0,0,0,0,0.0,12.8,0.0,0,0,0,0.125,12.85,0.0,0,0,0,kReverse,kOff,-86.17,1.7,1.68,0.032043457,-0.9852295,0.0579834,32.85,0.0,2.0,-0.0063476562,-0.04486084,
201.406482,true,true,true,0.125,12.8,0.0,-44,0,0,0.125,12.8,0.0,0,0,0,0.125,12.8,0.0,-50,0,0,0.125,12.8,0.0,0,0,0,0.0,12.8,0.0,0,0,0,0.0,12.8,0.0,0,0,0,0.125,12.85,0.0,0,0,0,kReverse,kOff,-86.17,1.7,1.68,0.028686523,-0.9827881,0.059692383,32.85,0.0,0.0,-0.0063476562,-0.04486084,
201.425697,true,true,true,0.125,12.8,0.0,-44,0,0,0.125,12.8,0.0,0,0,0,0.125,12.8,0.0,-50,0,0,0.125,12.8,0.0,0,0,0,0.0,12.8,0.0,0,0,0,0.0,12.8,0.0,0,0,0,0.125,12.85,0.0,0,0,0,kReverse,kOff,-86.17,1.7,1.68,0.026794434,-0.9842529,0.061584473,32.85,0.0,-2.0,-0.0063476562,-0.04486084,
201.445888,true,true,true,0.125,12.8,0.0,-44,0,0,0.125,12.8,0.0,0,0,0,0.125,12.8,0.0,-50,0,0,0.125,12.8,0.0,0,0,0,0.0,12.8,0.0,0,0,0,0.0,12.8,0.0,0,0,0,0.125,12.85,0.0,0,0,0,kReverse,kOff,-86.17,1.7,1.68,0.026794434,-0.9835205,0.055603027,32.85,0.0,-2.0,-0.0063476562,-0.04486084,
201.465784,true,true,true,0.125,12.8,0.0,-44,0,0,0.125,12.8,0.0,0,0,0,0.125,12.8,0.0,-50,0,0,0.125,12.8,0.0,0,0,0,0.125,12.8,0.0,0,0,0,0.0,12.8,0.0,0,0,0,0.125,12.85,0.0,0,0,0,kReverse,kOff,-86.17,1.7,1.68,0.030700684,-0.9841919,0.05126953,32.85,0.0,1.0,-0.0063476562,-0.04486084,
201.485666,true,true,true,0.125,12.8,0.0,-44,0,0,0.125,12.8,0.0,0,0,0,0.125,12.8,0.0,-50,0,0,0.125,12.8,0.0,0,0,0,0.125,12.8,0.0,0,0,0,0.0,12.8,0.0,0,0,0,0.125,12.85,0.0,0,0,0,kReverse,kOff,-86.17,1.7,1.68,0.029296875,-0.9835205,0.05810547,32.85,0.0,0.0,-0.0063476562,-0.04486084,
201.50582500000002,true,true,true,0.125,12.8,0.0,-44,0,0,0.125,12.8,0.0,0,0,0,0.125,12.8,0.0,-50,0,0,0.125,12.8,0.0,0,0,0,0.125,12.8,0.0,0,0,0,0.0,12.8,0.0,0,0,0,0.125,12.85,0.0,0,0,0,kReverse,kOff,-86.18,1.7,1.68,0.030700684,-0.98132324,0.05279541,32.85,0.0,1.0,-0.0063476562,-0.04486084,
201.525689,true,true,true,0.125,12.8,0.0,-44,0,0,0.125,12.8,0.0,0,0,0,0.125,12.8,0.0,-50,0,0,0.125,12.8,0.0,0,0,0,0.125,12.8,0.0,0,0,0,0.0,12.8,0.0,0,0,0,0.125,12.85,0.0,0,0,0,kReverse,kOff,-86.18,1.7,1.68,0.028381348,-0.98358154,0.057678223,32.85,0.0,0.0,-0.0063476562,-0.04486084,
201.545856,true,true,true,0.125,12.8,0.0,-44,0,0,0.125,12.8,0.0,0,0,0,0.125,12.8,0.0,-50,0,0,0.125,12.8,0.0,0,0,0,0.125,12.8,0.0,0,0,0,0.0,12.8,0.0,0,0,0,0.125,12.9,0.0,0,0,0,kReverse,kOff,-86.18,1.7,1.68,0.027648926,-0.984375,0.06689453,32.85,0.0,-1.0,-0.0063476562,-0.04486084,
201.565941,true,true,true,0.125,12.8,0.0,-44,0,0,0.125,12.8,0.0,0,0,0,0.125,12.8,0.0,-50,0,0,0.125,12.8,0.0,0,0,0,0.125,12.8,0.0,0,0,0,0.0,12.8,0.0,0,0,0,0.125,12.9,0.0,0,0,0,kReverse,kOff,-86.18,1.7,1.68,0.028747559,-0.9871826,0.05731201,32.85,0.0,0.0,-0.0063476562,-0.04486084,
201.58605000000003,true,true,true,0.125,12.8,0.0,-44,0,0,0.125,12.8,0.0,0,0,0,0.125,12.8,0.0,-50,0,0,0.125,12.8,0.0,0,0,0,0.125,12.8,0.0,0,0,0,0.0,12.8,0.0,0,0,0,0.125,12.9,0.0,0,0,0,kReverse,kOff,-86.18,1.7,1.68,0.028930664,-0.9838257,0.058166504,32.85,0.0,0.0,-0.0063476562,-0.04486084,
201.605696,true,true,true,0.125,12.8,0.0,-44,0,0,0.125,12.8,0.0,0,0,0,0.125,12.8,0.0,-50,0,0,0.125,12.8,0.0,0,0,0,0.125,12.8,0.0,0,0,0,0.0,12.8,0.0,0,0,0,0.125,12.9,0.0,0,0,0,kReverse,kOff,-86.18,1.7,1.68,0.030578613,-0.9822998,0.056274414,32.85,0.0,1.0,-0.0063476562,-0.04486084,
201.62655,true,true,true,0.125,12.8,0.0,-44,0,0,0.125,12.8,0.0,0,0,0,0.125,12.8,0.0,-50,0,0,0.125,12.8,0.0,0,0,0,0.0,12.8,0.0,0,0,0,0.0,12.8,0.0,0,0,0,0.125,12.9,0.0,0,0,0,kReverse,kOff,-86.18,1.7,1.68,0.029296875,-0.98321533,0.05670166,32.85,0.0,0.0,-0.0063476562,-0.04486084,
201.645834,true,true,true,0.125,12.8,0.0,-44,0,0,0.125,12.8,0.0,0,0,0,0.125,12.8,0.0,-50,0,0,0.125,12.8,0.0,0,0,0,0.0,12.8,0.0,0,0,0,0.0,12.8,0.0,0,0,0,0.125,12.9,0.0,0,0,0,kReverse,kOff,-86.18,1.7,1.68,0.030761719,-0.9835205,0.056274414,32.85,0.0,1.0,-0.0063476562,-0.04486084,
201.66585700000002,true,true,true,0.125,12.8,0.0,-44,0,0,0.125,12.8,0.0,0,0,0,0.125,12.8,0.0,-50,0,0,0.125,12.8,0.0,0,0,0,0.0,12.8,0.0,0,0,0,0.0,12.8,0.0,0,0,0,0.125,12.9,0.0,0,0,0,kReverse,kOff,-86.18,1.7,1.68,0.030334473,-0.9835205,0.056762695,32.85,0.0,1.0,-0.0063476562,-0.04486084,
201.687753,true,true,true,0.125,12.8,0.0,-44,0,0,0.125,12.8,0.0,0,0,0,0.125,12.8,0.0,-50,0,0,0.125,12.8,0.0,0,0,0,0.125,12.8,0.0,0,0,0,0.0,12.8,0.0,0,0,0,0.125,12.9,0.0,0,0,0,kReverse,kOff,-86.19,1.7,1.68,0.03112793,-0.98321533,0.053894043,32.85,0.0,1.0,-0.0063476562,-0.04486084,
201.70820600000002,true,true,true,0.125,12.8,0.0,-44,0,0,0.125,12.8,0.0,0,0,0,0.125,12.8,0.0,-50,0,0,0.125,12.8,0.0,0,0,0,0.0,12.8,0.0,0,0,0,0.0,12.8,0.0,0,0,0,0.125,12.9,0.0,0,0,0,kReverse,kOff,-86.19,1.7,1.68,0.030822754,-0.9855957,0.05505371,32.85,0.0,1.0,-0.0063476562,-0.04486084,
201.72577,true,true,true,0.125,12.8,0.0,-44,0,0,0.125,12.8,0.0,0,0,0,0.125,12.8,0.0,-50,0,0,0.125,12.8,0.0,0,0,0,0.0,12.8,0.0,0,0,0,0.0,12.8,0.0,0,0,0,0.125,12.9,0.0,0,0,0,kReverse,kOff,-86.19,1.7,1.68,0.029724121,-0.98291016,0.059753418,32.85,0.0,0.0,-0.0063476562,-0.04486084,
201.752111,true,true,true,0.125,12.8,0.0,-44,0,0,0.125,12.8,0.0,0,0,0,0.125,12.8,0.0,-50,0,0,0.125,12.8,0.0,0,0,0,0.0,12.8,0.0,0,0,0,0.0,12.8,0.0,0,0,0,0.125,12.9,0.0,0,0,0,kReverse,kOff,-86.19,1.7,1.68,0.027893066,-0.98309326,0.060180664,32.85,0.0,-1.0,-0.0063476562,-0.04486084,
201.786818,true,true,true,0.125,12.8,0.0,-44,0,0,0.125,12.8,0.0,0,0,0,0.125,12.8,0.0,-50,0,0,0.125,12.8,0.0,0,0,0,0.125,12.8,0.0,0,0,0,0.0,12.8,0.0,0,0,0,0.125,12.9,0.0,0,0,0,kReverse,kOff,-86.19,1.7,1.68,0.02947998,-0.98114014,0.055908203,32.85,0.0,-2.0,-0.0063476562,-0.04486084,
201.814162,true,true,true,0.125,12.8,0.0,-44,0,0,0.125,12.8,0.0,0,0,0,0.125,12.8,0.0,-50,0,0,0.125,12.8,0.0,0,0,0,0.125,12.8,0.0,0,0,0,0.0,12.8,0.0,0,0,0,0.125,12.9,0.0,0,0,0,kReverse,kOff,-86.18,1.71,1.68,0.02935791,-0.9830322,0.05682373,32.85,0.0,0.0,-0.0063476562,-0.04486084,
201.83623300000002,true,true,true,0.125,12.8,0.0,-44,0,0,0.125,12.8,0.0,0,0,0,0.125,12.8,0.0,-50,0,0,0.125,12.8,0.0,0,0,0,0.125,12.8,0.0,0,0,0,0.0,12.8,0.0,0,0,0,0.125,12.9,0.0,0,0,0,kReverse,kOff,-86.19,1.7,1.68,0.028564453,-0.9841919,0.059326172,32.85,0.0,0.0,-0.0063476562,-0.04486084,
201.857745,true,true,true,0.125,12.8,0.0,-44,0,0,0.125,12.8,0.0,0,0,0,0.125,12.8,0.0,-50,0,0,0.125,12.8,0.0,0,0,0,0.125,12.8,0.0,0,0,0,0.0,12.8,0.0,0,0,0,0.125,12.9,0.0,0,0,0,kReverse,kOff,-86.19,1.7,1.68,0.03253174,-0.98217773,0.05706787,32.85,0.0,3.0,-0.0063476562,-0.04486084,
201.887852,true,true,true,0.125,12.8,0.0,-44,0,0,0.125,12.8,0.0,0,0,0,0.125,12.8,0.0,-50,0,0,0.125,12.8,0.0,0,0,0,0.125,12.8,0.0,0,0,0,0.0,12.8,0.0,0,0,0,0.125,12.9,0.0,0,0,0,kReverse,kOff,-86.18,1.71,1.68,0.028198242,-0.98095703,0.06347656,32.85,0.0,-1.0,-0.0063476562,-0.04486084,
201.905158,true,true,true,0.125,12.8,0.0,-44,0,0,0.125,12.8,0.0,0,0,0,0.125,12.8,0.0,-50,0,0,0.125,12.8,0.0,0,0,0,0.125,12.8,0.0,0,0,0,0.0,12.8,0.0,0,0,0,0.125,12.9,0.0,0,0,0,kReverse,kOff,-86.18,1.71,1.68,0.027648926,-0.986145,0.06085205,32.85,0.0,-1.0,-0.0063476562,-0.04486084,
201.92785400000002,true,true,true,0.125,12.8,0.0,-44,0,0,0.125,12.8,0.0,0,0,0,0.125,12.8,0.0,-50,0,0,0.125,12.8,0.0,0,0,0,0.125,12.8,0.0,0,0,0,0.0,12.8,0.0,0,0,0,0.125,12.9,0.0,0,0,0,kReverse,kOff,-86.18,1.71,1.68,0.03137207,-0.982605,0.052001953,32.85,0.0,2.0,-0.0063476562,-0.04486084,
201.950959,true,true,true,0.125,12.8,0.0,-44,0,0,0.125,12.8,0.0,0,0,0,0.125,12.8,0.0,-50,0,0,0.125,12.8,0.0,0,0,0,0.0,12.8,0.0,0,0,0,0.0,12.8,0.0,0,0,0,0.125,12.9,0.0,0,0,0,kReverse,kOff,-86.18,1.71,1.68,0.028442383,-0.98339844,0.055908203,32.85,0.0,0.0,-0.0063476562,-0.04486084,
201.972328,true,true,true,0.125,12.8,0.0,-44,0,0,0.125,12.8,0.0,0,0,0,0.125,12.8,0.0,-50,0,0,0.125,12.8,0.0,0,0,0,0.0,12.8,0.0,0,0,0,0.0,12.8,0.0,0,0,0,0.125,12.9,0.0,0,0,0,kReverse,kOff,-86.18,1.71,1.68,0.028320312,-0.9841919,0.057006836,32.85,0.0,-1.0,-0.0063476562,-0.04486084,
201.992081,true,true,true,0.125,12.8,0.0,-44,0,0,0.125,12.8,0.0,0,0,0,0.125,12.8,0.0,-50,0,0,0.125,12.8,0.0,0,0,0,0.0,12.8,0.0,0,0,0,0.0,12.8,0.0,0,0,0,0.125,12.9,0.0,0,0,0,kReverse,kOff,-86.18,1.71,1.68,0.028442383,-0.9852905,0.05657959,32.85,0.0,-1.0,-0.0063476562,-0.04486084,
202.01302600000002,true,true,true,0.125,12.8,0.0,-44,0,0,0.125,12.8,0.0,0,0,0,0.125,12.8,0.0,-50,0,0,0.125,12.8,0.0,0,0,0,0.0,12.8,0.0,0,0,0,0.0,12.8,0.0,0,0,0,0.125,12.85,0.0,0,0,0,kReverse,kOff,-86.19,1.71,1.68,0.02923584,-0.9824829,0.056640625,32.85,0.0,0.0,-0.0063476562,-0.04486084,
202.03402499999999,true,true,true,0.125,12.8,0.0,-44,0,0,0.125,12.8,0.0,0,0,0,0.125,12.8,0.0,-50,0,0,0.125,12.8,0.0,0,0,0,0.0,12.8,0.0,0,0,0,0.0,12.8,0.0,0,0,0,0.125,12.85,0.0,0,0,0,kReverse,kOff,-86.19,1.71,1.68,0.029174805,-0.9838867,0.062683105,32.85,0.0,0.0,-0.0063476562,-0.04486084,
202.054391,true,true,true,0.125,12.8,0.0,-44,0,0,0.125,12.8,0.0,0,0,0,0.125,12.8,0.0,-50,0,0,0.125,12.8,0.0,0,0,0,0.125,12.8,0.0,0,0,0,0.0,12.8,0.0,0,0,0,0.125,12.85,0.0,0,0,0,kReverse,kOff,-86.18,1.71,1.68,0.02935791,-0.9846802,0.05706787,32.85,0.0,0.0,-0.0063476562,-0.04486084,
202.075633,true,true,true,0.125,12.8,0.0,-44,0,0,0.125,12.8,0.0,0,0,0,0.125,12.8,0.0,-50,0,0,0.125,12.8,0.0,0,0,0,0.125,12.8,0.0,0,0,0,0.0,12.8,0.0,0,0,0,0.125,12.85,0.0,0,0,0,kReverse,kOff,-86.18,1.71,1.68,0.028564453,-0.98223877,0.058898926,32.85,0.0,0.0,-0.0063476562,-0.04486084,
202.097392,true,true,true,0.125,12.8,0.0,-44,0,0,0.125,12.8,0.0,0,0,0,0.125,12.8,0.0,-50,0,0,0.125,12.8,0.0,0,0,0,0.125,12.8,0.0,0,0,0,0.0,12.8,0.0,0,0,0,0.125,12.85,0.0,0,0,0,kReverse,kOff,-86.18,1.71,1.68,0.026550293,-0.9830322,0.062561035,32.85,0.0,-2.0,-0.0063476562,-0.04486084,
202.121473,true,true,true,0.125,12.8,0.0,-44,0,0,0.125,12.8,0.0,0,0,0,0.125,12.8,0.0,-50,0,0,0.125,12.8,0.0,0,0,0,0.125,12.8,0.0,0,0,0,0.0,12.8,0.0,0,0,0,0.125,12.85,0.0,0,0,0,kReverse,kOff,-86.18,1.71,1.68,0.02911377,-0.98205566,0.060913086,32.85,0.0,0.0,-0.0063476562,-0.04486084,
202.14310400000002,true,true,true,0.125,12.8,0.0,-44,0,0,0.125,12.8,0.0,0,0,0,0.125,12.8,0.0,-50,0,0,0.125,12.8,0.0,0,0,0,0.125,12.8,0.0,0,0,0,0.0,12.8,0.0,0,0,0,0.125,12.85,0.0,0,0,0,kReverse,kOff,-86.18,1.71,1.68,0.029174805,-0.9844971,0.05731201,32.85,0.0,0.0,-0.0063476562,-0.04486084,
202.16536000000002,true,true,true,0.125,12.8,0.0,-44,0,0,0.125,12.8,0.0,0,0,0,0.125,12.8,0.0,-50,0,0,0.125,12.8,0.0,0,0,0,0.0,12.8,0.0,0,0,0,0.0,12.8,0.0,0,0,0,0.125,12.85,0.0,0,0,0,kReverse,kOff,-86.18,1.71,1.68,0.031677246,-0.9836426,0.057678223,32.85,0.0,2.0,-0.0063476562,-0.04486084,
202.188363,true,true,true,0.125,12.8,0.0,-44,0,0,0.125,12.8,0.0,0,0,0,0.125,12.8,0.0,-50,0,0,0.125,12.8,0.0,0,0,0,0.0,12.8,0.0,0,0,0,0.0,12.8,0.0,0,0,0,0.125,12.9,0.0,0,0,0,kReverse,kOff,-86.18,1.71,1.68,0.028564453,-0.9812012,0.05493164,32.85,0.0,0.0,-0.0063476562,-0.04486084,
202.208693,true,true,true,0.125,12.8,0.0,-44,0,0,0.125,12.8,0.0,0,0,0,0.125,12.8,0.0,-50,0,0,0.125,12.8,0.0,0,0,0,0.0,12.8,0.0,0,0,0,0.0,12.8,0.0,0,0,0,0.125,12.9,0.0,0,0,0,kReverse,kOff,-86.19,1.71,1.68,0.029174805,-0.9828491,0.059814453,32.85,0.0,0.0,-0.0063476562,-0.04486084,
202.229923,true,true,true,0.125,12.8,0.0,-44,0,0,0.125,12.8,0.0,0,0,0,0.125,12.8,0.0,-50,0,0,0.125,12.8,0.0,0,0,0,0.0,12.8,0.0,0,0,0,0.0,12.8,0.0,0,0,0,0.125,12.9,0.0,0,0,0,kReverse,kOff,-86.19,1.71,1.68,0.029968262,-0.9852295,0.059143066,32.85,0.0,0.0,-0.0063476562,-0.04486084,
202.251358,true,true,true,0.125,12.8,0.0,-44,0,0,0.125,12.8,0.0,0,0,0,0.125,12.8,0.0,-50,0,0,0.125,12.8,0.0,0,0,0,0.0,12.8,0.0,0,0,0,0.0,12.8,0.0,0,0,0,0.125,12.9,0.0,0,0,0,kReverse,kOff,-86.19,1.71,1.68,0.029541016,-0.9833374,0.05456543,32.85,0.0,0.0,-0.0063476562,-0.04486084,
202.273158,true,true,true,0.125,12.8,0.0,-44,0,0,0.125,12.8,0.0,0,0,0,0.125,12.8,0.0,-50,0,0,0.125,12.8,0.0,0,0,0,0.0,12.8,0.0,0,0,0,0.0,12.8,0.0,0,0,0,0.125,12.9,0.0,0,0,0,kReverse,kOff,-86.19,1.71,1.68,0.02722168,-0.9838257,0.05847168,32.85,0.0,-2.0,-0.0063476562,-0.04486084,
202.294688,true,true,true,0.125,12.8,0.0,-44,0,0,0.125,12.8,0.0,0,0,0,0.125,12.8,0.0,-50,0,0,0.125,12.8,0.0,0,0,0,0.0,12.8,0.0,0,0,0,0.0,12.8,0.0,0,0,0,0.125,12.9,0.0,0,0,0,kReverse,kOff,-86.19,1.71,1.68,0.03173828,-0.982666,0.052368164,32.85,0.0,2.0,-0.0063476562,-0.04486084,
202.315819,true,true,true,0.125,12.8,0.0,-44,0,0,0.125,12.8,0.0,0,0,0,0.125,12.8,0.0,-50,0,0,0.125,12.8,0.0,0,0,0,0.125,12.8,0.0,0,0,0,0.0,12.8,0.0,0,0,0,0.125,12.9,0.0,0,0,0,kReverse,kOff,-86.19,1.71,1.68,0.02734375,-0.98217773,0.05871582,32.85,0.0,-2.0,-0.0063476562,-0.04486084,
202.33717800000002,true,true,true,0.125,12.8,0.0,-44,0,0,0.125,12.8,0.0,0,0,0,0.125,12.8,0.0,-50,0,0,0.125,12.8,0.0,0,0,0,0.0,12.8,0.0,0,0,0,0.0,12.8,0.0,0,0,0,0.125,12.9,0.0,0,0,0,kReverse,kOff,-86.19,1.71,1.69,0.028320312,-0.9840698,0.057617188,32.85,0.0,-1.0,-0.0063476562,-0.04486084,
202.359899,true,true,true,0.125,12.8,0.0,-44,0,0,0.125,12.8,0.0,0,0,0,0.125,12.8,0.0,-50,0,0,0.125,12.8,0.0,0,0,0,0.0,12.8,0.0,0,0,0,0.0,12.8,0.0,0,0,0,0.125,12.9,0.0,0,0,0,kReverse,kOff,-86.19,1.71,1.69,0.028808594,-0.98443604,0.060424805,32.85,0.0,0.0,-0.0063476562,-0.04486084,
202.38010500000001,true,true,true,0.125,12.8,0.0,-44,0,0,0.125,12.8,0.0,0,0,0,0.125,12.8,0.0,-50,0,0,0.125,12.8,0.0,0,0,0,0.0,12.8,0.0,0,0,0,0.0,12.8,0.0,0,0,0,0.125,12.9,0.0,0,0,0,kReverse,kOff,-86.19,1.71,1.69,0.028564453,-0.9830322,0.055419922,32.85,0.0,0.0,-0.0063476562,-0.04486084,
202.405611,true,true,true,0.125,12.8,0.0,-44,0,0,0.125,12.8,0.0,0,0,0,0.125,12.8,0.0,-50,0,0,0.125,12.8,0.0,0,0,0,0.0,12.8,0.0,0,0,0,0.0,12.8,0.0,0,0,0,0.125,12.9,0.0,0,0,0,kReverse,kOff,-86.18,1.71,1.68,0.027954102,-0.9822998,0.053955078,32.85,0.0,-1.0,-0.0063476562,-0.04486084,
202.43389800000003,true,true,true,0.125,12.8,0.0,-44,0,0,0.125,12.8,0.0,0,0,0,0.125,12.8,0.0,-50,0,0,0.125,12.8,0.0,0,0,0,0.0,12.8,0.0,0,0,0,0.0,12.8,0.0,0,0,0,0.125,12.9,0.0,0,0,0,kReverse,kOff,-86.18,1.71,1.68,0.026794434,-0.98205566,0.05419922,32.85,0.0,-2.0,-0.0063476562,-0.04486084,
202.455255,true,true,true,0.125,12.8,0.0,-44,0,0,0.125,12.8,0.0,0,0,0,0.125,12.8,0.0,-50,0,0,0.125,12.8,0.0,0,0,0,0.0,12.8,0.0,0,0,0,0.0,12.8,0.0,0,0,0,0.125,12.9,0.0,0,0,0,kReverse,kOff,-86.19,1.71,1.68,0.027893066,-0.98095703,0.057800293,32.85,0.0,-1.0,-0.0063476562,-0.04486084,
202.47644100000002,true,true,true,0.125,12.8,0.0,-44,0,0,0.125,12.8,0.0,0,0,0,0.125,12.8,0.0,-50,0,0,0.125,12.8,0.0,0,0,0,0.0,12.8,0.0,0,0,0,0.0,12.8,0.0,0,0,0,0.125,12.9,0.0,0,0,0,kReverse,kOff,-86.19,1.71,1.68,0.02734375,-0.98339844,0.059020996,32.84,0.0,-2.0,-0.0063476562,-0.04486084,
202.50028600000002,true,true,true,0.125,12.8,0.0,-44,0,0,0.125,12.8,0.0,0,0,0,0.125,12.8,0.0,-50,0,0,0.125,12.8,0.0,0,0,0,0.125,12.8,0.0,0,0,0,0.0,12.8,0.0,0,0,0,0.125,12.9,0.0,0,0,0,kReverse,kOff,-86.19,1.71,1.68,0.0289917,-0.9864502,0.060424805,32.84,0.0,0.0,-0.0063476562,-0.04486084,
202.52478600000003,true,true,true,0.125,12.8,0.0,-44,0,0,0.125,12.8,0.0,0,0,0,0.125,12.8,0.0,-50,0,0,0.125,12.8,0.0,0,0,0,0.125,12.8,0.0,0,0,0,0.0,12.8,0.0,0,0,0,0.125,12.9,0.0,0,0,0,kReverse,kOff,-86.19,1.7,1.68,0.029296875,-0.9862671,0.05645752,32.84,0.0,0.0,-0.0063476562,-0.04486084,
202.545427,true,true,true,0.125,12.8,0.0,-44,0,0,0.125,12.8,0.0,0,0,0,0.125,12.8,0.0,-50,0,0,0.125,12.8,0.0,0,0,0,0.0,12.8,0.0,0,0,0,0.0,12.8,0.0,0,0,0,0.125,12.9,0.0,0,0,0,kReverse,kOff,-86.19,1.7,1.68,0.028503418,-0.9855957,0.055541992,32.84,0.0,0.0,-0.0063476562,-0.04486084,
202.567274,true,true,true,0.125,12.8,0.0,-44,0,0,0.125,12.8,0.0,0,0,0,0.125,12.8,0.0,-50,0,0,0.125,12.8,0.0,0,0,0,0.0,12.8,0.0,0,0,0,0.0,12.8,0.0,0,0,0,0.125,12.9,0.0,0,0,0,kReverse,kOff,-86.19,1.7,1.68,0.031677246,-0.98217773,0.059814453,32.84,0.0,2.0,-0.0063476562,-0.04486084,
202.589839,true,true,true,0.125,12.8,0.0,-44,0,0,0.125,12.8,0.0,0,0,0,0.125,12.8,0.0,-50,0,0,0.125,12.8,0.0,0,0,0,0.0,12.8,0.0,0,0,0,0.0,12.8,0.0,0,0,0,0.125,12.9,0.0,0,0,0,kReverse,kOff,-86.19,1.7,1.68,0.028747559,-0.9834595,0.059020996,32.84,0.0,0.0,-0.0063476562,-0.04486084,
202.61359299999998,true,true,true,0.125,12.8,0.0,-44,0,0,0.125,12.8,0.0,0,0,0,0.125,12.8,0.0,-50,0,0,0.125,12.8,0.0,0,0,0,0.0,12.8,0.0,0,0,0,0.0,12.8,0.0,0,0,0,0.125,12.9,0.0,0,0,0,kReverse,kOff,-86.19,1.7,1.68,0.028747559,-0.9828491,0.057922363,32.84,0.0,0.0,-0.0063476562,-0.04486084,
202.63490600000003,true,true,true,0.125,12.8,0.0,-44,0,0,0.125,12.8,0.0,0,0,0,0.375,12.8,0.0,-50,0,0,0.125,12.8,0.0,0,0,0,0.0,12.8,0.0,0,0,0,0.0,12.8,0.0,0,0,0,0.125,12.9,0.0,0,0,0,kReverse,kOff,-86.19,1.7,1.68,0.03125,-0.9836426,0.06201172,32.84,0.0,1.0,-0.0063476562,-0.04486084,
202.657828,true,true,true,0.125,12.8,0.0,-45,0,0,0.25,12.8,0.0,0,0,0,0.75,12.8,0.0,-57,-1,0,0.625,12.700000000000001,0.0,0,0,0,0.125,12.700000000000001,0.0,0,0,0,0.0,12.65,0.0,0,0,0,0.125,12.75,0.0,0,0,0,kReverse,kOff,-86.18,1.7,1.67,0.0524292,-0.9885254,0.084472656,32.84,0.0,22.0,-0.0063323975,-0.04484558,
202.68513400000003,true,true,true,2.25,12.65,0.0,-62,-4,0,3.0,12.700000000000001,0.0,0,0,0,2.375,12.65,0.0,-70,-5,0,2.875,12.700000000000001,0.0,0,0,0,0.125,12.700000000000001,0.0,0,0,0,0.0,12.65,0.0,0,0,0,0.125,12.75,0.0,0,0,0,kReverse,kOff,-86.15,1.72,1.69,0.021484375,-0.8851929,0.15374756,32.84,0.0,-5.0,-0.0061798096,-0.044555664,
202.708991,true,true,true,5.625,12.65,0.0,-69,-12,0,6.25,12.700000000000001,0.0,0,0,0,5.125,12.65,0.0,-77,-13,0,5.375,12.700000000000001,0.0,0,0,0,0.125,12.700000000000001,0.0,0,0,0,0.0,12.65,0.0,0,0,0,0.125,12.75,0.0,0,0,0,kReverse,kOff,-86.2,1.77,1.74,0.055541992,-1.0773926,-0.35705566,32.84,0.0,25.0,-0.006088257,-0.04458618,
202.73129500000002,true,true,true,9.875,12.65,0.0,-81,-21,0,10.75,12.700000000000001,0.0,0,0,0,9.375,12.65,0.0,-87,-21,0,9.625,12.700000000000001,0.0,0,0,0,0.125,12.700000000000001,0.0,0,0,0,0.0,12.65,0.0,0,0,0,0.125,12.75,0.0,0,0,0,kReverse,kOff,-86.85,1.72,1.72,-0.3460083,-1.4851074,-0.607666,32.84,0.0,-391.0,-0.006286621,-0.046051025,
202.75306,true,true,true,14.75,12.65,0.0,-100,-32,0,16.25,12.700000000000001,0.0,0,0,0,13.125,12.65,0.0,-105,-32,0,13.125,12.700000000000001,0.0,0,0,0,0.125,12.700000000000001,0.0,0,0,0,0.0,12.65,0.0,0,0,0,0.125,12.75,0.0,0,0,0,kReverse,kOff,-87.27,1.57,1.58,0.16748047,-0.80810547,-0.46203613,32.84,0.0,143.0,-0.006729126,-0.04788208,
202.786321,true,true,true,20.5,12.65,0.0,-147,-61,0,24.125,12.700000000000001,0.0,0,0,0,19.125,12.65,0.0,-143,-57,0,19.5,12.700000000000001,0.0,0,0,0,0.125,12.700000000000001,0.0,0,0,0,0.0,12.65,0.0,0,0,0,0.125,12.75,0.0,0,0,0,kReverse,kOff,-88.33,1.56,1.57,-0.015136719,-0.8294678,-0.52111816,32.84,0.0,-40.0,-0.0073242188,-0.057022095,
202.812147,true,true,true,20.875,12.65,0.0,-171,-77,0,24.875,12.700000000000001,0.0,0,0,0,19.5,12.65,0.0,-167,-69,0,20.5,12.700000000000001,0.0,0,0,0,0.125,12.700000000000001,0.0,0,0,0,0.0,12.65,0.0,0,0,0,0.125,12.75,0.0,0,0,0,kReverse,kOff,-88.39,1.57,1.57,-0.08459473,-0.965271,-0.2852173,32.84,0.0,-112.0,-0.007598877,-0.06137085,
202.834087,true,true,true,20.5,10.55,0.0,-198,-92,0,24.25,10.55,0.0,0,0,0,19.0,10.65,0.0,-195,-83,0,20.375,10.65,0.0,0,0,0,0.125,10.8,0.0,0,0,0,0.0,10.8,0.0,0,0,0,0.125,10.850000000000001,0.0,0,0,0,kReverse,kOff,-88.38,1.6,1.6,0.15783691,-1.2299805,-0.7104492,32.84,0.0,122.0,-0.008285522,-0.07220459,
202.85757,true,true,true,18.25,10.55,0.0,-227,-107,0,22.25,10.55,0.0,0,0,0,16.25,10.65,0.0,-221,-96,0,14.375,10.65,0.0,0,0,0,0.125,10.8,0.0,0,0,0,0.0,10.8,0.0,0,0,0,0.125,10.850000000000001,0.0,0,0,0,kReverse,kOff,-88.23,1.72,1.72,0.0049438477,-0.9113159,-0.21801758,32.84,0.0,-22.0,-0.008529663,-0.078704834,
202.880791,true,true,true,13.25,10.55,0.0,-255,-119,0,10.0,10.55,0.0,0,0,0,6.625,10.65,0.0,-274,-119,0,9.0,10.65,0.0,0,0,0,0.125,10.8,0.0,0,0,0,0.0,10.8,0.0,0,0,0,0.125,10.850000000000001,0.0,0,0,0,kReverse,kOff,-88.2,1.72,1.72,-0.083984375,-0.88549805,-0.22479248,32.84,0.0,-110.0,-0.009307861,-0.09312439,
202.90269700000002,true,true,true,2.625,10.55,0.0,-309,-133,0,4.25,10.55,0.0,0,0,0,2.625,10.65,0.0,-300,-126,0,4.125,10.65,0.0,0,0,0,0.125,10.8,0.0,0,0,0,0.0,10.8,0.0,0,0,0,0.125,10.850000000000001,0.0,0,0,0,kReverse,kOff,-88.21,1.72,1.72,-0.049316406,-1.0592651,0.029296875,32.84,0.0,-81.0,-0.009902954,-0.10069275,
202.92770800000002,true,true,true,0.75,10.55,0.0,-331,-135,0,0.875,10.55,0.0,0,0,0,0.75,10.65,0.0,-322,-129,0,0.875,10.65,0.0,0,0,0,0.125,10.8,0.0,0,0,0,0.0,10.8,0.0,0,0,0,0.125,10.850000000000001,0.0,0,0,0,kReverse,kOff,-88.26,1.72,1.72,0.024108887,-1.0058594,0.397583,32.84,0.0,-6.0,-0.011276245,-0.11495972,
202.95001700000003,true,true,true,0.125,10.55,0.0,-349,-133,0,0.125,10.55,0.0,0,0,0,0.25,10.65,0.0,-338,-128,0,0.25,10.65,0.0,0,0,0,0.0,10.8,0.0,0,0,0,0.0,10.8,0.0,0,0,0,0.125,10.850000000000001,0.0,0,0,0,kReverse,kOff,-88.28,1.71,1.71,0.15698242,-1.1213989,0.3319702,32.84,0.0,123.0,-0.0119018555,-0.12136841,
202.97079200000002,true,true,true,0.125,10.55,0.0,-368,-127,0,0.125,10.55,0.0,0,0,0,0.125,10.65,0.0,-353,-121,0,0.125,10.65,0.0,0,0,0,0.0,10.8,0.0,0,0,0,0.0,10.8,0.0,0,0,0,0.125,10.850000000000001,0.0,0,0,0,kReverse,kOff,-88.11,1.83,1.83,0.06628418,-1.0549316,0.11975098,32.85,0.0,32.0,-0.012817383,-0.13320923,
202.994032,true,true,true,0.125,12.65,0.0,-392,-119,0,0.125,12.65,0.0,0,0,0,0.125,12.6,0.0,-379,-113,0,0.125,12.65,0.0,0,0,0,0.0,12.65,0.0,0,0,0,0.0,12.65,0.0,0,0,0,0.125,12.700000000000001,0.0,0,0,0,kReverse,kOff,-87.96,1.88,1.89,-0.032470703,-0.46917725,0.48620605,32.85,0.0,-46.0,-0.013259888,-0.13861084,
203.00724300000002,true,true,true,0.125,12.65,0.0,-419,-113,0,0.125,12.65,0.0,0,0,0,0.125,12.6,0.0,-403,-107,0,0.125,12.65,0.0,0,0,0,0.125,12.65,0.0,0,0,0,0.0,12.65,0.0,0,0,0,0.125,12.700000000000001,0.0,0,0,0,kReverse,kOff,-87.45,1.97,1.98,0.12384033,-1.1950073,0.3690796,32.85,0.0,83.0,-0.013946533,-0.14738464,
203.034951,true,true,true,0.125,12.65,0.0,-446,-111,0,0.125,12.65,0.0,0,0,0,0.125,12.6,0.0,-425,-103,0,0.125,12.65,0.0,0,0,0,0.125,12.65,0.0,0,0,0,0.0,12.65,0.0,0,0,0,0.125,12.700000000000001,0.0,0,0,0,kReverse,kOff,-87.55,1.95,1.96,0.06188965,-1.1445312,0.12908936,32.85,0.0,23.0,-0.014160156,-0.15116882,
203.05842,true,true,true,0.125,12.65,0.0,-472,-114,0,0.125,12.65,0.0,0,0,0,0.125,12.6,0.0,-470,-107,0,0.125,12.65,0.0,0,0,0,0.125,12.65,0.0,0,0,0,0.0,12.65,0.0,0,0,0,0.125,12.700000000000001,0.0,0,0,0,kReverse,kOff,-87.77,1.86,1.87,-0.05847168,-1.0374756,-0.2255249,32.85,0.0,-94.0,-0.014816284,-0.15907288,
203.081129,true,true,true,0.125,12.65,0.0,-523,-125,0,0.125,12.65,0.0,0,0,0,0.125,12.6,0.0,-488,-110,0,0.125,12.65,0.0,0,0,0,0.125,12.65,0.0,0,0,0,0.0,12.65,0.0,0,0,0,0.125,12.700000000000001,0.0,0,0,0,kReverse,kOff,-87.73,1.8,1.82,-0.068359375,-1.0333862,-0.184021,32.85,0.0,-103.0,-0.015350342,-0.16348267,
203.10524600000002,true,true,true,0.125,12.65,0.0,-545,-128,0,0.125,12.65,0.0,0,0,0,0.125,12.6,0.0,-506,-111,0,0.125,12.65,0.0,0,0,0,0.125,12.65,0.0,0,0,0,0.0,12.65,0.0,0,0,0,0.125,12.700000000000001,0.0,0,0,0,kReverse,kOff,-87.49,1.79,1.82,0.10870361,-1.015564,0.07092285,32.85,0.0,77.0,-0.016555786,-0.17262268,
203.130598,true,true,true,0.125,12.65,0.0,-568,-127,0,0.125,12.65,0.0,0,0,0,0.125,12.6,0.0,-523,-107,0,0.125,12.65,0.0,0,0,0,0.125,12.65,0.0,0,0,0,0.0,12.65,0.0,0,0,0,0.125,12.700000000000001,0.0,0,0,0,kReverse,kOff,-87.15,1.92,1.97,0.039916992,-1.1085205,0.23156738,32.85,0.0,6.0,-0.017303467,-0.18109131,
203.15159,true,true,true,0.125,12.700000000000001,0.0,-587,-123,0,0.125,12.700000000000001,0.0,0,0,0,0.125,12.65,0.0,-541,-101,0,0.125,12.700000000000001,0.0,0,0,0,0.0,12.700000000000001,0.0,0,0,0,0.0,12.65,0.0,0,0,0,0.125,12.75,0.0,0,0,0,kReverse,kOff,-87.09,1.93,1.97,-0.024536133,-1.0155029,0.2331543,32.85,0.0,-54.0,-0.017669678,-0.184906,
203.172544,true,true,true,0.125,12.700000000000001,0.0,-607,-118,0,0.125,12.700000000000001,0.0,0,0,0,0.125,12.65,0.0,-558,-96,0,0.125,12.700000000000001,0.0,0,0,0,0.0,12.700000000000001,0.0,0,0,0,0.0,12.65,0.0,0,0,0,0.125,12.75,0.0,0,0,0,kReverse,kOff,-87.12,1.88,1.93,-0.08886719,-0.9540405,0.19244385,32.85,0.0,-116.0,-0.0181427,-0.18849182,
203.19277300000002,true,true,true,0.125,12.700000000000001,0.0,-628,-113,0,0.125,12.700000000000001,0.0,0,0,0,0.125,12.65,0.0,-576,-91,0,0.125,12.700000000000001,0.0,0,0,0,0.0,12.700000000000001,0.0,0,0,0,0.0,12.65,0.0,0,0,0,0.125,12.75,0.0,0,0,0,kReverse,kOff,-87.02,1.82,1.88,0.009399414,-0.9515991,0.31573486,32.85,0.0,-14.0,-0.018692017,-0.19458008,
203.213788,true,true,true,0.125,12.700000000000001,0.0,-649,-108,0,0.125,12.700000000000001,0.0,0,0,0,0.125,12.65,0.0,-592,-88,0,0.125,12.700000000000001,0.0,0,0,0,0.0,12.700000000000001,0.0,0,0,0,0.0,12.65,0.0,0,0,0,0.125,12.75,0.0,0,0,0,kReverse,kOff,-86.97,1.83,1.89,0.007873535,-0.94177246,0.30773926,32.85,0.0,-15.0,-0.018692017,-0.19703674,
203.241201,true,true,true,0.125,12.700000000000001,0.0,-667,-104,0,0.125,12.700000000000001,0.0,0,0,0,0.125,12.65,0.0,-623,-85,0,0.125,12.700000000000001,0.0,0,0,0,0.125,12.700000000000001,0.0,0,0,0,0.0,12.65,0.0,0,0,0,0.125,12.75,0.0,0,0,0,kReverse,kOff,-86.98,1.79,1.86,-0.050598145,-0.9371338,-0.018188477,32.85,0.0,-81.0,-0.01876831,-0.2013092,
203.26530000000002,true,true,true,0.125,12.700000000000001,0.0,-702,-99,0,0.125,12.700000000000001,0.0,0,0,0,0.125,12.65,0.0,-636,-82,0,0.125,12.700000000000001,0.0,0,0,0,0.125,12.700000000000001,0.0,0,0,0,0.0,12.65,0.0,0,0,0,0.125,12.75,0.0,0,0,0,kReverse,kOff,-86.98,1.77,1.85,-0.018371582,-0.97698975,0.0368042,32.85,0.0,-48.0,-0.018920898,-0.20344543,
203.28264000000001,true,true,true,0.125,12.700000000000001,0.0,-718,-95,0,0.125,12.700000000000001,0.0,0,0,0,0.125,12.65,0.0,-648,-79,0,0.125,12.700000000000001,0.0,0,0,0,0.0,12.700000000000001,0.0,0,0,0,0.0,12.65,0.0,0,0,0,0.125,12.75,0.0,0,0,0,kReverse,kOff,-86.79,1.76,1.85,0.119384766,-1.0406494,0.32989502,32.85,0.0,96.0,-0.019165039,-0.20727539,
203.31242600000002,true,true,true,0.125,12.700000000000001,0.0,-733,-91,0,0.125,12.700000000000001,0.0,0,0,0,0.125,12.700000000000001,0.0,-661,-75,0,0.125,12.75,0.0,0,0,0,0.0,12.700000000000001,0.0,0,0,0,0.0,12.700000000000001,0.0,0,0,0,0.125,12.75,0.0,0,0,0,kReverse,kOff,-86.5,1.86,1.96,0.030578613,-1.0373535,0.2642212,32.85,0.0,4.0,-0.01902771,-0.20982361,
203.33324199999998,true,true,true,0.125,12.700000000000001,0.0,-745,-86,0,0.125,12.700000000000001,0.0,0,0,0,0.375,12.700000000000001,0.0,-672,-71,0,0.125,12.75,0.0,0,0,0,0.0,12.700000000000001,0.0,0,0,0,0.0,12.700000000000001,0.0,0,0,0,0.125,12.75,0.0,0,0,0,kReverse,kOff,-86.42,1.82,1.93,-0.091674805,-0.9920654,0.17193604,32.85,0.0,-118.0,-0.018997192,-0.21070862,
203.354367,true,true,true,0.5,12.700000000000001,0.0,-761,-81,0,0.625,12.700000000000001,0.0,0,0,0,0.5,12.700000000000001,0.0,-687,-67,0,0.625,12.75,0.0,0,0,0,0.0,12.700000000000001,0.0,0,0,0,0.0,12.700000000000001,0.0,0,0,0,0.125,12.75,0.0,0,0,0,kReverse,kOff,-86.28,1.74,1.87,0.07342529,-0.944458,0.18322754,32.85,0.0,49.0,-0.019195557,-0.21208191,
203.37727,true,true,true,1.0,12.700000000000001,0.0,-783,-78,0,1.375,12.700000000000001,0.0,0,0,0,0.875,12.700000000000001,0.0,-710,-66,0,2.125,12.75,0.0,0,0,0,0.0,12.700000000000001,0.0,0,0,0,0.0,12.700000000000001,0.0,0,0,0,0.125,12.75,0.0,0,0,0,kReverse,kOff,-86.22,1.77,1.91,0.11260986,-0.8956299,0.1817627,32.85,0.0,89.0,-0.019195557,-0.21250916,
203.400071,true,true,true,1.875,12.700000000000001,0.0,-806,-79,0,4.0,12.700000000000001,0.0,0,0,0,2.875,12.700000000000001,0.0,-754,-79,0,3.25,12.75,0.0,0,0,0,0.0,12.700000000000001,0.0,0,0,0,0.0,12.700000000000001,0.0,0,0,0,0.125,12.75,0.0,0,0,0,kReverse,kOff,-86.4,1.78,1.9,-0.028808594,-1.0504761,0.010864258,32.85,0.0,-63.0,-0.018661499,-0.21331787,
203.42328100000003,true,true,true,3.375,12.700000000000001,0.0,-822,-83,0,5.5,12.700000000000001,0.0,0,0,0,4.0,12.700000000000001,0.0,-772,-88,0,4.625,12.75,0.0,0,0,0,0.0,12.700000000000001,0.0,0,0,0,0.0,12.700000000000001,0.0,0,0,0,0.125,12.75,0.0,0,0,0,kReverse,kOff,-86.5,1.7,1.83,-0.03942871,-1.0117188,-0.012512207,32.85,0.0,-72.0,-0.018432617,-0.21382141,
203.44484100000003,true,true,true,5.5,12.700000000000001,0.0,-864,-93,0,6.5,12.700000000000001,0.0,0,0,0,4.75,12.700000000000001,0.0,-792,-96,0,5.625,12.75,0.0,0,0,0,0.0,12.700000000000001,0.0,0,0,0,0.0,12.700000000000001,0.0,0,0,0,0.125,12.75,0.0,0,0,0,kReverse,kOff,-87.0,1.62,1.74,0.34875488,-1.093689,0.12677002,32.85,0.0,320.0,-0.017654419,-0.21603394,
203.46716899999998,true,true,true,5.5,12.1,0.0,-886,-97,0,6.75,12.05,0.0,0,0,0,5.125,12.05,0.0,-812,-100,0,5.875,12.1,0.0,0,0,0,0.0,12.15,0.0,0,0,0,0.0,12.1,0.0,0,0,0,0.125,12.200000000000001,0.0,0,0,0,kReverse,kOff,-87.34,1.74,1.83,0.1899414,-1.1643066,0.3920288,32.85,0.0,169.0,-0.016799927,-0.21705627,
203.489969,true,true,true,5.375,12.1,0.0,-910,-101,0,6.5,12.05,0.0,0,0,0,5.125,12.05,0.0,-835,-102,0,5.75,12.1,0.0,0,0,0,0.0,12.15,0.0,0,0,0,0.0,12.1,0.0,0,0,0,0.125,12.200000000000001,0.0,0,0,0,kReverse,kOff,-87.62,1.67,1.74,0.1239624,-1.1453857,-0.18572998,32.85,0.0,81.0,-0.015075684,-0.2190094,
203.511221,true,true,true,5.25,12.1,0.0,-934,-104,0,6.375,12.05,0.0,0,0,0,5.375,12.05,0.0,-857,-101,0,5.75,12.1,0.0,0,0,0,0.0,12.15,0.0,0,0,0,0.0,12.1,0.0,0,0,0,0.125,12.200000000000001,0.0,0,0,0,kReverse,kOff,-87.63,1.73,1.79,0.10614014,-1.1820068,-0.44543457,32.85,0.0,50.0,-0.014160156,-0.22059631,
203.532772,true,true,true,5.375,12.1,0.0,-956,-107,0,6.5,12.05,0.0,0,0,0,5.5,12.05,0.0,-877,-101,0,5.75,12.1,0.0,0,0,0,0.0,12.15,0.0,0,0,0,0.0,12.1,0.0,0,0,0,0.125,12.200000000000001,0.0,0,0,0,kReverse,kOff,-87.55,1.84,1.9,-0.040771484,-0.9057007,0.20837402,32.85,0.0,-62.0,-0.012161255,-0.22462463,
203.55412600000002,true,true,true,5.375,12.1,0.0,-980,-111,0,6.5,12.05,0.0,0,0,0,5.5,12.05,0.0,-902,-103,0,5.75,12.1,0.0,0,0,0,0.125,12.15,0.0,0,0,0,0.0,12.1,0.0,0,0,0,0.125,12.200000000000001,0.0,0,0,0,kReverse,kOff,-87.57,1.76,1.83,-0.032958984,-0.86816406,0.15893555,32.85,0.0,-54.0,-0.011245728,-0.22640991,
203.577547,true,true,true,5.375,12.1,0.0,-1004,-114,0,6.5,12.05,0.0,0,0,0,5.375,12.05,0.0,-927,-107,0,5.5,12.1,0.0,0,0,0,0.125,12.15,0.0,0,0,0,0.0,12.1,0.0,0,0,0,0.125,12.200000000000001,0.0,0,0,0,kReverse,kOff,-87.6,1.73,1.8,0.032287598,-0.78125,-0.008544922,32.85,0.0,7.0,-0.009689331,-0.23005676,
203.60210800000002,true,true,true,5.0,12.1,0.0,-1032,-117,0,5.875,12.05,0.0,0,0,0,4.75,12.05,0.0,-979,-115,0,5.25,12.1,0.0,0,0,0,0.125,12.15,0.0,0,0,0,0.0,12.1,0.0,0,0,0,0.125,12.200000000000001,0.0,0,0,0,kReverse,kOff,-87.59,1.72,1.8,0.10247803,-0.85614014,-0.07623291,32.85,0.0,72.0,-0.008895874,-0.23202515,
203.624731,true,true,true,4.625,12.1,0.0,-1090,-124,0,5.625,12.1,0.0,0,0,0,4.5,12.1,0.0,-1008,-120,0,5.125,12.200000000000001,0.0,0,0,0,0.125,12.200000000000001,0.0,0,0,0,0.0,12.200000000000001,0.0,0,0,0,0.125,12.25,0.0,0,0,0,kReverse,kOff,-87.67,1.76,1.82,-0.023254395,-1.0348511,-0.17504883,32.85,0.0,-63.0,-0.007369995,-0.23669434,
203.641646,true,true,true,4.625,12.15,0.0,-1090,-124,0,5.25,12.1,0.0,0,0,0,4.25,12.1,0.0,-1039,-126,0,4.75,12.200000000000001,0.0,0,0,0,0.125,12.200000000000001,0.0,0,0,0,0.0,12.200000000000001,0.0,0,0,0,0.125,12.25,0.0,0,0,0,kReverse,kOff,-87.67,1.76,1.82,-0.023254395,-1.0348511,-0.17504883,32.85,0.0,-63.0,-0.007369995,-0.23669434,
203.66592699999998,true,true,true,4.125,12.15,0.0,-1152,-136,0,5.0,12.1,0.0,0,0,0,4.125,12.1,0.0,-1068,-132,0,4.625,12.200000000000001,0.0,0,0,0,0.125,12.200000000000001,0.0,0,0,0,0.0,12.200000000000001,0.0,0,0,0,0.125,12.25,0.0,0,0,0,kReverse,kOff,-87.83,1.77,1.83,-0.021362305,-0.81188965,0.05041504,32.85,0.0,-45.0,-0.0061187744,-0.24197388,
203.693374,true,true,true,3.875,12.15,0.0,-1185,-143,0,4.875,12.1,0.0,0,0,0,3.875,12.1,0.0,-1101,-139,0,4.375,12.200000000000001,0.0,0,0,0,0.125,12.200000000000001,0.0,0,0,0,0.0,12.200000000000001,0.0,0,0,0,0.125,12.25,0.0,0,0,0,kReverse,kOff,-87.93,1.74,1.79,0.050598145,-1.0031128,-0.037963867,32.85,0.0,17.0,-0.0055389404,-0.2446289,
203.713481,true,true,true,3.75,12.15,0.0,-1219,-149,0,4.5,12.1,0.0,0,0,0,3.625,12.1,0.0,-1132,-144,0,4.25,12.200000000000001,0.0,0,0,0,0.125,12.200000000000001,0.0,0,0,0,0.0,12.200000000000001,0.0,0,0,0,0.125,12.25,0.0,0,0,0,kReverse,kOff,-88.06,1.71,1.75,0.06542969,-1.0842896,-0.03778076,32.85,0.0,30.0,-0.004425049,-0.25016785,
203.734582,true,true,true,3.875,12.15,0.0,-1253,-154,0,4.75,12.1,0.0,0,0,0,4.0,12.1,0.0,-1167,-150,0,4.375,12.200000000000001,0.0,0,0,0,0.125,12.200000000000001,0.0,0,0,0,0.0,12.200000000000001,0.0,0,0,0,0.125,12.25,0.0,0,0,0,kReverse,kOff,-88.12,1.71,1.74,-0.0056152344,-0.961853,0.027648926,32.85,0.0,-33.0,-0.0038757324,-0.25300598,
203.75700700000002,true,true,true,4.25,12.15,0.0,-1288,-159,0,5.25,12.1,0.0,0,0,0,4.25,12.1,0.0,-1200,-154,0,5.125,12.200000000000001,0.0,0,0,0,0.125,12.200000000000001,0.0,0,0,0,0.0,12.200000000000001,0.0,0,0,0,0.125,12.25,0.0,0,0,0,kReverse,kOff,-88.21,1.68,1.71,-4.272461E-4,-0.6932373,-0.117370605,32.85,0.0,-26.0,-0.0028533936,-0.25904846,
203.78330499999998,true,true,true,4.75,12.15,0.0,-1323,-164,0,6.5,11.9,0.0,0,0,0,5.25,12.0,0.0,-1271,-164,0,5.875,12.05,0.0,0,0,0,0.125,12.05,0.0,0,0,0,0.0,12.05,0.0,0,0,0,0.125,12.1,0.0,0,0,0,kReverse,kOff,-88.25,1.68,1.7,0.038879395,-0.67230225,-0.07421875,32.85,0.0,15.0,-0.0018920898,-0.26591492,
203.813452,true,true,true,6.125,12.0,0.0,-1396,-172,0,7.25,11.9,0.0,0,0,0,5.875,12.0,0.0,-1308,-168,0,6.625,12.05,0.0,0,0,0,0.125,12.05,0.0,0,0,0,0.0,12.05,0.0,0,0,0,0.125,12.1,0.0,0,0,0,kReverse,kOff,-88.34,1.6,1.62,0.01928711,-0.9364624,-0.39764404,32.85,0.0,-26.0,-0.0012359619,-0.27322388,
203.842858,true,true,true,7.875,12.0,0.0,-1478,-181,0,9.125,11.9,0.0,0,0,0,7.875,12.0,0.0,-1390,-178,0,8.5,12.05,0.0,0,0,0,0.125,12.05,0.0,0,0,0,0.0,12.05,0.0,0,0,0,0.125,12.1,0.0,0,0,0,kReverse,kOff,-88.38,1.6,1.61,0.047668457,-0.94873047,0.06982422,32.85,0.0,24.0,-6.5612793E-4,-0.28138733,
203.86834900000002,true,true,true,9.75,12.0,0.0,-1525,-188,0,11.25,11.9,0.0,0,0,0,10.25,12.0,0.0,-1432,-184,0,10.625,12.05,0.0,0,0,0,0.0,12.05,0.0,0,0,0,0.0,12.05,0.0,0,0,0,0.125,12.1,0.0,0,0,0,kReverse,kOff,-88.39,1.6,1.6,-0.017333984,-0.90045166,-0.34143066,32.85,0.0,-59.0,-3.6621094E-4,-0.28564453,
203.889025,true,true,true,12.875,12.0,0.0,-1576,-197,0,13.875,11.9,0.0,0,0,0,12.5,12.0,0.0,-1479,-192,0,13.375,12.05,0.0,0,0,0,0.0,12.05,0.0,0,0,0,0.0,12.05,0.0,0,0,0,0.125,12.1,0.0,0,0,0,kReverse,kOff,-88.39,1.6,1.59,0.059448242,-1.005188,-0.25805664,32.85,0.0,17.0,-1.0681152E-4,-0.29032898,
203.912088,true,true,true,15.25,12.0,0.0,-1628,-209,0,16.375,11.9,0.0,0,0,0,14.5,12.0,0.0,-1528,-202,0,16.0,12.05,0.0,0,0,0,0.0,12.05,0.0,0,0,0,0.0,12.05,0.0,0,0,0,0.125,12.1,0.0,0,0,0,kReverse,kOff,-88.38,1.57,1.55,-0.14263916,-1.0338135,-0.7227173,32.85,0.0,-210.0,1.2207031E-4,-0.3011322,
203.935426,true,true,true,17.5,12.0,0.0,-1680,-221,0,18.875,11.9,0.0,0,0,0,15.5,12.0,0.0,-1579,-213,0,18.0,12.05,0.0,0,0,0,0.0,11.0,0.0,0,0,0,0.0,11.0,0.0,0,0,0,0.125,11.0,0.0,0,0,0,kReverse,kOff,-88.2,1.59,1.55,0.11853027,-0.9161377,-0.3088379,32.85,0.0,75.0,-6.1035156E-5,-0.31500244,
203.962655,true,true,true,17.5,10.75,0.0,-1735,-234,0,19.0,10.8,0.0,0,0,0,15.125,10.850000000000001,0.0,-1686,-236,0,17.75,10.9,0.0,0,0,0,0.0,11.0,0.0,0,0,0,0.0,11.0,0.0,0,0,0,0.125,11.0,0.0,0,0,0,kReverse,kOff,-87.99,1.6,1.54,-0.012390137,-1.1437378,0.06402588,32.85,0.0,-39.0,1.5258789E-5,-0.33039856,
203.987709,true,true,true,16.75,10.75,0.0,-1850,-258,0,18.625,10.8,0.0,0,0,0,14.75,10.850000000000001,0.0,-1743,-247,0,17.375,10.9,0.0,0,0,0,0.125,11.0,0.0,0,0,0,0.0,11.0,0.0,0,0,0,0.125,11.0,0.0,0,0,0,kReverse,kOff,-87.91,1.61,1.54,0.008056641,-0.9284668,0.13134766,32.85,0.0,-9.0,3.0517578E-5,-0.3380127,
204.010578,true,true,true,16.375,10.75,0.0,-1911,-268,0,17.75,10.8,0.0,0,0,0,14.375,10.850000000000001,0.0,-1805,-258,0,17.0,10.9,0.0,0,0,0,0.125,11.0,0.0,0,0,0,0.0,11.0,0.0,0,0,0,0.125,11.0,0.0,0,0,0,kReverse,kOff,-87.91,1.61,1.53,0.020141602,-0.9265137,-0.22961426,32.82,0.0,-17.0,-1.9836426E-4,-0.3537445,
204.03186000000002,true,true,true,15.75,10.75,0.0,-1973,-278,0,17.0,10.8,0.0,0,0,0,13.875,10.850000000000001,0.0,-1863,-268,0,16.5,10.9,0.0,0,0,0,0.125,11.0,0.0,0,0,0,0.0,11.0,0.0,0,0,0,0.125,11.0,0.0,0,0,0,kReverse,kOff,-87.82,1.63,1.55,0.014770508,-0.93292236,-0.097717285,32.82,0.0,-16.0,-4.119873E-4,-0.36198425,
204.05297700000003,true,true,true,15.0,10.75,0.0,-2037,-287,0,16.0,10.8,0.0,0,0,0,13.375,10.850000000000001,0.0,-1926,-278,0,15.875,10.9,0.0,0,0,0,0.125,11.0,0.0,0,0,0,0.0,11.0,0.0,0,0,0,0.125,11.0,0.0,0,0,0,kReverse,kOff,-87.66,1.69,1.6,-0.014465332,-0.7840576,-0.14440918,32.82,0.0,-44.0,-8.239746E-4,-0.37887573,
204.07478400000002,true,true,true,14.0,10.75,0.0,-2104,-296,0,15.5,10.8,0.0,0,0,0,12.75,10.850000000000001,0.0,-1995,-289,0,15.125,10.9,0.0,0,0,0,0.125,11.0,0.0,0,0,0,0.0,11.0,0.0,0,0,0,0.125,11.0,0.0,0,0,0,kReverse,kOff,-87.53,1.66,1.55,-0.06921387,-0.91967773,-0.34942627,32.82,0.0,-114.0,-0.0011444092,-0.3876953,
204.09537,true,true,true,13.25,10.75,0.0,-2172,-306,0,14.875,10.8,0.0,0,0,0,12.5,10.850000000000001,0.0,-2058,-299,0,14.5,10.9,0.0,0,0,0,0.125,11.0,0.0,0,0,0,0.0,11.0,0.0,0,0,0,0.125,11.0,0.0,0,0,0,kReverse,kOff,-87.39,1.63,1.5,0.16125488,-0.9604492,-0.097839355,32.82,0.0,129.0,-0.001953125,-0.4063568,
204.122905,true,true,true,12.5,11.2,0.0,-2311,-325,0,13.625,11.2,0.0,0,0,0,12.0,11.3,0.0,-2197,-319,0,13.875,11.3,0.0,0,0,0,0.0,11.350000000000001,0.0,0,0,0,0.0,11.350000000000001,0.0,0,0,0,0.125,11.4,0.0,0,0,0,kReverse,kOff,-87.25,1.68,1.55,0.118896484,-0.78881836,-0.2803955,32.82,0.0,79.0,-0.0021972656,-0.41603088,
204.14958500000003,true,true,true,12.0,11.2,0.0,-2383,-333,0,13.125,11.2,0.0,0,0,0,11.375,11.3,0.0,-2263,-326,0,13.5,11.3,0.0,0,0,0,0.0,11.350000000000001,0.0,0,0,0,0.0,11.350000000000001,0.0,0,0,0,0.125,11.4,0.0,0,0,0,kReverse,kOff,-87.03,1.7,1.55,-0.0134887695,-1.4182129,-0.14318848,32.82,0.0,-61.0,-0.0023651123,-0.43603516,
204.171845,true,true,true,11.5,11.2,0.0,-2455,-340,0,12.75,11.2,0.0,0,0,0,11.125,11.3,0.0,-2332,-332,0,13.375,11.3,0.0,0,0,0,0.125,11.350000000000001,0.0,0,0,0,0.0,11.350000000000001,0.0,0,0,0,0.125,11.4,0.0,0,0,0,kReverse,kOff,-87.02,1.68,1.52,-0.15319824,-1.1842041,-0.20880127,32.82,0.0,-197.0,-0.002609253,-0.44625854,
204.19248800000003,true,true,true,11.25,11.2,0.0,-2527,-347,0,12.5,11.2,0.0,0,0,0,11.125,11.3,0.0,-2405,-337,0,13.125,11.3,0.0,0,0,0,0.125,11.350000000000001,0.0,0,0,0,0.0,11.350000000000001,0.0,0,0,0,0.125,11.4,0.0,0,0,0,kReverse,kOff,-87.09,1.69,1.53,-0.049438477,-0.7349243,-0.40319824,32.82,0.0,-96.0,-0.0030212402,-0.46731567,
204.215289,true,true,true,11.125,11.2,0.0,-2602,-352,0,12.25,11.2,0.0,0,0,0,10.875,11.3,0.0,-2474,-341,0,12.875,11.3,0.0,0,0,0,0.125,11.350000000000001,0.0,0,0,0,0.0,11.350000000000001,0.0,0,0,0,0.125,11.4,0.0,0,0,0,kReverse,kOff,-87.1,1.55,1.38,0.11206055,-1.4465942,0.02142334,32.82,0.0,78.0,-0.0037384033,-0.4897461,
204.23864200000003,true,true,true,10.625,11.2,0.0,-2676,-357,0,10.375,11.2,0.0,0,0,0,11.5,11.3,0.0,-2623,-350,0,13.375,11.3,0.0,0,0,0,0.125,11.350000000000001,0.0,0,0,0,0.0,11.350000000000001,0.0,0,0,0,0.125,11.4,0.0,0,0,0,kReverse,kOff,-87.07,1.62,1.45,0.116760254,-0.72473145,0.1529541,32.82,0.0,108.0,-0.003982544,-0.50086975,
204.264227,true,true,true,7.125,11.5,0.0,-2825,-366,0,8.0,11.5,0.0,0,0,0,13.25,11.350000000000001,0.0,-2703,-357,0,14.875,11.5,0.0,0,0,0,0.125,11.55,0.0,0,0,0,0.0,11.55,0.0,0,0,0,0.125,11.55,0.0,0,0,0,kReverse,kOff,-87.06,1.66,1.49,-0.05456543,-1.3903198,0.038208008,32.82,0.0,-88.0,-0.0043182373,-0.52178955,
204.287983,true,true,true,4.625,11.5,0.0,-2898,-369,0,5.375,11.5,0.0,0,0,0,16.125,11.350000000000001,0.0,-2786,-366,0,17.875,11.5,0.0,0,0,0,0.125,11.55,0.0,0,0,0,0.0,11.55,0.0,0,0,0,0.125,11.55,0.0,0,0,0,kReverse,kOff,-87.13,1.6,1.44,0.014343262,-1.1746216,-0.22686768,32.82,0.0,-30.0,-0.0045776367,-0.5321045,
204.311383,true,true,true,2.375,11.5,0.0,-2962,-369,0,3.375,11.5,0.0,0,0,0,19.375,11.350000000000001,0.0,-2873,-377,0,21.5,11.5,0.0,0,0,0,0.125,11.55,0.0,0,0,0,0.0,11.55,0.0,0,0,0,0.125,11.55,0.0,0,0,0,kReverse,kOff,-87.2,1.58,1.44,0.054626465,-1.0090332,0.0026245117,32.82,0.0,29.0,-0.005264282,-0.55303955,
204.33302,true,true,true,0.875,11.5,0.0,-3023,-366,0,1.375,11.5,0.0,0,0,0,21.875,11.350000000000001,0.0,-2962,-391,0,24.875,11.5,0.0,0,0,0,0.125,11.55,0.0,0,0,0,0.0,11.55,0.0,0,0,0,0.125,11.55,0.0,0,0,0,kReverse,kOff,-87.25,1.48,1.37,0.040222168,-1.1104126,-0.13336182,32.82,0.0,7.0,-0.0059814453,-0.5739441,
204.355211,true,true,true,0.0,11.5,0.0,-3078,-355,0,0.0,11.5,0.0,0,0,0,23.5,11.350000000000001,0.0,-3054,-405,0,26.875,11.5,0.0,0,0,0,0.0,11.55,0.0,0,0,0,0.0,11.55,0.0,0,0,0,0.125,11.55,0.0,0,0,0,kReverse,kOff,-87.16,1.44,1.35,0.013305664,-0.85980225,-0.084472656,32.82,0.0,-10.0,-0.0059814453,-0.58451843,
204.376181,true,true,true,0.0,11.5,0.0,-3139,-341,0,0.0,11.5,0.0,0,0,0,23.625,11.350000000000001,0.0,-3148,-421,0,25.375,11.5,0.0,0,0,0,0.0,11.55,0.0,0,0,0,0.0,11.55,0.0,0,0,0,0.125,11.55,0.0,0,0,0,kReverse,kOff,-87.3,1.45,1.38,0.074645996,-0.71276855,0.6582031,32.82,0.0,75.0,-0.005935669,-0.59465027,
204.402255,true,true,true,0.0,11.5,0.0,-3196,-325,0,0.0,11.5,0.0,0,0,0,22.25,11.350000000000001,0.0,-3346,-450,0,24.875,11.5,0.0,0,0,0,0.0,11.55,0.0,0,0,0,0.0,11.55,0.0,0,0,0,0.125,11.55,0.0,0,0,0,kReverse,kOff,-87.77,1.31,1.37,0.31628418,-1.1113281,0.1574707,32.82,0.0,284.0,-0.0053253174,-0.62179565,
204.43532700000003,true,true,true,0.0,11.5,0.0,-3305,-297,0,0.0,11.55,0.0,0,0,0,21.875,11.3,0.0,-3438,-461,0,24.625,11.350000000000001,0.0,0,0,0,0.0,11.55,0.0,0,0,0,0.0,11.5,0.0,0,0,0,0.125,11.55,0.0,0,0,0,kReverse,kOff,-87.87,1.37,1.46,0.3102417,-0.73602295,-0.2793579,32.82,0.0,307.0,-0.0045318604,-0.6304779,
204.456869,true,true,true,0.0,11.5,0.0,-3356,-287,0,0.0,11.55,0.0,0,0,0,21.125,11.3,0.0,-3539,-471,0,24.375,11.350000000000001,0.0,0,0,0,0.0,11.55,0.0,0,0,0,0.0,11.5,0.0,0,0,0,0.125,11.55,0.0,0,0,0,kReverse,kOff,-88.23,1.46,1.57,0.06616211,-1.1695557,0.54644775,32.82,0.0,-26.0,-0.001953125,-0.64733887,
204.47749800000003,true,true,true,0.0,11.5,0.0,-3407,-280,0,0.0,11.55,0.0,0,0,0,19.375,11.3,0.0,-3744,-487,0,23.125,11.350000000000001,0.0,0,0,0,0.0,11.55,0.0,0,0,0,0.0,11.5,0.0,0,0,0,0.125,11.55,0.0,0,0,0,kReverse,kOff,-88.54,1.39,1.45,0.08703613,-0.873291,0.3460083,32.82,0.0,16.0,-5.79834E-4,-0.65486145,
204.500014,true,true,true,0.25,11.5,0.0,-3461,-273,0,1.375,11.55,0.0,0,0,0,17.375,11.3,0.0,-3846,-494,0,21.25,11.350000000000001,0.0,0,0,0,0.0,11.55,0.0,0,0,0,0.0,11.5,0.0,0,0,0,0.125,11.55,0.0,0,0,0,kReverse,kOff,-88.9,1.08,1.11,0.060546875,-0.765625,-0.27246094,32.79,0.0,99.0,0.0020141602,-0.66947937,
204.524142,true,true,true,2.75,11.5,0.0,-3583,-267,0,3.125,11.55,0.0,0,0,0,14.875,11.3,0.0,-3953,-501,0,18.625,11.350000000000001,0.0,0,0,0,0.0,11.55,0.0,0,0,0,0.0,11.5,0.0,0,0,0,0.125,11.55,0.0,0,0,0,kReverse,kOff,-88.95,1.01,1.07,-0.15344238,-0.31713867,-0.20281982,32.79,0.0,-109.0,0.0033111572,-0.67718506,
204.549685,true,true,true,4.875,11.5,0.0,-3653,-274,0,5.875,11.55,0.0,0,0,0,11.375,11.3,0.0,-4054,-506,0,15.375,11.350000000000001,0.0,0,0,0,0.0,11.55,0.0,0,0,0,0.0,11.5,0.0,0,0,0,0.125,11.55,0.0,0,0,0,kReverse,kOff,-89.16,0.76,0.85,0.20117188,-0.9559326,0.30786133,32.79,0.0,96.0,0.00642395,-0.6923981,
204.57375,true,true,true,6.75,11.5,0.0,-3726,-288,0,7.5,11.55,0.0,0,0,0,8.25,11.3,0.0,-4152,-508,0,12.125,11.350000000000001,0.0,0,0,0,0.0,11.55,0.0,0,0,0,0.0,11.5,0.0,0,0,0,0.125,11.75,0.0,0,0,0,kReverse,kOff,-88.42,1.28,1.59,0.7614746,-2.0,-0.4109497,32.79,0.0,800.0,0.011749268,-0.7064667,
204.59727800000002,true,true,true,8.75,11.600000000000001,0.0,-3794,-304,0,9.375,11.55,0.0,0,0,0,3.75,11.65,0.0,-4341,-503,0,7.125,11.65,0.0,0,0,0,0.0,11.7,0.0,0,0,0,0.0,11.7,0.0,0,0,0,0.125,11.75,0.0,0,0,0,kReverse,kOff,-87.76,1.75,2.26,1.128479,-1.0092163,-0.4977417,32.79,0.0,1192.0,0.01625061,-0.7136078,
204.624355,true,true,true,11.25,11.600000000000001,0.0,-3941,-335,0,12.5,11.55,0.0,0,0,0,2.875,11.65,0.0,-4434,-497,0,6.625,11.65,0.0,0,0,0,0.0,11.7,0.0,0,0,0,0.0,11.7,0.0,0,0,0,0.125,11.75,0.0,0,0,0,kReverse,kOff,-86.71,2.64,3.44,0.7737427,-0.8741455,0.14245605,32.79,0.0,612.0,0.02935791,-0.72792053,
204.646926,true,true,true,11.125,11.600000000000001,0.0,-4016,-347,0,12.375,11.55,0.0,0,0,0,3.25,11.65,0.0,-4522,-489,0,6.75,11.65,0.0,0,0,0,0.0,11.7,0.0,0,0,0,0.0,11.7,0.0,0,0,0,0.125,11.75,0.0,0,0,0,kReverse,kOff,-86.49,2.87,3.72,0.27947998,-1.3397217,0.39855957,32.79,0.0,22.0,0.036895752,-0.7343292,
204.665717,true,true,true,10.75,11.600000000000001,0.0,-4089,-355,0,12.375,11.55,0.0,0,0,0,4.5,11.65,0.0,-4609,-479,0,7.375,11.65,0.0,0,0,0,0.0,11.7,0.0,0,0,0,0.0,11.7,0.0,0,0,0,0.125,11.75,0.0,0,0,0,kReverse,kOff,-86.31,3.3,4.03,0.2199707,-0.2584839,-0.6824341,32.79,0.0,462.0,0.051849365,-0.7469635,
204.692511,true,true,true,10.125,11.600000000000001,0.0,-4168,-361,0,11.875,11.55,0.0,0,0,0,5.375,11.65,0.0,-4697,-468,0,8.0,11.65,0.0,0,0,0,0.0,11.7,0.0,0,0,0,0.0,11.7,0.0,0,0,0,0.125,11.75,0.0,0,0,0,kReverse,kOff,-86.19,3.4,4.17,0.31756592,-0.79278564,0.49072266,32.79,0.0,32.0,0.059753418,-0.75346375,
204.713817,true,true,true,10.0,11.600000000000001,0.0,-4247,-368,0,11.625,11.55,0.0,0,0,0,5.375,11.65,0.0,-4787,-458,0,7.875,11.65,0.0,0,0,0,0.0,11.7,0.0,0,0,0,0.0,11.7,0.0,0,0,0,0.125,11.75,0.0,0,0,0,kReverse,kOff,-86.16,3.4,4.24,0.06726074,-0.7581787,0.21258545,32.79,0.0,-80.0,0.07533264,-0.7652588,
204.736119,true,true,true,9.0,11.600000000000001,0.0,-4330,-376,0,10.25,11.55,0.0,0,0,0,4.5,11.65,0.0,-4880,-451,0,7.25,11.65,0.0,0,0,0,0.0,11.850000000000001,0.0,0,0,0,0.0,11.8,0.0,0,0,0,0.125,11.850000000000001,0.0,0,0,0,kReverse,kOff,-85.77,3.55,4.67,0.4868164,-0.7338257,-0.30187988,32.79,0.0,514.0,0.09156799,-0.77653503,
204.76076700000002,true,true,true,8.5,11.75,0.0,-4414,-384,0,9.125,11.7,0.0,0,0,0,4.125,11.75,0.0,-5062,-448,0,7.25,11.75,0.0,0,0,0,0.0,11.850000000000001,0.0,0,0,0,0.0,11.8,0.0,0,0,0,0.125,11.850000000000001,0.0,0,0,0,kReverse,kOff,-85.43,3.86,5.05,0.49127197,-1.1849365,-0.26715088,32.79,0.0,463.0,0.1006012,-0.7822418,
204.781225,true,true,true,8.0,11.75,0.0,-4497,-393,0,8.75,11.7,0.0,0,0,0,4.5,11.75,0.0,-5152,-450,0,7.375,11.75,0.0,0,0,0,0.0,11.850000000000001,0.0,0,0,0,0.0,11.8,0.0,0,0,0,0.125,11.850000000000001,0.0,0,0,0,kReverse,kOff,-85.2,4.04,5.32,0.14776611,-1.2611084,-0.3692627,32.79,0.0,191.0,0.11009216,-0.78811646,
204.80278600000003,true,true,true,8.0,11.75,0.0,-4580,-401,0,8.75,11.7,0.0,0,0,0,5.0,11.75,0.0,-5240,-453,0,7.75,11.75,0.0,0,0,0,0.0,11.850000000000001,0.0,0,0,0,0.0,11.8,0.0,0,0,0,0.125,11.850000000000001,0.0,0,0,0,kReverse,kOff,-84.97,4.14,5.58,-0.09729004,-1.1134644,-0.2786255,32.79,0.0,-57.0,0.1296997,-0.80085754,
204.82346900000002,true,true,true,7.875,11.75,0.0,-4746,-413,0,8.75,11.7,0.0,0,0,0,5.375,11.75,0.0,-5328,-452,0,8.125,11.75,0.0,0,0,0,0.0,11.850000000000001,0.0,0,0,0,0.0,11.8,0.0,0,0,0,0.125,11.850000000000001,0.0,0,0,0,kReverse,kOff,-85.11,3.98,5.43,0.053100586,-1.1574707,-0.101379395,32.79,0.0,-4.0,0.13951111,-0.80763245,
204.844304,true,true,true,8.0,11.75,0.0,-4829,-415,0,8.625,11.7,0.0,0,0,0,5.875,11.75,0.0,-5416,-450,0,8.5,11.75,0.0,0,0,0,0.0,11.850000000000001,0.0,0,0,0,0.0,11.8,0.0,0,0,0,0.125,11.850000000000001,0.0,0,0,0,kReverse,kOff,-85.28,3.99,5.29,0.28588867,-0.7770386,-0.028381348,32.79,0.0,202.0,0.15939331,-0.8212738,
204.864168,true,true,true,7.75,11.75,0.0,-4914,-415,0,8.5,11.7,0.0,0,0,0,6.25,11.75,0.0,-5502,-446,0,8.625,11.75,0.0,0,0,0,0.0,11.850000000000001,0.0,0,0,0,0.0,11.8,0.0,0,0,0,0.125,11.850000000000001,0.0,0,0,0,kReverse,kOff,-85.28,4.06,5.3,0.22979736,-1.0666504,-0.08947754,32.79,0.0,156.0,0.16966248,-0.8279724,
204.883675,true,true,true,7.75,11.75,0.0,-4999,-416,0,8.25,11.7,0.0,0,0,0,6.375,11.75,0.0,-5589,-442,0,8.625,11.75,0.0,0,0,0,0.0,11.850000000000001,0.0,0,0,0,0.0,11.8,0.0,0,0,0,0.125,11.850000000000001,0.0,0,0,0,kReverse,kOff,-85.27,4.11,5.32,0.07299805,-0.9466553,0.08270264,32.79,0.0,-245.0,0.1902771,-0.8413849,
204.915366,true,true,true,7.125,11.75,0.0,-5087,-418,0,7.875,11.75,0.0,0,0,0,6.25,11.75,0.0,-5678,-439,0,8.625,11.8,0.0,0,0,0,0.0,11.850000000000001,0.0,0,0,0,0.0,11.850000000000001,0.0,0,0,0,0.125,11.9,0.0,0,0,0,kReverse,kOff,-85.57,3.9,4.99,0.037475586,-0.8518677,0.28405762,32.79,0.0,-164.0,0.20022583,-0.8479004,
204.933404,true,true,true,6.75,11.75,0.0,-5175,-421,0,7.375,11.75,0.0,0,0,0,5.875,11.75,0.0,-5767,-438,0,8.375,11.8,0.0,0,0,0,0.125,11.850000000000001,0.0,0,0,0,0.0,11.850000000000001,0.0,0,0,0,0.125,11.9,0.0,0,0,0,kReverse,kOff,-85.61,3.91,4.95,0.013183594,-0.92041016,-0.010559082,32.79,0.0,-53.0,0.21977234,-0.8601227,
204.965372,true,true,true,6.375,11.75,0.0,-5353,-431,0,6.75,11.75,0.0,0,0,0,5.5,11.75,0.0,-5947,-440,0,7.875,11.8,0.0,0,0,0,0.125,11.850000000000001,0.0,0,0,0,0.0,11.850000000000001,0.0,0,0,0,0.125,11.9,0.0,0,0,0,kReverse,kOff,-85.55,3.84,5.03,-0.06933594,-0.993103,-0.073913574,32.79,0.0,-103.0,0.23904419,-0.872345,
204.987176,true,true,true,6.25,11.75,0.0,-5437,-435,0,6.625,11.75,0.0,0,0,0,5.0,11.75,0.0,-6039,-443,0,7.75,11.8,0.0,0,0,0,0.125,11.850000000000001,0.0,0,0,0,0.0,11.850000000000001,0.0,0,0,0,0.125,11.9,0.0,0,0,0,kReverse,kOff,-85.48,3.82,5.1,0.12860107,-0.8340454,0.17077637,32.79,0.0,-32.0,0.24855042,-0.87841797,
205.011016,true,true,true,6.25,11.75,0.0,-5531,-440,0,6.625,11.75,0.0,0,0,0,4.875,11.75,0.0,-6130,-446,0,7.625,11.8,0.0,0,0,0,0.125,11.850000000000001,0.0,0,0,0,0.0,11.850000000000001,0.0,0,0,0,0.125,11.9,0.0,0,0,0,kReverse,kOff,-85.29,3.89,5.31,0.08331299,-1.0721436,-0.24505615,32.74,0.0,101.0,0.2677002,-0.89038086,
205.03187,true,true,true,6.25,11.75,0.0,-5620,-442,0,6.75,11.75,0.0,0,0,0,4.625,11.75,0.0,-6221,-449,0,7.75,11.8,0.0,0,0,0,0.125,11.850000000000001,0.0,0,0,0,0.0,11.850000000000001,0.0,0,0,0,0.125,11.9,0.0,0,0,0,kReverse,kOff,-85.23,3.88,5.36,-0.07751465,-0.862854,-0.06237793,32.74,0.0,-109.0,0.27734375,-0.8965912,
205.05332800000002,true,true,true,6.25,11.75,0.0,-5708,-443,0,6.75,11.75,0.0,0,0,0,4.875,11.75,0.0,-6312,-452,0,7.75,11.8,0.0,0,0,0,0.125,11.850000000000001,0.0,0,0,0,0.0,11.850000000000001,0.0,0,0,0,0.125,11.95,0.0,0,0,0,kReverse,kOff,-85.41,3.77,5.17,0.20800781,-1.1399536,0.0032348633,32.74,0.0,90.0,0.2965393,-0.9090271,
205.07697,true,true,true,6.5,11.8,0.0,-5797,-443,0,6.75,11.8,0.0,0,0,0,5.0,11.8,0.0,-6402,-454,0,7.25,11.8,0.0,0,0,0,0.125,11.9,0.0,0,0,0,0.0,11.9,0.0,0,0,0,0.125,11.95,0.0,0,0,0,kReverse,kOff,-85.47,3.81,5.13,0.061950684,-1.0018921,0.10168457,32.74,0.0,-72.0,0.31593323,-0.92123413,
205.09966500000002,true,true,true,7.25,11.8,0.0,-5889,-444,0,7.375,11.8,0.0,0,0,0,2.875,11.8,0.0,-6576,-452,0,4.375,11.8,0.0,0,0,0,0.125,11.9,0.0,0,0,0,0.0,11.9,0.0,0,0,0,0.125,11.95,0.0,0,0,0,kReverse,kOff,-85.56,3.79,5.03,2.4414062E-4,-1.1511841,-0.091796875,32.74,0.0,-45.0,0.325531,-0.9272766,
205.118576,true,true,true,9.5,11.8,0.0,-5980,-445,0,9.25,11.8,0.0,0,0,0,1.125,11.8,0.0,-6651,-447,0,3.0,11.8,0.0,0,0,0,0.125,11.9,0.0,0,0,0,0.0,11.9,0.0,0,0,0,0.125,11.95,0.0,0,0,0,kReverse,kOff,-85.65,3.74,4.93,0.14483643,-0.89575195,-0.110961914,32.74,0.0,111.0,0.33517456,-0.9333954,
205.142782,true,true,true,18.875,11.8,0.0,-6176,-453,0,18.875,11.8,0.0,0,0,0,0.375,11.8,0.0,-6709,-434,0,0.625,11.8,0.0,0,0,0,0.125,11.9,0.0,0,0,0,0.0,11.9,0.0,0,0,0,0.125,11.95,0.0,0,0,0,kReverse,kOff,-85.67,3.81,4.89,0.11444092,-1.2379761,-0.086120605,32.74,0.0,47.0,0.35508728,-0.94592285,
205.16607700000003,true,true,true,21.75,11.8,0.0,-6275,-462,0,21.75,11.8,0.0,0,0,0,1.25,11.8,0.0,-6774,-412,0,1.0,11.8,0.0,0,0,0,0.125,11.9,0.0,0,0,0,0.0,11.9,0.0,0,0,0,0.125,11.95,0.0,0,0,0,kReverse,kOff,-85.71,3.82,4.83,-0.17730713,-1.0070801,-0.16741943,32.74,0.0,-154.0,0.36505127,-0.9523926,
205.18893100000003,true,true,true,21.125,11.8,0.0,-6377,-471,0,21.875,11.8,0.0,0,0,0,3.375,11.8,0.0,-6821,-385,0,3.25,11.8,0.0,0,0,0,0.125,11.9,0.0,0,0,0,0.0,11.9,0.0,0,0,0,0.125,11.95,0.0,0,0,0,kReverse,kOff,-85.53,3.92,4.94,0.10986328,-1.1985474,0.7946167,32.74,0.0,-337.0,0.38468933,-0.964859,
205.21074000000002,true,true,true,20.125,11.8,0.0,-6478,-482,0,20.5,11.8,0.0,0,0,0,5.875,11.8,0.0,-6861,-347,0,5.625,11.8,0.0,0,0,0,0.0,11.9,0.0,0,0,0,0.0,11.9,0.0,0,0,0,0.125,11.95,0.0,0,0,0,kReverse,kOff,-85.61,4.03,4.8,0.30480957,-0.71173096,0.31341553,32.74,0.0,93.0,0.3942566,-0.9699707,
205.232082,true,true,true,18.875,11.100000000000001,0.0,-6581,-491,0,19.625,11.100000000000001,0.0,0,0,0,7.375,11.3,0.0,-6890,-309,0,7.625,11.15,0.0,0,0,0,0.0,11.25,0.0,0,0,0,0.0,11.25,0.0,0,0,0,0.125,11.3,0.0,0,0,0,kReverse,kOff,-85.28,4.69,4.85,0.42669678,-0.89837646,0.13708496,32.74,0.0,274.0,0.41383362,-0.9780884,
205.253742,true,true,true,18.125,11.100000000000001,0.0,-6687,-500,0,19.125,11.100000000000001,0.0,0,0,0,8.75,11.3,0.0,-6911,-266,0,7.75,11.15,0.0,0,0,0,0.0,11.25,0.0,0,0,0,0.0,11.25,0.0,0,0,0,0.125,11.3,0.0,0,0,0,kReverse,kOff,-85.03,4.96,4.96,0.2866211,-0.6647339,0.43762207,32.74,0.0,65.0,0.4239807,-0.98132324,
205.275041,true,true,true,17.5,11.100000000000001,0.0,-6795,-508,0,18.625,11.100000000000001,0.0,0,0,0,7.875,11.3,0.0,-6952,-224,0,7.375,11.15,0.0,0,0,0,0.125,11.25,0.0,0,0,0,0.0,11.25,0.0,0,0,0,0.125,11.3,0.0,0,0,0,kReverse,kOff,-84.96,5.03,5.06,-0.081848145,-1.7975464,0.1348877,32.74,0.0,-267.0,0.4439087,-0.9859619,
205.297071,true,true,true,15.125,11.100000000000001,0.0,-6901,-515,0,16.875,11.100000000000001,0.0,0,0,0,8.75,11.3,0.0,-7093,-194,0,9.5,11.15,0.0,0,0,0,0.125,11.25,0.0,0,0,0,0.0,11.25,0.0,0,0,0,0.125,11.3,0.0,0,0,0,kReverse,kOff,-85.28,4.71,4.75,-0.9707031,-1.4185181,-0.7036743,32.74,0.0,-889.0,0.4529419,-0.9886627,
205.317855,true,true,true,11.25,11.100000000000001,0.0,-7004,-520,0,12.625,11.100000000000001,0.0,0,0,0,10.625,11.3,0.0,-7172,-215,0,12.125,11.15,0.0,0,0,0,0.125,11.25,0.0,0,0,0,0.0,11.25,0.0,0,0,0,0.125,11.3,0.0,0,0,0,kReverse,kOff,-86.05,3.93,3.9,-0.8675537,-1.4871826,-0.51086426,32.74,0.0,-869.0,0.46803284,-0.9961853,
205.33940900000002,true,true,true,7.125,11.100000000000001,0.0,-7106,-524,0,4.75,11.100000000000001,0.0,0,0,0,12.375,11.3,0.0,-7249,-256,0,14.375,11.15,0.0,0,0,0,0.125,11.25,0.0,0,0,0,0.0,11.25,0.0,0,0,0,0.125,11.3,0.0,0,0,0,kReverse,kOff,-87.14,2.84,2.87,-1.5875854,-1.6847534,-1.4833374,32.74,0.0,-1470.0,0.47349548,-1.001831,
205.36314500000003,true,true,true,3.5,11.100000000000001,0.0,-7300,-521,0,3.125,11.100000000000001,0.0,0,0,0,12.5,11.3,0.0,-7328,-305,0,15.125,11.15,0.0,0,0,0,0.125,11.25,0.0,0,0,0,0.0,11.25,0.0,0,0,0,0.125,11.3,0.0,0,0,0,kReverse,kOff,-88.29,1.62,1.68,0.12225342,-1.0237427,0.6016846,32.74,0.0,2.0,0.4824829,-1.013794,
205.38494,true,true,true,4.625,11.5,0.0,-7401,-514,0,4.125,11.5,0.0,0,0,0,12.75,11.4,0.0,-7407,-349,0,15.25,11.4,0.0,0,0,0,0.125,11.55,0.0,0,0,0,0.0,11.55,0.0,0,0,0,0.125,11.600000000000001,0.0,0,0,0,kReverse,kOff,-88.57,1.27,1.32,-0.15570068,-0.7067261,0.8164673,32.74,0.0,-227.0,0.48683167,-1.0184174,
205.41282800000002,true,true,true,5.875,11.5,0.0,-7489,-506,0,6.375,11.5,0.0,0,0,0,12.75,11.4,0.0,-7486,-379,0,15.375,11.4,0.0,0,0,0,0.125,11.55,0.0,0,0,0,0.0,11.55,0.0,0,0,0,0.125,11.600000000000001,0.0,0,0,0,kReverse,kOff,-88.77,0.91,0.96,-0.5634155,-1.0723267,1.0580444,32.74,0.0,-642.0,0.49058533,-1.0217743,
205.430367,true,true,true,7.125,11.5,0.0,-7584,-495,0,7.5,11.5,0.0,0,0,0,12.875,11.4,0.0,-7559,-388,0,15.5,11.4,0.0,0,0,0,0.0,11.55,0.0,0,0,0,0.0,11.55,0.0,0,0,0,0.125,11.600000000000001,0.0,0,0,0,kReverse,kOff,-89.33,0.46,0.48,-1.052124,-1.1054688,-0.115234375,32.74,0.0,-1054.0,0.49319458,-1.0245209,
205.44921300000001,true,true,true,8.0,11.5,0.0,-7671,-484,0,8.5,11.5,0.0,0,0,0,12.875,11.4,0.0,-7636,-389,0,15.875,11.4,0.0,0,0,0,0.0,11.55,0.0,0,0,0,0.0,11.55,0.0,0,0,0,0.125,11.600000000000001,0.0,0,0,0,kReverse,kOff,-89.89,0.0,0.0,-0.37805176,-0.73413086,-0.090026855,32.74,0.0,-373.0,0.494812,-1.0274658,
205.46795300000002,true,true,true,8.5,11.5,0.0,-7760,-472,0,9.375,11.5,0.0,0,0,0,12.75,11.4,0.0,-7717,-386,0,15.75,11.4,0.0,0,0,0,0.0,11.55,0.0,0,0,0,0.0,11.55,0.0,0,0,0,0.125,11.600000000000001,0.0,0,0,0,kReverse,kOff,-89.89,-0.09,-0.09,-0.06536865,-1.2393799,-0.032470703,32.74,0.0,-62.0,0.4975586,-1.0333405,
205.488834,true,true,true,8.75,11.5,0.0,-7849,-461,0,9.75,11.5,0.0,0,0,0,12.375,11.4,0.0,-7792,-385,0,15.375,11.4,0.0,0,0,0,0.0,11.55,0.0,0,0,0,0.0,11.55,0.0,0,0,0,0.125,11.600000000000001,0.0,0,0,0,kReverse,kOff,-89.76,0.07,0.06,0.059265137,-1.0272827,0.10827637,32.74,0.0,56.0,0.49890137,-1.0362244,
205.509173,true,true,true,8.75,11.5,0.0,-7937,-452,0,9.375,11.5,0.0,0,0,0,12.25,11.4,0.0,-7872,-385,0,14.875,11.4,0.0,0,0,0,0.125,11.55,0.0,0,0,0,0.0,11.55,0.0,0,0,0,0.125,11.600000000000001,0.0,0,0,0,kReverse,kOff,-89.63,0.06,0.05,-0.4133911,-0.72576904,-0.10876465,32.74,0.0,-413.0,0.5,-1.0391083,
205.531056,true,true,true,8.875,11.5,0.0,-8027,-446,0,9.5,11.5,0.0,0,0,0,11.625,11.4,0.0,-7954,-387,0,14.25,11.4,0.0,0,0,0,0.125,11.55,0.0,0,0,0,0.0,11.55,0.0,0,0,0,0.125,11.600000000000001,0.0,0,0,0,kReverse,kOff,-89.67,-0.1,-0.1,0.009887695,-1.0401611,0.15203857,32.71,0.0,11.0,0.5014038,-1.0448456,
205.552677,true,true,true,8.875,11.4,0.0,-8116,-444,0,9.375,11.4,0.0,0,0,0,11.0,11.4,0.0,-8042,-392,0,13.75,11.4,0.0,0,0,0,0.125,11.5,0.0,0,0,0,0.0,11.5,0.0,0,0,0,0.125,11.5,0.0,0,0,0,kReverse,kOff,-89.7,-0.04,-0.04,0.08905029,-0.9755249,-0.19873047,32.71,0.0,88.0,0.50213623,-1.047699,
205.56484600000002,true,true,true,8.5,11.4,0.0,-8208,-444,0,9.375,11.4,0.0,0,0,0,10.5,11.4,0.0,-8127,-399,0,13.375,11.4,0.0,0,0,0,0.125,11.5,0.0,0,0,0,0.0,11.5,0.0,0,0,0,0.125,11.5,0.0,0,0,0,kReverse,kOff,-89.86,0.0,0.0,-0.06323242,-0.8018799,-0.081726074,32.71,0.0,-63.0,0.5028839,-1.0507355,
205.590931,true,true,true,8.25,11.4,0.0,-8299,-446,0,9.25,11.4,0.0,0,0,0,10.0,11.4,0.0,-8209,-405,0,13.0,11.4,0.0,0,0,0,0.0,11.5,0.0,0,0,0,0.0,11.5,0.0,0,0,0,0.125,11.5,0.0,0,0,0,kReverse,kOff,-89.69,-0.14,-0.14,-0.05859375,-1.1374512,-0.107666016,32.71,0.0,-90.0,0.50450134,-1.0597687,
205.61714200000003,true,true,true,8.125,11.4,0.0,-8390,-448,0,9.25,11.4,0.0,0,0,0,9.5,11.4,0.0,-8302,-413,0,12.25,11.4,0.0,0,0,0,0.0,11.5,0.0,0,0,0,0.0,11.5,0.0,0,0,0,0.125,11.5,0.0,0,0,0,kReverse,kOff,-89.4,-0.22,-0.24,-0.09661865,-1.1884766,-0.31414795,32.71,0.0,-98.0,0.5048065,-1.0631256,
205.641503,true,true,true,8.125,11.4,0.0,-8481,-450,0,9.0,11.4,0.0,0,0,0,9.25,11.4,0.0,-8474,-426,0,12.25,11.4,0.0,0,0,0,0.0,11.5,0.0,0,0,0,0.0,11.5,0.0,0,0,0,0.125,11.5,0.0,0,0,0,kReverse,kOff,-89.4,-0.27,-0.29,-0.20983887,-0.989563,-0.074279785,32.71,0.0,-206.0,0.5048981,-1.066742,
205.66428200000001,true,true,true,8.5,11.4,0.0,-8656,-453,0,9.25,11.4,0.0,0,0,0,9.25,11.4,0.0,-8558,-430,0,12.125,11.4,0.0,0,0,0,0.0,11.5,0.0,0,0,0,0.0,11.5,0.0,0,0,0,0.125,11.5,0.0,0,0,0,kReverse,kOff,-89.61,-0.31,-0.31,0.018676758,-1.0025024,-0.055847168,32.71,0.0,22.0,0.50479126,-1.0746918,
205.68767300000002,true,true,true,8.75,11.4,0.0,-8751,-453,0,9.5,11.4,0.0,0,0,0,8.875,11.4,0.0,-8648,-433,0,11.875,11.4,0.0,0,0,0,0.0,11.5,0.0,0,0,0,0.0,11.5,0.0,0,0,0,0.125,11.5,0.0,0,0,0,kReverse,kOff,-89.73,-0.21,-0.21,0.09631348,-1.2111206,0.031677246,32.71,0.0,101.0,0.5048218,-1.0788116,
205.71130800000003,true,true,true,8.75,11.4,0.0,-8842,-452,0,9.625,11.5,0.0,0,0,0,8.5,11.5,0.0,-8738,-436,0,11.625,11.55,0.0,0,0,0,0.0,11.600000000000001,0.0,0,0,0,0.0,11.600000000000001,0.0,0,0,0,0.125,11.600000000000001,0.0,0,0,0,kReverse,kOff,-89.89,-0.08,-0.08,0.075927734,-1.1342773,0.18383789,32.71,0.0,82.0,0.5052185,-1.0862885,
