timer,lineLeft,lineCenter,lineRight,LeftFrontCurrent,LeftFrontVoltage,LeftFrontValue,LeftFrontPosition,LeftFrontVelocity,LeftFrontFaults,LeftRearCurrent,LeftRearVoltage,LeftRearValue,LeftRearPosition,LeftRearVelocity,LeftRearFaults,RightFrontCurrent,RightFrontVoltage,RightFrontValue,RightFrontPosition,RightFrontVelocity,RightFrontFaults,RightRearCurrent,RightRearVoltage,RightRearValue,RightRearPosition,RightRearVelocity,RightRearFaults,LiftCurrent,LiftVoltage,LiftValue,LiftPosition,LiftVelocity,LiftFaults,WristCurrent,WristVoltage,WristValue,WristPosition,WristVelocity,WristFaults,RollerCurrent,RollerVoltage,RollerValue,RollerPosition,RollerVelocity,RollerFaults,PushersState,PivotsState,navx_Pitch,navx_Roll,navx_Yaw,navx_XAcc,navx_YAcc,navx_ZAcc,navx_Temp,navx_Bar,navx_Alt,navx_XDis,navx_YDis,
33.284611,true,true,true,0.125,12.8,0.0,0,0,0,0.125,12.8,0.0,0,0,0,0.125,12.8,0.0,0,0,0,0.125,12.85,0.0,0,0,0,0.0,12.8,0.0,0,0,0,0.0,12.8,0.0,0,0,0,0.125,12.9,0.0,0,0,0,kReverse,kOff,-86.18,1.7,1.61,0.02960205,-0.98254395,0.059020996,32.54,0.0,0.0,0.0,0.0,
33.368483,true,true,true,0.125,12.8,0.0,0,0,0,0.125,12.8,0.0,0,0,0,0.125,12.8,0.0,0,0,0,0.125,12.85,0.0,0,0,0,0.0,12.8,0.0,0,0,0,0.0,12.8,0.0,0,0,0,0.125,12.9,0.0,0,0,0,kReverse,kOff,-86.18,1.7,1.61,0.030395508,-0.9817505,0.059265137,32.54,0.0,1.0,0.0,0.0,
33.398634,true,true,true,0.125,12.8,0.0,0,0,0,0.125,12.8,0.0,0,0,0,0.125,12.8,0.0,0,0,0,0.125,12.85,0.0,0,0,0,0.0,12.8,0.0,0,0,0,0.0,12.8,0.0,0,0,0,0.125,12.9,0.0,0,0,0,kReverse,kOff,-86.18,1.7,1.6,0.027648926,-0.9834595,0.05706787,32.54,0.0,-1.0,0.0,0.0,
33.437979,true,true,true,0.125,12.8,0.0,0,0,0,0.125,12.8,0.0,0,0,0,0.125,12.8,0.0,0,0,0,0.125,12.85,0.0,0,0,0,0.0,12.8,0.0,0,0,0,0.0,12.8,0.0,0,0,0,0.125,12.9,0.0,0,0,0,kReverse,kOff,-86.18,1.7,1.6,0.03112793,-0.984375,0.05895996,32.54,0.0,1.0,0.0,0.0,
33.478502999999996,true,true,true,0.125,12.8,0.0,0,0,0,0.125,12.8,0.0,0,0,0,0.125,12.8,0.0,0,0,0,0.125,12.85,0.0,0,0,0,0.0,12.8,0.0,0,0,0,0.0,12.8,0.0,0,0,0,0.125,12.9,0.0,0,0,0,kReverse,kOff,-86.18,1.7,1.61,0.030395508,-0.9841919,0.06555176,32.54,0.0,-1.0,0.0,0.0,
33.520013,true,true,true,0.125,12.8,0.0,0,0,0,0.125,12.8,0.0,0,0,0,0.125,12.8,0.0,0,0,0,0.125,12.85,0.0,0,0,0,0.0,12.8,0.0,0,0,0,0.0,12.8,0.0,0,0,0,0.125,12.9,0.0,0,0,0,kReverse,kOff,-86.18,1.71,1.61,0.028869629,-0.98132324,0.06286621,32.54,0.0,0.0,0.0,0.0,
33.558786,true,true,true,0.125,12.8,0.0,0,0,0,0.125,12.8,0.0,0,0,0,0.125,12.8,0.0,0,0,0,0.125,12.85,0.0,0,0,0,0.0,12.8,0.0,0,0,0,0.0,12.8,0.0,0,0,0,0.125,12.9,0.0,0,0,0,kReverse,kOff,-86.17,1.7,1.61,0.030944824,-0.9852295,0.05847168,32.54,0.0,1.0,0.0,0.0,
33.597106,true,true,true,0.125,12.8,0.0,0,0,0,0.125,12.8,0.0,0,0,0,0.125,12.8,0.0,0,0,0,0.125,12.85,0.0,0,0,0,0.0,12.8,0.0,0,0,0,0.0,12.8,0.0,0,0,0,0.125,12.9,0.0,0,0,0,kReverse,kOff,-86.17,1.71,1.61,0.027282715,-0.9838867,0.058898926,32.54,0.0,-2.0,0.0,0.0,
33.631904999999996,true,true,true,0.125,12.8,0.0,0,0,0,0.125,12.8,0.0,0,0,0,0.125,12.8,0.0,0,0,0,0.125,12.85,0.0,0,0,0,0.0,12.8,0.0,0,0,0,0.0,12.8,0.0,0,0,0,0.125,12.9,0.0,0,0,0,kReverse,kOff,-86.17,1.71,1.61,0.028015137,-0.98223877,0.057800293,32.55,0.0,-1.0,0.0,0.0,
33.668193,true,true,true,0.125,12.8,0.0,0,0,0,0.125,12.8,0.0,0,0,0,0.125,12.8,0.0,0,0,0,0.125,12.85,0.0,0,0,0,0.0,12.8,0.0,0,0,0,0.0,12.8,0.0,0,0,0,0.125,12.9,0.0,0,0,0,kReverse,kOff,-86.17,1.71,1.62,0.028686523,-0.9848633,0.0635376,32.55,0.0,-1.0,0.0,0.0,
33.70659199999999,true,true,true,0.125,12.8,0.0,0,0,0,0.125,12.8,0.0,0,0,0,0.125,12.8,0.0,0,0,0,0.125,12.85,0.0,0,0,0,0.0,12.8,0.0,0,0,0,0.0,12.8,0.0,0,0,0,0.0,12.9,0.0,0,0,0,kReverse,kOff,-86.17,1.71,1.62,0.03161621,-0.98339844,0.057556152,32.55,0.0,2.0,0.0,0.0,
33.745354,true,true,true,0.125,12.8,0.0,0,0,0,0.125,12.8,0.0,0,0,0,0.125,12.8,0.0,0,0,0,0.125,12.85,0.0,0,0,0,0.0,12.8,0.0,0,0,0,0.0,12.8,0.0,0,0,0,0.0,12.9,0.0,0,0,0,kReverse,kOff,-86.17,1.71,1.62,0.027770996,-0.9857178,0.06121826,32.55,0.0,-1.0,0.0,0.0,
33.785013,true,true,true,0.125,12.8,0.0,0,0,0,0.125,12.8,0.0,0,0,0,0.125,12.8,0.0,0,0,0,0.125,12.85,0.0,0,0,0,0.0,12.8,0.0,0,0,0,0.0,12.8,0.0,0,0,0,0.125,12.9,0.0,0,0,0,kReverse,kOff,-86.17,1.71,1.62,0.028137207,-0.98291016,0.060424805,32.55,0.0,0.0,0.0,0.0,
33.836173,true,true,true,0.125,12.8,0.0,0,0,0,0.125,12.8,0.0,0,0,0,0.125,12.8,0.0,0,0,0,0.125,12.85,0.0,0,0,0,0.0,12.8,0.0,0,0,0,0.0,12.8,0.0,0,0,0,0.125,12.9,0.0,0,0,0,kReverse,kOff,-86.17,1.71,1.62,0.030639648,-0.98291016,0.06335449,32.55,0.0,0.0,0.0,0.0,
33.871435,true,true,true,0.125,12.8,0.0,0,0,0,0.125,12.8,0.0,0,0,0,0.125,12.8,0.0,0,0,0,0.125,12.85,0.0,0,0,0,0.0,12.8,0.0,0,0,0,0.0,12.8,0.0,0,0,0,0.125,12.9,0.0,0,0,0,kReverse,kOff,-86.17,1.71,1.62,0.030090332,-0.98480225,0.0524292,32.55,0.0,0.0,0.0,0.0,
33.902534,true,true,true,0.125,12.8,0.0,0,0,0,0.125,12.8,0.0,0,0,0,0.125,12.8,0.0,0,0,0,0.125,12.85,0.0,0,0,0,0.0,12.8,0.0,0,0,0,0.0,12.8,0.0,0,0,0,0.125,12.9,0.0,0,0,0,kReverse,kOff,-86.17,1.71,1.62,0.028686523,-0.9829712,0.061462402,32.55,0.0,0.0,0.0,0.0,
33.936423000000005,true,true,true,0.125,12.8,0.0,0,0,0,0.125,12.8,0.0,0,0,0,0.125,12.8,0.0,0,0,0,0.125,12.85,0.0,0,0,0,0.0,12.8,0.0,0,0,0,0.0,12.8,0.0,0,0,0,0.125,12.9,0.0,0,0,0,kReverse,kOff,-86.17,1.71,1.62,0.030395508,-0.9827881,0.053710938,32.55,0.0,1.0,0.0,0.0,
33.967489,true,true,true,0.125,12.8,0.0,0,0,0,0.125,12.8,0.0,0,0,0,0.125,12.8,0.0,0,0,0,0.125,12.85,0.0,0,0,0,0.0,12.8,0.0,0,0,0,0.0,12.8,0.0,0,0,0,0.125,12.9,0.0,0,0,0,kReverse,kOff,-86.17,1.71,1.62,0.032287598,-0.98327637,0.056396484,32.55,0.0,2.0,0.0,0.0,
34.03276,true,true,true,0.125,12.8,0.0,0,0,0,0.125,12.8,0.0,0,0,0,0.125,12.8,0.0,0,0,0,0.125,12.85,0.0,0,0,0,0.0,12.8,0.0,0,0,0,0.0,12.8,0.0,0,0,0,0.125,12.9,0.0,0,0,0,kReverse,kOff,-86.17,1.71,1.62,0.028808594,-0.9846802,0.05114746,32.55,0.0,0.0,0.0,0.0,
34.058957,true,true,true,0.125,12.8,0.0,0,0,0,0.125,12.8,0.0,0,0,0,0.125,12.8,0.0,0,0,0,0.125,12.85,0.0,0,0,0,0.0,12.8,0.0,0,0,0,0.0,12.8,0.0,0,0,0,0.125,12.9,0.0,0,0,0,kReverse,kOff,-86.17,1.71,1.62,0.03338623,-0.98498535,0.061462402,32.55,0.0,3.0,0.0,0.0,
34.093019999999996,true,true,true,0.125,12.8,0.0,0,0,0,0.125,12.8,0.0,0,0,0,0.125,12.8,0.0,0,0,0,0.125,12.85,0.0,0,0,0,0.0,12.8,0.0,0,0,0,0.0,12.8,0.0,0,0,0,0.125,12.9,0.0,0,0,0,kReverse,kOff,-86.17,1.71,1.62,0.030029297,-0.98046875,0.06390381,32.55,0.0,0.0,0.0,0.0,
34.125658,true,true,true,0.125,12.8,0.0,0,0,0,0.125,12.8,0.0,0,0,0,0.125,12.8,0.0,0,0,0,0.125,12.85,0.0,0,0,0,0.0,12.8,0.0,0,0,0,0.0,12.8,0.0,0,0,0,0.125,12.9,0.0,0,0,0,kReverse,kOff,-86.16,1.71,1.62,0.027770996,-0.98602295,0.05670166,32.55,0.0,-1.0,0.0,0.0,
34.17566,true,true,true,0.125,12.8,0.0,0,0,0,0.125,12.8,0.0,0,0,0,0.125,12.8,0.0,0,0,0,0.125,12.85,0.0,0,0,0,0.0,12.8,0.0,0,0,0,0.0,12.8,0.0,0,0,0,0.125,12.9,0.0,0,0,0,kReverse,kOff,-86.16,1.71,1.62,0.025268555,-0.9807129,0.051635742,32.55,0.0,-3.0,0.0,0.0,
34.220769,true,true,true,0.125,12.8,0.0,0,0,0,0.125,12.8,0.0,0,0,0,0.125,12.8,0.0,0,0,0,0.125,12.85,0.0,0,0,0,0.0,12.8,0.0,0,0,0,0.0,12.8,0.0,0,0,0,0.125,12.9,0.0,0,0,0,kReverse,kOff,-86.16,1.71,1.62,0.032287598,-0.9804077,0.060791016,32.55,0.0,2.0,0.0,0.0,
34.267685,true,true,true,0.125,12.8,0.0,0,0,0,0.125,12.8,0.0,0,0,0,0.125,12.8,0.0,0,0,0,0.125,12.85,0.0,0,0,0,0.0,12.8,0.0,0,0,0,0.0,12.8,0.0,0,0,0,0.125,12.9,0.0,0,0,0,kReverse,kOff,-86.17,1.71,1.62,0.02746582,-0.9841919,0.058532715,32.55,0.0,-2.0,0.0,0.0,
34.336877,true,true,true,0.125,12.8,0.0,0,0,0,0.125,12.8,0.0,0,0,0,0.125,12.8,0.0,0,0,0,0.125,12.85,0.0,0,0,0,0.0,12.8,0.0,0,0,0,0.0,12.8,0.0,0,0,0,0.125,12.9,0.0,0,0,0,kReverse,kOff,-86.17,1.71,1.62,0.03161621,-0.98254395,0.057922363,32.55,0.0,2.0,0.0,0.0,
34.397946000000005,true,true,true,0.125,12.8,0.0,0,0,0,0.125,12.8,0.0,0,0,0,0.125,12.8,0.0,0,0,0,0.125,12.85,0.0,0,0,0,0.0,12.8,0.0,0,0,0,0.0,12.8,0.0,0,0,0,0.125,12.9,0.0,0,0,0,kReverse,kOff,-86.17,1.71,1.62,0.031433105,-0.98339844,0.06347656,32.55,0.0,1.0,0.0,0.0,
34.428481,true,true,true,0.125,12.8,0.0,0,0,0,0.125,12.8,0.0,0,0,0,0.125,12.8,0.0,0,0,0,0.125,12.85,0.0,0,0,0,0.0,12.8,0.0,0,0,0,0.0,12.8,0.0,0,0,0,0.125,12.9,0.0,0,0,0,kReverse,kOff,-86.16,1.71,1.62,0.028686523,-0.9840088,0.06036377,32.55,0.0,0.0,0.0,0.0,
34.457658,true,true,true,0.125,12.8,0.0,0,0,0,0.125,12.8,0.0,0,0,0,0.125,12.8,0.0,0,0,0,0.125,12.85,0.0,0,0,0,0.0,12.8,0.0,0,0,0,0.0,12.8,0.0,0,0,0,0.125,12.9,0.0,0,0,0,kReverse,kOff,-86.17,1.71,1.62,0.028137207,-0.9824219,0.055786133,32.55,0.0,-1.0,0.0,0.0,
34.489959000000006,true,true,true,0.125,12.8,0.0,0,0,0,0.125,12.8,0.0,0,0,0,0.125,12.8,0.0,0,0,0,0.125,12.85,0.0,0,0,0,0.0,12.8,0.0,0,0,0,0.0,12.8,0.0,0,0,0,0.125,12.9,0.0,0,0,0,kReverse,kOff,-86.17,1.71,1.62,0.03265381,-0.9831543,0.0625,32.55,0.0,0.0,0.0,0.0,
34.520672,true,true,true,0.125,12.8,0.0,0,0,0,0.125,12.8,0.0,0,0,0,0.125,12.8,0.0,0,0,0,0.125,12.85,0.0,0,0,0,0.0,12.8,0.0,0,0,0,0.0,12.8,0.0,0,0,0,0.125,12.9,0.0,0,0,0,kReverse,kOff,-86.17,1.71,1.62,0.029968262,-0.9828491,0.057373047,32.55,0.0,1.0,0.0,0.0,
34.551865,true,true,true,0.125,12.8,0.0,0,0,0,0.125,12.8,0.0,0,0,0,0.125,12.8,0.0,0,0,0,0.125,12.85,0.0,0,0,0,0.0,12.8,0.0,0,0,0,0.0,12.8,0.0,0,0,0,0.125,12.9,0.0,0,0,0,kReverse,kOff,-86.17,1.71,1.62,0.028381348,-0.9851074,0.057373047,32.55,0.0,-1.0,0.0,0.0,
34.582694000000004,true,true,true,0.125,12.8,0.0,0,0,0,0.125,12.8,0.0,0,0,0,0.125,12.8,0.0,0,0,0,0.125,12.85,0.0,0,0,0,0.0,12.8,0.0,0,0,0,0.0,12.8,0.0,0,0,0,0.125,12.9,0.0,0,0,0,kReverse,kOff,-86.17,1.71,1.62,0.030395508,-0.982666,0.055114746,32.55,0.0,0.0,0.0,0.0,
34.60425,true,true,true,0.125,12.8,0.0,0,0,0,0.125,12.8,0.0,0,0,0,0.125,12.8,0.0,0,0,0,0.125,12.85,0.0,0,0,0,0.0,12.8,0.0,0,0,0,0.0,12.8,0.0,0,0,0,0.125,12.9,0.0,0,0,0,kReverse,kOff,-86.17,1.71,1.62,0.030578613,-0.9851074,0.059326172,32.55,0.0,0.0,0.0,0.0,
34.620666,true,true,true,0.125,12.8,0.0,0,0,0,0.125,12.8,0.0,0,0,0,0.125,12.8,0.0,0,0,0,0.125,12.85,0.0,0,0,0,0.0,12.8,0.0,0,0,0,0.0,12.8,0.0,0,0,0,0.125,12.9,0.0,0,0,0,kReverse,kOff,-86.17,1.72,1.62,0.029052734,-0.98431396,0.056884766,32.57,0.0,0.0,0.0,0.0,
34.63988,true,true,true,0.125,12.8,0.0,0,0,0,0.125,12.8,0.0,0,0,0,0.125,12.8,0.0,0,0,0,0.125,12.85,0.0,0,0,0,0.0,12.8,0.0,0,0,0,0.0,12.8,0.0,0,0,0,0.125,12.9,0.0,0,0,0,kReverse,kOff,-86.17,1.72,1.62,0.027709961,-0.98413086,0.060913086,32.57,0.0,-2.0,0.0,0.0,
34.657253,true,true,true,0.125,12.8,0.0,0,0,0,0.125,12.8,0.0,0,0,0,0.125,12.8,0.0,0,0,0,0.125,12.85,0.0,0,0,0,0.0,12.8,0.0,0,0,0,0.0,12.8,0.0,0,0,0,0.125,12.9,0.0,0,0,0,kReverse,kOff,-86.17,1.72,1.62,0.030273438,-0.986084,0.061950684,32.57,0.0,0.0,0.0,0.0,
34.675501,true,true,true,0.125,12.8,0.0,0,0,0,0.125,12.8,0.0,0,0,0,0.125,12.8,0.0,0,0,0,0.125,12.85,0.0,0,0,0,0.0,12.8,0.0,0,0,0,0.0,12.8,0.0,0,0,0,0.125,12.9,0.0,0,0,0,kReverse,kOff,-86.17,1.72,1.62,0.027770996,-0.9852905,0.057800293,32.57,0.0,-1.0,0.0,0.0,
34.70315,true,true,true,0.125,12.8,0.0,0,0,0,0.125,12.8,0.0,0,0,0,0.125,12.8,0.0,0,0,0,0.125,12.85,0.0,0,0,0,0.0,12.8,0.0,0,0,0,0.0,12.8,0.0,0,0,0,0.125,12.9,0.0,0,0,0,kReverse,kOff,-86.17,1.72,1.62,0.028564453,-0.9807739,0.056030273,32.57,0.0,0.0,0.0,0.0,
34.733771,true,true,true,0.125,12.8,0.0,0,0,0,0.125,12.8,0.0,0,0,0,0.125,12.8,0.0,0,0,0,0.125,12.85,0.0,0,0,0,0.0,12.8,0.0,0,0,0,0.0,12.8,0.0,0,0,0,0.125,12.9,0.0,0,0,0,kReverse,kOff,-86.17,1.72,1.62,0.028869629,-0.9842529,0.057678223,32.57,0.0,0.0,0.0,0.0,
34.759783000000006,true,true,true,0.125,12.8,0.0,0,0,0,0.125,12.8,0.0,0,0,0,0.125,12.8,0.0,0,0,0,0.125,12.85,0.0,0,0,0,0.0,12.8,0.0,0,0,0,0.0,12.8,0.0,0,0,0,0.125,12.9,0.0,0,0,0,kReverse,kOff,-86.17,1.72,1.62,0.02935791,-0.9841919,0.060302734,32.57,0.0,0.0,0.0,0.0,
34.789252999999995,true,true,true,0.125,12.8,0.0,0,0,0,0.125,12.8,0.0,0,0,0,0.125,12.8,0.0,0,0,0,0.125,12.85,0.0,0,0,0,0.0,12.8,0.0,0,0,0,0.0,12.8,0.0,0,0,0,0.125,12.9,0.0,0,0,0,kReverse,kOff,-86.17,1.72,1.62,0.03253174,-0.9838867,0.0602417,32.57,0.0,2.0,0.0,0.0,
34.816418,true,true,true,0.125,12.8,0.0,0,0,0,0.125,12.8,0.0,0,0,0,0.125,12.8,0.0,0,0,0,0.125,12.85,0.0,0,0,0,0.0,12.8,0.0,0,0,0,0.0,12.8,0.0,0,0,0,0.125,12.9,0.0,0,0,0,kReverse,kOff,-86.17,1.72,1.62,0.028930664,-0.9794922,0.057556152,32.57,0.0,0.0,0.0,0.0,
34.847331,true,true,true,0.125,12.8,0.0,0,0,0,0.125,12.8,0.0,0,0,0,0.125,12.8,0.0,0,0,0,0.125,12.85,0.0,0,0,0,0.0,12.8,0.0,0,0,0,0.0,12.8,0.0,0,0,0,0.125,12.9,0.0,0,0,0,kReverse,kOff,-86.17,1.71,1.62,0.030090332,-0.98132324,0.06274414,32.57,0.0,0.0,0.0,0.0,
34.873066,true,true,true,0.125,12.8,0.0,0,0,0,0.125,12.8,0.0,0,0,0,0.125,12.8,0.0,0,0,0,0.125,12.85,0.0,0,0,0,0.0,12.8,0.0,0,0,0,0.0,12.8,0.0,0,0,0,0.125,12.9,0.0,0,0,0,kReverse,kOff,-86.17,1.71,1.62,0.030517578,-0.98327637,0.06060791,32.57,0.0,0.0,0.0,0.0,
34.910154999999996,true,true,true,0.125,12.8,0.0,0,0,0,0.125,12.8,0.0,0,0,0,0.125,12.8,0.0,0,0,0,0.125,12.85,0.0,0,0,0,0.0,12.8,0.0,0,0,0,0.0,12.8,0.0,0,0,0,0.125,12.9,0.0,0,0,0,kReverse,kOff,-86.17,1.71,1.62,0.03112793,-0.9824829,0.06085205,32.57,0.0,1.0,0.0,0.0,
34.93611,true,true,true,0.125,12.8,0.0,0,0,0,0.125,12.8,0.0,0,0,0,0.125,12.8,0.0,0,0,0,0.125,12.85,0.0,0,0,0,0.0,12.8,0.0,0,0,0,0.0,12.8,0.0,0,0,0,0.125,12.9,0.0,0,0,0,kReverse,kOff,-86.16,1.72,1.62,0.02520752,-0.98205566,0.05908203,32.57,0.0,-4.0,0.0,0.0,
34.966122000000006,true,true,true,0.125,12.8,0.0,0,0,0,0.125,12.8,0.0,0,0,0,0.125,12.8,0.0,0,0,0,0.125,12.85,0.0,0,0,0,0.0,12.8,0.0,0,0,0,0.0,12.8,0.0,0,0,0,0.125,12.9,0.0,0,0,0,kReverse,kOff,-86.16,1.72,1.62,0.030334473,-0.9846802,0.055480957,32.57,0.0,0.0,0.0,0.0,
34.995180999999995,true,true,true,0.125,12.8,0.0,0,0,0,0.125,12.8,0.0,0,0,0,0.125,12.8,0.0,0,0,0,0.125,12.85,0.0,0,0,0,0.0,12.8,0.0,0,0,0,0.0,12.8,0.0,0,0,0,0.125,12.9,0.0,0,0,0,kReverse,kOff,-86.16,1.72,1.62,0.028320312,-0.9827881,0.06060791,32.57,0.0,-1.0,0.0,0.0,
35.025465000000004,true,true,true,0.125,12.8,0.0,0,0,0,0.125,12.8,0.0,0,0,0,0.125,12.8,0.0,0,0,0,0.125,12.85,0.0,0,0,0,0.0,12.8,0.0,0,0,0,0.0,12.8,0.0,0,0,0,0.125,12.9,0.0,0,0,0,kReverse,kOff,-86.17,1.71,1.62,0.031799316,-0.98010254,0.05456543,32.57,0.0,2.0,0.0,0.0,
35.054609,true,true,true,0.125,12.8,0.0,0,0,0,0.125,12.8,0.0,0,0,0,0.125,12.8,0.0,0,0,0,0.125,12.85,0.0,0,0,0,0.0,12.8,0.0,0,0,0,0.0,12.8,0.0,0,0,0,0.125,12.9,0.0,0,0,0,kReverse,kOff,-86.17,1.72,1.62,0.030212402,-0.98309326,0.057861328,32.57,0.0,0.0,0.0,0.0,
35.083940999999996,true,true,true,0.125,12.8,0.0,0,0,0,0.125,12.8,0.0,0,0,0,0.125,12.8,0.0,0,0,0,0.125,12.85,0.0,0,0,0,0.0,12.8,0.0,0,0,0,0.0,12.8,0.0,0,0,0,0.125,12.9,0.0,0,0,0,kReverse,kOff,-86.17,1.72,1.62,0.029663086,-0.98217773,0.06530762,32.57,0.0,0.0,0.0,0.0,
35.113065,true,true,true,0.125,12.8,0.0,0,0,0,0.125,12.8,0.0,0,0,0,0.125,12.8,0.0,0,0,0,0.125,12.85,0.0,0,0,0,0.0,12.8,0.0,0,0,0,0.0,12.8,0.0,0,0,0,0.125,12.9,0.0,0,0,0,kReverse,kOff,-86.17,1.72,1.63,0.02911377,-0.9866333,0.061584473,32.57,0.0,0.0,0.0,0.0,
35.13964300000001,true,true,true,0.125,12.8,0.0,0,0,0,0.125,12.8,0.0,0,0,0,0.125,12.8,0.0,0,0,0,0.125,12.85,0.0,0,0,0,0.0,12.8,0.0,0,0,0,0.0,12.8,0.0,0,0,0,0.125,12.9,0.0,0,0,0,kReverse,kOff,-86.17,1.71,1.62,0.026733398,-0.98461914,0.0592041,32.59,0.0,-2.0,0.0,0.0,
35.172578,true,true,true,0.125,12.8,0.0,0,0,0,0.125,12.8,0.0,0,0,0,0.125,12.8,0.0,0,0,0,0.125,12.85,0.0,0,0,0,0.125,12.8,0.0,0,0,0,0.0,12.8,0.0,0,0,0,0.125,12.9,0.0,0,0,0,kReverse,kOff,-86.17,1.72,1.62,0.028503418,-0.98547363,0.057800293,32.59,0.0,-1.0,0.0,0.0,
35.196524,true,true,true,0.125,12.8,0.0,0,0,0,0.125,12.8,0.0,0,0,0,0.125,12.8,0.0,0,0,0,0.125,12.85,0.0,0,0,0,0.0,12.8,0.0,0,0,0,0.0,12.8,0.0,0,0,0,0.125,12.9,0.0,0,0,0,kReverse,kOff,-86.17,1.71,1.62,0.029846191,-0.9857788,0.060546875,32.59,0.0,0.0,0.0,0.0,
35.220017,true,true,true,0.125,12.8,0.0,0,0,0,0.125,12.8,0.0,0,0,0,0.125,12.8,0.0,0,0,0,0.125,12.85,0.0,0,0,0,0.0,12.8,0.0,0,0,0,0.0,12.8,0.0,0,0,0,0.125,12.9,0.0,0,0,0,kReverse,kOff,-86.17,1.71,1.62,0.027160645,-0.98431396,0.06298828,32.59,0.0,-2.0,0.0,0.0,
35.251569,true,true,true,0.125,12.8,0.0,0,0,0,0.125,12.8,0.0,0,0,0,0.125,12.8,0.0,0,0,0,0.125,12.85,0.0,0,0,0,0.0,12.8,0.0,0,0,0,0.0,12.8,0.0,0,0,0,0.125,12.9,0.0,0,0,0,kReverse,kOff,-86.17,1.71,1.62,0.027648926,-0.9821167,0.061523438,32.59,0.0,-1.0,0.0,0.0,
35.276058,true,true,true,0.125,12.8,0.0,0,0,0,0.125,12.8,0.0,0,0,0,0.125,12.8,0.0,0,0,0,0.125,12.85,0.0,0,0,0,0.0,12.8,0.0,0,0,0,0.0,12.8,0.0,0,0,0,0.125,12.9,0.0,0,0,0,kReverse,kOff,-86.17,1.71,1.62,0.032226562,-0.9849243,0.06072998,32.59,0.0,2.0,0.0,0.0,
35.305561000000004,true,true,true,0.125,12.8,0.0,0,0,0,0.125,12.8,0.0,0,0,0,0.125,12.8,0.0,0,0,0,0.125,12.85,0.0,0,0,0,0.0,12.8,0.0,0,0,0,0.0,12.8,0.0,0,0,0,0.125,12.9,0.0,0,0,0,kReverse,kOff,-86.16,1.72,1.62,0.030029297,-0.98394775,0.06011963,32.59,0.0,0.0,0.0,0.0,
35.324073,true,true,true,0.125,12.8,0.0,0,0,0,0.125,12.8,0.0,0,0,0,0.125,12.8,0.0,0,0,0,0.125,12.85,0.0,0,0,0,0.0,12.8,0.0,0,0,0,0.0,12.8,0.0,0,0,0,0.125,12.9,0.0,0,0,0,kReverse,kOff,-86.16,1.72,1.62,0.028808594,-0.98223877,0.057373047,32.59,0.0,0.0,0.0,0.0,
35.355019999999996,true,true,true,0.125,12.8,0.0,0,0,0,0.125,12.8,0.0,0,0,0,0.125,12.8,0.0,0,0,0,0.125,12.85,0.0,0,0,0,0.0,12.8,0.0,0,0,0,0.0,12.8,0.0,0,0,0,0.125,12.9,0.0,0,0,0,kReverse,kOff,-86.17,1.71,1.62,0.02935791,-0.9830322,0.058654785,32.59,0.0,0.0,0.0,0.0,
35.381726,true,true,true,0.125,12.8,0.0,0,0,0,0.125,12.8,0.0,0,0,0,0.125,12.8,0.0,0,0,0,0.125,12.85,0.0,0,0,0,0.0,12.8,0.0,0,0,0,0.0,12.8,0.0,0,0,0,0.125,12.9,0.0,0,0,0,kReverse,kOff,-86.16,1.72,1.62,0.02935791,-0.9840698,0.057128906,32.59,0.0,0.0,0.0,0.0,
35.410306,true,true,true,0.125,12.8,0.0,0,0,0,0.125,12.8,0.0,0,0,0,0.125,12.8,0.0,0,0,0,0.125,12.85,0.0,0,0,0,0.0,12.8,0.0,0,0,0,0.0,12.8,0.0,0,0,0,0.125,12.9,0.0,0,0,0,kReverse,kOff,-86.17,1.71,1.62,0.030456543,-0.9855957,0.062072754,32.59,0.0,0.0,0.0,0.0,
35.435072,true,true,true,0.125,12.8,0.0,0,0,0,0.125,12.8,0.0,0,0,0,0.125,12.8,0.0,0,0,0,0.125,12.85,0.0,0,0,0,0.0,12.8,0.0,0,0,0,0.0,12.8,0.0,0,0,0,0.125,12.9,0.0,0,0,0,kReverse,kOff,-86.17,1.71,1.62,0.030517578,-0.9851074,0.06298828,32.59,0.0,1.0,0.0,0.0,
35.466622,true,true,true,0.125,12.8,0.0,0,0,0,0.125,12.8,0.0,0,0,0,0.125,12.8,0.0,0,0,0,0.125,12.85,0.0,0,0,0,0.0,12.8,0.0,0,0,0,0.0,12.8,0.0,0,0,0,0.125,12.9,0.0,0,0,0,kReverse,kOff,-86.16,1.71,1.62,0.030029297,-0.98669434,0.055603027,32.59,0.0,0.0,0.0,0.0,
35.498501,true,true,true,0.125,12.8,0.0,0,0,0,0.125,12.8,0.0,0,0,0,0.125,12.8,0.0,0,0,0,0.125,12.85,0.0,0,0,0,0.0,12.8,0.0,0,0,0,0.0,12.8,0.0,0,0,0,0.125,12.9,0.0,0,0,0,kReverse,kOff,-86.16,1.72,1.62,0.030395508,-0.9857178,0.06109619,32.59,0.0,2.0,0.0,0.0,
35.529084000000005,true,true,true,0.125,12.8,0.0,0,0,0,0.125,12.8,0.0,0,0,0,0.125,12.8,0.0,0,0,0,0.125,12.85,0.0,0,0,0,0.0,12.8,0.0,0,0,0,0.0,12.8,0.0,0,0,0,0.125,12.9,0.0,0,0,0,kReverse,kOff,-86.16,1.72,1.63,0.03100586,-0.9847412,0.05505371,32.59,0.0,1.0,0.0,0.0,
35.557385000000004,true,true,true,0.125,12.8,0.0,0,0,0,0.125,12.8,0.0,0,0,0,0.125,12.8,0.0,0,0,0,0.125,12.85,0.0,0,0,0,0.0,12.8,0.0,0,0,0,0.0,12.8,0.0,0,0,0,0.125,12.9,0.0,0,0,0,kReverse,kOff,-86.16,1.72,1.63,0.029968262,-0.9837036,0.059265137,32.59,0.0,0.0,0.0,0.0,
35.589161999999995,true,true,true,0.125,12.8,0.0,0,0,0,0.125,12.8,0.0,0,0,0,0.125,12.8,0.0,0,0,0,0.125,12.85,0.0,0,0,0,0.0,12.8,0.0,0,0,0,0.0,12.8,0.0,0,0,0,0.125,12.9,0.0,0,0,0,kReverse,kOff,-86.16,1.72,1.63,0.030761719,-0.9835205,0.06274414,32.59,0.0,0.0,0.0,0.0,
35.616942,true,true,true,0.125,12.8,0.0,0,0,0,0.125,12.8,0.0,0,0,0,0.125,12.8,0.0,0,0,0,0.125,12.85,0.0,0,0,0,0.0,12.8,0.0,0,0,0,0.0,12.8,0.0,0,0,0,0.125,12.9,0.0,0,0,0,kReverse,kOff,-86.16,1.72,1.63,0.030517578,-0.98443604,0.057434082,32.59,0.0,0.0,0.0,0.0,
35.64726,true,true,true,0.125,12.8,0.0,0,0,0,0.125,12.8,0.0,0,0,0,0.125,12.8,0.0,0,0,0,0.125,12.85,0.0,0,0,0,0.0,12.8,0.0,0,0,0,0.0,12.8,0.0,0,0,0,0.125,12.9,0.0,0,0,0,kReverse,kOff,-86.16,1.72,1.63,0.026367188,-0.9805908,0.05682373,32.59,0.0,-3.0,0.0,0.0,
35.682137000000004,true,true,true,0.125,12.8,0.0,0,0,0,0.125,12.8,0.0,0,0,0,0.125,12.8,0.0,0,0,0,0.125,12.85,0.0,0,0,0,0.125,12.8,0.0,0,0,0,0.0,12.8,0.0,0,0,0,0.125,12.9,0.0,0,0,0,kReverse,kOff,-86.16,1.72,1.63,0.028930664,-0.9835205,0.060424805,32.59,0.0,0.0,0.0,0.0,
35.705768000000006,true,true,true,0.125,12.8,0.0,0,0,0,0.125,12.8,0.0,0,0,0,0.125,12.8,0.0,0,0,0,0.125,12.85,0.0,0,0,0,0.125,12.8,0.0,0,0,0,0.0,12.8,0.0,0,0,0,0.125,12.9,0.0,0,0,0,kReverse,kOff,-86.16,1.72,1.62,0.028137207,-0.9818115,0.059020996,32.59,0.0,-1.0,0.0,0.0,
35.729901,true,true,true,0.125,12.8,0.0,0,0,0,0.125,12.8,0.0,0,0,0,0.125,12.8,0.0,0,0,0,0.125,12.85,0.0,0,0,0,0.125,12.8,0.0,0,0,0,0.0,12.8,0.0,0,0,0,0.125,12.9,0.0,0,0,0,kReverse,kOff,-86.16,1.71,1.62,0.02947998,-0.9835205,0.050720215,32.59,0.0,0.0,0.0,0.0,
35.759567000000004,true,true,true,0.125,12.8,0.0,0,0,0,0.125,12.8,0.0,0,0,0,0.125,12.8,0.0,0,0,0,0.125,12.85,0.0,0,0,0,0.125,12.8,0.0,0,0,0,0.0,12.8,0.0,0,0,0,0.125,12.9,0.0,0,0,0,kReverse,kOff,-86.17,1.71,1.62,0.028137207,-0.9821167,0.06011963,32.59,0.0,-1.0,0.0,0.0,
35.783051,true,true,true,0.125,12.8,0.0,0,0,0,0.125,12.8,0.0,0,0,0,0.125,12.8,0.0,0,0,0,0.125,12.85,0.0,0,0,0,0.125,12.8,0.0,0,0,0,0.0,12.8,0.0,0,0,0,0.125,12.9,0.0,0,0,0,kReverse,kOff,-86.16,1.72,1.62,0.03161621,-0.9822998,0.056762695,32.59,0.0,2.0,0.0,0.0,
35.806135999999995,true,true,true,0.125,12.8,0.0,0,0,0,0.125,12.8,0.0,0,0,0,0.125,12.8,0.0,0,0,0,0.125,12.85,0.0,0,0,0,0.0,12.8,0.0,0,0,0,0.0,12.8,0.0,0,0,0,0.125,12.9,0.0,0,0,0,kReverse,kOff,-86.16,1.72,1.62,0.031311035,-0.9828491,0.05731201,32.59,0.0,1.0,0.0,0.0,
35.826445,true,true,true,0.125,12.8,0.0,0,0,0,0.125,12.8,0.0,0,0,0,0.125,12.8,0.0,0,0,0,0.125,12.85,0.0,0,0,0,0.0,12.8,0.0,0,0,0,0.0,12.8,0.0,0,0,0,0.125,12.9,0.0,0,0,0,kReverse,kOff,-86.17,1.71,1.62,0.028686523,-0.9828491,0.062194824,32.59,0.0,0.0,0.0,0.0,
35.850779,true,true,true,0.125,12.8,0.0,0,0,0,0.125,12.8,0.0,0,0,0,0.125,12.8,0.0,0,0,0,0.125,12.85,0.0,0,0,0,0.0,12.8,0.0,0,0,0,0.0,12.8,0.0,0,0,0,0.125,12.9,0.0,0,0,0,kReverse,kOff,-86.17,1.71,1.62,0.030639648,-0.9838867,0.056152344,32.59,0.0,1.0,0.0,0.0,
35.874959000000004,true,true,true,0.125,12.8,0.0,0,0,0,0.125,12.8,0.0,0,0,0,0.125,12.8,0.0,0,0,0,0.125,12.85,0.0,0,0,0,0.0,12.8,0.0,0,0,0,0.0,12.8,0.0,0,0,0,0.125,12.9,0.0,0,0,0,kReverse,kOff,-86.16,1.72,1.62,0.030212402,-0.9828491,0.06072998,32.59,0.0,0.0,0.0,0.0,
35.89942,true,true,true,0.125,12.8,0.0,0,0,0,0.125,12.8,0.0,0,0,0,0.125,12.8,0.0,0,0,0,0.125,12.85,0.0,0,0,0,0.0,12.8,0.0,0,0,0,0.0,12.8,0.0,0,0,0,0.125,12.9,0.0,0,0,0,kReverse,kOff,-86.16,1.72,1.62,0.027832031,-0.9830322,0.060302734,32.59,0.0,-1.0,0.0,0.0,
35.923010000000005,true,true,true,0.125,12.8,0.0,0,0,0,0.125,12.8,0.0,0,0,0,0.125,12.8,0.0,0,0,0,0.125,12.85,0.0,0,0,0,0.0,12.8,0.0,0,0,0,0.0,12.8,0.0,0,0,0,0.125,12.9,0.0,0,0,0,kReverse,kOff,-86.16,1.72,1.62,0.030395508,-0.986145,0.05230713,32.59,0.0,0.0,0.0,0.0,
35.946289,true,true,true,0.125,12.8,0.0,0,0,0,0.125,12.8,0.0,0,0,0,0.125,12.8,0.0,0,0,0,0.125,12.85,0.0,0,0,0,0.0,12.8,0.0,0,0,0,0.0,12.8,0.0,0,0,0,0.125,12.9,0.0,0,0,0,kReverse,kOff,-86.16,1.72,1.62,0.02947998,-0.9828491,0.06311035,32.59,0.0,0.0,0.0,0.0,
35.964510000000004,true,true,true,0.125,12.8,0.0,0,0,0,0.125,12.8,0.0,0,0,0,0.125,12.8,0.0,0,0,0,0.125,12.85,0.0,0,0,0,0.0,12.8,0.0,0,0,0,0.0,12.8,0.0,0,0,0,0.125,12.9,0.0,0,0,0,kReverse,kOff,-86.16,1.72,1.62,0.027770996,-0.9818115,0.06201172,32.59,0.0,-1.0,0.0,0.0,
35.992956,true,true,true,0.125,12.8,0.0,0,0,0,0.125,12.8,0.0,0,0,0,0.125,12.8,0.0,0,0,0,0.125,12.85,0.0,0,0,0,0.0,12.8,0.0,0,0,0,0.0,12.8,0.0,0,0,0,0.125,12.9,0.0,0,0,0,kReverse,kOff,-86.16,1.72,1.62,0.02960205,-0.9830322,0.059143066,32.59,0.0,0.0,0.0,0.0,
36.015961000000004,true,true,true,0.125,12.8,0.0,0,0,0,0.125,12.8,0.0,0,0,0,0.125,12.8,0.0,0,0,0,0.125,12.85,0.0,0,0,0,0.0,12.8,0.0,0,0,0,0.0,12.8,0.0,0,0,0,0.125,12.9,0.0,0,0,0,kReverse,kOff,-86.16,1.72,1.62,0.029296875,-0.9847412,0.059570312,32.59,0.0,0.0,0.0,0.0,
36.039875,true,true,true,0.125,12.8,0.0,0,0,0,0.125,12.8,0.0,0,0,0,0.125,12.8,0.0,0,0,0,0.125,12.85,0.0,0,0,0,0.0,12.8,0.0,0,0,0,0.0,12.8,0.0,0,0,0,0.125,12.9,0.0,0,0,0,kReverse,kOff,-86.16,1.72,1.62,0.032104492,-0.9804077,0.05218506,32.59,0.0,2.0,0.0,0.0,
36.059993000000006,true,true,true,0.125,12.8,0.0,0,0,0,0.125,12.8,0.0,0,0,0,0.125,12.8,0.0,0,0,0,0.125,12.85,0.0,0,0,0,0.0,12.8,0.0,0,0,0,0.0,12.8,0.0,0,0,0,0.125,12.9,0.0,0,0,0,kReverse,kOff,-86.16,1.72,1.62,0.028259277,-0.9828491,0.0569458,32.59,0.0,-1.0,0.0,0.0,
36.088747000000005,true,true,true,0.125,12.8,0.0,0,0,0,0.125,12.8,0.0,0,0,0,0.125,12.8,0.0,0,0,0,0.125,12.85,0.0,0,0,0,0.0,12.8,0.0,0,0,0,0.0,12.8,0.0,0,0,0,0.125,12.9,0.0,0,0,0,kReverse,kOff,-86.16,1.72,1.62,0.032348633,-0.98327637,0.05895996,32.59,0.0,2.0,0.0,0.0,
36.11682,true,true,true,0.125,12.8,0.0,0,0,0,0.125,12.8,0.0,0,0,0,0.125,12.8,0.0,0,0,0,0.125,12.85,0.0,0,0,0,0.0,12.8,0.0,0,0,0,0.0,12.8,0.0,0,0,0,0.125,12.9,0.0,0,0,0,kReverse,kOff,-86.16,1.72,1.62,0.026916504,-0.9851074,0.062072754,32.59,0.0,-2.0,0.0,0.0,
36.140816,true,true,true,0.125,12.8,0.0,0,0,0,0.125,12.8,0.0,0,0,0,0.125,12.8,0.0,0,0,0,0.125,12.85,0.0,0,0,0,0.0,12.8,0.0,0,0,0,0.0,12.8,0.0,0,0,0,0.125,12.9,0.0,0,0,0,kReverse,kOff,-86.16,1.72,1.62,0.027893066,-0.9845581,0.057678223,32.59,0.0,-1.0,0.0,0.0,
36.161908000000004,true,true,true,0.125,12.8,0.0,0,0,0,0.125,12.8,0.0,0,0,0,0.125,12.8,0.0,0,0,0,0.125,12.85,0.0,0,0,0,0.0,12.8,0.0,0,0,0,0.0,12.8,0.0,0,0,0,0.125,12.9,0.0,0,0,0,kReverse,kOff,-86.15,1.72,1.62,0.030578613,-0.982666,0.057128906,32.59,0.0,1.0,0.0,0.0,
36.191998,true,true,true,0.125,12.8,0.0,0,0,0,0.125,12.8,0.0,0,0,0,0.125,12.8,0.0,0,0,0,0.125,12.85,0.0,0,0,0,0.0,12.8,0.0,0,0,0,0.0,12.8,0.0,0,0,0,0.125,12.9,0.0,0,0,0,kReverse,kOff,-86.15,1.72,1.62,0.02758789,-0.98394775,0.061279297,32.59,0.0,-2.0,0.0,0.0,
36.214195,true,true,true,0.125,12.8,0.0,0,0,0,0.125,12.8,0.0,0,0,0,0.125,12.8,0.0,0,0,0,0.125,12.85,0.0,0,0,0,0.0,12.8,0.0,0,0,0,0.0,12.8,0.0,0,0,0,0.125,12.9,0.0,0,0,0,kReverse,kOff,-86.15,1.72,1.62,0.029296875,-0.9833374,0.057495117,32.59,0.0,0.0,0.0,0.0,
36.236892,true,true,true,0.125,12.8,0.0,0,0,0,0.125,12.8,0.0,0,0,0,0.125,12.8,0.0,0,0,0,0.125,12.85,0.0,0,0,0,0.125,12.8,0.0,0,0,0,0.0,12.8,0.0,0,0,0,0.125,12.9,0.0,0,0,0,kReverse,kOff,-86.15,1.72,1.62,0.030029297,-0.98461914,0.054504395,32.59,0.0,0.0,0.0,0.0,
36.260442000000005,true,true,true,0.125,12.8,0.0,0,0,0,0.125,12.8,0.0,0,0,0,0.125,12.8,0.0,0,0,0,0.125,12.85,0.0,0,0,0,0.0,12.8,0.0,0,0,0,0.0,12.8,0.0,0,0,0,0.125,12.9,0.0,0,0,0,kReverse,kOff,-86.16,1.72,1.62,0.03173828,-0.98376465,0.06640625,32.59,0.0,1.0,0.0,0.0,
36.287243000000004,true,true,true,0.125,12.8,0.0,0,0,0,0.125,12.8,0.0,0,0,0,0.125,12.8,0.0,0,0,0,0.125,12.85,0.0,0,0,0,0.0,12.8,0.0,0,0,0,0.0,12.8,0.0,0,0,0,0.125,12.9,0.0,0,0,0,kReverse,kOff,-86.15,1.72,1.62,0.029541016,-0.98101807,0.057861328,32.59,0.0,0.0,0.0,0.0,
36.310171000000004,true,true,true,0.125,12.8,0.0,0,0,0,0.125,12.8,0.0,0,0,0,0.125,12.8,0.0,0,0,0,0.125,12.85,0.0,0,0,0,0.0,12.8,0.0,0,0,0,0.0,12.8,0.0,0,0,0,0.125,12.9,0.0,0,0,0,kReverse,kOff,-86.15,1.72,1.62,0.030334473,-0.98376465,0.059265137,32.59,0.0,0.0,0.0,0.0,
36.332753,true,true,true,0.125,12.8,0.0,0,0,0,0.125,12.8,0.0,0,0,0,0.125,12.8,0.0,0,0,0,0.125,12.85,0.0,0,0,0,0.0,12.8,0.0,0,0,0,0.0,12.8,0.0,0,0,0,0.125,12.9,0.0,0,0,0,kReverse,kOff,-86.15,1.72,1.63,0.027648926,-0.98339844,0.053222656,32.59,0.0,-1.0,0.0,0.0,
36.354136,true,true,true,0.125,12.8,0.0,0,0,0,0.125,12.8,0.0,0,0,0,0.125,12.8,0.0,0,0,0,0.125,12.85,0.0,0,0,0,0.0,12.8,0.0,0,0,0,0.0,12.8,0.0,0,0,0,0.125,12.9,0.0,0,0,0,kReverse,kOff,-86.15,1.72,1.63,0.029052734,-0.98535156,0.057800293,32.59,0.0,0.0,0.0,0.0,
36.376811000000004,true,true,true,0.125,12.8,0.0,0,0,0,0.125,12.8,0.0,0,0,0,0.125,12.8,0.0,0,0,0,0.125,12.85,0.0,0,0,0,0.0,12.8,0.0,0,0,0,0.0,12.8,0.0,0,0,0,0.125,12.9,0.0,0,0,0,kReverse,kOff,-86.16,1.72,1.62,0.028259277,-0.9841919,0.06555176,32.59,0.0,-1.0,0.0,0.0,
36.400057000000004,true,true,true,0.125,12.8,0.0,0,0,0,0.125,12.8,0.0,0,0,0,0.125,12.8,0.0,0,0,0,0.125,12.85,0.0,0,0,0,0.125,12.8,0.0,0,0,0,0.0,12.8,0.0,0,0,0,0.125,12.9,0.0,0,0,0,kReverse,kOff,-86.15,1.72,1.62,0.03503418,-0.9862671,0.05895996,32.59,0.0,5.0,0.0,0.0,
36.42704,true,true,true,0.125,12.8,0.0,0,0,0,0.125,12.8,0.0,0,0,0,0.125,12.8,0.0,0,0,0,0.125,12.85,0.0,0,0,0,0.125,12.8,0.0,0,0,0,0.0,12.8,0.0,0,0,0,0.125,12.9,0.0,0,0,0,kReverse,kOff,-86.16,1.72,1.63,0.03149414,-0.9813843,0.059753418,32.59,0.0,1.0,0.0,0.0,
36.454181,true,true,true,0.125,12.8,0.0,0,0,0,0.125,12.8,0.0,0,0,0,0.125,12.8,0.0,0,0,0,0.125,12.85,0.0,0,0,0,0.0,12.8,0.0,0,0,0,0.0,12.8,0.0,0,0,0,0.125,12.9,0.0,0,0,0,kReverse,kOff,-86.16,1.72,1.62,0.03265381,-0.9857178,0.058166504,32.59,0.0,2.0,0.0,0.0,
36.476148,true,true,true,0.125,12.8,0.0,0,0,0,0.125,12.8,0.0,0,0,0,0.125,12.8,0.0,0,0,0,0.125,12.85,0.0,0,0,0,0.0,12.8,0.0,0,0,0,0.0,12.8,0.0,0,0,0,0.125,12.9,0.0,0,0,0,kReverse,kOff,-86.16,1.72,1.62,0.032165527,-0.98565674,0.06085205,32.59,0.0,0.0,0.0,0.0,
36.506213,true,true,true,0.125,12.8,0.0,0,0,0,0.125,12.8,0.0,0,0,0,0.125,12.8,0.0,0,0,0,0.125,12.85,0.0,0,0,0,0.0,12.8,0.0,0,0,0,0.0,12.8,0.0,0,0,0,0.125,12.9,0.0,0,0,0,kReverse,kOff,-86.16,1.72,1.63,0.029541016,-0.98535156,0.053955078,32.59,0.0,0.0,0.0,0.0,
36.531743999999996,true,true,true,0.125,12.8,0.0,0,0,0,0.125,12.8,0.0,0,0,0,0.125,12.8,0.0,0,0,0,0.125,12.85,0.0,0,0,0,0.0,12.8,0.0,0,0,0,0.0,12.8,0.0,0,0,0,0.125,12.9,0.0,0,0,0,kReverse,kOff,-86.16,1.72,1.63,0.031799316,-0.98394775,0.055908203,32.59,0.0,2.0,0.0,0.0,
36.555858,true,true,true,0.125,12.8,0.0,0,0,0,0.125,12.8,0.0,0,0,0,0.125,12.8,0.0,0,0,0,0.125,12.85,0.0,0,0,0,0.0,12.8,0.0,0,0,0,0.0,12.8,0.0,0,0,0,0.125,12.9,0.0,0,0,0,kReverse,kOff,-86.16,1.72,1.63,0.029907227,-0.98223877,0.05670166,32.59,0.0,0.0,0.0,0.0,
36.577124000000005,true,true,true,0.125,12.8,0.0,0,0,0,0.125,12.8,0.0,0,0,0,0.125,12.8,0.0,0,0,0,0.125,12.85,0.0,0,0,0,0.0,12.8,0.0,0,0,0,0.0,12.8,0.0,0,0,0,0.125,12.9,0.0,0,0,0,kReverse,kOff,-86.16,1.72,1.63,0.029968262,-0.9838867,0.05822754,32.59,0.0,0.0,0.0,0.0,
36.600452,true,true,true,0.125,12.8,0.0,0,0,0,0.125,12.8,0.0,0,0,0,0.125,12.8,0.0,0,0,0,0.125,12.85,0.0,0,0,0,0.0,12.8,0.0,0,0,0,0.0,12.8,0.0,0,0,0,0.125,12.9,0.0,0,0,0,kReverse,kOff,-86.16,1.72,1.63,0.02911377,-0.9846802,0.056030273,32.59,0.0,0.0,0.0,0.0,
36.625408,true,true,true,0.125,12.8,0.0,0,0,0,0.125,12.8,0.0,0,0,0,0.125,12.8,0.0,0,0,0,0.125,12.85,0.0,0,0,0,0.0,12.8,0.0,0,0,0,0.0,12.8,0.0,0,0,0,0.125,12.9,0.0,0,0,0,kReverse,kOff,-86.16,1.72,1.63,0.03100586,-0.9857788,0.06188965,32.59,0.0,1.0,0.0,0.0,
36.659379,true,true,true,0.125,12.8,0.0,0,0,0,0.125,12.8,0.0,0,0,0,0.125,12.8,0.0,0,0,0,0.125,12.85,0.0,0,0,0,0.0,12.8,0.0,0,0,0,0.0,12.8,0.0,0,0,0,0.125,12.9,0.0,0,0,0,kReverse,kOff,-86.16,1.72,1.63,0.029541016,-0.98217773,0.05859375,32.59,0.0,0.0,0.0,0.0,
36.685410000000005,true,true,true,0.125,12.8,0.0,0,0,0,0.125,12.8,0.0,0,0,0,0.125,12.8,0.0,0,0,0,0.125,12.85,0.0,0,0,0,0.125,12.8,0.0,0,0,0,0.0,12.8,0.0,0,0,0,0.125,12.9,0.0,0,0,0,kReverse,kOff,-86.16,1.72,1.63,0.02923584,-0.9852905,0.062927246,32.6,0.0,0.0,0.0,0.0,
36.709899,true,true,true,0.125,12.8,0.0,0,0,0,0.125,12.8,0.0,0,0,0,0.125,12.8,0.0,0,0,0,0.125,12.85,0.0,0,0,0,0.0,12.8,0.0,0,0,0,0.0,12.8,0.0,0,0,0,0.125,12.9,0.0,0,0,0,kReverse,kOff,-86.16,1.72,1.63,0.031677246,-0.98565674,0.060546875,32.6,0.0,1.0,0.0,0.0,
36.733893,true,true,true,0.125,12.8,0.0,0,0,0,0.125,12.8,0.0,0,0,0,0.125,12.8,0.0,0,0,0,0.125,12.85,0.0,0,0,0,0.0,12.8,0.0,0,0,0,0.0,12.8,0.0,0,0,0,0.125,12.9,0.0,0,0,0,kReverse,kOff,-86.16,1.72,1.63,0.029418945,-0.986084,0.056640625,32.6,0.0,0.0,0.0,0.0,
36.765816,true,true,true,0.125,12.8,0.0,0,0,0,0.125,12.8,0.0,0,0,0,0.125,12.8,0.0,0,0,0,0.125,12.85,0.0,0,0,0,0.0,12.8,0.0,0,0,0,0.0,12.8,0.0,0,0,0,0.125,12.9,0.0,0,0,0,kReverse,kOff,-86.16,1.72,1.63,0.03253174,-0.9834595,0.0592041,32.6,0.0,2.0,0.0,0.0,
36.789059,true,true,true,0.125,12.8,0.0,0,0,0,0.125,12.8,0.0,0,0,0,0.125,12.8,0.0,0,0,0,0.125,12.85,0.0,0,0,0,0.0,12.8,0.0,0,0,0,0.0,12.8,0.0,0,0,0,0.125,12.9,0.0,0,0,0,kReverse,kOff,-86.16,1.72,1.63,0.030334473,-0.98321533,0.05859375,32.6,0.0,0.0,0.0,0.0,
36.812286,true,true,true,0.125,12.8,0.0,0,0,0,0.125,12.8,0.0,0,0,0,0.125,12.8,0.0,0,0,0,0.125,12.85,0.0,0,0,0,0.0,12.8,0.0,0,0,0,0.0,12.8,0.0,0,0,0,0.125,12.9,0.0,0,0,0,kReverse,kOff,-86.16,1.72,1.63,0.032836914,-0.98168945,0.060058594,32.6,0.0,3.0,0.0,0.0,
36.836339,true,true,true,0.125,12.8,0.0,0,0,0,0.125,12.8,0.0,0,0,0,0.125,12.8,0.0,0,0,0,0.125,12.85,0.0,0,0,0,0.0,12.8,0.0,0,0,0,0.0,12.8,0.0,0,0,0,0.125,12.9,0.0,0,0,0,kReverse,kOff,-86.16,1.72,1.63,0.030212402,-0.9838867,0.059265137,32.6,0.0,0.0,0.0,0.0,
36.86161,true,true,true,0.125,12.8,0.0,0,0,0,0.125,12.8,0.0,0,0,0,0.125,12.8,0.0,0,0,0,0.125,12.85,0.0,0,0,0,0.0,12.8,0.0,0,0,0,0.0,12.8,0.0,0,0,0,0.125,12.9,0.0,0,0,0,kReverse,kOff,-86.16,1.72,1.63,0.030395508,-0.9842529,0.056518555,32.6,0.0,0.0,0.0,0.0,
36.882451,true,true,true,0.125,12.8,0.0,0,0,0,0.125,12.8,0.0,0,0,0,0.125,12.8,0.0,0,0,0,0.125,12.85,0.0,0,0,0,0.0,12.8,0.0,0,0,0,0.0,12.8,0.0,0,0,0,0.125,12.9,0.0,0,0,0,kReverse,kOff,-86.16,1.72,1.63,0.030761719,-0.9866333,0.061279297,32.6,0.0,0.0,0.0,0.0,
36.912549,true,true,true,0.125,12.8,0.0,0,0,0,0.125,12.8,0.0,0,0,0,0.125,12.8,0.0,0,0,0,0.125,12.85,0.0,0,0,0,0.0,12.8,0.0,0,0,0,0.0,12.8,0.0,0,0,0,0.125,12.9,0.0,0,0,0,kReverse,kOff,-86.16,1.72,1.63,0.029968262,-0.98413086,0.06048584,32.6,0.0,0.0,0.0,0.0,
36.935696,true,true,true,0.125,12.8,0.0,0,0,0,0.125,12.8,0.0,0,0,0,0.125,12.8,0.0,0,0,0,0.125,12.85,0.0,0,0,0,0.125,12.8,0.0,0,0,0,0.0,12.8,0.0,0,0,0,0.125,12.9,0.0,0,0,0,kReverse,kOff,-86.16,1.72,1.63,0.029907227,-0.986145,0.060180664,32.6,0.0,0.0,0.0,0.0,
36.956697999999996,true,true,true,0.125,12.8,0.0,0,0,0,0.125,12.8,0.0,0,0,0,0.125,12.8,0.0,0,0,0,0.125,12.85,0.0,0,0,0,0.125,12.8,0.0,0,0,0,0.0,12.8,0.0,0,0,0,0.125,12.9,0.0,0,0,0,kReverse,kOff,-86.16,1.72,1.63,0.031188965,-0.98687744,0.05609131,32.6,0.0,1.0,0.0,0.0,
36.982836000000006,true,true,true,0.125,12.8,0.0,0,0,0,0.125,12.8,0.0,0,0,0,0.125,12.8,0.0,0,0,0,0.125,12.85,0.0,0,0,0,0.0,12.8,0.0,0,0,0,0.0,12.8,0.0,0,0,0,0.125,12.9,0.0,0,0,0,kReverse,kOff,-86.16,1.72,1.63,0.02960205,-0.9813843,0.059020996,32.6,0.0,0.0,0.0,0.0,
37.012097000000004,true,true,true,0.125,12.8,0.0,0,0,0,0.125,12.8,0.0,0,0,0,0.125,12.8,0.0,0,0,0,0.125,12.85,0.0,0,0,0,0.0,12.8,0.0,0,0,0,0.0,12.8,0.0,0,0,0,0.125,12.9,0.0,0,0,0,kReverse,kOff,-86.16,1.72,1.63,0.02960205,-0.982666,0.056762695,32.6,0.0,0.0,0.0,0.0,
37.034577,true,true,true,0.125,12.8,0.0,0,0,0,0.125,12.8,0.0,0,0,0,0.125,12.8,0.0,0,0,0,0.125,12.85,0.0,0,0,0,0.0,12.8,0.0,0,0,0,0.0,12.8,0.0,0,0,0,0.125,12.9,0.0,0,0,0,kReverse,kOff,-86.16,1.72,1.63,0.030639648,-0.9852295,0.06439209,32.6,0.0,0.0,0.0,0.0,
37.056337,true,true,true,0.125,12.8,0.0,0,0,0,0.125,12.8,0.0,0,0,0,0.125,12.8,0.0,0,0,0,0.125,12.85,0.0,0,0,0,0.0,12.8,0.0,0,0,0,0.0,12.8,0.0,0,0,0,0.125,12.9,0.0,0,0,0,kReverse,kOff,-86.16,1.72,1.63,0.02911377,-0.98272705,0.059265137,32.6,0.0,0.0,0.0,0.0,
37.083343,true,true,true,0.125,12.8,0.0,0,0,0,0.125,12.8,0.0,0,0,0,0.125,12.8,0.0,0,0,0,0.125,12.85,0.0,0,0,0,0.0,12.8,0.0,0,0,0,0.0,12.8,0.0,0,0,0,0.125,12.9,0.0,0,0,0,kReverse,kOff,-86.16,1.72,1.63,0.03125,-0.9818115,0.0569458,32.6,0.0,1.0,0.0,0.0,
37.106979,true,true,true,0.125,12.8,0.0,0,0,0,0.125,12.8,0.0,0,0,0,0.125,12.8,0.0,0,0,0,0.125,12.85,0.0,0,0,0,0.0,12.8,0.0,0,0,0,0.0,12.8,0.0,0,0,0,0.125,12.9,0.0,0,0,0,kReverse,kOff,-86.16,1.72,1.63,0.03125,-0.98223877,0.07043457,32.6,0.0,1.0,0.0,0.0,
37.129709999999996,true,true,true,0.125,12.8,0.0,0,0,0,0.125,12.8,0.0,0,0,0,0.125,12.8,0.0,0,0,0,0.125,12.85,0.0,0,0,0,0.0,12.8,0.0,0,0,0,0.0,12.8,0.0,0,0,0,0.125,12.9,0.0,0,0,0,kReverse,kOff,-86.16,1.72,1.63,0.02557373,-0.98291016,0.05657959,32.6,0.0,-4.0,0.0,0.0,
37.152212,true,true,true,0.125,12.8,0.0,0,0,0,0.125,12.8,0.0,0,0,0,0.125,12.8,0.0,0,0,0,0.125,12.85,0.0,0,0,0,0.0,12.8,0.0,0,0,0,0.0,12.8,0.0,0,0,0,0.125,12.9,0.0,0,0,0,kReverse,kOff,-86.16,1.72,1.63,0.027893066,-0.98321533,0.04949951,32.6,0.0,-1.0,0.0,0.0,
37.173559000000004,true,true,true,0.125,12.8,0.0,0,0,0,0.125,12.8,0.0,0,0,0,0.125,12.8,0.0,0,0,0,0.125,12.85,0.0,0,0,0,0.0,12.8,0.0,0,0,0,0.0,12.8,0.0,0,0,0,0.125,12.9,0.0,0,0,0,kReverse,kOff,-86.16,1.72,1.63,0.0289917,-0.9831543,0.061340332,32.6,0.0,0.0,0.0,0.0,
37.195684,true,true,true,0.125,12.8,0.0,0,0,0,0.125,12.8,0.0,0,0,0,0.125,12.8,0.0,0,0,0,0.125,12.85,0.0,0,0,0,0.0,12.8,0.0,0,0,0,0.0,12.8,0.0,0,0,0,0.125,12.9,0.0,0,0,0,kReverse,kOff,-86.16,1.72,1.63,0.029296875,-0.9840088,0.057434082,32.6,0.0,0.0,0.0,0.0,
37.21646,true,true,true,0.125,12.8,0.0,0,0,0,0.125,12.8,0.0,0,0,0,0.125,12.8,0.0,0,0,0,0.125,12.85,0.0,0,0,0,0.0,12.8,0.0,0,0,0,0.0,12.8,0.0,0,0,0,0.125,12.9,0.0,0,0,0,kReverse,kOff,-86.16,1.72,1.63,0.026611328,-0.9868164,0.060424805,32.6,0.0,-3.0,0.0,0.0,
37.237652000000004,true,true,true,0.125,12.8,0.0,0,0,0,0.125,12.8,0.0,0,0,0,0.125,12.8,0.0,0,0,0,0.125,12.85,0.0,0,0,0,0.0,12.8,0.0,0,0,0,0.0,12.8,0.0,0,0,0,0.125,12.9,0.0,0,0,0,kReverse,kOff,-86.16,1.72,1.63,0.029724121,-0.9869995,0.060302734,32.6,0.0,0.0,0.0,0.0,
37.265942,true,true,true,0.125,12.8,0.0,0,0,0,0.125,12.8,0.0,0,0,0,0.125,12.8,0.0,0,0,0,0.125,12.85,0.0,0,0,0,0.0,12.8,0.0,0,0,0,0.0,12.8,0.0,0,0,0,0.125,12.9,0.0,0,0,0,kReverse,kOff,-86.16,1.72,1.63,0.026000977,-0.9821167,0.06262207,32.6,0.0,-3.0,0.0,0.0,
37.298004999999996,true,true,true,0.125,12.8,0.0,0,0,0,0.125,12.8,0.0,0,0,0,0.125,12.8,0.0,0,0,0,0.125,12.85,0.0,0,0,0,0.0,12.8,0.0,0,0,0,0.0,12.8,0.0,0,0,0,0.125,12.9,0.0,0,0,0,kReverse,kOff,-86.16,1.72,1.63,0.031799316,-0.98583984,0.059143066,32.6,0.0,1.0,0.0,0.0,
37.321712,true,true,true,0.125,12.8,0.0,0,0,0,0.125,12.8,0.0,0,0,0,0.125,12.8,0.0,0,0,0,0.125,12.85,0.0,0,0,0,0.0,12.8,0.0,0,0,0,0.0,12.8,0.0,0,0,0,0.125,12.9,0.0,0,0,0,kReverse,kOff,-86.16,1.72,1.63,0.03137207,-0.9845581,0.059570312,32.6,0.0,1.0,0.0,0.0,
37.349779999999996,true,true,true,0.125,12.8,0.0,0,0,0,0.125,12.8,0.0,0,0,0,0.125,12.8,0.0,0,0,0,0.125,12.85,0.0,0,0,0,0.0,12.8,0.0,0,0,0,0.0,12.8,0.0,0,0,0,0.125,12.9,0.0,0,0,0,kReverse,kOff,-86.16,1.72,1.63,0.029296875,-0.98553467,0.05517578,32.6,0.0,0.0,0.0,0.0,
37.373611,true,true,true,0.125,12.8,0.0,0,0,0,0.125,12.8,0.0,0,0,0,0.125,12.8,0.0,0,0,0,0.125,12.85,0.0,0,0,0,0.0,12.8,0.0,0,0,0,0.0,12.8,0.0,0,0,0,0.125,12.9,0.0,0,0,0,kReverse,kOff,-86.16,1.72,1.63,0.030700684,-0.98217773,0.056152344,32.6,0.0,1.0,0.0,0.0,
37.396398,true,true,true,0.125,12.8,0.0,0,0,0,0.125,12.8,0.0,0,0,0,0.125,12.8,0.0,0,0,0,0.125,12.85,0.0,0,0,0,0.0,12.8,0.0,0,0,0,0.0,12.8,0.0,0,0,0,0.125,12.9,0.0,0,0,0,kReverse,kOff,-86.16,1.72,1.63,0.029296875,-0.9824219,0.059448242,32.6,0.0,0.0,0.0,0.0,
37.420267,true,true,true,0.125,12.8,0.0,0,0,0,0.125,12.8,0.0,0,0,0,0.125,12.8,0.0,0,0,0,0.125,12.85,0.0,0,0,0,0.0,12.8,0.0,0,0,0,0.0,12.8,0.0,0,0,0,0.125,12.9,0.0,0,0,0,kReverse,kOff,-86.16,1.72,1.62,0.02911377,-0.9824219,0.06524658,32.6,0.0,0.0,0.0,0.0,
37.44578,true,true,true,0.125,12.8,0.0,0,0,0,0.125,12.8,0.0,0,0,0,0.125,12.8,0.0,0,0,0,0.125,12.85,0.0,0,0,0,0.0,12.8,0.0,0,0,0,0.0,12.8,0.0,0,0,0,0.125,12.9,0.0,0,0,0,kReverse,kOff,-86.16,1.72,1.62,0.030395508,-0.9848633,0.06072998,32.6,0.0,0.0,0.0,0.0,
37.469134,true,true,true,0.125,12.8,0.0,0,0,0,0.125,12.8,0.0,0,0,0,0.125,12.8,0.0,0,0,0,0.125,12.85,0.0,0,0,0,0.0,12.8,0.0,0,0,0,0.0,12.8,0.0,0,0,0,0.125,12.9,0.0,0,0,0,kReverse,kOff,-86.16,1.72,1.62,0.028442383,-0.9805908,0.0579834,32.6,0.0,-1.0,0.0,0.0,
37.495188999999996,true,true,true,0.125,12.8,0.0,0,0,0,0.125,12.8,0.0,0,0,0,0.125,12.8,0.0,0,0,0,0.125,12.85,0.0,0,0,0,0.0,12.8,0.0,0,0,0,0.0,12.8,0.0,0,0,0,0.125,12.9,0.0,0,0,0,kReverse,kOff,-86.16,1.72,1.62,0.03112793,-0.98413086,0.056884766,32.6,0.0,1.0,0.0,0.0,
37.522922,true,true,true,0.125,12.8,0.0,0,0,0,0.125,12.8,0.0,0,0,0,0.125,12.8,0.0,0,0,0,0.125,12.85,0.0,0,0,0,0.0,12.8,0.0,0,0,0,0.0,12.8,0.0,0,0,0,0.125,12.9,0.0,0,0,0,kReverse,kOff,-86.16,1.72,1.63,0.030456543,-0.98272705,0.055603027,32.6,0.0,0.0,0.0,0.0,
37.545292,true,true,true,0.125,12.8,0.0,0,0,0,0.125,12.8,0.0,0,0,0,0.125,12.8,0.0,0,0,0,0.125,12.85,0.0,0,0,0,0.0,12.8,0.0,0,0,0,0.0,12.8,0.0,0,0,0,0.125,12.9,0.0,0,0,0,kReverse,kOff,-86.16,1.72,1.63,0.029296875,-0.98236084,0.05871582,32.6,0.0,0.0,0.0,0.0,
37.572384,true,true,true,0.125,12.8,0.0,0,0,0,0.125,12.8,0.0,0,0,0,0.125,12.8,0.0,0,0,0,0.125,12.85,0.0,0,0,0,0.125,12.8,0.0,0,0,0,0.0,12.8,0.0,0,0,0,0.125,12.9,0.0,0,0,0,kReverse,kOff,-86.16,1.72,1.63,0.028442383,-0.9863281,0.05871582,32.6,0.0,-1.0,0.0,0.0,
37.596443,true,true,true,0.125,12.8,0.0,0,0,0,0.125,12.8,0.0,0,0,0,0.125,12.8,0.0,0,0,0,0.125,12.85,0.0,0,0,0,0.0,12.8,0.0,0,0,0,0.0,12.8,0.0,0,0,0,0.125,12.9,0.0,0,0,0,kReverse,kOff,-86.17,1.71,1.62,0.028747559,-0.9819946,0.059143066,32.6,0.0,0.0,0.0,0.0,
37.618819,true,true,true,0.125,12.8,0.0,0,0,0,0.125,12.8,0.0,0,0,0,0.125,12.8,0.0,0,0,0,0.125,12.85,0.0,0,0,0,0.0,12.8,0.0,0,0,0,0.0,12.8,0.0,0,0,0,0.125,12.9,0.0,0,0,0,kReverse,kOff,-86.16,1.72,1.62,0.028442383,-0.9864502,0.06274414,32.6,0.0,-1.0,0.0,0.0,
37.645277,true,true,true,0.125,12.8,0.0,0,0,0,0.125,12.8,0.0,0,0,0,0.125,12.8,0.0,0,0,0,0.125,12.85,0.0,0,0,0,0.0,12.8,0.0,0,0,0,0.0,12.8,0.0,0,0,0,0.125,12.9,0.0,0,0,0,kReverse,kOff,-86.16,1.72,1.62,0.028259277,-0.98376465,0.05517578,32.6,0.0,-1.0,0.0,0.0,
37.670583,true,true,true,0.125,12.8,0.0,0,0,0,0.125,12.8,0.0,0,0,0,0.125,12.8,0.0,0,0,0,0.125,12.85,0.0,0,0,0,0.0,12.8,0.0,0,0,0,0.0,12.8,0.0,0,0,0,0.125,12.9,0.0,0,0,0,kReverse,kOff,-86.16,1.72,1.62,0.028137207,-0.9857178,0.055603027,32.6,0.0,-1.0,0.0,0.0,
37.690584,true,true,true,0.125,12.8,0.0,0,0,0,0.125,12.8,0.0,0,0,0,0.125,12.8,0.0,0,0,0,0.125,12.85,0.0,0,0,0,0.0,12.8,0.0,0,0,0,0.0,12.8,0.0,0,0,0,0.125,12.9,0.0,0,0,0,kReverse,kOff,-86.16,1.72,1.62,0.031921387,-0.98095703,0.053833008,32.61,0.0,2.0,0.0,0.0,
37.717552000000005,true,true,true,0.125,12.8,0.0,0,0,0,0.125,12.8,0.0,0,0,0,0.125,12.8,0.0,0,0,0,0.125,12.85,0.0,0,0,0,0.125,12.8,0.0,0,0,0,0.0,12.8,0.0,0,0,0,0.125,12.9,0.0,0,0,0,kReverse,kOff,-86.17,1.72,1.63,0.030151367,-0.98498535,0.058410645,32.61,0.0,0.0,0.0,0.0,
37.742093000000004,true,true,true,0.125,12.8,0.0,0,0,0,0.125,12.8,0.0,0,0,0,0.125,12.8,0.0,0,0,0,0.125,12.85,0.0,0,0,0,0.125,12.8,0.0,0,0,0,0.0,12.8,0.0,0,0,0,0.125,12.9,0.0,0,0,0,kReverse,kOff,-86.17,1.72,1.62,0.028564453,-0.98553467,0.060546875,32.61,0.0,-1.0,0.0,0.0,
37.762999,true,true,true,0.125,12.8,0.0,0,0,0,0.125,12.8,0.0,0,0,0,0.125,12.8,0.0,0,0,0,0.125,12.85,0.0,0,0,0,0.125,12.8,0.0,0,0,0,0.0,12.8,0.0,0,0,0,0.125,12.9,0.0,0,0,0,kReverse,kOff,-86.17,1.72,1.63,0.02935791,-0.98565674,0.055541992,32.61,0.0,0.0,0.0,0.0,
37.786068,true,true,true,0.125,12.8,0.0,0,0,0,0.125,12.8,0.0,0,0,0,0.125,12.8,0.0,0,0,0,0.125,12.85,0.0,0,0,0,0.0,12.8,0.0,0,0,0,0.0,12.8,0.0,0,0,0,0.125,12.9,0.0,0,0,0,kReverse,kOff,-86.17,1.72,1.63,0.029296875,-0.9819336,0.055114746,32.61,0.0,0.0,0.0,0.0,
37.806073,true,true,true,0.125,12.8,0.0,0,0,0,0.125,12.8,0.0,0,0,0,0.125,12.8,0.0,0,0,0,0.125,12.85,0.0,0,0,0,0.0,12.8,0.0,0,0,0,0.0,12.8,0.0,0,0,0,0.125,12.9,0.0,0,0,0,kReverse,kOff,-86.17,1.72,1.63,0.0289917,-0.9819946,0.06085205,32.61,0.0,0.0,0.0,0.0,
37.838165000000004,true,true,true,0.125,12.8,0.0,0,0,0,0.125,12.8,0.0,0,0,0,0.125,12.8,0.0,0,0,0,0.125,12.85,0.0,0,0,0,0.0,12.8,0.0,0,0,0,0.0,12.8,0.0,0,0,0,0.125,12.9,0.0,0,0,0,kReverse,kOff,-86.17,1.72,1.63,0.032287598,-0.9845581,0.059936523,32.61,0.0,2.0,0.0,0.0,
37.862707,true,true,true,0.125,12.8,0.0,0,0,0,0.125,12.8,0.0,0,0,0,0.125,12.8,0.0,0,0,0,0.125,12.85,0.0,0,0,0,0.0,12.8,0.0,0,0,0,0.0,12.8,0.0,0,0,0,0.125,12.9,0.0,0,0,0,kReverse,kOff,-86.17,1.72,1.63,0.028930664,-0.9819336,0.058532715,32.61,0.0,0.0,0.0,0.0,
37.882394,true,true,true,0.125,12.8,0.0,0,0,0,0.125,12.8,0.0,0,0,0,0.125,12.8,0.0,0,0,0,0.125,12.85,0.0,0,0,0,0.125,12.8,0.0,0,0,0,0.0,12.8,0.0,0,0,0,0.125,12.9,0.0,0,0,0,kReverse,kOff,-86.17,1.72,1.63,0.031066895,-0.984375,0.055603027,32.61,0.0,1.0,0.0,0.0,
37.908463000000005,true,true,true,0.125,12.8,0.0,0,0,0,0.125,12.8,0.0,0,0,0,0.125,12.8,0.0,0,0,0,0.125,12.85,0.0,0,0,0,0.125,12.8,0.0,0,0,0,0.0,12.8,0.0,0,0,0,0.125,12.9,0.0,0,0,0,kReverse,kOff,-86.17,1.72,1.63,0.029785156,-0.9833374,0.059814453,32.61,0.0,0.0,0.0,0.0,
37.935,true,true,true,0.125,12.8,0.0,0,0,0,0.125,12.8,0.0,0,0,0,0.125,12.8,0.0,0,0,0,0.125,12.85,0.0,0,0,0,0.0,12.8,0.0,0,0,0,0.0,12.8,0.0,0,0,0,0.125,12.9,0.0,0,0,0,kReverse,kOff,-86.17,1.72,1.63,0.02935791,-0.98187256,0.060424805,32.61,0.0,0.0,0.0,0.0,
37.957176,true,true,true,0.125,12.8,0.0,0,0,0,0.125,12.8,0.0,0,0,0,0.125,12.8,0.0,0,0,0,0.125,12.85,0.0,0,0,0,0.0,12.8,0.0,0,0,0,0.0,12.8,0.0,0,0,0,0.125,12.9,0.0,0,0,0,kReverse,kOff,-86.17,1.72,1.63,0.028808594,-0.97961426,0.064208984,32.61,0.0,0.0,0.0,0.0,
37.984141,true,true,true,0.125,12.8,0.0,0,0,0,0.125,12.8,0.0,0,0,0,0.125,12.8,0.0,0,0,0,0.125,12.85,0.0,0,0,0,0.0,12.8,0.0,0,0,0,0.0,12.8,0.0,0,0,0,0.125,12.9,0.0,0,0,0,kReverse,kOff,-86.16,1.72,1.63,0.028869629,-0.9829712,0.054260254,32.61,0.0,0.0,0.0,0.0,
38.012473,true,true,true,0.125,12.8,0.0,0,0,0,0.125,12.8,0.0,0,0,0,0.125,12.8,0.0,0,0,0,0.125,12.85,0.0,0,0,0,0.0,12.8,0.0,0,0,0,0.0,12.8,0.0,0,0,0,0.125,12.9,0.0,0,0,0,kReverse,kOff,-86.17,1.72,1.63,0.030944824,-0.98461914,0.05670166,32.61,0.0,1.0,0.0,0.0,
38.034849,true,true,true,0.125,12.8,0.0,0,0,0,0.125,12.8,0.0,0,0,0,0.125,12.8,0.0,0,0,0,0.125,12.85,0.0,0,0,0,0.125,12.8,0.0,0,0,0,0.0,12.8,0.0,0,0,0,0.125,12.9,0.0,0,0,0,kReverse,kOff,-86.16,1.72,1.63,0.03100586,-0.98028564,0.058044434,32.61,0.0,1.0,0.0,0.0,
38.058186,true,true,true,0.125,12.8,0.0,0,0,0,0.125,12.8,0.0,0,0,0,0.125,12.8,0.0,0,0,0,0.125,12.85,0.0,0,0,0,0.125,12.8,0.0,0,0,0,0.0,12.8,0.0,0,0,0,0.125,12.9,0.0,0,0,0,kReverse,kOff,-86.17,1.72,1.63,0.030517578,-0.9830322,0.053527832,32.61,0.0,0.0,0.0,0.0,
38.078464,true,true,true,0.125,12.8,0.0,0,0,0,0.125,12.8,0.0,0,0,0,0.125,12.8,0.0,0,0,0,0.125,12.85,0.0,0,0,0,0.0,12.8,0.0,0,0,0,0.0,12.8,0.0,0,0,0,0.125,12.9,0.0,0,0,0,kReverse,kOff,-86.16,1.72,1.63,0.029174805,-0.9822998,0.05657959,32.61,0.0,0.0,0.0,0.0,
38.104242,true,true,true,0.125,12.8,0.0,0,0,0,0.125,12.8,0.0,0,0,0,0.125,12.8,0.0,0,0,0,0.125,12.85,0.0,0,0,0,0.0,12.8,0.0,0,0,0,0.0,12.8,0.0,0,0,0,0.125,12.9,0.0,0,0,0,kReverse,kOff,-86.17,1.72,1.63,0.029968262,-0.9829712,0.054748535,32.61,0.0,0.0,0.0,0.0,
38.127491,true,true,true,0.125,12.8,0.0,0,0,0,0.125,12.8,0.0,0,0,0,0.125,12.8,0.0,0,0,0,0.125,12.85,0.0,0,0,0,0.0,12.8,0.0,0,0,0,0.0,12.8,0.0,0,0,0,0.125,12.9,0.0,0,0,0,kReverse,kOff,-86.17,1.72,1.62,0.030090332,-0.98321533,0.06555176,32.61,0.0,0.0,0.0,0.0,
38.149945,true,true,true,0.125,12.8,0.0,0,0,0,0.125,12.8,0.0,0,0,0,0.125,12.8,0.0,0,0,0,0.125,12.85,0.0,0,0,0,0.0,12.8,0.0,0,0,0,0.0,12.8,0.0,0,0,0,0.125,12.9,0.0,0,0,0,kReverse,kOff,-86.17,1.72,1.63,0.028076172,-0.98431396,0.05682373,32.61,0.0,-1.0,0.0,0.0,
38.174743,true,true,true,0.125,12.8,0.0,0,0,0,0.125,12.8,0.0,0,0,0,0.125,12.8,0.0,0,0,0,0.125,12.85,0.0,0,0,0,0.0,12.8,0.0,0,0,0,0.0,12.8,0.0,0,0,0,0.125,12.9,0.0,0,0,0,kReverse,kOff,-86.16,1.72,1.63,0.030700684,-0.98651123,0.06561279,32.61,0.0,0.0,0.0,0.0,
38.197388,true,true,true,0.125,12.8,0.0,0,0,0,0.125,12.8,0.0,0,0,0,0.125,12.8,0.0,0,0,0,0.125,12.85,0.0,0,0,0,0.0,12.8,0.0,0,0,0,0.0,12.8,0.0,0,0,0,0.125,12.9,0.0,0,0,0,kReverse,kOff,-86.16,1.72,1.63,0.030700684,-0.98651123,0.06561279,32.61,0.0,0.0,0.0,0.0,
38.220597999999995,true,true,true,0.125,12.8,0.0,0,0,0,0.125,12.8,0.0,0,0,0,0.125,12.8,0.0,0,0,0,0.125,12.85,0.0,0,0,0,0.0,12.8,0.0,0,0,0,0.0,12.8,0.0,0,0,0,0.125,12.9,0.0,0,0,0,kReverse,kOff,-86.16,1.72,1.63,0.03112793,-0.98321533,0.0625,32.6,0.0,1.0,0.0,0.0,
38.241505,true,true,true,0.125,12.8,0.0,0,0,0,0.125,12.8,0.0,0,0,0,0.125,12.8,0.0,0,0,0,0.125,12.85,0.0,0,0,0,0.0,12.8,0.0,0,0,0,0.0,12.8,0.0,0,0,0,0.125,12.9,0.0,0,0,0,kReverse,kOff,-86.16,1.72,1.63,0.027038574,-0.98553467,0.047851562,32.6,0.0,-2.0,0.0,0.0,
38.269477,true,true,true,0.125,12.8,0.0,0,0,0,0.125,12.8,0.0,0,0,0,0.125,12.8,0.0,0,0,0,0.125,12.85,0.0,0,0,0,0.0,12.8,0.0,0,0,0,0.0,12.8,0.0,0,0,0,0.125,12.9,0.0,0,0,0,kReverse,kOff,-86.16,1.72,1.63,0.030090332,-0.9835205,0.05029297,32.6,0.0,0.0,0.0,0.0,
38.292801,true,true,true,0.125,12.8,0.0,0,0,0,0.125,12.8,0.0,0,0,0,0.125,12.8,0.0,0,0,0,0.125,12.85,0.0,0,0,0,0.0,12.8,0.0,0,0,0,0.0,12.8,0.0,0,0,0,0.125,12.9,0.0,0,0,0,kReverse,kOff,-86.16,1.72,1.63,0.029174805,-0.98773193,0.06213379,32.6,0.0,0.0,0.0,0.0,
38.312727,true,true,true,0.125,12.8,0.0,0,0,0,0.125,12.8,0.0,0,0,0,0.125,12.8,0.0,0,0,0,0.125,12.85,0.0,0,0,0,0.0,12.8,0.0,0,0,0,0.0,12.8,0.0,0,0,0,0.125,12.9,0.0,0,0,0,kReverse,kOff,-86.16,1.72,1.63,0.030456543,-0.9850464,0.0690918,32.6,0.0,0.0,0.0,0.0,
38.335432999999995,true,true,true,0.125,12.8,0.0,0,0,0,0.125,12.8,0.0,0,0,0,0.125,12.8,0.0,0,0,0,0.125,12.85,0.0,0,0,0,0.125,12.8,0.0,0,0,0,0.0,12.8,0.0,0,0,0,0.125,12.9,0.0,0,0,0,kReverse,kOff,-86.16,1.72,1.63,0.0289917,-0.9850464,0.059692383,32.6,0.0,0.0,0.0,0.0,
38.358110999999994,true,true,true,0.125,12.8,0.0,0,0,0,0.125,12.8,0.0,0,0,0,0.125,12.8,0.0,0,0,0,0.125,12.85,0.0,0,0,0,0.125,12.8,0.0,0,0,0,0.0,12.8,0.0,0,0,0,0.125,12.9,0.0,0,0,0,kReverse,kOff,-86.16,1.72,1.63,0.030883789,-0.98065186,0.05706787,32.6,0.0,1.0,0.0,0.0,
38.381921000000006,true,true,true,0.125,12.8,0.0,0,0,0,0.125,12.8,0.0,0,0,0,0.125,12.8,0.0,0,0,0,0.125,12.85,0.0,0,0,0,0.125,12.8,0.0,0,0,0,0.0,12.8,0.0,0,0,0,0.125,12.9,0.0,0,0,0,kReverse,kOff,-86.16,1.72,1.63,0.031311035,-0.98095703,0.057861328,32.6,0.0,1.0,0.0,0.0,
38.403772,true,true,true,0.125,12.8,0.0,0,0,0,0.125,12.8,0.0,0,0,0,0.125,12.8,0.0,0,0,0,0.125,12.85,0.0,0,0,0,0.125,12.8,0.0,0,0,0,0.0,12.8,0.0,0,0,0,0.125,12.9,0.0,0,0,0,kReverse,kOff,-86.16,1.72,1.63,0.039855957,-0.9831543,0.06274414,32.6,0.0,10.0,0.0,0.0,
38.429204,true,true,true,0.125,12.8,0.0,0,0,0,0.125,12.8,0.0,0,0,0,0.125,12.8,0.0,0,0,0,0.125,12.85,0.0,0,0,0,0.125,12.8,0.0,0,0,0,0.0,12.8,0.0,0,0,0,0.125,12.9,0.0,0,0,0,kReverse,kOff,-86.15,1.73,1.63,0.03656006,-0.9951782,0.059326172,32.6,0.0,6.0,0.0,0.0,
38.448675,true,true,true,0.125,12.8,0.0,0,0,0,0.125,12.8,0.0,0,0,0,0.125,12.8,0.0,0,0,0,0.125,12.85,0.0,0,0,0,0.125,12.8,0.0,0,0,0,0.0,12.8,0.0,0,0,0,0.125,12.9,0.0,0,0,0,kReverse,kOff,-86.15,1.73,1.63,0.033691406,-0.9888916,0.05871582,32.6,0.0,3.0,0.0,0.0,
38.474195,true,true,true,0.125,12.8,0.0,0,0,0,0.125,12.8,0.0,0,0,0,0.125,12.8,0.0,0,0,0,0.125,12.85,0.0,0,0,0,0.125,12.8,0.0,0,0,0,0.0,12.8,0.0,0,0,0,0.125,12.9,0.0,0,0,0,kReverse,kOff,-86.15,1.73,1.63,0.03338623,-0.9829712,0.058166504,32.6,0.0,3.0,0.0,0.0,
38.495894,true,true,true,0.125,12.8,0.0,0,0,0,0.125,12.8,0.0,0,0,0,0.125,12.8,0.0,0,0,0,0.125,12.85,0.0,0,0,0,0.125,12.8,0.0,0,0,0,0.0,12.8,0.0,0,0,0,0.125,12.9,0.0,0,0,0,kReverse,kOff,-86.15,1.73,1.63,0.031555176,-0.98236084,0.06573486,32.6,0.0,1.0,0.0,0.0,
38.521112,true,true,true,0.125,12.8,0.0,0,0,0,0.125,12.8,0.0,0,0,0,0.125,12.8,0.0,0,0,0,0.125,12.85,0.0,0,0,0,0.125,12.8,0.0,0,0,0,0.0,12.8,0.0,0,0,0,0.125,12.9,0.0,0,0,0,kReverse,kOff,-86.15,1.73,1.64,0.02722168,-0.98394775,0.04724121,32.6,0.0,-2.0,0.0,0.0,
38.545469,true,true,true,0.125,12.8,0.0,0,0,0,0.125,12.8,0.0,0,0,0,0.125,12.8,0.0,0,0,0,0.125,12.85,0.0,0,0,0,0.125,12.8,0.0,0,0,0,0.0,12.8,0.0,0,0,0,0.125,12.9,0.0,0,0,0,kReverse,kOff,-86.16,1.73,1.63,0.027770996,-0.98132324,0.058410645,32.6,0.0,-1.0,0.0,0.0,
38.573121,true,true,true,0.125,12.8,0.0,0,0,0,0.125,12.8,0.0,0,0,0,0.125,12.8,0.0,0,0,0,0.125,12.85,0.0,0,0,0,0.125,12.8,0.0,0,0,0,0.0,12.8,0.0,0,0,0,0.125,12.9,0.0,0,0,0,kReverse,kOff,-86.16,1.73,1.64,0.030273438,-0.98431396,0.05291748,32.6,0.0,0.0,0.0,0.0,
38.597091,true,true,true,0.125,12.8,0.0,0,0,0,0.125,12.8,0.0,0,0,0,0.125,12.8,0.0,0,0,0,0.125,12.85,0.0,0,0,0,0.125,12.8,0.0,0,0,0,0.0,12.8,0.0,0,0,0,0.125,12.9,0.0,0,0,0,kReverse,kOff,-86.16,1.73,1.64,0.03112793,-0.9824219,0.061828613,32.6,0.0,1.0,0.0,0.0,
38.623318,true,true,true,0.125,12.8,0.0,0,0,0,0.125,12.8,0.0,0,0,0,0.125,12.8,0.0,0,0,0,0.125,12.85,0.0,0,0,0,0.125,12.8,0.0,0,0,0,0.0,12.8,0.0,0,0,0,0.125,12.9,0.0,0,0,0,kReverse,kOff,-86.16,1.73,1.63,0.029052734,-0.9846802,0.054870605,32.6,0.0,0.0,0.0,0.0,
38.651894,true,true,true,0.125,12.8,0.0,0,0,0,0.125,12.8,0.0,0,0,0,0.125,12.8,0.0,0,0,0,0.125,12.85,0.0,0,0,0,0.125,12.8,0.0,0,0,0,0.0,12.8,0.0,0,0,0,0.125,12.9,0.0,0,0,0,kReverse,kOff,-86.15,1.73,1.63,0.02923584,-0.982666,0.05810547,32.6,0.0,0.0,0.0,0.0,
38.678057,true,true,true,0.125,12.8,0.0,0,0,0,0.125,12.8,0.0,0,0,0,0.125,12.8,0.0,0,0,0,0.125,12.85,0.0,0,0,0,0.0,12.8,0.0,0,0,0,0.0,12.8,0.0,0,0,0,0.0,12.9,0.0,0,0,0,kReverse,kOff,-86.15,1.73,1.63,0.02923584,-0.9833374,0.06048584,32.6,0.0,0.0,0.0,0.0,
38.699088,true,true,true,0.125,12.8,0.0,0,0,0,0.125,12.8,0.0,0,0,0,0.125,12.8,0.0,0,0,0,0.125,12.85,0.0,0,0,0,0.0,12.8,0.0,0,0,0,0.0,12.8,0.0,0,0,0,0.0,12.9,0.0,0,0,0,kReverse,kOff,-86.15,1.73,1.63,0.027160645,-0.9803467,0.05883789,32.6,0.0,-2.0,0.0,0.0,
38.716905,true,true,true,0.125,12.8,0.0,0,0,0,0.125,12.8,0.0,0,0,0,0.125,12.8,0.0,0,0,0,0.125,12.85,0.0,0,0,0,0.0,12.8,0.0,0,0,0,0.0,12.8,0.0,0,0,0,0.0,12.9,0.0,0,0,0,kReverse,kOff,-86.15,1.73,1.63,0.030151367,-0.9824829,0.06072998,32.58,0.0,0.0,0.0,0.0,
38.746548000000004,true,true,true,0.125,12.8,0.0,0,0,0,0.125,12.8,0.0,0,0,0,0.125,12.8,0.0,0,0,0,0.125,12.85,0.0,0,0,0,0.0,12.8,0.0,0,0,0,0.0,12.8,0.0,0,0,0,0.125,12.9,0.0,0,0,0,kReverse,kOff,-86.16,1.72,1.63,0.02923584,-0.9838257,0.05834961,32.58,0.0,0.0,0.0,0.0,
38.770283000000006,true,true,true,0.125,12.8,0.0,0,0,0,0.125,12.8,0.0,0,0,0,0.125,12.8,0.0,0,0,0,0.125,12.85,0.0,0,0,0,0.125,12.8,0.0,0,0,0,0.0,12.8,0.0,0,0,0,0.125,12.9,0.0,0,0,0,kReverse,kOff,-86.16,1.72,1.63,0.032409668,-0.98876953,0.058654785,32.58,0.0,2.0,0.0,0.0,
38.794213000000006,true,true,true,0.125,12.8,0.0,0,0,0,0.125,12.8,0.0,0,0,0,0.125,12.8,0.0,0,0,0,0.125,12.85,0.0,0,0,0,0.125,12.8,0.0,0,0,0,0.0,12.8,0.0,0,0,0,0.125,12.9,0.0,0,0,0,kReverse,kOff,-86.15,1.72,1.63,0.01763916,-0.9714966,0.050109863,32.58,0.0,-11.0,0.0,0.0,
38.817317,true,true,true,0.125,12.8,0.0,0,0,0,0.125,12.8,0.0,0,0,0,0.125,12.8,0.0,0,0,0,0.125,12.85,0.0,0,0,0,0.0,12.8,0.0,0,0,0,0.0,12.8,0.0,0,0,0,0.125,12.9,0.0,0,0,0,kReverse,kOff,-86.16,1.71,1.62,0.041625977,-0.97680664,0.07946777,32.58,0.0,11.0,0.0,0.0,
38.84915,true,true,true,0.125,12.8,0.0,0,0,0,0.125,12.8,0.0,0,0,0,0.125,12.8,0.0,0,0,0,0.125,12.85,0.0,0,0,0,0.0,12.8,0.0,0,0,0,0.0,12.8,0.0,0,0,0,0.125,12.9,0.0,0,0,0,kReverse,kOff,-86.15,1.72,1.62,0.01776123,-0.9769287,0.03100586,32.58,0.0,-10.0,0.0,-1.2207031E-4,
38.876281999999996,true,true,true,0.125,12.8,0.0,0,0,0,0.125,12.8,0.0,0,0,0,0.125,12.8,0.0,0,0,0,0.125,12.85,0.0,0,0,0,0.0,12.8,0.0,0,0,0,0.0,12.8,0.0,0,0,0,0.125,12.9,0.0,0,0,0,kReverse,kOff,-86.16,1.72,1.62,0.03125,-0.9859619,0.059692383,32.58,0.0,1.0,0.0,-2.1362305E-4,
38.903023999999995,true,true,true,0.125,12.8,0.0,0,0,0,0.125,12.8,0.0,0,0,0,0.125,12.8,0.0,0,0,0,0.125,12.85,0.0,0,0,0,0.0,12.8,0.0,0,0,0,0.0,12.8,0.0,0,0,0,0.125,12.9,0.0,0,0,0,kReverse,kOff,-86.16,1.72,1.63,0.028198242,-0.98358154,0.05255127,32.58,0.0,-1.0,0.0,-2.1362305E-4,
38.930777,true,true,true,0.125,12.8,0.0,0,0,0,0.125,12.8,0.0,0,0,0,0.125,12.8,0.0,0,0,0,0.125,12.85,0.0,0,0,0,0.0,12.8,0.0,0,0,0,0.0,12.8,0.0,0,0,0,0.125,12.9,0.0,0,0,0,kReverse,kOff,-86.16,1.72,1.63,0.02166748,-0.9838867,0.05999756,32.58,0.0,-8.0,0.0,-2.1362305E-4,
38.955838,true,true,true,0.125,12.8,0.0,0,0,0,0.125,12.8,0.0,0,0,0,0.125,12.8,0.0,0,0,0,0.125,12.85,0.0,0,0,0,0.0,12.8,0.0,0,0,0,0.0,12.8,0.0,0,0,0,0.125,12.9,0.0,0,0,0,kReverse,kOff,-86.15,1.72,1.63,0.025634766,-0.98217773,0.06774902,32.58,0.0,-4.0,0.0,-2.1362305E-4,
38.978472000000004,true,true,true,0.125,12.8,0.0,0,0,0,0.125,12.8,0.0,0,0,0,0.125,12.8,0.0,0,0,0,0.125,12.85,0.0,0,0,0,0.0,12.8,0.0,0,0,0,0.0,12.8,0.0,0,0,0,0.125,12.9,0.0,0,0,0,kReverse,kOff,-86.15,1.72,1.62,0.034606934,-0.98358154,0.06317139,32.58,0.0,4.0,0.0,-2.1362305E-4,
39.001703,true,true,true,0.125,12.8,0.0,0,0,0,0.125,12.8,0.0,0,0,0,0.125,12.8,0.0,0,0,0,0.125,12.85,0.0,0,0,0,0.0,12.8,0.0,0,0,0,0.0,12.8,0.0,0,0,0,0.125,12.9,0.0,0,0,0,kReverse,kOff,-86.15,1.72,1.62,0.036315918,-0.98895264,0.0657959,32.58,0.0,6.0,0.0,-2.1362305E-4,
39.02864,true,true,true,0.125,12.8,0.0,0,0,0,0.125,12.8,0.0,0,0,0,0.125,12.8,0.0,0,0,0,0.125,12.85,0.0,0,0,0,0.0,12.8,0.0,0,0,0,0.0,12.8,0.0,0,0,0,0.125,12.9,0.0,0,0,0,kReverse,kOff,-86.15,1.72,1.63,0.028747559,-0.9840698,0.058288574,32.58,0.0,0.0,0.0,-2.1362305E-4,
39.0565,true,true,true,0.125,12.8,0.0,0,0,0,0.125,12.8,0.0,0,0,0,0.125,12.8,0.0,0,0,0,0.125,12.85,0.0,0,0,0,0.0,12.8,0.0,0,0,0,0.0,12.8,0.0,0,0,0,0.125,12.9,0.0,0,0,0,kReverse,kOff,-86.16,1.72,1.63,0.031311035,-0.9817505,0.058410645,32.58,0.0,1.0,0.0,-2.1362305E-4,
39.07806,true,true,true,0.125,12.8,0.0,0,0,0,0.125,12.8,0.0,0,0,0,0.125,12.8,0.0,0,0,0,0.125,12.85,0.0,0,0,0,0.0,12.8,0.0,0,0,0,0.0,12.8,0.0,0,0,0,0.125,12.9,0.0,0,0,0,kReverse,kOff,-86.16,1.72,1.63,0.026916504,-0.96765137,0.04876709,32.58,0.0,-2.0,0.0,-2.1362305E-4,
39.108000999999994,true,true,true,0.125,12.8,0.0,0,0,0,0.125,12.8,0.0,0,0,0,0.125,12.8,0.0,0,0,0,0.125,12.85,0.0,0,0,0,0.0,12.8,0.0,0,0,0,0.0,12.8,0.0,0,0,0,0.125,12.9,0.0,0,0,0,kReverse,kOff,-86.16,1.72,1.62,0.027282715,-0.97216797,0.037597656,32.58,0.0,-1.0,0.0,-2.2888184E-4,
39.131102,true,true,true,0.125,12.8,0.0,0,0,0,0.125,12.8,0.0,0,0,0,0.125,12.8,0.0,0,0,0,0.125,12.85,0.0,0,0,0,0.0,12.8,0.0,0,0,0,0.0,12.8,0.0,0,0,0,0.125,12.9,0.0,0,0,0,kReverse,kOff,-86.16,1.72,1.63,0.033813477,-0.9906006,0.05407715,32.58,0.0,4.0,0.0,-3.2043457E-4,
39.157065,true,true,true,0.125,12.8,0.0,0,0,0,0.125,12.8,0.0,0,0,0,0.125,12.8,0.0,0,0,0,0.125,12.85,0.0,0,0,0,0.0,12.8,0.0,0,0,0,0.0,12.8,0.0,0,0,0,0.125,12.9,0.0,0,0,0,kReverse,kOff,-86.16,1.73,1.63,0.030517578,-0.98583984,0.06323242,32.58,0.0,0.0,0.0,-3.2043457E-4,
39.25714,true,true,true,0.125,12.8,0.0,0,0,0,0.125,12.8,0.0,0,0,0,0.125,12.8,0.0,0,0,0,0.125,12.85,0.0,0,0,0,0.0,12.8,0.0,0,0,0,0.0,12.8,0.0,0,0,0,0.125,12.9,0.0,0,0,0,kReverse,kOff,-86.15,1.73,1.64,0.032165527,-0.97991943,0.06201172,32.62,0.0,2.0,0.0,-3.2043457E-4,
39.292163,true,true,true,0.125,12.8,0.0,0,0,0,0.125,12.8,0.0,0,0,0,0.125,12.8,0.0,0,0,0,0.125,12.85,0.0,0,0,0,0.0,12.8,0.0,0,0,0,0.0,12.8,0.0,0,0,0,0.125,12.9,0.0,0,0,0,kReverse,kOff,-86.15,1.73,1.63,0.030578613,-0.9746704,0.04901123,32.62,0.0,1.0,0.0,-3.2043457E-4,
39.315082000000004,true,true,true,0.125,12.8,0.0,0,0,0,0.125,12.8,0.0,0,0,0,0.125,12.8,0.0,0,0,0,0.125,12.85,0.0,0,0,0,0.0,12.8,0.0,0,0,0,0.0,12.8,0.0,0,0,0,0.125,12.9,0.0,0,0,0,kReverse,kOff,-86.15,1.73,1.63,0.030029297,-0.98065186,0.052978516,32.62,0.0,0.0,0.0,-3.2043457E-4,
39.336433,true,true,true,0.125,12.8,0.0,0,0,0,0.125,12.8,0.0,0,0,0,0.125,12.8,0.0,0,0,0,0.125,12.85,0.0,0,0,0,0.125,12.8,0.0,0,0,0,0.0,12.8,0.0,0,0,0,0.125,12.9,0.0,0,0,0,kReverse,kOff,-86.16,1.73,1.64,0.028625488,-0.98254395,0.06359863,32.62,0.0,-1.0,0.0,-3.2043457E-4,
39.35653,true,true,true,0.125,12.8,0.0,0,0,0,0.125,12.8,0.0,0,0,0,0.125,12.8,0.0,0,0,0,0.125,12.85,0.0,0,0,0,0.125,12.8,0.0,0,0,0,0.0,12.8,0.0,0,0,0,0.125,12.9,0.0,0,0,0,kReverse,kOff,-86.16,1.73,1.64,0.030944824,-0.9829712,0.04864502,32.62,0.0,1.0,0.0,-3.2043457E-4,
39.378184999999995,true,true,true,0.125,12.8,0.0,0,0,0,0.125,12.8,0.0,0,0,0,0.125,12.8,0.0,0,0,0,0.125,12.85,0.0,0,0,0,0.125,12.8,0.0,0,0,0,0.0,12.8,0.0,0,0,0,0.125,12.9,0.0,0,0,0,kReverse,kOff,-86.16,1.73,1.64,0.03326416,-0.98272705,0.06036377,32.62,0.0,3.0,0.0,-3.2043457E-4,
39.400718,true,true,true,0.125,12.8,0.0,0,0,0,0.125,12.8,0.0,0,0,0,0.125,12.8,0.0,0,0,0,0.125,12.85,0.0,0,0,0,0.125,12.8,0.0,0,0,0,0.0,12.8,0.0,0,0,0,0.125,12.9,0.0,0,0,0,kReverse,kOff,-86.16,1.73,1.64,0.029296875,-0.98291016,0.054504395,32.62,0.0,0.0,0.0,-3.2043457E-4,
39.430388,true,true,true,0.125,12.8,0.0,0,0,0,0.125,12.8,0.0,0,0,0,0.125,12.8,0.0,0,0,0,0.125,12.85,0.0,0,0,0,0.125,12.8,0.0,0,0,0,0.0,12.8,0.0,0,0,0,0.125,12.9,0.0,0,0,0,kReverse,kOff,-86.16,1.73,1.64,0.029785156,-0.9836426,0.061157227,32.62,0.0,0.0,0.0,-3.2043457E-4,
39.450459,true,true,true,0.125,12.8,0.0,0,0,0,0.125,12.8,0.0,0,0,0,0.125,12.8,0.0,0,0,0,0.125,12.85,0.0,0,0,0,0.125,12.8,0.0,0,0,0,0.0,12.8,0.0,0,0,0,0.125,12.9,0.0,0,0,0,kReverse,kOff,-86.16,1.73,1.64,0.030700684,-0.98443604,0.06060791,32.62,0.0,0.0,0.0,-3.2043457E-4,
39.476337,true,true,true,0.125,12.8,0.0,0,0,0,0.125,12.8,0.0,0,0,0,0.125,12.8,0.0,0,0,0,0.125,12.85,0.0,0,0,0,0.125,12.8,0.0,0,0,0,0.0,12.8,0.0,0,0,0,0.125,12.9,0.0,0,0,0,kReverse,kOff,-86.16,1.73,1.64,0.029968262,-0.9807129,0.059936523,32.62,0.0,0.0,0.0,-3.2043457E-4,
39.499736,true,true,true,0.125,12.8,0.0,0,0,0,0.125,12.8,0.0,0,0,0,0.125,12.8,0.0,0,0,0,0.125,12.85,0.0,0,0,0,0.125,12.8,0.0,0,0,0,0.0,12.8,0.0,0,0,0,0.125,12.9,0.0,0,0,0,kReverse,kOff,-86.16,1.73,1.64,0.019897461,-0.98236084,0.04473877,32.62,0.0,-9.0,0.0,-3.2043457E-4,
