timer,lineLeft,lineCenter,lineRight,LeftFrontCurrent,LeftFrontVoltage,LeftFrontValue,LeftFrontPosition,LeftFrontVelocity,LeftFrontFaults,LeftRearCurrent,LeftRearVoltage,LeftRearValue,LeftRearPosition,LeftRearVelocity,LeftRearFaults,RightFrontCurrent,RightFrontVoltage,RightFrontValue,RightFrontPosition,RightFrontVelocity,RightFrontFaults,RightRearCurrent,RightRearVoltage,RightRearValue,RightRearPosition,RightRearVelocity,RightRearFaults,LiftCurrent,LiftVoltage,LiftValue,LiftPosition,LiftVelocity,LiftFaults,WristCurrent,WristVoltage,WristValue,WristPosition,WristVelocity,WristFaults,RollerCurrent,RollerVoltage,RollerValue,RollerPosition,RollerVelocity,RollerFaults,PushersState,PivotsState,navx_Pitch,navx_Roll,navx_Yaw,navx_XAcc,navx_YAcc,navx_ZAcc,navx_Temp,navx_Bar,navx_Alt,navx_XDis,navx_YDis,
902.185573,true,true,true,0.125,12.65,0.0,-32731,0,0,0.125,12.65,0.0,0,0,0,0.125,12.65,0.0,3663,0,0,0.125,12.65,0.0,0,0,0,0.125,12.65,0.0,4,0,0,0.0,12.65,0.0,0,0,0,0.125,12.700000000000001,0.0,0,0,0,kOff,kOff,-87.19,2.08,2.65,0.041992188,-0.98168945,0.028137207,35.16,0.0,2.0,-8.17865,11.76416,
902.217034,true,true,true,0.125,12.65,0.0,-32731,0,0,0.125,12.65,0.0,0,0,0,0.125,12.65,0.0,3663,0,0,0.125,12.65,0.0,0,0,0,0.125,12.65,0.0,4,0,0,0.0,12.65,0.0,0,0,0,0.125,12.700000000000001,0.0,0,0,0,kReverse,kOff,-87.19,2.08,2.65,0.036621094,-0.98461914,0.030944824,35.16,0.0,0.0,-8.17865,11.76416,
902.24153,true,true,true,0.125,12.65,0.0,-32731,0,0,0.125,12.65,0.0,0,0,0,0.375,12.6,0.0,3663,0,0,0.25,12.65,0.0,0,0,0,0.125,12.65,0.0,4,0,0,0.0,12.65,0.0,0,0,0,0.125,12.700000000000001,0.0,0,0,0,kReverse,kOff,-87.18,2.08,2.66,0.034851074,-0.9837036,0.034240723,35.16,0.0,0.0,-8.17865,11.76416,
902.263959,true,true,true,0.125,12.65,0.0,-32731,0,0,0.125,12.65,0.0,0,0,0,0.375,12.6,0.0,3663,0,0,0.25,12.65,0.0,0,0,0,0.125,12.65,0.0,4,0,0,0.0,12.65,0.0,0,0,0,0.125,12.700000000000001,0.0,0,0,0,kReverse,kOff,-87.19,2.08,2.65,0.030883789,-0.9833374,0.030944824,35.16,0.0,-5.0,-8.17865,11.76416,
902.2877950000001,true,true,true,0.125,12.65,0.0,-32731,0,0,0.125,12.65,0.0,0,0,0,0.375,12.6,0.0,3663,0,0,0.25,12.65,0.0,0,0,0,0.125,12.65,0.0,4,0,0,0.0,12.65,0.0,0,0,0,0.125,12.700000000000001,0.0,0,0,0,kReverse,kOff,-87.19,2.07,2.65,0.030273438,-0.98339844,0.035461426,35.16,0.0,-4.0,-8.17865,11.76416,
902.310375,true,true,true,0.125,12.65,0.0,-32731,0,0,0.125,12.65,0.0,0,0,0,0.375,12.6,0.0,3663,0,0,0.25,12.65,0.0,0,0,0,0.125,12.65,0.0,4,0,0,0.0,12.65,0.0,0,0,0,0.125,12.700000000000001,0.0,0,0,0,kReverse,kOff,-87.19,2.06,2.64,0.032409668,-0.9814453,0.03149414,35.16,0.0,-3.0,-8.17865,11.76416,
902.3320259999999,true,true,true,0.125,12.65,0.0,-32731,0,0,0.125,12.65,0.0,0,0,0,0.375,12.6,0.0,3663,0,0,0.25,12.65,0.0,0,0,0,0.125,12.65,0.0,4,0,0,0.0,12.65,0.0,0,0,0,0.125,12.700000000000001,0.0,0,0,0,kReverse,kOff,-87.19,2.06,2.64,0.035339355,-0.9836426,0.034729004,35.16,0.0,0.0,-8.17865,11.76416,
902.354973,true,true,true,0.125,12.65,0.0,-32731,0,0,0.125,12.65,0.0,0,0,0,0.375,12.6,0.0,3663,0,0,0.25,12.65,0.0,0,0,0,0.125,12.65,0.0,4,0,0,0.0,12.65,0.0,0,0,0,0.125,12.700000000000001,0.0,0,0,0,kReverse,kOff,-87.19,2.06,2.64,0.036376953,-0.9852905,0.025146484,35.16,0.0,-1.0,-8.17865,11.76416,
902.377857,true,true,true,0.125,12.65,0.0,-32731,0,0,0.125,12.65,0.0,0,0,0,0.375,12.6,0.0,3663,0,0,0.25,12.65,0.0,0,0,0,0.125,12.65,0.0,4,0,0,0.0,12.65,0.0,0,0,0,0.125,12.700000000000001,0.0,0,0,0,kReverse,kOff,-87.19,2.07,2.65,0.036071777,-0.9813843,0.03314209,35.16,0.0,0.0,-8.17865,11.76416,
902.399154,true,true,true,0.125,12.65,0.0,-32731,0,0,0.125,12.65,0.0,0,0,0,0.375,12.6,0.0,3663,0,0,0.25,12.65,0.0,0,0,0,0.125,12.65,0.0,4,0,0,0.0,12.65,0.0,0,0,0,0.125,12.700000000000001,0.0,0,0,0,kReverse,kOff,-87.19,2.08,2.65,0.03753662,-0.980896,0.024047852,35.16,0.0,0.0,-8.17865,11.76416,
902.419583,true,true,true,0.125,12.65,0.0,-32731,0,0,0.125,12.65,0.0,0,0,0,0.375,12.6,0.0,3663,0,0,0.25,12.65,0.0,0,0,0,0.125,12.6,0.0,4,0,0,0.0,12.65,0.0,0,0,0,0.125,12.700000000000001,0.0,0,0,0,kReverse,kOff,-87.19,2.08,2.65,0.041015625,-0.9803467,0.032592773,35.16,0.0,5.0,-8.17865,11.76416,
902.4399070000001,true,true,true,0.125,12.65,0.0,-32731,0,0,0.125,12.65,0.0,0,0,0,0.375,12.6,0.0,3663,0,0,0.25,12.65,0.0,0,0,0,0.125,12.6,0.0,4,0,0,0.0,12.6,0.0,0,0,0,0.125,12.700000000000001,0.0,0,0,0,kReverse,kOff,-87.19,2.08,2.65,0.034729004,-0.98272705,0.029907227,35.16,0.0,-1.0,-8.17865,11.76416,
902.462971,true,true,true,0.125,12.65,0.0,-32731,0,0,0.125,12.65,0.0,0,0,0,0.375,12.6,0.0,3663,0,0,0.25,12.65,0.0,0,0,0,0.125,12.6,0.0,4,0,0,0.0,12.6,0.0,0,0,0,0.125,12.700000000000001,0.0,0,0,0,kReverse,kOff,-87.19,2.07,2.64,0.03173828,-0.9859619,0.029785156,35.16,0.0,-4.0,-8.17865,11.76416,
902.483355,true,true,true,0.125,12.65,0.0,-32731,0,0,0.125,12.65,0.0,0,0,0,0.375,12.6,0.0,3663,0,0,0.25,12.65,0.0,0,0,0,0.125,12.6,0.0,4,0,0,0.0,12.6,0.0,0,0,0,0.125,12.700000000000001,0.0,0,0,0,kReverse,kOff,-87.19,2.07,2.64,0.032836914,-0.9835205,0.02935791,35.16,0.0,-3.0,-8.17865,11.76416,
902.502922,true,true,true,0.125,12.65,0.0,-32731,0,0,0.125,12.65,0.0,0,0,0,0.375,12.6,0.0,3663,0,0,0.25,12.65,0.0,0,0,0,0.125,12.6,0.0,4,0,0,0.0,12.6,0.0,0,0,0,0.125,12.700000000000001,0.0,0,0,0,kReverse,kOff,-87.19,2.07,2.64,0.029724121,-0.9805908,0.03363037,35.16,0.0,-5.0,-8.17865,11.76416,
902.523793,true,true,true,0.125,12.65,0.0,-32731,0,0,0.125,12.65,0.0,0,0,0,0.375,12.6,0.0,3663,0,0,0.25,12.65,0.0,0,0,0,0.125,12.6,0.0,4,0,0,0.0,12.6,0.0,0,0,0,0.125,12.700000000000001,0.0,0,0,0,kReverse,kOff,-87.19,2.06,2.64,0.030639648,-0.9840698,0.037597656,35.16,0.0,-3.0,-8.17865,11.76416,
902.543333,true,true,true,0.125,12.65,0.0,-32731,0,0,0.125,12.65,0.0,0,0,0,0.375,12.6,0.0,3663,0,0,0.25,12.65,0.0,0,0,0,0.125,12.6,0.0,4,0,0,0.0,12.6,0.0,0,0,0,0.125,12.700000000000001,0.0,0,0,0,kReverse,kOff,-87.2,2.06,2.64,0.03314209,-0.98516846,0.034423828,35.16,0.0,-1.0,-8.17865,11.76416,
902.564824,true,true,true,0.125,12.65,0.0,-32731,0,0,0.125,12.65,0.0,0,0,0,0.375,12.6,0.0,3663,0,0,0.25,12.6,0.0,0,0,0,0.125,12.65,0.0,4,0,0,0.0,12.6,0.0,0,0,0,0.125,12.700000000000001,0.0,0,0,0,kReverse,kOff,-87.19,2.06,2.64,0.034423828,-0.9868164,0.023376465,35.16,0.0,-3.0,-8.17865,11.76416,
902.5898980000001,true,true,true,0.125,12.65,0.0,-32731,0,0,0.125,12.65,0.0,0,0,0,0.375,12.6,0.0,3663,0,0,0.25,12.6,0.0,0,0,0,0.125,12.65,0.0,4,0,0,0.0,12.6,0.0,0,0,0,0.125,12.700000000000001,0.0,0,0,0,kReverse,kOff,-87.19,2.07,2.65,0.037841797,-0.98565674,0.028137207,35.13,0.0,0.0,-8.17865,11.76416,
902.613385,true,true,true,0.125,12.65,0.0,-32731,0,0,0.125,12.65,0.0,0,0,0,0.375,12.6,0.0,3663,0,0,0.25,12.6,0.0,0,0,0,0.125,12.65,0.0,4,0,0,0.0,12.6,0.0,0,0,0,0.125,12.700000000000001,0.0,0,0,0,kReverse,kOff,-87.19,2.08,2.65,0.03656006,-0.98461914,0.031188965,35.13,0.0,0.0,-8.17865,11.76416,
902.634083,true,true,true,0.125,12.65,0.0,-32731,0,0,0.125,12.65,0.0,0,0,0,0.375,12.6,0.0,3663,0,0,0.25,12.6,0.0,0,0,0,0.125,12.65,0.0,4,0,0,0.0,12.6,0.0,0,0,0,0.125,12.700000000000001,0.0,0,0,0,kReverse,kOff,-87.19,2.08,2.65,0.03289795,-0.97161865,0.028503418,35.13,0.0,-3.0,-8.17865,11.76416,
902.65629,true,true,true,0.125,12.65,0.0,-32731,0,0,0.125,12.65,0.0,0,0,0,0.375,12.6,0.0,3663,0,0,0.25,12.6,0.0,0,0,0,0.125,12.65,0.0,4,0,0,0.0,12.6,0.0,0,0,0,0.125,12.700000000000001,0.0,0,0,0,kReverse,kOff,-87.18,2.09,2.66,0.044921875,-0.98461914,0.03186035,35.13,0.0,8.0,-8.17865,11.76416,
902.675409,true,true,true,0.125,12.65,0.0,-32731,0,0,0.125,12.65,0.0,0,0,0,0.375,12.6,0.0,3663,0,0,0.25,12.6,0.0,0,0,0,0.125,12.65,0.0,4,0,0,0.0,12.6,0.0,0,0,0,0.125,12.700000000000001,0.0,0,0,0,kReverse,kOff,-87.18,2.09,2.66,0.03552246,-0.9805298,0.03186035,35.13,0.0,0.0,-8.17865,11.76416,
902.698667,true,true,true,0.125,12.65,0.0,-32731,0,0,0.125,12.65,0.0,0,0,0,0.375,12.6,0.0,3663,0,0,0.25,12.6,0.0,0,0,0,0.125,12.65,0.0,4,0,0,0.0,12.6,0.0,0,0,0,0.125,12.700000000000001,0.0,0,0,0,kReverse,kOff,-87.18,2.09,2.66,0.03277588,-0.98651123,0.035827637,35.13,0.0,-2.0,-8.17865,11.76416,
902.721044,true,true,true,0.125,12.65,0.0,-32731,0,0,0.125,12.65,0.0,0,0,0,0.375,12.6,0.0,3663,0,0,0.25,12.6,0.0,0,0,0,0.125,12.65,0.0,4,0,0,0.0,12.6,0.0,0,0,0,0.125,12.700000000000001,0.0,0,0,0,kReverse,kOff,-87.18,2.09,2.66,0.039001465,-0.9810791,0.037597656,35.13,0.0,4.0,-8.17865,11.76416,
902.741899,true,true,true,0.125,12.65,0.0,-32731,0,0,0.125,12.65,0.0,0,0,0,0.375,12.6,0.0,3663,0,0,0.25,12.65,0.0,0,0,0,0.125,12.65,0.0,4,0,0,0.0,12.6,0.0,0,0,0,0.125,12.700000000000001,0.0,0,0,0,kReverse,kOff,-87.18,2.08,2.66,0.031921387,-0.9796753,0.034484863,35.13,0.0,-3.0,-8.17865,11.76416,
902.763051,true,true,true,0.125,12.65,0.0,-32731,0,0,0.125,12.65,0.0,0,0,0,0.375,12.6,0.0,3663,0,0,0.25,12.65,0.0,0,0,0,0.125,12.65,0.0,4,0,0,0.0,12.6,0.0,0,0,0,0.125,12.700000000000001,0.0,0,0,0,kReverse,kOff,-87.18,2.08,2.66,0.04260254,-0.97991943,0.027832031,35.13,0.0,5.0,-8.17865,11.76416,
902.783568,true,true,true,0.125,12.65,0.0,-32731,0,0,0.125,12.65,0.0,0,0,0,0.375,12.6,0.0,3663,0,0,0.25,12.65,0.0,0,0,0,0.125,12.65,0.0,4,0,0,0.0,12.6,0.0,0,0,0,0.125,12.700000000000001,0.0,0,0,0,kReverse,kOff,-87.17,2.1,2.67,0.031555176,-0.98724365,0.030334473,35.13,0.0,-5.0,-8.17865,11.76416,
902.8055280000001,true,true,true,0.125,12.65,0.0,-32731,0,0,0.125,12.65,0.0,0,0,0,0.375,12.6,0.0,3663,0,0,0.25,12.65,0.0,0,0,0,0.125,12.65,0.0,4,0,0,0.0,12.6,0.0,0,0,0,0.125,12.700000000000001,0.0,0,0,0,kReverse,kOff,-87.18,2.09,2.66,0.034973145,-0.9846802,0.024353027,35.13,0.0,-3.0,-8.17865,11.76416,
902.825466,true,true,true,0.125,12.65,0.0,-32731,0,0,0.125,12.65,0.0,0,0,0,0.375,12.6,0.0,3663,0,0,0.25,12.65,0.0,0,0,0,0.125,12.65,0.0,4,0,0,0.0,12.6,0.0,0,0,0,0.125,12.700000000000001,0.0,0,0,0,kReverse,kOff,-87.18,2.09,2.67,0.032592773,-0.9807129,0.043701172,35.13,0.0,0.0,-8.17865,11.76416,
902.8476979999999,true,true,true,0.125,12.65,0.0,-32731,0,0,0.125,12.65,0.0,0,0,0,0.375,12.6,0.0,3663,0,0,0.25,12.65,0.0,0,0,0,0.125,12.65,0.0,4,0,0,0.0,12.6,0.0,0,0,0,0.125,12.700000000000001,0.0,0,0,0,kReverse,kOff,-87.17,2.1,2.67,0.03729248,-0.98480225,0.03894043,35.13,0.0,3.0,-8.17865,11.76416,
902.871086,true,true,true,0.125,12.65,0.0,-32731,0,0,0.125,12.65,0.0,0,0,0,0.375,12.6,0.0,3663,0,0,0.25,12.65,0.0,0,0,0,0.125,12.65,0.0,4,0,0,0.0,12.6,0.0,0,0,0,0.125,12.700000000000001,0.0,0,0,0,kReverse,kOff,-87.17,2.09,2.67,0.038330078,-0.98413086,0.031982422,35.13,0.0,1.0,-8.17865,11.76416,
902.891936,true,true,true,0.125,12.65,0.0,-32731,0,0,0.125,12.65,0.0,0,0,0,0.375,12.6,0.0,3663,0,0,0.25,12.6,0.0,0,0,0,0.125,12.65,0.0,4,0,0,0.0,12.6,0.0,0,0,0,0.125,12.700000000000001,0.0,0,0,0,kReverse,kOff,-87.18,2.09,2.66,0.038391113,-0.9803467,0.030212402,35.13,0.0,1.0,-8.17865,11.76416,
902.91889,true,true,true,0.125,12.65,0.0,-32731,0,0,0.125,12.65,0.0,0,0,0,0.375,12.6,0.0,3663,0,0,0.25,12.6,0.0,0,0,0,0.125,12.65,0.0,4,0,0,0.0,12.6,0.0,0,0,0,0.125,12.700000000000001,0.0,0,0,0,kReverse,kOff,-87.17,2.1,2.67,0.03527832,-0.98046875,0.039001465,35.13,0.0,1.0,-8.17865,11.76416,
902.940166,true,true,true,0.125,12.65,0.0,-32731,0,0,0.125,12.65,0.0,0,0,0,0.375,12.6,0.0,3663,0,0,0.25,12.6,0.0,0,0,0,0.125,12.65,0.0,4,0,0,0.0,12.6,0.0,0,0,0,0.125,12.700000000000001,0.0,0,0,0,kReverse,kOff,-87.17,2.09,2.67,0.029846191,-0.98638916,0.03466797,35.13,0.0,-5.0,-8.17865,11.76416,
902.963145,true,true,true,0.125,12.65,0.0,-32731,0,0,0.125,12.65,0.0,0,0,0,0.375,12.6,0.0,3663,0,0,0.25,12.6,0.0,0,0,0,0.125,12.65,0.0,4,0,0,0.0,12.6,0.0,0,0,0,0.125,12.700000000000001,0.0,0,0,0,kReverse,kOff,-87.18,2.08,2.66,0.035461426,-0.98638916,0.025268555,35.13,0.0,-2.0,-8.17865,11.76416,
902.985965,true,true,true,0.125,12.65,0.0,-32731,0,0,0.125,12.65,0.0,0,0,0,0.375,12.6,0.0,3663,0,0,0.25,12.6,0.0,0,0,0,0.125,12.65,0.0,4,0,0,0.0,12.6,0.0,0,0,0,0.125,12.700000000000001,0.0,0,0,0,kReverse,kOff,-87.18,2.08,2.66,0.033691406,-0.9841919,0.034973145,35.13,0.0,-1.0,-8.17865,11.76416,
903.0062730000001,true,true,true,0.125,12.65,0.0,-32731,0,0,0.125,12.65,0.0,0,0,0,0.375,12.6,0.0,3663,0,0,0.25,12.6,0.0,0,0,0,0.125,12.65,0.0,4,0,0,0.0,12.6,0.0,0,0,0,0.125,12.700000000000001,0.0,0,0,0,kReverse,kOff,-87.18,2.08,2.66,0.03967285,-0.9859619,0.050109863,35.13,0.0,8.0,-8.17865,11.76416,
903.0291169999999,true,true,true,0.125,12.65,0.0,-32731,0,0,0.125,12.65,0.0,0,0,0,0.375,12.6,0.0,3663,0,0,0.25,12.6,0.0,0,0,0,0.125,12.65,0.0,4,0,0,0.0,12.6,0.0,0,0,0,0.125,12.700000000000001,0.0,0,0,0,kReverse,kOff,-87.17,2.09,2.67,0.037353516,-0.98480225,0.0289917,35.13,0.0,0.0,-8.17865,11.76416,
903.05472,true,true,true,0.125,12.65,0.0,-32731,0,0,0.125,12.65,0.0,0,0,0,0.375,12.6,0.0,3663,0,0,0.25,12.6,0.0,0,0,0,0.125,12.65,0.0,4,0,0,0.0,12.6,0.0,0,0,0,0.125,12.700000000000001,0.0,0,0,0,kReverse,kOff,-87.17,2.1,2.68,0.036621094,-0.98150635,0.028930664,35.13,0.0,0.0,-8.17865,11.76416,
903.077071,true,true,true,0.125,12.65,0.0,-32731,0,0,0.125,12.65,0.0,0,0,0,0.375,12.6,0.0,3663,0,0,0.25,12.6,0.0,0,0,0,0.125,12.65,0.0,4,0,0,0.0,12.6,0.0,0,0,0,0.125,12.700000000000001,0.0,0,0,0,kReverse,kOff,-87.17,2.1,2.67,0.039489746,-0.98535156,0.034851074,35.13,0.0,3.0,-8.17865,11.76416,
903.097936,true,true,true,0.125,12.65,0.0,-32731,0,0,0.125,12.65,0.0,0,0,0,0.375,12.6,0.0,3663,0,0,0.25,12.6,0.0,0,0,0,0.125,12.65,0.0,4,0,0,0.0,12.6,0.0,0,0,0,0.125,12.700000000000001,0.0,0,0,0,kReverse,kOff,-87.17,2.1,2.67,0.03552246,-0.98376465,0.031921387,35.13,0.0,0.0,-8.17865,11.76416,
903.1168299999999,true,true,true,0.125,12.65,0.0,-32731,0,0,0.125,12.65,0.0,0,0,0,0.375,12.6,0.0,3663,0,0,0.25,12.6,0.0,0,0,0,0.125,12.65,0.0,4,0,0,0.0,12.6,0.0,0,0,0,0.125,12.700000000000001,0.0,0,0,0,kReverse,kOff,-87.17,2.09,2.67,0.034851074,-0.9859009,0.028564453,35.15,0.0,-2.0,-8.17865,11.76416,
903.13919,true,true,true,0.125,12.65,0.0,-32731,0,0,0.125,12.65,0.0,0,0,0,0.375,12.6,0.0,3663,0,0,0.25,12.6,0.0,0,0,0,0.125,12.65,0.0,4,0,0,0.0,12.6,0.0,0,0,0,0.125,12.700000000000001,0.0,0,0,0,kReverse,kOff,-87.17,2.09,2.67,0.036499023,-0.9846802,0.024597168,35.15,0.0,-1.0,-8.17865,11.76416,
903.160241,true,true,true,0.125,12.65,0.0,-32731,0,0,0.125,12.65,0.0,0,0,0,0.375,12.6,0.0,3663,0,0,0.25,12.6,0.0,0,0,0,0.125,12.65,0.0,4,0,0,0.0,12.6,0.0,0,0,0,0.125,12.700000000000001,0.0,0,0,0,kReverse,kOff,-87.18,2.09,2.67,0.03527832,-0.9855957,0.037719727,35.15,0.0,0.0,-8.17865,11.76416,
903.183363,true,true,true,0.125,12.65,0.0,-32731,0,0,0.125,12.65,0.0,0,0,0,0.375,12.6,0.0,3663,0,0,0.25,12.6,0.0,0,0,0,0.125,12.65,0.0,4,0,0,0.0,12.6,0.0,0,0,0,0.125,12.700000000000001,0.0,0,0,0,kReverse,kOff,-87.18,2.09,2.67,0.036132812,-0.98309326,0.031799316,35.15,0.0,0.0,-8.17865,11.76416,
903.203958,true,true,true,0.125,12.65,0.0,-32731,0,0,0.125,12.6,0.0,0,0,0,0.375,12.6,0.0,3663,0,0,0.25,12.6,0.0,0,0,0,0.125,12.6,0.0,4,0,0,0.0,12.6,0.0,0,0,0,0.125,12.700000000000001,0.0,0,0,0,kReverse,kOff,-87.16,2.1,2.68,0.03869629,-0.98413086,0.036743164,35.15,0.0,3.0,-8.17865,11.76416,
903.2279299999999,true,true,true,0.125,12.65,0.0,-32731,0,0,0.125,12.6,0.0,0,0,0,0.375,12.6,0.0,3663,0,0,0.25,12.6,0.0,0,0,0,0.125,12.6,0.0,4,0,0,0.0,12.6,0.0,0,0,0,0.125,12.700000000000001,0.0,0,0,0,kReverse,kOff,-87.16,2.1,2.68,0.03540039,-0.9852905,0.03491211,35.15,0.0,0.0,-8.17865,11.76416,
903.246925,true,true,true,0.125,12.65,0.0,-32731,0,0,0.125,12.6,0.0,0,0,0,0.375,12.6,0.0,3663,0,0,0.25,12.6,0.0,0,0,0,0.125,12.6,0.0,4,0,0,0.0,12.6,0.0,0,0,0,0.125,12.700000000000001,0.0,0,0,0,kReverse,kOff,-87.16,2.1,2.68,0.038269043,-0.98669434,0.032714844,35.15,0.0,1.0,-8.17865,11.76416,
903.266108,true,true,true,0.125,12.65,0.0,-32731,0,0,0.125,12.6,0.0,0,0,0,0.375,12.6,0.0,3663,0,0,0.25,12.6,0.0,0,0,0,0.125,12.6,0.0,4,0,0,0.0,12.6,0.0,0,0,0,0.125,12.700000000000001,0.0,0,0,0,kReverse,kOff,-87.16,2.1,2.68,0.038757324,-0.9807739,0.03326416,35.15,0.0,2.0,-8.17865,11.76416,
903.290495,true,true,true,0.125,12.65,0.0,-32731,0,0,0.125,12.6,0.0,0,0,0,0.375,12.6,0.0,3663,0,0,0.25,12.6,0.0,0,0,0,0.125,12.6,0.0,4,0,0,0.0,12.6,0.0,0,0,0,0.125,12.700000000000001,0.0,0,0,0,kReverse,kOff,-87.16,2.1,2.68,0.03753662,-0.98205566,0.030090332,35.15,0.0,0.0,-8.17865,11.76416,
903.3209499999999,true,true,true,0.125,12.65,0.0,-32731,0,0,0.125,12.6,0.0,0,0,0,0.375,12.6,0.0,3663,0,0,0.25,12.6,0.0,0,0,0,0.125,12.6,0.0,4,0,0,0.0,12.6,0.0,0,0,0,0.125,12.700000000000001,0.0,0,0,0,kReverse,kOff,-87.17,2.1,2.67,0.034729004,-0.9857788,0.036743164,35.15,0.0,0.0,-8.17865,11.76416,
903.346765,true,true,true,0.125,12.65,0.0,-32731,0,0,0.125,12.6,0.0,0,0,0,0.375,12.6,0.0,3663,0,0,0.25,12.6,0.0,0,0,0,0.125,12.6,0.0,4,0,0,0.0,12.6,0.0,0,0,0,0.125,12.700000000000001,0.0,0,0,0,kReverse,kOff,-87.17,2.1,2.68,0.036193848,-0.9835205,0.029418945,35.15,0.0,0.0,-8.17865,11.76416,
903.370676,true,true,true,0.125,12.65,0.0,-32731,0,0,0.125,12.65,0.0,0,0,0,0.375,12.6,0.0,3663,0,0,0.25,12.65,0.0,0,0,0,0.125,12.65,0.0,4,0,0,0.0,12.6,0.0,0,0,0,0.125,12.700000000000001,0.0,0,0,0,kReverse,kOff,-87.16,2.1,2.68,0.033325195,-0.9822998,0.033691406,35.15,0.0,-2.0,-8.17865,11.76416,
903.3966350000001,true,true,true,0.125,12.65,0.0,-32731,0,0,0.125,12.65,0.0,0,0,0,0.375,12.6,0.0,3663,0,0,0.25,12.65,0.0,0,0,0,0.125,12.65,0.0,4,0,0,0.0,12.6,0.0,0,0,0,0.125,12.700000000000001,0.0,0,0,0,kReverse,kOff,-87.16,2.1,2.68,0.03729248,-0.98223877,0.036010742,35.15,0.0,2.0,-8.17865,11.76416,
903.418021,true,true,true,0.125,12.65,0.0,-32731,0,0,0.125,12.65,0.0,0,0,0,0.375,12.6,0.0,3663,0,0,0.25,12.65,0.0,0,0,0,0.125,12.65,0.0,4,0,0,0.0,12.65,0.0,0,0,0,0.125,12.700000000000001,0.0,0,0,0,kReverse,kOff,-87.16,2.1,2.68,0.03466797,-0.98327637,0.030029297,35.15,0.0,-2.0,-8.17865,11.76416,
903.439945,true,true,true,0.125,12.65,0.0,-32731,0,0,0.125,12.65,0.0,0,0,0,0.375,12.6,0.0,3663,0,0,0.25,12.65,0.0,0,0,0,0.125,12.65,0.0,4,0,0,0.0,12.65,0.0,0,0,0,0.125,12.700000000000001,0.0,0,0,0,kReverse,kOff,-87.17,2.1,2.68,0.037231445,-0.98095703,0.03137207,35.15,0.0,0.0,-8.17865,11.76416,
903.46,true,true,true,0.125,12.65,0.0,-32731,0,0,0.125,12.65,0.0,0,0,0,0.375,12.6,0.0,3663,0,0,0.25,12.65,0.0,0,0,0,0.125,12.65,0.0,4,0,0,0.0,12.65,0.0,0,0,0,0.125,12.700000000000001,0.0,0,0,0,kReverse,kOff,-87.17,2.09,2.67,0.036987305,-0.9827881,0.025634766,35.15,0.0,-1.0,-8.17865,11.76416,
903.483964,true,true,true,0.125,12.65,0.0,-32731,0,0,0.125,12.65,0.0,0,0,0,0.375,12.6,0.0,3663,0,0,0.25,12.65,0.0,0,0,0,0.125,12.65,0.0,4,0,0,0.0,12.65,0.0,0,0,0,0.125,12.700000000000001,0.0,0,0,0,kReverse,kOff,-87.17,2.1,2.67,0.03717041,-0.9827881,0.034973145,35.15,0.0,1.0,-8.17865,11.76416,
903.504053,true,true,true,0.125,12.65,0.0,-32731,0,0,0.125,12.65,0.0,0,0,0,0.375,12.6,0.0,3663,0,0,0.25,12.65,0.0,0,0,0,0.125,12.65,0.0,4,0,0,0.0,12.65,0.0,0,0,0,0.125,12.700000000000001,0.0,0,0,0,kReverse,kOff,-87.17,2.1,2.67,0.039123535,-0.98217773,0.026062012,35.15,0.0,1.0,-8.17865,11.76416,
903.525904,true,true,true,0.125,12.65,0.0,-32731,0,0,0.125,12.6,0.0,0,0,0,0.375,12.6,0.0,3663,0,0,0.25,12.65,0.0,0,0,0,0.125,12.65,0.0,4,0,0,0.0,12.65,0.0,0,0,0,0.125,12.700000000000001,0.0,0,0,0,kReverse,kOff,-87.17,2.1,2.67,0.03857422,-0.9812622,0.033447266,35.15,0.0,2.0,-8.17865,11.76416,
903.5508930000001,true,true,true,0.125,12.6,0.0,-32731,0,0,0.125,12.6,0.0,0,0,0,0.375,12.6,0.0,3663,0,0,0.25,12.65,0.0,0,0,0,0.125,12.65,0.0,4,0,0,0.0,12.65,0.0,0,0,0,0.125,12.700000000000001,0.0,0,0,0,kReverse,kOff,-87.17,2.11,2.68,0.03765869,-0.986084,0.031799316,35.15,0.0,1.0,-8.17865,11.76416,
903.574026,true,true,true,0.125,12.6,0.0,-32731,0,0,0.125,12.6,0.0,0,0,0,0.375,12.6,0.0,3663,0,0,0.25,12.65,0.0,0,0,0,0.125,12.65,0.0,4,0,0,0.0,12.6,0.0,0,0,0,0.125,12.700000000000001,0.0,0,0,0,kReverse,kOff,-87.17,2.1,2.67,0.034423828,-0.9846802,0.036254883,35.15,0.0,0.0,-8.17865,11.76416,
903.596382,true,true,true,0.125,12.6,0.0,-32731,0,0,0.125,12.6,0.0,0,0,0,0.375,12.6,0.0,3663,0,0,0.25,12.65,0.0,0,0,0,0.125,12.65,0.0,4,0,0,0.0,12.6,0.0,0,0,0,0.125,12.700000000000001,0.0,0,0,0,kReverse,kOff,-87.17,2.09,2.67,0.033081055,-0.98620605,0.027038574,35.15,0.0,-4.0,-8.17865,11.76416,
903.6183179999999,true,true,true,0.125,12.6,0.0,-32731,0,0,0.125,12.6,0.0,0,0,0,0.375,12.6,0.0,3663,0,0,0.25,12.65,0.0,0,0,0,0.125,12.65,0.0,4,0,0,0.0,12.6,0.0,0,0,0,0.125,12.700000000000001,0.0,0,0,0,kReverse,kOff,-87.18,2.09,2.66,0.036376953,-0.9807129,0.035583496,35.15,0.0,1.0,-8.17865,11.76416,
903.6403660000001,true,true,true,0.125,12.6,0.0,-32731,0,0,0.125,12.6,0.0,0,0,0,0.375,12.6,0.0,3663,0,0,0.25,12.65,0.0,0,0,0,0.125,12.65,0.0,4,0,0,0.0,12.6,0.0,0,0,0,0.125,12.700000000000001,0.0,0,0,0,kReverse,kOff,-87.18,2.09,2.66,0.034179688,-0.98547363,0.0368042,35.15,0.0,0.0,-8.17865,11.76416,
903.662464,true,true,true,0.125,12.6,0.0,-32731,0,0,0.125,12.6,0.0,0,0,0,0.375,12.6,0.0,3663,0,0,0.25,12.65,0.0,0,0,0,0.125,12.65,0.0,4,0,0,0.0,12.6,0.0,0,0,0,0.125,12.700000000000001,0.0,0,0,0,kReverse,kOff,-87.17,2.1,2.67,0.036987305,-0.9817505,0.035217285,35.15,0.0,1.0,-8.17865,11.76416,
903.6858319999999,true,true,true,0.125,12.6,0.0,-32731,0,0,0.125,12.65,0.0,0,0,0,0.375,12.6,0.0,3663,0,0,0.25,12.65,0.0,0,0,0,0.125,12.6,0.0,4,0,0,0.0,12.6,0.0,0,0,0,0.125,12.700000000000001,0.0,0,0,0,kReverse,kOff,-87.18,2.09,2.66,0.035949707,-0.982666,0.026000977,35.15,0.0,-1.0,-8.17865,11.76416,
903.710619,true,true,true,0.125,12.6,0.0,-32731,0,0,0.125,12.65,0.0,0,0,0,0.375,12.6,0.0,3663,0,0,0.25,12.65,0.0,0,0,0,0.125,12.6,0.0,4,0,0,0.0,12.6,0.0,0,0,0,0.125,12.700000000000001,0.0,0,0,0,kReverse,kOff,-87.18,2.09,2.66,0.034118652,-0.9828491,0.036254883,35.15,0.0,0.0,-8.17865,11.76416,
903.732243,true,true,true,0.125,12.6,0.0,-32731,0,0,0.125,12.65,0.0,0,0,0,0.375,12.6,0.0,3663,0,0,0.25,12.65,0.0,0,0,0,0.125,12.6,0.0,4,0,0,0.0,12.6,0.0,0,0,0,0.125,12.700000000000001,0.0,0,0,0,kReverse,kOff,-87.18,2.09,2.66,0.037719727,-0.9838867,0.03137207,35.15,0.0,1.0,-8.17865,11.76416,
903.756417,true,true,true,0.125,12.6,0.0,-32731,0,0,0.125,12.65,0.0,0,0,0,0.375,12.6,0.0,3663,0,0,0.25,12.65,0.0,0,0,0,0.125,12.6,0.0,4,0,0,0.0,12.6,0.0,0,0,0,0.125,12.700000000000001,0.0,0,0,0,kReverse,kOff,-87.17,2.09,2.67,0.0368042,-0.98150635,0.03869629,35.15,0.0,2.0,-8.17865,11.76416,
903.7781359999999,true,true,true,0.125,12.6,0.0,-32731,0,0,0.125,12.65,0.0,0,0,0,0.375,12.6,0.0,3663,0,0,0.25,12.65,0.0,0,0,0,0.125,12.6,0.0,4,0,0,0.0,12.6,0.0,0,0,0,0.125,12.700000000000001,0.0,0,0,0,kReverse,kOff,-87.17,2.09,2.67,0.034484863,-0.9805298,0.033447266,35.15,0.0,-1.0,-8.17865,11.76416,
903.799359,true,true,true,0.125,12.6,0.0,-32731,0,0,0.125,12.65,0.0,0,0,0,0.375,12.6,0.0,3663,0,0,0.25,12.65,0.0,0,0,0,0.125,12.6,0.0,4,0,0,0.0,12.6,0.0,0,0,0,0.125,12.700000000000001,0.0,0,0,0,kReverse,kOff,-87.18,2.09,2.66,0.03540039,-0.9783325,0.032958984,35.15,0.0,0.0,-8.17865,11.76416,
903.82001,true,true,true,0.125,12.6,0.0,-32731,0,0,0.125,12.65,0.0,0,0,0,0.375,12.6,0.0,3663,0,0,0.25,12.65,0.0,0,0,0,0.125,12.6,0.0,4,0,0,0.0,12.6,0.0,0,0,0,0.125,12.700000000000001,0.0,0,0,0,kReverse,kOff,-87.18,2.09,2.66,0.03778076,-0.9837036,0.03540039,35.15,0.0,2.0,-8.17865,11.76416,
903.84326,true,true,true,0.125,12.6,0.0,-32731,0,0,0.125,12.6,0.0,0,0,0,0.375,12.6,0.0,3663,0,0,0.25,12.6,0.0,0,0,0,0.125,12.65,0.0,4,0,0,0.0,12.6,0.0,0,0,0,0.125,12.700000000000001,0.0,0,0,0,kReverse,kOff,-87.18,2.09,2.66,0.03778076,-0.9837036,0.03540039,35.15,0.0,2.0,-8.17865,11.76416,
903.872233,true,true,true,0.125,12.65,0.0,-32731,0,0,0.125,12.6,0.0,0,0,0,0.375,12.6,0.0,3663,0,0,0.25,12.6,0.0,0,0,0,0.125,12.65,0.0,4,0,0,0.0,12.6,0.0,0,0,0,0.125,12.65,0.0,0,0,0,kReverse,kOff,-87.17,2.09,2.67,0.03668213,-0.9830322,0.023742676,35.15,0.0,-1.0,-8.17865,11.76416,
903.8941920000001,true,true,true,0.125,12.65,0.0,-32731,0,0,0.125,12.6,0.0,0,0,0,0.375,12.6,0.0,3663,0,0,0.25,12.6,0.0,0,0,0,0.125,12.65,0.0,4,0,0,0.0,12.6,0.0,0,0,0,0.125,12.65,0.0,0,0,0,kReverse,kOff,-87.18,2.09,2.66,0.036010742,-0.9833374,0.030395508,35.15,0.0,0.0,-8.17865,11.76416,
903.9142879999999,true,true,true,0.125,12.65,0.0,-32731,0,0,0.125,12.6,0.0,0,0,0,0.375,12.6,0.0,3663,0,0,0.25,12.6,0.0,0,0,0,0.125,12.65,0.0,4,0,0,0.0,12.6,0.0,0,0,0,0.125,12.65,0.0,0,0,0,kReverse,kOff,-87.18,2.09,2.66,0.036010742,-0.9833374,0.030395508,35.15,0.0,0.0,-8.17865,11.76416,
903.933878,true,true,true,0.125,12.65,0.0,-32731,0,0,0.125,12.6,0.0,0,0,0,0.375,12.6,0.0,3663,0,0,0.25,12.6,0.0,0,0,0,0.125,12.65,0.0,4,0,0,0.0,12.6,0.0,0,0,0,0.125,12.65,0.0,0,0,0,kReverse,kOff,-87.17,2.1,2.67,0.039794922,-0.9841919,0.031982422,35.15,0.0,3.0,-8.17865,11.76416,
903.953926,true,true,true,0.125,12.65,0.0,-32731,0,0,0.125,12.6,0.0,0,0,0,0.375,12.6,0.0,3663,0,0,0.25,12.6,0.0,0,0,0,0.125,12.65,0.0,4,0,0,0.0,12.6,0.0,0,0,0,0.125,12.65,0.0,0,0,0,kReverse,kOff,-87.17,2.1,2.68,0.035095215,-0.9816284,0.036376953,35.15,0.0,0.0,-8.17865,11.76416,
903.9780059999999,true,true,true,0.125,12.65,0.0,-32731,0,0,0.125,12.6,0.0,0,0,0,0.375,12.6,0.0,3663,0,0,0.25,12.6,0.0,0,0,0,0.125,12.65,0.0,4,0,0,0.0,12.6,0.0,0,0,0,0.125,12.65,0.0,0,0,0,kReverse,kOff,-87.17,2.09,2.67,0.03375244,-0.98535156,0.030334473,35.15,0.0,-2.0,-8.17865,11.76416,
903.998589,true,true,true,0.125,12.65,0.0,-32731,0,0,0.125,12.6,0.0,0,0,0,0.375,12.6,0.0,3663,0,0,0.25,12.6,0.0,0,0,0,0.125,12.65,0.0,4,0,0,0.0,12.6,0.0,0,0,0,0.125,12.65,0.0,0,0,0,kReverse,kOff,-87.17,2.1,2.67,0.030944824,-0.9847412,0.026855469,35.15,0.0,-6.0,-8.17865,11.76416,
904.020995,true,true,true,0.125,12.6,0.0,-32731,0,0,0.125,12.6,0.0,0,0,0,0.375,12.6,0.0,3663,0,0,0.25,12.65,0.0,0,0,0,0.125,12.6,0.0,4,0,0,0.0,12.6,0.0,0,0,0,0.125,12.700000000000001,0.0,0,0,0,kReverse,kOff,-87.17,2.09,2.67,0.03704834,-0.9819336,0.039489746,35.15,0.0,3.0,-8.17865,11.76416,
904.040455,true,true,true,0.125,12.6,0.0,-32731,0,0,0.125,12.6,0.0,0,0,0,0.375,12.6,0.0,3663,0,0,0.25,12.65,0.0,0,0,0,0.125,12.6,0.0,4,0,0,0.0,12.6,0.0,0,0,0,0.125,12.700000000000001,0.0,0,0,0,kReverse,kOff,-87.17,2.09,2.67,0.038024902,-0.9862671,0.03643799,35.15,0.0,2.0,-8.17865,11.76416,
904.0622169999999,true,true,true,0.125,12.6,0.0,-32731,0,0,0.125,12.6,0.0,0,0,0,0.375,12.6,0.0,3663,0,0,0.25,12.65,0.0,0,0,0,0.125,12.6,0.0,4,0,0,0.0,12.6,0.0,0,0,0,0.125,12.700000000000001,0.0,0,0,0,kReverse,kOff,-87.17,2.09,2.67,0.033691406,-0.9817505,0.028320312,35.15,0.0,-3.0,-8.17865,11.76416,
904.083441,true,true,true,0.125,12.6,0.0,-32731,0,0,0.125,12.6,0.0,0,0,0,0.375,12.6,0.0,3663,0,0,0.25,12.65,0.0,0,0,0,0.125,12.6,0.0,4,0,0,0.0,12.6,0.0,0,0,0,0.125,12.700000000000001,0.0,0,0,0,kReverse,kOff,-87.17,2.09,2.67,0.03692627,-0.9835205,0.023925781,35.15,0.0,-1.0,-8.17865,11.76416,
904.1041210000001,true,true,true,0.125,12.6,0.0,-32731,0,0,0.125,12.6,0.0,0,0,0,0.375,12.6,0.0,3663,0,0,0.25,12.65,0.0,0,0,0,0.125,12.6,0.0,4,0,0,0.0,12.6,0.0,0,0,0,0.125,12.700000000000001,0.0,0,0,0,kReverse,kOff,-87.17,2.09,2.67,0.033691406,-0.98327637,0.028686523,35.15,0.0,-3.0,-8.17865,11.76416,
904.126585,true,true,true,0.125,12.6,0.0,-32731,0,0,0.125,12.6,0.0,0,0,0,0.375,12.6,0.0,3663,0,0,0.25,12.65,0.0,0,0,0,0.125,12.6,0.0,4,0,0,0.0,12.6,0.0,0,0,0,0.125,12.700000000000001,0.0,0,0,0,kReverse,kOff,-87.17,2.09,2.67,0.036254883,-0.9833374,0.032836914,35.14,0.0,0.0,-8.17865,11.76416,
904.150406,true,true,true,0.125,12.6,0.0,-32731,0,0,0.125,12.6,0.0,0,0,0,0.375,12.6,0.0,3663,0,0,0.25,12.65,0.0,0,0,0,0.0,12.6,0.0,4,0,0,0.0,12.6,0.0,0,0,0,0.125,12.700000000000001,0.0,0,0,0,kReverse,kOff,-87.17,2.09,2.67,0.03643799,-0.9833374,0.035583496,35.14,0.0,1.0,-8.17865,11.76416,
904.1720819999999,true,true,true,0.125,12.6,0.0,-32731,0,0,0.125,12.6,0.0,0,0,0,0.375,12.6,0.0,3663,0,0,0.25,12.65,0.0,0,0,0,0.0,12.6,0.0,4,0,0,0.0,12.6,0.0,0,0,0,0.125,12.700000000000001,0.0,0,0,0,kReverse,kOff,-87.17,2.09,2.67,0.037902832,-0.98236084,0.025390625,35.14,0.0,0.0,-8.17865,11.76416,
904.195559,true,true,true,0.125,12.6,0.0,-32731,0,0,0.125,12.6,0.0,0,0,0,0.375,12.6,0.0,3663,0,0,0.25,12.65,0.0,0,0,0,0.0,12.6,0.0,4,0,0,0.0,12.6,0.0,0,0,0,0.125,12.700000000000001,0.0,0,0,0,kReverse,kOff,-87.17,2.09,2.67,0.038085938,-0.9821167,0.0345459,35.14,0.0,2.0,-8.17865,11.76416,
904.220307,true,true,true,0.125,12.6,0.0,-32731,0,0,0.125,12.6,0.0,0,0,0,0.375,12.6,0.0,3663,0,0,0.25,12.65,0.0,0,0,0,0.0,12.6,0.0,4,0,0,0.0,12.6,0.0,0,0,0,0.125,12.700000000000001,0.0,0,0,0,kReverse,kOff,-87.17,2.09,2.67,0.040222168,-0.98657227,0.030578613,35.14,0.0,3.0,-8.17865,11.76416,
904.242108,true,true,true,0.125,12.6,0.0,-32731,0,0,0.125,12.6,0.0,0,0,0,0.375,12.6,0.0,3663,0,0,0.25,12.65,0.0,0,0,0,0.125,12.6,0.0,4,0,0,0.0,12.6,0.0,0,0,0,0.125,12.700000000000001,0.0,0,0,0,kReverse,kOff,-87.17,2.09,2.67,0.03466797,-0.9827881,0.03149414,35.14,0.0,-1.0,-8.17865,11.76416,
904.2626409999999,true,true,true,0.125,12.6,0.0,-32731,0,0,0.125,12.6,0.0,0,0,0,0.375,12.6,0.0,3663,0,0,0.25,12.65,0.0,0,0,0,0.125,12.6,0.0,4,0,0,0.0,12.6,0.0,0,0,0,0.125,12.700000000000001,0.0,0,0,0,kReverse,kOff,-87.17,2.09,2.67,0.037597656,-0.97821045,0.03112793,35.14,0.0,1.0,-8.17865,11.76416,
904.285841,true,true,true,0.125,12.6,0.0,-32731,0,0,0.125,12.6,0.0,0,0,0,0.375,12.6,0.0,3663,0,0,0.25,12.65,0.0,0,0,0,0.125,12.6,0.0,4,0,0,0.0,12.6,0.0,0,0,0,0.125,12.700000000000001,0.0,0,0,0,kReverse,kOff,-87.17,2.09,2.67,0.037475586,-0.98187256,0.028259277,35.14,0.0,0.0,-8.17865,11.76416,
904.3044699999999,true,true,true,0.125,12.6,0.0,-32731,0,0,0.125,12.6,0.0,0,0,0,0.375,12.6,0.0,3663,0,0,0.25,12.65,0.0,0,0,0,0.125,12.6,0.0,4,0,0,0.0,12.6,0.0,0,0,0,0.125,12.700000000000001,0.0,0,0,0,kReverse,kOff,-87.17,2.09,2.67,0.03375244,-0.98394775,0.022216797,35.14,0.0,-5.0,-8.17865,11.76416,
904.328639,true,true,true,0.125,12.6,0.0,-32731,0,0,0.125,12.6,0.0,0,0,0,0.375,12.6,0.0,3663,0,0,0.25,12.65,0.0,0,0,0,0.125,12.6,0.0,4,0,0,0.0,12.6,0.0,0,0,0,0.125,12.700000000000001,0.0,0,0,0,kReverse,kOff,-87.17,2.09,2.67,0.040893555,-0.98309326,0.029418945,35.14,0.0,3.0,-8.17865,11.76416,
904.3531770000001,true,true,true,0.125,12.6,0.0,-32731,0,0,0.125,12.6,0.0,0,0,0,0.375,12.6,0.0,3663,0,0,0.25,12.65,0.0,0,0,0,0.125,12.6,0.0,4,0,0,0.0,12.6,0.0,0,0,0,0.125,12.700000000000001,0.0,0,0,0,kReverse,kOff,-87.17,2.1,2.68,0.035217285,-0.9840088,0.028442383,35.14,0.0,-2.0,-8.17865,11.76416,
904.371865,true,true,true,0.125,12.6,0.0,-32731,0,0,0.125,12.6,0.0,0,0,0,0.375,12.6,0.0,3663,0,0,0.25,12.65,0.0,0,0,0,0.125,12.6,0.0,4,0,0,0.0,12.6,0.0,0,0,0,0.125,12.700000000000001,0.0,0,0,0,kReverse,kOff,-87.17,2.09,2.67,0.040283203,-0.9827881,0.026062012,35.14,0.0,2.0,-8.17865,11.76416,
904.393312,true,true,true,0.125,12.6,0.0,-32731,0,0,0.125,12.6,0.0,0,0,0,0.375,12.6,0.0,3663,0,0,0.25,12.65,0.0,0,0,0,0.125,12.6,0.0,4,0,0,0.0,12.6,0.0,0,0,0,0.125,12.700000000000001,0.0,0,0,0,kReverse,kOff,-87.18,2.09,2.67,0.03277588,-0.98291016,0.035583496,35.14,0.0,-2.0,-8.17865,11.76416,
904.4164370000001,true,true,true,0.125,12.6,0.0,-32731,0,0,0.125,12.6,0.0,0,0,0,0.375,12.6,0.0,3663,0,0,0.25,12.65,0.0,0,0,0,0.125,12.6,0.0,4,0,0,0.0,12.6,0.0,0,0,0,0.125,12.700000000000001,0.0,0,0,0,kReverse,kOff,-87.18,2.08,2.66,0.034606934,-0.9846802,0.037231445,35.14,0.0,0.0,-8.17865,11.76416,
904.439285,true,true,true,0.125,12.6,0.0,-32731,0,0,0.125,12.6,0.0,0,0,0,0.375,12.6,0.0,3663,0,0,0.25,12.65,0.0,0,0,0,0.125,12.6,0.0,4,0,0,0.0,12.6,0.0,0,0,0,0.125,12.700000000000001,0.0,0,0,0,kReverse,kOff,-87.18,2.08,2.66,0.04071045,-0.9850464,0.037841797,35.14,0.0,6.0,-8.17865,11.76416,
904.460514,true,true,true,0.125,12.6,0.0,-32731,0,0,0.125,12.6,0.0,0,0,0,0.375,12.6,0.0,3663,0,0,0.25,12.65,0.0,0,0,0,0.125,12.6,0.0,4,0,0,0.0,12.6,0.0,0,0,0,0.125,12.700000000000001,0.0,0,0,0,kReverse,kOff,-87.19,2.07,2.65,0.03289795,-0.9884033,0.026245117,35.14,0.0,-4.0,-8.17865,11.76416,
904.482355,true,true,true,0.125,12.6,0.0,-32731,0,0,0.125,12.6,0.0,0,0,0,0.375,12.6,0.0,3663,0,0,0.25,12.6,0.0,0,0,0,0.125,12.6,0.0,4,0,0,0.0,12.6,0.0,0,0,0,0.125,12.700000000000001,0.0,0,0,0,kReverse,kOff,-87.19,2.07,2.65,0.03765869,-0.9834595,0.034057617,35.14,0.0,2.0,-8.17865,11.76416,
904.503261,true,true,true,0.125,12.65,0.0,-32731,0,0,0.125,12.6,0.0,0,0,0,0.375,12.6,0.0,3663,0,0,0.25,12.6,0.0,0,0,0,0.125,12.65,0.0,4,0,0,0.0,12.6,0.0,0,0,0,0.125,12.700000000000001,0.0,0,0,0,kReverse,kOff,-87.19,2.06,2.64,0.026855469,-0.98516846,0.032226562,35.14,0.0,-8.0,-8.17865,11.76416,
904.5242290000001,true,true,true,0.125,12.65,0.0,-32731,0,0,0.125,12.6,0.0,0,0,0,0.375,12.6,0.0,3663,0,0,0.25,12.6,0.0,0,0,0,0.125,12.65,0.0,4,0,0,0.0,12.6,0.0,0,0,0,0.125,12.700000000000001,0.0,0,0,0,kReverse,kOff,-87.18,2.07,2.65,0.040283203,-0.9819336,0.03656006,35.14,0.0,5.0,-8.17865,11.76416,
904.5438730000001,true,true,true,0.125,12.65,0.0,-32731,0,0,0.125,12.6,0.0,0,0,0,0.375,12.6,0.0,3663,0,0,0.25,12.6,0.0,0,0,0,0.125,12.65,0.0,4,0,0,0.0,12.6,0.0,0,0,0,0.125,12.700000000000001,0.0,0,0,0,kReverse,kOff,-87.18,2.07,2.65,0.033081055,-0.9874878,0.022399902,35.14,0.0,-5.0,-8.17865,11.76416,
904.5631940000001,true,true,true,0.125,12.65,0.0,-32731,0,0,0.125,12.6,0.0,0,0,0,0.375,12.6,0.0,3663,0,0,0.25,12.6,0.0,0,0,0,0.125,12.65,0.0,4,0,0,0.0,12.6,0.0,0,0,0,0.125,12.700000000000001,0.0,0,0,0,kReverse,kOff,-87.19,2.07,2.65,0.038391113,-0.9816284,0.036376953,35.14,0.0,3.0,-8.17865,11.76416,
904.587067,true,true,true,0.125,12.65,0.0,-32731,0,0,0.125,12.6,0.0,0,0,0,0.375,12.6,0.0,3663,0,0,0.25,12.6,0.0,0,0,0,0.125,12.65,0.0,4,0,0,0.0,12.6,0.0,0,0,0,0.125,12.700000000000001,0.0,0,0,0,kReverse,kOff,-87.19,2.07,2.65,0.034729004,-0.9798584,0.037475586,35.14,0.0,0.0,-8.17865,11.76416,
904.610132,true,true,true,0.125,12.65,0.0,-32731,0,0,0.125,12.6,0.0,0,0,0,0.375,12.6,0.0,3663,0,0,0.25,12.6,0.0,0,0,0,0.125,12.65,0.0,4,0,0,0.0,12.6,0.0,0,0,0,0.125,12.700000000000001,0.0,0,0,0,kReverse,kOff,-87.18,2.08,2.66,0.039367676,-0.9842529,0.033447266,35.14,0.0,3.0,-8.17865,11.76416,
904.6323120000001,true,true,true,0.125,12.65,0.0,-32731,0,0,0.125,12.6,0.0,0,0,0,0.375,12.6,0.0,3663,0,0,0.25,12.6,0.0,0,0,0,0.125,12.65,0.0,4,0,0,0.0,12.6,0.0,0,0,0,0.125,12.700000000000001,0.0,0,0,0,kReverse,kOff,-87.18,2.08,2.66,0.029174805,-0.98223877,0.022766113,35.18,0.0,-9.0,-8.17865,11.76416,
904.6641,true,true,true,0.125,12.6,0.0,-32731,0,0,0.125,12.6,0.0,0,0,0,0.375,12.6,0.0,3663,0,0,0.25,12.6,0.0,0,0,0,0.125,12.6,0.0,4,0,0,0.0,12.6,0.0,0,0,0,0.125,12.700000000000001,0.0,0,0,0,kReverse,kOff,-87.18,2.08,2.66,0.032836914,-0.9821167,0.036071777,35.18,0.0,-1.0,-8.17865,11.76416,
904.693769,true,true,true,0.125,12.6,0.0,-32731,0,0,0.125,12.6,0.0,0,0,0,0.375,12.6,0.0,3663,0,0,0.25,12.6,0.0,0,0,0,0.125,12.6,0.0,4,0,0,0.0,12.6,0.0,0,0,0,0.125,12.700000000000001,0.0,0,0,0,kReverse,kOff,-87.18,2.08,2.66,0.034301758,-0.9871216,0.036132812,35.18,0.0,0.0,-8.17865,11.76416,
904.717096,true,true,true,0.125,12.6,0.0,-32731,0,0,0.125,12.6,0.0,0,0,0,0.375,12.6,0.0,3663,0,0,0.25,12.6,0.0,0,0,0,0.125,12.6,0.0,4,0,0,0.0,12.6,0.0,0,0,0,0.125,12.700000000000001,0.0,0,0,0,kReverse,kOff,-87.18,2.08,2.66,0.03302002,-0.9873657,0.025878906,35.18,0.0,-4.0,-8.17865,11.76416,
904.738804,true,true,true,0.125,12.6,0.0,-32731,0,0,0.125,12.6,0.0,0,0,0,0.375,12.6,0.0,3663,0,0,0.25,12.6,0.0,0,0,0,0.125,12.6,0.0,4,0,0,0.0,12.6,0.0,0,0,0,0.125,12.700000000000001,0.0,0,0,0,kReverse,kOff,-87.18,2.07,2.65,0.031982422,-0.9840088,0.023620605,35.18,0.0,-6.0,-8.17865,11.76416,
904.7598099999999,true,true,true,0.125,12.6,0.0,-32731,0,0,0.125,12.6,0.0,0,0,0,0.375,12.6,0.0,3663,0,0,0.25,12.6,0.0,0,0,0,0.125,12.6,0.0,4,0,0,0.0,12.6,0.0,0,0,0,0.125,12.700000000000001,0.0,0,0,0,kReverse,kOff,-87.19,2.07,2.65,0.03338623,-0.9848633,0.025817871,35.18,0.0,-4.0,-8.17865,11.76416,
904.7810159999999,true,true,true,0.125,12.6,0.0,-32731,0,0,0.125,12.6,0.0,0,0,0,0.375,12.6,0.0,3663,0,0,0.25,12.6,0.0,0,0,0,0.125,12.6,0.0,4,0,0,0.0,12.6,0.0,0,0,0,0.125,12.700000000000001,0.0,0,0,0,kReverse,kOff,-87.19,2.07,2.65,0.038391113,-0.982605,0.04321289,35.18,0.0,5.0,-8.17865,11.76416,
904.801745,true,true,true,0.125,12.6,0.0,-32731,0,0,0.125,12.6,0.0,0,0,0,0.375,12.6,0.0,3663,0,0,0.25,12.6,0.0,0,0,0,0.125,12.6,0.0,4,0,0,0.0,12.6,0.0,0,0,0,0.125,12.700000000000001,0.0,0,0,0,kReverse,kOff,-87.17,2.08,2.66,0.0368042,-0.9848633,0.028442383,35.18,0.0,0.0,-8.17865,11.76416,
904.822818,true,true,true,0.125,12.65,0.0,-32731,0,0,0.125,12.6,0.0,0,0,0,0.375,12.6,0.0,3663,0,0,0.25,12.6,0.0,0,0,0,0.125,12.6,0.0,4,0,0,0.0,12.6,0.0,0,0,0,0.125,12.65,0.0,0,0,0,kReverse,kOff,-87.18,2.08,2.66,0.04071045,-0.9819336,0.030700684,35.18,0.0,4.0,-8.17865,11.76416,
904.842338,true,true,true,0.125,12.65,0.0,-32731,0,0,0.125,12.6,0.0,0,0,0,0.375,12.6,0.0,3663,0,0,0.25,12.6,0.0,0,0,0,0.125,12.6,0.0,4,0,0,0.0,12.6,0.0,0,0,0,0.125,12.65,0.0,0,0,0,kReverse,kOff,-87.18,2.08,2.66,0.0357666,-0.98358154,0.024169922,35.18,0.0,-2.0,-8.17865,11.76416,
904.863545,true,true,true,0.125,12.65,0.0,-32731,0,0,0.125,12.6,0.0,0,0,0,0.375,12.6,0.0,3663,0,0,0.25,12.6,0.0,0,0,0,0.125,12.6,0.0,4,0,0,0.0,12.6,0.0,0,0,0,0.125,12.65,0.0,0,0,0,kReverse,kOff,-87.18,2.08,2.66,0.03894043,-0.9777832,0.038757324,35.18,0.0,5.0,-8.17865,11.76416,
904.886307,true,true,true,0.125,12.65,0.0,-32731,0,0,0.125,12.6,0.0,0,0,0,0.375,12.6,0.0,3663,0,0,0.25,12.6,0.0,0,0,0,0.125,12.6,0.0,4,0,0,0.0,12.6,0.0,0,0,0,0.125,12.65,0.0,0,0,0,kReverse,kOff,-87.18,2.08,2.66,0.036193848,-0.98187256,0.0345459,35.18,0.0,0.0,-8.17865,11.76416,
904.911154,true,true,true,0.125,12.65,0.0,-32731,0,0,0.125,12.6,0.0,0,0,0,0.375,12.6,0.0,3663,0,0,0.25,12.6,0.0,0,0,0,0.125,12.6,0.0,4,0,0,0.0,12.6,0.0,0,0,0,0.125,12.65,0.0,0,0,0,kReverse,kOff,-87.18,2.08,2.66,0.037475586,-0.9818115,0.03845215,35.18,0.0,3.0,-8.17865,11.76416,
904.93529,true,true,true,0.125,12.65,0.0,-32731,0,0,0.125,12.6,0.0,0,0,0,0.375,12.6,0.0,3663,0,0,0.25,12.6,0.0,0,0,0,0.125,12.6,0.0,4,0,0,0.0,12.6,0.0,0,0,0,0.125,12.65,0.0,0,0,0,kReverse,kOff,-87.17,2.08,2.66,0.033447266,-0.98583984,0.032958984,35.18,0.0,-2.0,-8.17865,11.76416,
904.956949,true,true,true,0.125,12.65,0.0,-32731,0,0,0.125,12.6,0.0,0,0,0,0.375,12.6,0.0,3663,0,0,0.25,12.6,0.0,0,0,0,0.125,12.6,0.0,4,0,0,0.0,12.6,0.0,0,0,0,0.125,12.65,0.0,0,0,0,kReverse,kOff,-87.17,2.08,2.66,0.0357666,-0.98291016,0.03552246,35.18,0.0,0.0,-8.17865,11.76416,
904.981086,true,true,true,0.125,12.6,0.0,-32731,0,0,0.125,12.6,0.0,0,0,0,0.375,12.6,0.0,3663,0,0,0.25,12.6,0.0,0,0,0,0.125,12.65,0.0,4,0,0,0.0,12.6,0.0,0,0,0,0.125,12.65,0.0,0,0,0,kReverse,kOff,-87.17,2.09,2.67,0.038635254,-0.9805298,0.035217285,35.18,0.0,3.0,-8.17865,11.76416,
905.0016929999999,true,true,true,0.125,12.6,0.0,-32731,0,0,0.125,12.6,0.0,0,0,0,0.375,12.6,0.0,3663,0,0,0.25,12.6,0.0,0,0,0,0.125,12.65,0.0,4,0,0,0.0,12.6,0.0,0,0,0,0.125,12.65,0.0,0,0,0,kReverse,kOff,-87.17,2.09,2.67,0.038635254,-0.9805298,0.035217285,35.18,0.0,3.0,-8.17865,11.76416,
905.0216210000001,true,true,true,0.125,12.6,0.0,-32731,0,0,0.125,12.6,0.0,0,0,0,0.375,12.6,0.0,3663,0,0,0.25,12.6,0.0,0,0,0,0.125,12.65,0.0,4,0,0,0.0,12.6,0.0,0,0,0,0.125,12.65,0.0,0,0,0,kReverse,kOff,-87.17,2.09,2.67,0.038330078,-0.9841919,0.030639648,35.18,0.0,1.0,-8.17865,11.76416,
905.041338,true,true,true,0.125,12.6,0.0,-32731,0,0,0.125,12.6,0.0,0,0,0,0.375,12.6,0.0,3663,0,0,0.25,12.6,0.0,0,0,0,0.125,12.65,0.0,4,0,0,0.0,12.6,0.0,0,0,0,0.125,12.65,0.0,0,0,0,kReverse,kOff,-87.17,2.09,2.67,0.038635254,-0.9803467,0.031677246,35.18,0.0,2.0,-8.17865,11.76416,
905.063556,true,true,true,0.125,12.6,0.0,-32731,0,0,0.125,12.6,0.0,0,0,0,0.375,12.6,0.0,3663,0,0,0.25,12.6,0.0,0,0,0,0.125,12.65,0.0,4,0,0,0.0,12.6,0.0,0,0,0,0.125,12.65,0.0,0,0,0,kReverse,kOff,-87.17,2.09,2.67,0.030700684,-0.98535156,0.038330078,35.18,0.0,-3.0,-8.17865,11.76416,
905.087577,true,true,true,0.125,12.6,0.0,-32731,0,0,0.125,12.6,0.0,0,0,0,0.375,12.6,0.0,3663,0,0,0.25,12.6,0.0,0,0,0,0.125,12.65,0.0,4,0,0,0.0,12.6,0.0,0,0,0,0.125,12.65,0.0,0,0,0,kReverse,kOff,-87.18,2.08,2.66,0.034179688,-0.9842529,0.028503418,35.18,0.0,-2.0,-8.17865,11.76416,
905.107807,true,true,true,0.125,12.6,0.0,-32731,0,0,0.125,12.6,0.0,0,0,0,0.375,12.6,0.0,3663,0,0,0.25,12.6,0.0,0,0,0,0.125,12.65,0.0,4,0,0,0.0,12.6,0.0,0,0,0,0.125,12.65,0.0,0,0,0,kReverse,kOff,-87.18,2.08,2.66,0.030334473,-0.9846802,0.030639648,35.18,0.0,-5.0,-8.17865,11.76416,
905.131959,true,true,true,0.125,12.6,0.0,-32731,0,0,0.125,12.6,0.0,0,0,0,0.375,12.6,0.0,3663,0,0,0.25,12.6,0.0,0,0,0,0.125,12.6,0.0,4,0,0,0.0,12.6,0.0,0,0,0,0.125,12.65,0.0,0,0,0,kReverse,kOff,-87.18,2.08,2.66,0.03265381,-0.980896,0.032836914,35.18,0.0,-2.0,-8.17865,11.76416,
905.1579409999999,true,true,true,0.125,12.6,0.0,-32731,0,0,0.125,12.6,0.0,0,0,0,0.375,12.6,0.0,3663,0,0,0.25,12.6,0.0,0,0,0,0.125,12.6,0.0,4,0,0,0.0,12.6,0.0,0,0,0,0.125,12.700000000000001,0.0,0,0,0,kReverse,kOff,-87.18,2.08,2.66,0.038024902,-0.982605,0.034240723,35.15,0.0,2.0,-8.17865,11.76416,
905.181113,true,true,true,0.125,12.6,0.0,-32731,0,0,0.125,12.6,0.0,0,0,0,0.375,12.6,0.0,3663,0,0,0.25,12.6,0.0,0,0,0,0.125,12.6,0.0,4,0,0,0.0,12.6,0.0,0,0,0,0.125,12.700000000000001,0.0,0,0,0,kReverse,kOff,-87.18,2.08,2.66,0.036499023,-0.9840088,0.023925781,35.15,0.0,-1.0,-8.17865,11.76416,
905.20146,true,true,true,0.125,12.6,0.0,-32731,0,0,0.125,12.6,0.0,0,0,0,0.375,12.6,0.0,3663,0,0,0.25,12.6,0.0,0,0,0,0.125,12.6,0.0,4,0,0,0.0,12.6,0.0,0,0,0,0.125,12.700000000000001,0.0,0,0,0,kReverse,kOff,-87.18,2.09,2.67,0.03967285,-0.9810791,0.030822754,35.15,0.0,3.0,-8.17865,11.76416,
905.222652,true,true,true,0.125,12.6,0.0,-32731,0,0,0.125,12.6,0.0,0,0,0,0.375,12.6,0.0,3663,0,0,0.25,12.6,0.0,0,0,0,0.125,12.6,0.0,4,0,0,0.0,12.6,0.0,0,0,0,0.125,12.700000000000001,0.0,0,0,0,kReverse,kOff,-87.17,2.09,2.67,0.03527832,-0.9819946,0.03881836,35.15,0.0,1.0,-8.17865,11.76416,
905.250232,true,true,true,0.125,12.6,0.0,-32731,0,0,0.125,12.6,0.0,0,0,0,0.375,12.6,0.0,3663,0,0,0.25,12.6,0.0,0,0,0,0.125,12.6,0.0,4,0,0,0.0,12.6,0.0,0,0,0,0.125,12.700000000000001,0.0,0,0,0,kReverse,kOff,-87.17,2.09,2.67,0.03894043,-0.98272705,0.03149414,35.15,0.0,2.0,-8.17865,11.76416,
905.280297,true,true,true,0.125,12.6,0.0,-32731,0,0,0.125,12.65,0.0,0,0,0,0.375,12.6,0.0,3663,0,0,0.25,12.6,0.0,0,0,0,0.125,12.6,0.0,4,0,0,0.0,12.6,0.0,0,0,0,0.125,12.700000000000001,0.0,0,0,0,kReverse,kOff,-87.17,2.1,2.67,0.036499023,-0.98431396,0.03491211,35.15,0.0,1.0,-8.17865,11.76416,
905.30039,true,true,true,0.125,12.6,0.0,-32731,0,0,0.125,12.65,0.0,0,0,0,0.375,12.6,0.0,3663,0,0,0.25,12.65,0.0,0,0,0,0.125,12.6,0.0,4,0,0,0.0,12.6,0.0,0,0,0,0.125,12.700000000000001,0.0,0,0,0,kReverse,kOff,-87.17,2.1,2.67,0.03942871,-0.9840088,0.034606934,35.15,0.0,3.0,-8.17865,11.76416,
905.3199960000001,true,true,true,0.125,12.6,0.0,-32731,0,0,0.125,12.65,0.0,0,0,0,0.375,12.6,0.0,3663,0,0,0.25,12.65,0.0,0,0,0,0.125,12.6,0.0,4,0,0,0.0,12.6,0.0,0,0,0,0.125,12.700000000000001,0.0,0,0,0,kReverse,kOff,-87.17,2.09,2.67,0.03503418,-0.9857178,0.034423828,35.15,0.0,0.0,-8.17865,11.76416,
905.33892,true,true,true,0.125,12.6,0.0,-32731,0,0,0.125,12.65,0.0,0,0,0,0.375,12.6,0.0,3663,0,0,0.25,12.65,0.0,0,0,0,0.125,12.6,0.0,4,0,0,0.0,12.6,0.0,0,0,0,0.125,12.700000000000001,0.0,0,0,0,kReverse,kOff,-87.17,2.09,2.67,0.032714844,-0.9844971,0.03643799,35.15,0.0,0.0,-8.17865,11.76416,
905.3576750000001,true,true,true,0.125,12.6,0.0,-32731,0,0,0.125,12.65,0.0,0,0,0,0.375,12.6,0.0,3663,0,0,0.25,12.65,0.0,0,0,0,0.125,12.6,0.0,4,0,0,0.0,12.6,0.0,0,0,0,0.125,12.700000000000001,0.0,0,0,0,kReverse,kOff,-87.18,2.08,2.66,0.032104492,-0.982666,0.03955078,35.15,0.0,-1.0,-8.17865,11.76416,
905.378848,true,true,true,0.125,12.6,0.0,-32731,0,0,0.125,12.65,0.0,0,0,0,0.375,12.6,0.0,3663,0,0,0.25,12.65,0.0,0,0,0,0.125,12.6,0.0,4,0,0,0.0,12.6,0.0,0,0,0,0.125,12.700000000000001,0.0,0,0,0,kReverse,kOff,-87.17,2.08,2.66,0.034606934,-0.9816284,0.03375244,35.15,0.0,0.0,-8.17865,11.76416,
905.398774,true,true,true,0.125,12.6,0.0,-32731,0,0,0.125,12.65,0.0,0,0,0,0.375,12.6,0.0,3663,0,0,0.25,12.65,0.0,0,0,0,0.125,12.6,0.0,4,0,0,0.0,12.6,0.0,0,0,0,0.125,12.700000000000001,0.0,0,0,0,kReverse,kOff,-87.18,2.09,2.67,0.040039062,-0.98706055,0.018005371,35.15,0.0,0.0,-8.17865,11.76416,
905.4195450000001,true,true,true,0.125,12.6,0.0,-32731,0,0,0.125,12.65,0.0,0,0,0,0.375,12.6,0.0,3663,0,0,0.25,12.65,0.0,0,0,0,0.125,12.6,0.0,4,0,0,0.0,12.6,0.0,0,0,0,0.125,12.700000000000001,0.0,0,0,0,kReverse,kOff,-87.18,2.09,2.66,0.04046631,-0.98480225,0.024475098,35.15,0.0,1.0,-8.17865,11.76416,
905.440167,true,true,true,0.125,12.6,0.0,-32731,0,0,0.125,12.6,0.0,0,0,0,0.375,12.6,0.0,3663,0,0,0.25,12.65,0.0,0,0,0,0.125,12.6,0.0,4,0,0,0.0,12.6,0.0,0,0,0,0.125,12.700000000000001,0.0,0,0,0,kReverse,kOff,-87.17,2.1,2.67,0.045837402,-0.9797363,0.048095703,35.15,0.0,14.0,-8.17865,11.76416,
905.4639299999999,true,true,true,0.125,12.6,0.0,-32731,0,0,0.125,12.6,0.0,0,0,0,0.375,12.6,0.0,3663,0,0,0.25,12.65,0.0,0,0,0,0.125,12.6,0.0,4,0,0,0.0,12.6,0.0,0,0,0,0.125,12.700000000000001,0.0,0,0,0,kReverse,kOff,-87.16,2.11,2.68,0.04333496,-0.9810791,0.039001465,35.15,0.0,8.0,-8.17865,11.76416,
905.4872730000001,true,true,true,0.125,12.6,0.0,-32731,0,0,0.125,12.6,0.0,0,0,0,0.375,12.6,0.0,3663,0,0,0.25,12.65,0.0,0,0,0,0.125,12.6,0.0,4,0,0,0.0,12.6,0.0,0,0,0,0.125,12.700000000000001,0.0,0,0,0,kReverse,kOff,-87.17,2.1,2.68,0.030883789,-0.98687744,0.022460938,35.15,0.0,-8.0,-8.17865,11.76416,
905.509948,true,true,true,0.125,12.6,0.0,-32731,0,0,0.125,12.6,0.0,0,0,0,0.375,12.6,0.0,3663,0,0,0.25,12.65,0.0,0,0,0,0.125,12.6,0.0,4,0,0,0.0,12.6,0.0,0,0,0,0.125,12.700000000000001,0.0,0,0,0,kReverse,kOff,-87.17,2.09,2.67,0.03314209,-0.9800415,0.03540039,35.15,0.0,-1.0,-8.17865,11.76416,
905.529427,true,true,true,0.125,12.6,0.0,-32731,0,0,0.125,12.6,0.0,0,0,0,0.375,12.6,0.0,3663,0,0,0.25,12.65,0.0,0,0,0,0.125,12.6,0.0,4,0,0,0.0,12.6,0.0,0,0,0,0.125,12.700000000000001,0.0,0,0,0,kReverse,kOff,-87.18,2.09,2.66,0.04046631,-0.99102783,0.044311523,35.15,0.0,7.0,-8.17865,11.76416,
905.554118,true,true,true,0.125,12.6,0.0,-32731,0,0,0.125,12.6,0.0,0,0,0,0.375,12.6,0.0,3663,0,0,0.25,12.65,0.0,0,0,0,0.125,12.6,0.0,4,0,0,0.0,12.6,0.0,0,0,0,0.125,12.700000000000001,0.0,0,0,0,kReverse,kOff,-87.17,2.09,2.67,0.031555176,-0.9818115,0.044311523,35.15,0.0,0.0,-8.17865,11.76416,
905.580056,true,true,true,0.125,12.6,0.0,-32731,0,0,0.125,12.6,0.0,0,0,0,0.375,12.6,0.0,3663,0,0,0.25,12.65,0.0,0,0,0,0.125,12.6,0.0,4,0,0,0.0,12.6,0.0,0,0,0,0.125,12.700000000000001,0.0,0,0,0,kReverse,kOff,-87.18,2.09,2.67,0.030639648,-0.98583984,0.019592285,35.15,0.0,-8.0,-8.17865,11.76416,
905.60065,true,true,true,0.125,12.6,0.0,-32731,0,0,0.125,12.6,0.0,0,0,0,0.375,12.6,0.0,3663,0,0,0.25,12.65,0.0,0,0,0,0.125,12.6,0.0,4,0,0,0.0,12.6,0.0,0,0,0,0.125,12.700000000000001,0.0,0,0,0,kReverse,kOff,-87.18,2.09,2.66,0.031921387,-0.9833374,0.025512695,35.15,0.0,-5.0,-8.17865,11.76416,
905.62527,true,true,true,0.125,12.6,0.0,-32731,0,0,0.125,12.6,0.0,0,0,0,0.375,12.6,0.0,3663,0,0,0.25,12.6,0.0,0,0,0,0.125,12.6,0.0,4,0,0,0.0,12.6,0.0,0,0,0,0.125,12.700000000000001,0.0,0,0,0,kReverse,kOff,-87.18,2.09,2.66,0.03778076,-0.9855957,0.038208008,35.15,0.0,3.0,-8.17865,11.76416,
905.646806,true,true,true,0.125,12.6,0.0,-32731,0,0,0.125,12.6,0.0,0,0,0,0.375,12.6,0.0,3663,0,0,0.25,12.6,0.0,0,0,0,0.125,12.6,0.0,4,0,0,0.0,12.6,0.0,0,0,0,0.125,12.700000000000001,0.0,0,0,0,kReverse,kOff,-87.18,2.09,2.66,0.038391113,-0.9831543,0.043151855,35.15,0.0,5.0,-8.17865,11.76416,
905.6709159999999,true,true,true,0.125,12.6,0.0,-32731,0,0,0.125,12.6,0.0,0,0,0,0.375,12.6,0.0,3663,0,0,0.25,12.6,0.0,0,0,0,0.125,12.6,0.0,4,0,0,0.0,12.6,0.0,0,0,0,0.125,12.700000000000001,0.0,0,0,0,kReverse,kOff,-87.18,2.1,2.67,0.033996582,-0.98535156,0.02935791,35.13,0.0,-2.0,-8.17865,11.76416,
905.690731,true,true,true,0.125,12.6,0.0,-32731,0,0,0.125,12.6,0.0,0,0,0,0.375,12.6,0.0,3663,0,0,0.25,12.6,0.0,0,0,0,0.125,12.6,0.0,4,0,0,0.0,12.6,0.0,0,0,0,0.125,12.700000000000001,0.0,0,0,0,kReverse,kOff,-87.18,2.09,2.66,0.036315918,-0.98132324,0.025024414,35.13,0.0,-1.0,-8.17865,11.76416,
905.7140969999999,true,true,true,0.125,12.6,0.0,-32731,0,0,0.125,12.6,0.0,0,0,0,0.375,12.6,0.0,3663,0,0,0.25,12.6,0.0,0,0,0,0.125,12.6,0.0,4,0,0,0.0,12.6,0.0,0,0,0,0.125,12.700000000000001,0.0,0,0,0,kReverse,kOff,-87.18,2.1,2.67,0.04034424,-0.98394775,0.036071777,35.13,0.0,5.0,-8.17865,11.76416,
905.7367489999999,true,true,true,0.125,12.6,0.0,-32731,0,0,0.125,12.6,0.0,0,0,0,0.375,12.6,0.0,3663,0,0,0.25,12.6,0.0,0,0,0,0.125,12.6,0.0,4,0,0,0.0,12.6,0.0,0,0,0,0.125,12.700000000000001,0.0,0,0,0,kReverse,kOff,-87.18,2.1,2.67,0.03564453,-0.9824219,0.032714844,35.13,0.0,0.0,-8.17865,11.76416,
905.75926,true,true,true,0.125,12.6,0.0,-32731,0,0,0.125,12.6,0.0,0,0,0,0.375,12.6,0.0,3663,0,0,0.25,12.6,0.0,0,0,0,0.125,12.6,0.0,4,0,0,0.0,12.6,0.0,0,0,0,0.125,12.700000000000001,0.0,0,0,0,kReverse,kOff,-87.18,2.09,2.66,0.03656006,-0.98132324,0.035461426,35.13,0.0,1.0,-8.17865,11.76416,
905.7801069999999,true,true,true,0.125,12.6,0.0,-32731,0,0,0.125,12.6,0.0,0,0,0,0.375,12.6,0.0,3663,0,0,0.25,12.6,0.0,0,0,0,0.125,12.6,0.0,4,0,0,0.0,12.6,0.0,0,0,0,0.125,12.700000000000001,0.0,0,0,0,kReverse,kOff,-87.18,2.09,2.66,0.03692627,-0.9830322,0.027282715,35.13,0.0,0.0,-8.17865,11.76416,
905.800901,true,true,true,0.125,12.6,0.0,-32731,0,0,0.125,12.6,0.0,0,0,0,0.375,12.6,0.0,3663,0,0,0.25,12.6,0.0,0,0,0,0.125,12.6,0.0,4,0,0,0.0,12.6,0.0,0,0,0,0.125,12.700000000000001,0.0,0,0,0,kReverse,kOff,-87.19,2.08,2.65,0.030029297,-0.98413086,0.044006348,35.13,0.0,-2.0,-8.17865,11.76416,
905.821665,true,true,true,0.125,12.6,0.0,-32731,0,0,0.125,12.6,0.0,0,0,0,0.375,12.6,0.0,3663,0,0,0.25,12.6,0.0,0,0,0,0.125,12.6,0.0,4,0,0,0.125,12.6,0.0,0,0,0,0.125,12.700000000000001,0.0,0,0,0,kReverse,kOff,-87.19,2.07,2.65,0.032043457,-0.9866333,0.040283203,35.13,0.0,-1.0,-8.17865,11.76416,
905.842809,true,true,true,0.125,12.6,0.0,-32731,0,0,0.125,12.6,0.0,0,0,0,0.375,12.6,0.0,3663,0,0,0.25,12.6,0.0,0,0,0,0.125,12.6,0.0,4,0,0,0.125,12.6,0.0,0,0,0,0.125,12.700000000000001,0.0,0,0,0,kReverse,kOff,-87.19,2.07,2.65,0.035949707,-0.9830322,0.029724121,35.13,0.0,0.0,-8.17865,11.76416,
905.863243,true,true,true,0.125,12.6,0.0,-32731,0,0,0.125,12.6,0.0,0,0,0,0.375,12.6,0.0,3663,0,0,0.25,12.6,0.0,0,0,0,0.125,12.6,0.0,4,0,0,0.0,12.6,0.0,0,0,0,0.125,12.700000000000001,0.0,0,0,0,kReverse,kOff,-87.19,2.07,2.65,0.034057617,-0.9864502,0.02355957,35.13,0.0,-4.0,-8.17865,11.76416,
905.888075,true,true,true,0.125,12.6,0.0,-32731,0,0,0.125,12.6,0.0,0,0,0,0.375,12.6,0.0,3663,0,0,0.25,12.6,0.0,0,0,0,0.125,12.6,0.0,4,0,0,0.0,12.6,0.0,0,0,0,0.125,12.700000000000001,0.0,0,0,0,kReverse,kOff,-87.18,2.09,2.66,0.042419434,-0.9824219,0.024353027,35.13,0.0,3.0,-8.17865,11.76416,
905.907274,true,true,true,0.125,12.6,0.0,-32731,0,0,0.125,12.6,0.0,0,0,0,0.375,12.6,0.0,3663,0,0,0.25,12.6,0.0,0,0,0,0.125,12.6,0.0,4,0,0,0.0,12.6,0.0,0,0,0,0.125,12.700000000000001,0.0,0,0,0,kReverse,kOff,-87.18,2.09,2.66,0.039489746,-0.9837036,0.031799316,35.13,0.0,3.0,-8.17865,11.76416,
905.927416,true,true,true,0.125,12.6,0.0,-32731,0,0,0.125,12.6,0.0,0,0,0,0.375,12.6,0.0,3663,0,0,0.25,12.6,0.0,0,0,0,0.125,12.6,0.0,4,0,0,0.0,12.6,0.0,0,0,0,0.125,12.700000000000001,0.0,0,0,0,kReverse,kOff,-87.18,2.09,2.66,0.035827637,-0.9800415,0.034118652,35.13,0.0,0.0,-8.17865,11.76416,
905.949803,true,true,true,0.125,12.6,0.0,-32731,0,0,0.125,12.6,0.0,0,0,0,0.375,12.6,0.0,3663,0,0,0.25,12.6,0.0,0,0,0,0.125,12.6,0.0,4,0,0,0.0,12.6,0.0,0,0,0,0.125,12.65,0.0,0,0,0,kReverse,kOff,-87.18,2.09,2.66,0.03289795,-0.9854126,0.021240234,35.13,0.0,-6.0,-8.17865,11.76416,
905.970054,true,true,true,0.125,12.6,0.0,-32731,0,0,0.125,12.6,0.0,0,0,0,0.375,12.6,0.0,3663,0,0,0.25,12.6,0.0,0,0,0,0.125,12.6,0.0,4,0,0,0.0,12.6,0.0,0,0,0,0.125,12.65,0.0,0,0,0,kReverse,kOff,-87.19,2.08,2.65,0.033325195,-0.98431396,0.022827148,35.13,0.0,-5.0,-8.17865,11.76416,
906.000589,true,true,true,0.125,12.6,0.0,-32731,0,0,0.125,12.6,0.0,0,0,0,0.375,12.6,0.0,3663,0,0,0.25,12.6,0.0,0,0,0,0.125,12.6,0.0,4,0,0,0.0,12.6,0.0,0,0,0,0.125,12.65,0.0,0,0,0,kReverse,kOff,-87.19,2.08,2.65,0.030578613,-0.9854126,0.041503906,35.13,0.0,-2.0,-8.17865,11.76416,
906.023243,true,true,true,0.125,12.6,0.0,-32731,0,0,0.125,12.6,0.0,0,0,0,0.375,12.6,0.0,3663,0,0,0.25,12.6,0.0,0,0,0,0.125,12.6,0.0,4,0,0,0.0,12.6,0.0,0,0,0,0.125,12.65,0.0,0,0,0,kReverse,kOff,-87.18,2.08,2.66,0.0368042,-0.98358154,0.034179688,35.13,0.0,1.0,-8.17865,11.76416,
906.0454540000001,true,true,true,0.125,12.6,0.0,-32731,0,0,0.125,12.6,0.0,0,0,0,0.375,12.6,0.0,3663,0,0,0.25,12.6,0.0,0,0,0,0.125,12.6,0.0,4,0,0,0.0,12.6,0.0,0,0,0,0.125,12.65,0.0,0,0,0,kReverse,kOff,-87.18,2.08,2.66,0.036254883,-0.9827881,0.028442383,35.13,0.0,0.0,-8.17865,11.76416,
906.06892,true,true,true,0.125,12.6,0.0,-32731,0,0,0.125,12.6,0.0,0,0,0,0.375,12.6,0.0,3663,0,0,0.25,12.6,0.0,0,0,0,0.125,12.6,0.0,4,0,0,0.0,12.6,0.0,0,0,0,0.125,12.65,0.0,0,0,0,kReverse,kOff,-87.18,2.09,2.66,0.04119873,-0.9844971,0.038208008,35.13,0.0,6.0,-8.17865,11.76416,
906.089366,true,true,true,0.125,12.6,0.0,-32731,0,0,0.125,12.6,0.0,0,0,0,0.375,12.6,0.0,3663,0,0,0.25,12.6,0.0,0,0,0,0.125,12.65,0.0,4,0,0,0.0,12.6,0.0,0,0,0,0.125,12.65,0.0,0,0,0,kReverse,kOff,-87.18,2.09,2.67,0.041259766,-0.98443604,0.031311035,35.13,0.0,4.0,-8.17865,11.76416,
906.117481,true,true,true,0.125,12.6,0.0,-32731,0,0,0.125,12.6,0.0,0,0,0,0.375,12.6,0.0,3663,0,0,0.25,12.6,0.0,0,0,0,0.125,12.65,0.0,4,0,0,0.0,12.6,0.0,0,0,0,0.125,12.65,0.0,0,0,0,kReverse,kOff,-87.18,2.09,2.67,0.038635254,-0.982605,0.036071777,35.13,0.0,3.0,-8.17865,11.76416,
906.1389,true,true,true,0.125,12.6,0.0,-32731,0,0,0.125,12.6,0.0,0,0,0,0.375,12.6,0.0,3663,0,0,0.25,12.6,0.0,0,0,0,0.125,12.65,0.0,4,0,0,0.0,12.6,0.0,0,0,0,0.125,12.65,0.0,0,0,0,kReverse,kOff,-87.18,2.09,2.67,0.03540039,-0.98516846,0.025817871,35.13,0.0,-2.0,-8.17865,11.76416,
906.1581239999999,true,true,true,0.125,12.6,0.0,-32731,0,0,0.125,12.6,0.0,0,0,0,0.375,12.6,0.0,3663,0,0,0.25,12.6,0.0,0,0,0,0.125,12.65,0.0,4,0,0,0.0,12.6,0.0,0,0,0,0.125,12.65,0.0,0,0,0,kReverse,kOff,-87.18,2.09,2.66,0.037109375,-0.9821167,0.027526855,35.13,0.0,0.0,-8.17865,11.76416,
906.177886,true,true,true,0.125,12.6,0.0,-32731,0,0,0.125,12.6,0.0,0,0,0,0.375,12.6,0.0,3663,0,0,0.25,12.6,0.0,0,0,0,0.125,12.65,0.0,4,0,0,0.0,12.6,0.0,0,0,0,0.125,12.65,0.0,0,0,0,kReverse,kOff,-87.18,2.09,2.67,0.034423828,-0.9793701,0.035949707,35.13,0.0,0.0,-8.17865,11.76416,
906.20042,true,true,true,0.125,12.6,0.0,-32731,0,0,0.125,12.6,0.0,0,0,0,0.375,12.6,0.0,3663,0,0,0.25,12.6,0.0,0,0,0,0.125,12.65,0.0,4,0,0,0.0,12.6,0.0,0,0,0,0.125,12.65,0.0,0,0,0,kReverse,kOff,-87.18,2.09,2.67,0.036865234,-0.9847412,0.03527832,35.13,0.0,1.0,-8.17865,11.76416,
906.222032,true,true,true,0.125,12.6,0.0,-32731,0,0,0.125,12.6,0.0,0,0,0,0.375,12.6,0.0,3663,0,0,0.25,12.6,0.0,0,0,0,0.125,12.65,0.0,4,0,0,0.0,12.6,0.0,0,0,0,0.125,12.65,0.0,0,0,0,kReverse,kOff,-87.18,2.09,2.67,0.03338623,-0.98339844,0.026611328,35.13,0.0,-4.0,-8.17865,11.76416,
906.243159,true,true,true,0.125,12.6,0.0,-32731,0,0,0.125,12.6,0.0,0,0,0,0.375,12.6,0.0,3663,0,0,0.25,12.6,0.0,0,0,0,0.125,12.65,0.0,4,0,0,0.0,12.6,0.0,0,0,0,0.125,12.65,0.0,0,0,0,kReverse,kOff,-87.18,2.08,2.66,0.034240723,-0.9840698,0.035339355,35.13,0.0,0.0,-8.17865,11.76416,
906.263562,true,true,true,0.125,12.6,0.0,-32731,0,0,0.125,12.6,0.0,0,0,0,0.375,12.6,0.0,3663,0,0,0.25,12.6,0.0,0,0,0,0.125,12.6,0.0,4,0,0,0.0,12.6,0.0,0,0,0,0.125,12.65,0.0,0,0,0,kReverse,kOff,-87.18,2.08,2.66,0.03387451,-0.9817505,0.030517578,35.13,0.0,-2.0,-8.17865,11.76416,
906.286655,true,true,true,0.125,12.6,0.0,-32731,0,0,0.125,12.6,0.0,0,0,0,0.375,12.6,0.0,3663,0,0,0.25,12.6,0.0,0,0,0,0.125,12.6,0.0,4,0,0,0.0,12.6,0.0,0,0,0,0.125,12.65,0.0,0,0,0,kReverse,kOff,-87.18,2.09,2.67,0.034851074,-0.9785156,0.040405273,35.13,0.0,1.0,-8.17865,11.76416,
906.3105969999999,true,true,true,0.125,12.6,0.0,-32731,0,0,0.125,12.6,0.0,0,0,0,0.375,12.6,0.0,3663,0,0,0.25,12.6,0.0,0,0,0,0.0,12.6,0.0,4,0,0,0.0,12.6,0.0,0,0,0,0.125,12.65,0.0,0,0,0,kReverse,kOff,-87.18,2.09,2.67,0.034423828,-0.9815674,0.03137207,35.13,0.0,-1.0,-8.17865,11.76416,
906.336232,true,true,true,0.125,12.6,0.0,-32731,0,0,0.125,12.6,0.0,0,0,0,0.375,12.6,0.0,3663,0,0,0.25,12.6,0.0,0,0,0,0.0,12.6,0.0,4,0,0,0.0,12.6,0.0,0,0,0,0.125,12.65,0.0,0,0,0,kReverse,kOff,-87.18,2.09,2.67,0.038269043,-0.9829712,0.032287598,35.13,0.0,2.0,-8.17865,11.76416,
906.3569200000001,true,true,true,0.125,12.6,0.0,-32731,0,0,0.125,12.6,0.0,0,0,0,0.375,12.6,0.0,3663,0,0,0.25,12.6,0.0,0,0,0,0.0,12.6,0.0,4,0,0,0.0,12.6,0.0,0,0,0,0.125,12.65,0.0,0,0,0,kReverse,kOff,-87.17,2.09,2.67,0.0345459,-0.98742676,0.028869629,35.13,0.0,2.0,-8.17865,11.76416,
906.3800799999999,true,true,true,0.125,12.6,0.0,-32731,0,0,0.125,12.6,0.0,0,0,0,0.375,12.6,0.0,3663,0,0,0.25,12.6,0.0,0,0,0,0.125,12.6,0.0,4,0,0,0.0,12.6,0.0,0,0,0,0.125,12.65,0.0,0,0,0,kReverse,kOff,-87.17,2.1,2.67,0.03894043,-0.9857178,0.030090332,35.13,0.0,1.0,-8.17865,11.76416,
906.401463,true,true,true,0.125,12.6,0.0,-32731,0,0,0.125,12.6,0.0,0,0,0,0.375,12.6,0.0,3663,0,0,0.25,12.6,0.0,0,0,0,0.125,12.6,0.0,4,0,0,0.0,12.6,0.0,0,0,0,0.125,12.65,0.0,0,0,0,kReverse,kOff,-87.17,2.1,2.68,0.047729492,-0.99316406,0.021240234,35.13,0.0,7.0,-8.17865,11.76416,
906.423255,true,true,true,0.125,12.6,0.0,-32731,0,0,0.125,12.6,0.0,0,0,0,0.375,12.6,0.0,3663,0,0,0.25,12.6,0.0,0,0,0,0.125,12.6,0.0,4,0,0,0.0,12.6,0.0,0,0,0,0.125,12.65,0.0,0,0,0,kReverse,kOff,-87.17,2.1,2.68,0.031555176,-0.9682007,0.026855469,35.13,0.0,-5.0,-8.17865,11.76416,
906.443951,true,true,true,0.125,12.6,0.0,-32731,0,0,0.125,12.6,0.0,0,0,0,0.375,12.6,0.0,3663,0,0,0.25,12.6,0.0,0,0,0,0.125,12.6,0.0,4,0,0,0.0,12.6,0.0,0,0,0,0.125,12.65,0.0,0,0,0,kReverse,kOff,-87.17,2.1,2.68,0.036132812,-0.9838257,0.021850586,35.13,0.0,-3.0,-8.17865,11.76416,
906.467843,true,true,true,0.125,12.6,0.0,-32731,0,0,0.125,12.6,0.0,0,0,0,0.375,12.6,0.0,3663,0,0,0.25,12.6,0.0,0,0,0,0.125,12.6,0.0,4,0,0,0.0,12.6,0.0,0,0,0,0.125,12.65,0.0,0,0,0,kReverse,kOff,-87.18,2.1,2.67,0.025756836,-0.9781494,0.026977539,35.13,0.0,-11.0,-8.17865,11.76416,
906.491859,true,true,true,0.125,12.6,0.0,-32731,0,0,0.125,12.6,0.0,0,0,0,0.375,12.6,0.0,3663,0,0,0.25,12.6,0.0,0,0,0,0.125,12.6,0.0,4,0,0,0.0,12.6,0.0,0,0,0,0.125,12.65,0.0,0,0,0,kReverse,kOff,-87.18,2.09,2.67,0.04272461,-0.9862671,0.04046631,35.13,0.0,8.0,-8.17865,11.76416,
906.5154220000001,true,true,true,0.125,12.6,0.0,-32731,0,0,0.125,12.6,0.0,0,0,0,0.375,12.6,0.0,3663,0,0,0.25,12.6,0.0,0,0,0,0.125,12.6,0.0,4,0,0,0.0,12.6,0.0,0,0,0,0.125,12.65,0.0,0,0,0,kReverse,kOff,-87.18,2.09,2.67,0.031921387,-0.98028564,0.02508545,35.13,0.0,-5.0,-8.17865,11.76416,
906.535873,true,true,true,0.125,12.6,0.0,-32731,0,0,0.125,12.6,0.0,0,0,0,0.375,12.6,0.0,3663,0,0,0.25,12.6,0.0,0,0,0,0.125,12.6,0.0,4,0,0,0.0,12.6,0.0,0,0,0,0.125,12.65,0.0,0,0,0,kReverse,kOff,-87.17,2.09,2.67,0.037719727,-0.98223877,0.019592285,35.13,0.0,-2.0,-8.17865,11.76416,
906.5562140000001,true,true,true,0.125,12.6,0.0,-32731,0,0,0.125,12.6,0.0,0,0,0,0.375,12.6,0.0,3663,0,0,0.25,12.6,0.0,0,0,0,0.125,12.6,0.0,4,0,0,0.0,12.6,0.0,0,0,0,0.125,12.65,0.0,0,0,0,kReverse,kOff,-87.17,2.1,2.67,0.038269043,-0.98046875,0.028869629,35.13,0.0,1.0,-8.17865,11.76416,
906.5809399999999,true,true,true,0.125,12.6,0.0,-32731,0,0,0.125,12.6,0.0,0,0,0,0.375,12.6,0.0,3663,0,0,0.25,12.6,0.0,0,0,0,0.125,12.6,0.0,4,0,0,0.0,12.6,0.0,0,0,0,0.125,12.65,0.0,0,0,0,kReverse,kOff,-87.17,2.1,2.68,0.036071777,-0.98217773,0.04296875,35.13,0.0,3.0,-8.17865,11.76416,
906.60384,true,true,true,0.125,12.6,0.0,-32731,0,0,0.125,12.6,0.0,0,0,0,0.375,12.6,0.0,3663,0,0,0.25,12.6,0.0,0,0,0,0.125,12.6,0.0,4,0,0,0.0,12.6,0.0,0,0,0,0.125,12.65,0.0,0,0,0,kReverse,kOff,-87.17,2.09,2.67,0.035339355,-0.97943115,0.0234375,35.13,0.0,-3.0,-8.17865,11.76416,
906.6280019999999,true,true,true,0.125,12.6,0.0,-32731,0,0,0.125,12.6,0.0,0,0,0,0.375,12.6,0.0,3663,0,0,0.25,12.6,0.0,0,0,0,0.125,12.6,0.0,4,0,0,0.0,12.6,0.0,0,0,0,0.125,12.65,0.0,0,0,0,kReverse,kOff,-87.18,2.09,2.66,0.030273438,-0.9819946,0.026184082,35.13,0.0,-7.0,-8.17865,11.76416,
906.64995,true,true,true,0.125,12.6,0.0,-32731,0,0,0.125,12.6,0.0,0,0,0,0.375,12.6,0.0,3663,0,0,0.25,12.6,0.0,0,0,0,0.125,12.6,0.0,4,0,0,0.0,12.6,0.0,0,0,0,0.125,12.65,0.0,0,0,0,kReverse,kOff,-87.18,2.09,2.66,0.03503418,-0.9862671,0.03930664,35.13,0.0,1.0,-8.17865,11.76416,
906.6765280000001,true,true,true,0.125,12.6,0.0,-32731,0,0,0.125,12.6,0.0,0,0,0,0.375,12.6,0.0,3663,0,0,0.25,12.6,0.0,0,0,0,0.125,12.6,0.0,4,0,0,0.0,12.6,0.0,0,0,0,0.125,12.65,0.0,0,0,0,kReverse,kOff,-87.18,2.07,2.65,0.035217285,-0.982605,0.042419434,35.14,0.0,2.0,-8.17865,11.76416,
906.695432,true,true,true,0.125,12.6,0.0,-32731,0,0,0.125,12.6,0.0,0,0,0,0.375,12.6,0.0,3663,0,0,0.25,12.6,0.0,0,0,0,0.125,12.6,0.0,4,0,0,0.0,12.6,0.0,0,0,0,0.125,12.65,0.0,0,0,0,kReverse,kOff,-87.18,2.07,2.65,0.028564453,-0.98779297,0.028503418,35.14,0.0,-8.0,-8.17865,11.76416,
