timer,lineLeft,lineCenter,lineRight,LeftFrontCurrent,LeftFrontVoltage,LeftFrontValue,LeftFrontPosition,LeftFrontVelocity,LeftFrontFaults,LeftRearCurrent,LeftRearVoltage,LeftRearValue,LeftRearPosition,LeftRearVelocity,LeftRearFaults,RightFrontCurrent,RightFrontVoltage,RightFrontValue,RightFrontPosition,RightFrontVelocity,RightFrontFaults,RightRearCurrent,RightRearVoltage,RightRearValue,RightRearPosition,RightRearVelocity,RightRearFaults,LiftCurrent,LiftVoltage,LiftValue,LiftPosition,LiftVelocity,LiftFaults,WristCurrent,WristVoltage,WristValue,WristPosition,WristVelocity,WristFaults,RollerCurrent,RollerVoltage,RollerValue,RollerPosition,RollerVelocity,RollerFaults,PushersState,PivotsState,navx_Pitch,navx_Roll,navx_Yaw,navx_XAcc,navx_YAcc,navx_ZAcc,navx_Temp,navx_Bar,navx_Alt,navx_XDis,navx_YDis,
15.311915,true,true,true,0.125,12.65,0.0,-15950,0,0,0.125,12.65,0.0,0,0,0,0.125,12.6,0.0,-23593,0,0,0.125,12.65,0.0,0,0,0,0.125,12.65,0.0,2,0,0,0.0,12.65,0.0,0,0,0,0.125,12.700000000000001,0.0,0,0,0,kReverse,kOff,-86.55,2.19,3.21,0.038024902,-0.9840698,0.045532227,33.14,0.0,0.0,-1.4602203,-3.7037048,
15.388863,true,true,true,0.125,12.65,0.0,-15950,0,0,0.125,12.65,0.0,0,0,0,0.125,12.6,0.0,-23593,0,0,0.125,12.65,0.0,0,0,0,0.125,12.65,0.0,2,0,0,0.0,12.6,0.0,0,0,0,0.125,12.700000000000001,0.0,0,0,0,kReverse,kOff,-86.55,2.18,3.21,0.037231445,-0.9847412,0.044128418,33.14,0.0,0.0,-1.4602203,-3.7037048,
15.426324000000001,true,true,true,0.125,12.65,0.0,-15950,0,0,0.125,12.65,0.0,0,0,0,0.125,12.6,0.0,-23593,0,0,0.125,12.65,0.0,0,0,0,0.0,12.65,0.0,2,0,0,0.0,12.6,0.0,0,0,0,0.125,12.700000000000001,0.0,0,0,0,kReverse,kOff,-86.55,2.18,3.21,0.034973145,-0.9803467,0.045837402,33.14,0.0,-2.0,-1.4602203,-3.7037048,
15.464201000000001,true,true,true,0.125,12.65,0.0,-15950,0,0,0.125,12.65,0.0,0,0,0,0.125,12.6,0.0,-23593,0,0,0.125,12.65,0.0,0,0,0,0.0,12.65,0.0,2,0,0,0.0,12.6,0.0,0,0,0,0.125,12.700000000000001,0.0,0,0,0,kReverse,kOff,-86.55,2.18,3.21,0.035461426,-0.98358154,0.049621582,33.14,0.0,0.0,-1.4602203,-3.7037048,
15.508343,true,true,true,0.125,12.65,0.0,-15950,0,0,0.125,12.65,0.0,0,0,0,0.125,12.6,0.0,-23593,0,0,0.125,12.65,0.0,0,0,0,0.125,12.65,0.0,2,0,0,0.0,12.6,0.0,0,0,0,0.125,12.700000000000001,0.0,0,0,0,kReverse,kOff,-86.55,2.19,3.21,0.039794922,-0.9838867,0.04058838,33.14,0.0,0.0,-1.4602203,-3.7037048,
15.560464,true,true,true,0.125,12.65,0.0,-15950,0,0,0.125,12.65,0.0,0,0,0,0.125,12.6,0.0,-23593,0,0,0.125,12.65,0.0,0,0,0,0.125,12.65,0.0,2,0,0,0.0,12.6,0.0,0,0,0,0.125,12.700000000000001,0.0,0,0,0,kReverse,kOff,-86.56,2.18,3.21,0.040039062,-0.9838867,0.041259766,33.14,0.0,0.0,-1.4602203,-3.7037048,
15.601511000000002,true,true,true,0.125,12.65,0.0,-15950,0,0,0.125,12.65,0.0,0,0,0,0.125,12.6,0.0,-23593,0,0,0.125,12.65,0.0,0,0,0,0.125,12.65,0.0,2,0,0,0.0,12.6,0.0,0,0,0,0.125,12.700000000000001,0.0,0,0,0,kReverse,kOff,-86.56,2.19,3.21,0.039367676,-0.9817505,0.048034668,33.14,0.0,2.0,-1.4602203,-3.7037048,
15.630747999999999,true,true,true,0.125,12.65,0.0,-15950,0,0,0.125,12.65,0.0,0,0,0,0.125,12.6,0.0,-23593,0,0,0.125,12.65,0.0,0,0,0,0.125,12.65,0.0,2,0,0,0.0,12.6,0.0,0,0,0,0.125,12.700000000000001,0.0,0,0,0,kReverse,kOff,-86.56,2.19,3.21,0.035461426,-0.98205566,0.04071045,33.14,0.0,-3.0,-1.4602203,-3.7037048,
15.654990000000002,true,true,true,0.125,12.65,0.0,-15950,0,0,0.125,12.65,0.0,0,0,0,0.125,12.6,0.0,-23593,0,0,0.125,12.65,0.0,0,0,0,0.125,12.65,0.0,2,0,0,0.0,12.6,0.0,0,0,0,0.125,12.700000000000001,0.0,0,0,0,kReverse,kOff,-86.56,2.19,3.21,0.036315918,-0.9812012,0.046142578,33.14,0.0,0.0,-1.4602203,-3.7037048,
15.678548000000003,true,true,true,0.125,12.65,0.0,-15950,0,0,0.125,12.65,0.0,0,0,0,0.125,12.6,0.0,-23593,0,0,0.125,12.65,0.0,0,0,0,0.125,12.65,0.0,2,0,0,0.0,12.6,0.0,0,0,0,0.125,12.700000000000001,0.0,0,0,0,kReverse,kOff,-86.56,2.19,3.21,0.036193848,-0.9805908,0.046569824,33.19,0.0,0.0,-1.4602203,-3.7037048,
15.705470000000002,true,true,true,0.125,12.65,0.0,-15950,0,0,0.125,12.65,0.0,0,0,0,0.125,12.6,0.0,-23593,0,0,0.125,12.65,0.0,0,0,0,0.125,12.65,0.0,2,0,0,0.0,12.6,0.0,0,0,0,0.125,12.700000000000001,0.0,0,0,0,kReverse,kOff,-86.55,2.19,3.21,0.037231445,-0.9802246,0.044128418,33.19,0.0,0.0,-1.4602203,-3.7037048,
15.748316999999998,true,true,true,0.125,12.65,0.0,-15950,0,0,0.125,12.65,0.0,0,0,0,0.125,12.6,0.0,-23593,0,0,0.125,12.65,0.0,0,0,0,0.125,12.65,0.0,2,0,0,0.0,12.6,0.0,0,0,0,0.125,12.700000000000001,0.0,0,0,0,kReverse,kOff,-86.55,2.19,3.21,0.039001465,-0.98339844,0.040649414,33.19,0.0,0.0,-1.4602203,-3.7037048,
15.811977000000002,true,true,true,0.125,12.65,0.0,-15950,0,0,0.125,12.65,0.0,0,0,0,0.125,12.6,0.0,-23593,0,0,0.125,12.65,0.0,0,0,0,0.125,12.65,0.0,2,0,0,0.0,12.6,0.0,0,0,0,0.125,12.700000000000001,0.0,0,0,0,kReverse,kOff,-86.55,2.19,3.21,0.04071045,-0.9834595,0.046875,33.19,0.0,3.0,-1.4602203,-3.7037048,
15.869733,true,true,true,0.125,12.65,0.0,-15950,0,0,0.125,12.65,0.0,0,0,0,0.125,12.6,0.0,-23593,0,0,0.125,12.65,0.0,0,0,0,0.0,12.65,0.0,2,0,0,0.0,12.6,0.0,0,0,0,0.125,12.700000000000001,0.0,0,0,0,kReverse,kOff,-86.55,2.2,3.22,0.037231445,-0.98651123,0.048583984,33.19,0.0,0.0,-1.4602203,-3.7037048,
15.904174,true,true,true,0.125,12.65,0.0,-15950,0,0,0.125,12.65,0.0,0,0,0,0.125,12.6,0.0,-23593,0,0,0.125,12.65,0.0,0,0,0,0.125,12.65,0.0,2,0,0,0.0,12.6,0.0,0,0,0,0.125,12.700000000000001,0.0,0,0,0,kReverse,kOff,-86.55,2.19,3.22,0.038024902,-0.9847412,0.045043945,33.19,0.0,0.0,-1.4602203,-3.7037048,
15.93834,true,true,true,0.125,12.65,0.0,-15950,0,0,0.125,12.65,0.0,0,0,0,0.125,12.6,0.0,-23593,0,0,0.125,12.65,0.0,0,0,0,0.0,12.65,0.0,2,0,0,0.0,12.6,0.0,0,0,0,0.125,12.700000000000001,0.0,0,0,0,kReverse,kOff,-86.54,2.2,3.22,0.036621094,-0.9830322,0.04260254,33.19,0.0,-2.0,-1.4602203,-3.7037048,
15.969395,true,true,true,0.125,12.65,0.0,-15950,0,0,0.125,12.65,0.0,0,0,0,0.125,12.6,0.0,-23593,0,0,0.125,12.65,0.0,0,0,0,0.0,12.65,0.0,2,0,0,0.0,12.6,0.0,0,0,0,0.125,12.700000000000001,0.0,0,0,0,kReverse,kOff,-86.55,2.2,3.22,0.03741455,-0.98095703,0.045776367,33.19,0.0,0.0,-1.4602203,-3.7037048,
16.005132,true,true,true,0.125,12.65,0.0,-15950,0,0,0.125,12.65,0.0,0,0,0,0.125,12.6,0.0,-23593,0,0,0.125,12.65,0.0,0,0,0,0.125,12.65,0.0,2,0,0,0.0,12.65,0.0,0,0,0,0.125,12.700000000000001,0.0,0,0,0,kReverse,kOff,-86.55,2.2,3.22,0.03918457,-0.97943115,0.045043945,33.19,0.0,1.0,-1.4602203,-3.7037048,
16.039057,true,true,true,0.125,12.65,0.0,-15950,0,0,0.125,12.65,0.0,0,0,0,0.125,12.6,0.0,-23593,0,0,0.125,12.65,0.0,0,0,0,0.125,12.65,0.0,2,0,0,0.0,12.65,0.0,0,0,0,0.125,12.700000000000001,0.0,0,0,0,kReverse,kOff,-86.55,2.2,3.22,0.038208008,-0.98327637,0.04260254,33.19,0.0,0.0,-1.4602203,-3.7037048,
16.070564,true,true,true,0.125,12.65,0.0,-15950,0,0,0.125,12.65,0.0,0,0,0,0.125,12.6,0.0,-23593,0,0,0.125,12.65,0.0,0,0,0,0.125,12.65,0.0,2,0,0,0.0,12.65,0.0,0,0,0,0.125,12.700000000000001,0.0,0,0,0,kReverse,kOff,-86.55,2.2,3.22,0.037719727,-0.9822998,0.044555664,33.19,0.0,0.0,-1.4602203,-3.7037048,
16.106579,true,true,true,0.125,12.65,0.0,-15950,0,0,0.125,12.65,0.0,0,0,0,0.125,12.6,0.0,-23593,0,0,0.125,12.65,0.0,0,0,0,0.125,12.65,0.0,2,0,0,0.0,12.65,0.0,0,0,0,0.125,12.700000000000001,0.0,0,0,0,kReverse,kOff,-86.55,2.2,3.22,0.037231445,-0.9829712,0.045410156,33.19,0.0,0.0,-1.4602203,-3.7037048,
16.142032,true,true,true,0.125,12.65,0.0,-15950,0,0,0.125,12.65,0.0,0,0,0,0.125,12.6,0.0,-23593,0,0,0.125,12.65,0.0,0,0,0,0.125,12.65,0.0,2,0,0,0.0,12.65,0.0,0,0,0,0.125,12.700000000000001,0.0,0,0,0,kReverse,kOff,-86.55,2.2,3.21,0.036193848,-0.9807739,0.042907715,33.19,0.0,-2.0,-1.4602203,-3.7037048,
16.187381000000002,true,true,true,0.125,12.65,0.0,-15950,0,0,0.125,12.65,0.0,0,0,0,0.125,12.6,0.0,-23593,0,0,0.125,12.65,0.0,0,0,0,0.125,12.65,0.0,2,0,0,0.0,12.65,0.0,0,0,0,0.125,12.700000000000001,0.0,0,0,0,kReverse,kOff,-86.55,2.2,3.21,0.0390625,-0.9852905,0.050964355,33.17,0.0,3.0,-1.4602203,-3.7037048,
16.236663,true,true,true,0.125,12.65,0.0,-15950,0,0,0.125,12.65,0.0,0,0,0,0.125,12.6,0.0,-23593,0,0,0.125,12.65,0.0,0,0,0,0.0,12.65,0.0,2,0,0,0.0,12.65,0.0,0,0,0,0.125,12.700000000000001,0.0,0,0,0,kReverse,kOff,-86.55,2.2,3.22,0.03845215,-0.9836426,0.04425049,33.17,0.0,0.0,-1.4602203,-3.7037048,
16.309016,true,true,true,0.125,12.65,0.0,-15950,0,0,0.125,12.65,0.0,0,0,0,0.125,12.6,0.0,-23593,0,0,0.125,12.65,0.0,0,0,0,0.125,12.65,0.0,2,0,0,0.0,12.6,0.0,0,0,0,0.125,12.700000000000001,0.0,0,0,0,kReverse,kOff,-86.55,2.2,3.22,0.038330078,-0.98065186,0.046020508,33.17,0.0,0.0,-1.4602203,-3.7037048,
16.363797,true,true,true,0.125,12.65,0.0,-15950,0,0,0.125,12.65,0.0,0,0,0,0.125,12.6,0.0,-23593,0,0,0.125,12.65,0.0,0,0,0,0.125,12.65,0.0,2,0,0,0.0,12.6,0.0,0,0,0,0.125,12.700000000000001,0.0,0,0,0,kReverse,kOff,-86.55,2.2,3.22,0.03704834,-0.9836426,0.04650879,33.17,0.0,0.0,-1.4602203,-3.7037048,
16.395118000000004,true,true,true,0.125,12.65,0.0,-15950,0,0,0.125,12.65,0.0,0,0,0,0.125,12.6,0.0,-23593,0,0,0.125,12.65,0.0,0,0,0,0.125,12.65,0.0,2,0,0,0.0,12.6,0.0,0,0,0,0.125,12.700000000000001,0.0,0,0,0,kReverse,kOff,-86.55,2.2,3.22,0.038635254,-0.9848633,0.04638672,33.17,0.0,0.0,-1.4602203,-3.7037048,
16.413593000000002,true,true,true,0.125,12.65,0.0,-15950,0,0,0.125,12.65,0.0,0,0,0,0.125,12.6,0.0,-23593,0,0,0.125,12.65,0.0,0,0,0,0.0,12.65,0.0,2,0,0,0.0,12.6,0.0,0,0,0,0.125,12.700000000000001,0.0,0,0,0,kReverse,kOff,-86.55,2.2,3.22,0.040405273,-0.9838867,0.047302246,33.17,0.0,2.0,-1.4602203,-3.7037048,
16.452074,true,true,true,0.125,12.65,0.0,-15950,0,0,0.125,12.65,0.0,0,0,0,0.125,12.6,0.0,-23593,0,0,0.125,12.65,0.0,0,0,0,0.0,12.65,0.0,2,0,0,0.0,12.6,0.0,0,0,0,0.125,12.700000000000001,0.0,0,0,0,kReverse,kOff,-86.55,2.2,3.22,0.03753662,-0.98236084,0.043884277,33.17,0.0,0.0,-1.4602203,-3.7037048,
16.482079000000002,true,true,true,0.125,12.65,0.0,-15950,0,0,0.125,12.65,0.0,0,0,0,0.125,12.6,0.0,-23593,0,0,0.125,12.65,0.0,0,0,0,0.125,12.65,0.0,2,0,0,0.0,12.65,0.0,0,0,0,0.125,12.700000000000001,0.0,0,0,0,kReverse,kOff,-86.55,2.2,3.22,0.03540039,-0.98638916,0.04852295,33.17,0.0,-1.0,-1.4602203,-3.7037048,
16.522053,true,true,true,0.125,12.65,0.0,-15950,0,0,0.125,12.65,0.0,0,0,0,0.125,12.6,0.0,-23593,0,0,0.125,12.65,0.0,0,0,0,0.125,12.65,0.0,2,0,0,0.0,12.65,0.0,0,0,0,0.125,12.700000000000001,0.0,0,0,0,kReverse,kOff,-86.55,2.2,3.22,0.03643799,-0.9827881,0.050048828,33.17,0.0,0.0,-1.4602203,-3.7037048,
16.557535,true,true,true,0.125,12.65,0.0,-15950,0,0,0.125,12.65,0.0,0,0,0,0.125,12.6,0.0,-23593,0,0,0.125,12.65,0.0,0,0,0,0.125,12.65,0.0,2,0,0,0.0,12.65,0.0,0,0,0,0.125,12.700000000000001,0.0,0,0,0,kReverse,kOff,-86.54,2.2,3.22,0.038146973,-0.9829712,0.046447754,33.17,0.0,0.0,-1.4602203,-3.7037048,
16.588406,true,true,true,0.125,12.65,0.0,-15950,0,0,0.125,12.65,0.0,0,0,0,0.125,12.6,0.0,-23593,0,0,0.125,12.65,0.0,0,0,0,0.125,12.65,0.0,2,0,0,0.0,12.65,0.0,0,0,0,0.125,12.700000000000001,0.0,0,0,0,kReverse,kOff,-86.54,2.2,3.22,0.037231445,-0.9846802,0.046142578,33.17,0.0,0.0,-1.4602203,-3.7037048,
16.619568,true,true,true,0.125,12.65,0.0,-15950,0,0,0.125,12.65,0.0,0,0,0,0.125,12.6,0.0,-23593,0,0,0.125,12.65,0.0,0,0,0,0.125,12.65,0.0,2,0,0,0.0,12.65,0.0,0,0,0,0.125,12.700000000000001,0.0,0,0,0,kReverse,kOff,-86.54,2.2,3.22,0.03564453,-0.9805298,0.041992188,33.17,0.0,-3.0,-1.4602203,-3.7037048,
16.654087999999998,true,true,true,0.125,12.65,0.0,-15950,0,0,0.125,12.65,0.0,0,0,0,0.125,12.6,0.0,-23593,0,0,0.125,12.65,0.0,0,0,0,0.0,12.65,0.0,2,0,0,0.0,12.65,0.0,0,0,0,0.125,12.65,0.0,0,0,0,kReverse,kOff,-86.55,2.19,3.22,0.040649414,-0.9802246,0.052612305,33.17,0.0,5.0,-1.4602203,-3.7037048,
16.688393,true,true,true,0.125,12.65,0.0,-15950,0,0,0.125,12.65,0.0,0,0,0,0.125,12.6,0.0,-23593,0,0,0.125,12.65,0.0,0,0,0,0.0,12.65,0.0,2,0,0,0.0,12.65,0.0,0,0,0,0.125,12.65,0.0,0,0,0,kReverse,kOff,-86.54,2.2,3.22,0.036743164,-0.98553467,0.049438477,33.15,0.0,0.0,-1.4602203,-3.7037048,
16.729395,true,true,true,0.125,12.65,0.0,-15950,0,0,0.125,12.65,0.0,0,0,0,0.125,12.6,0.0,-23593,0,0,0.125,12.65,0.0,0,0,0,0.0,12.65,0.0,2,0,0,0.0,12.65,0.0,0,0,0,0.125,12.65,0.0,0,0,0,kReverse,kOff,-86.54,2.2,3.22,0.039611816,-0.9802246,0.04321289,33.15,0.0,0.0,-1.4602203,-3.7037048,
16.763263,true,true,true,0.125,12.65,0.0,-15950,0,0,0.125,12.65,0.0,0,0,0,0.125,12.6,0.0,-23593,0,0,0.125,12.65,0.0,0,0,0,0.125,12.65,0.0,2,0,0,0.0,12.65,0.0,0,0,0,0.125,12.65,0.0,0,0,0,kReverse,kOff,-86.54,2.2,3.22,0.038757324,-0.97998047,0.048461914,33.15,0.0,2.0,-1.4602203,-3.7037048,
16.799645,true,true,true,0.125,12.65,0.0,-15950,0,0,0.125,12.65,0.0,0,0,0,0.125,12.6,0.0,-23593,0,0,0.125,12.65,0.0,0,0,0,0.125,12.65,0.0,2,0,0,0.0,12.6,0.0,0,0,0,0.125,12.700000000000001,0.0,0,0,0,kReverse,kOff,-86.54,2.2,3.22,0.037963867,-0.9780884,0.041748047,33.15,0.0,-1.0,-1.4602203,-3.7037048,
16.828943,true,true,true,0.125,12.65,0.0,-15950,0,0,0.125,12.65,0.0,0,0,0,0.125,12.6,0.0,-23593,0,0,0.125,12.65,0.0,0,0,0,0.125,12.65,0.0,2,0,0,0.0,12.6,0.0,0,0,0,0.125,12.700000000000001,0.0,0,0,0,kReverse,kOff,-86.54,2.2,3.22,0.036865234,-0.98321533,0.049316406,33.15,0.0,0.0,-1.4602203,-3.7037048,
16.860411,true,true,true,0.125,12.65,0.0,-15950,0,0,0.125,12.65,0.0,0,0,0,0.125,12.6,0.0,-23593,0,0,0.125,12.65,0.0,0,0,0,0.125,12.65,0.0,2,0,0,0.0,12.6,0.0,0,0,0,0.125,12.700000000000001,0.0,0,0,0,kReverse,kOff,-86.54,2.2,3.22,0.040039062,-0.9835205,0.046325684,33.15,0.0,2.0,-1.4602203,-3.7037048,
16.886671000000003,true,true,true,0.125,12.65,0.0,-15950,0,0,0.125,12.65,0.0,0,0,0,0.125,12.6,0.0,-23593,0,0,0.125,12.65,0.0,0,0,0,0.125,12.65,0.0,2,0,0,0.0,12.6,0.0,0,0,0,0.125,12.700000000000001,0.0,0,0,0,kReverse,kOff,-86.54,2.2,3.22,0.039367676,-0.979187,0.042175293,33.15,0.0,0.0,-1.4602203,-3.7037048,
16.912145,true,true,true,0.125,12.65,0.0,-15950,0,0,0.125,12.65,0.0,0,0,0,0.125,12.6,0.0,-23593,0,0,0.125,12.65,0.0,0,0,0,0.125,12.65,0.0,2,0,0,0.0,12.6,0.0,0,0,0,0.125,12.700000000000001,0.0,0,0,0,kReverse,kOff,-86.54,2.2,3.22,0.039489746,-0.98205566,0.04864502,33.15,0.0,2.0,-1.4602203,-3.7037048,
16.944107,true,true,true,0.125,12.65,0.0,-15950,0,0,0.125,12.65,0.0,0,0,0,0.125,12.6,0.0,-23593,0,0,0.125,12.65,0.0,0,0,0,0.125,12.65,0.0,2,0,0,0.0,12.6,0.0,0,0,0,0.125,12.700000000000001,0.0,0,0,0,kReverse,kOff,-86.54,2.2,3.22,0.039245605,-0.9837036,0.04559326,33.15,0.0,1.0,-1.4602203,-3.7037048,
16.968594,true,true,true,0.125,12.65,0.0,-15950,0,0,0.125,12.65,0.0,0,0,0,0.125,12.6,0.0,-23593,0,0,0.125,12.65,0.0,0,0,0,0.0,12.65,0.0,2,0,0,0.0,12.6,0.0,0,0,0,0.125,12.700000000000001,0.0,0,0,0,kReverse,kOff,-86.54,2.2,3.22,0.03845215,-0.9831543,0.046691895,33.15,0.0,0.0,-1.4602203,-3.7037048,
17.005637999999998,true,true,true,0.125,12.65,0.0,-15950,0,0,0.125,12.65,0.0,0,0,0,0.125,12.6,0.0,-23593,0,0,0.125,12.65,0.0,0,0,0,0.0,12.65,0.0,2,0,0,0.0,12.6,0.0,0,0,0,0.125,12.700000000000001,0.0,0,0,0,kReverse,kOff,-86.54,2.2,3.22,0.038146973,-0.9817505,0.042297363,33.15,0.0,0.0,-1.4602203,-3.7037048,
17.035644,true,true,true,0.125,12.65,0.0,-15950,0,0,0.125,12.65,0.0,0,0,0,0.125,12.6,0.0,-23593,0,0,0.125,12.65,0.0,0,0,0,0.0,12.65,0.0,2,0,0,0.0,12.6,0.0,0,0,0,0.125,12.700000000000001,0.0,0,0,0,kReverse,kOff,-86.54,2.2,3.22,0.035949707,-0.9816284,0.044067383,33.15,0.0,-2.0,-1.4602203,-3.7037048,
17.051606,true,true,true,0.125,12.65,0.0,-15950,0,0,0.125,12.65,0.0,0,0,0,0.125,12.6,0.0,-23593,0,0,0.125,12.65,0.0,0,0,0,0.0,12.65,0.0,2,0,0,0.0,12.6,0.0,0,0,0,0.125,12.700000000000001,0.0,0,0,0,kReverse,kOff,-86.55,2.19,3.21,0.039001465,-0.98114014,0.04815674,33.15,0.0,2.0,-1.4602203,-3.7037048,
17.086864000000002,true,true,true,0.125,12.65,0.0,-15950,0,0,0.125,12.65,0.0,0,0,0,0.125,12.6,0.0,-23593,0,0,0.125,12.65,0.0,0,0,0,0.125,12.65,0.0,2,0,0,0.0,12.6,0.0,0,0,0,0.125,12.700000000000001,0.0,0,0,0,kReverse,kOff,-86.54,2.2,3.22,0.040039062,-0.98651123,0.047546387,33.15,0.0,2.0,-1.4602203,-3.7037048,
17.115429,true,true,true,0.125,12.65,0.0,-15950,0,0,0.125,12.65,0.0,0,0,0,0.125,12.6,0.0,-23593,0,0,0.125,12.65,0.0,0,0,0,0.125,12.65,0.0,2,0,0,0.0,12.65,0.0,0,0,0,0.125,12.700000000000001,0.0,0,0,0,kReverse,kOff,-86.54,2.2,3.22,0.035888672,-0.9830322,0.0446167,33.15,0.0,-2.0,-1.4602203,-3.7037048,
17.145738,true,true,true,0.125,12.65,0.0,-15950,0,0,0.125,12.65,0.0,0,0,0,0.125,12.6,0.0,-23593,0,0,0.125,12.65,0.0,0,0,0,0.125,12.65,0.0,2,0,0,0.0,12.65,0.0,0,0,0,0.125,12.700000000000001,0.0,0,0,0,kReverse,kOff,-86.54,2.2,3.22,0.03845215,-0.9830322,0.045715332,33.15,0.0,0.0,-1.4602203,-3.7037048,
17.173683,true,true,true,0.125,12.65,0.0,-15950,0,0,0.125,12.65,0.0,0,0,0,0.125,12.6,0.0,-23593,0,0,0.125,12.65,0.0,0,0,0,0.125,12.65,0.0,2,0,0,0.0,12.65,0.0,0,0,0,0.125,12.700000000000001,0.0,0,0,0,kReverse,kOff,-86.54,2.2,3.22,0.036132812,-0.9818115,0.04827881,33.15,0.0,0.0,-1.4602203,-3.7037048,
17.202471000000003,true,true,true,0.125,12.65,0.0,-15950,0,0,0.125,12.65,0.0,0,0,0,0.125,12.6,0.0,-23593,0,0,0.125,12.65,0.0,0,0,0,0.125,12.65,0.0,2,0,0,0.0,12.65,0.0,0,0,0,0.125,12.700000000000001,0.0,0,0,0,kReverse,kOff,-86.54,2.2,3.22,0.034851074,-0.9838257,0.046875,33.16,0.0,-2.0,-1.4602203,-3.7037048,
17.238659,true,true,true,0.125,12.65,0.0,-15950,0,0,0.125,12.65,0.0,0,0,0,0.125,12.6,0.0,-23593,0,0,0.125,12.65,0.0,0,0,0,0.0,12.65,0.0,2,0,0,0.0,12.65,0.0,0,0,0,0.125,12.700000000000001,0.0,0,0,0,kReverse,kOff,-86.54,2.2,3.22,0.039489746,-0.9844971,0.046569824,33.16,0.0,1.0,-1.4602203,-3.7037048,
17.267931,true,true,true,0.125,12.65,0.0,-15950,0,0,0.125,12.65,0.0,0,0,0,0.125,12.6,0.0,-23593,0,0,0.125,12.65,0.0,0,0,0,0.0,12.65,0.0,2,0,0,0.0,12.65,0.0,0,0,0,0.125,12.700000000000001,0.0,0,0,0,kReverse,kOff,-86.54,2.2,3.22,0.037231445,-0.9818115,0.04675293,33.16,0.0,0.0,-1.4602203,-3.7037048,
17.293469,true,true,true,0.125,12.65,0.0,-15950,0,0,0.125,12.65,0.0,0,0,0,0.125,12.6,0.0,-23593,0,0,0.125,12.65,0.0,0,0,0,0.125,12.65,0.0,2,0,0,0.0,12.65,0.0,0,0,0,0.125,12.700000000000001,0.0,0,0,0,kReverse,kOff,-86.54,2.2,3.22,0.03717041,-0.9841919,0.04095459,33.16,0.0,-2.0,-1.4602203,-3.7037048,
17.324468,true,true,true,0.125,12.65,0.0,-15950,0,0,0.125,12.65,0.0,0,0,0,0.125,12.6,0.0,-23593,0,0,0.125,12.65,0.0,0,0,0,0.125,12.65,0.0,2,0,0,0.0,12.65,0.0,0,0,0,0.125,12.700000000000001,0.0,0,0,0,kReverse,kOff,-86.54,2.2,3.22,0.038208008,-0.9838867,0.044677734,33.16,0.0,-1.0,-1.4602203,-3.7037048,
17.351413,true,true,true,0.125,12.65,0.0,-15950,0,0,0.125,12.65,0.0,0,0,0,0.125,12.6,0.0,-23593,0,0,0.125,12.65,0.0,0,0,0,0.0,12.65,0.0,2,0,0,0.0,12.65,0.0,0,0,0,0.125,12.700000000000001,0.0,0,0,0,kReverse,kOff,-86.54,2.2,3.22,0.03765869,-0.9831543,0.041870117,33.16,0.0,-1.0,-1.4602203,-3.7037048,
17.379572,true,true,true,0.125,12.65,0.0,-15950,0,0,0.125,12.65,0.0,0,0,0,0.125,12.6,0.0,-23593,0,0,0.125,12.65,0.0,0,0,0,0.0,12.65,0.0,2,0,0,0.0,12.65,0.0,0,0,0,0.125,12.700000000000001,0.0,0,0,0,kReverse,kOff,-86.54,2.2,3.22,0.037109375,-0.9824219,0.04626465,33.16,0.0,0.0,-1.4602203,-3.7037048,
17.420835999999998,true,true,true,0.125,12.65,0.0,-15950,0,0,0.125,12.65,0.0,0,0,0,0.125,12.6,0.0,-23593,0,0,0.125,12.65,0.0,0,0,0,0.125,12.65,0.0,2,0,0,0.0,12.65,0.0,0,0,0,0.125,12.700000000000001,0.0,0,0,0,kReverse,kOff,-86.54,2.2,3.22,0.03668213,-0.9828491,0.04815674,33.16,0.0,0.0,-1.4602203,-3.7037048,
17.465489,true,true,true,0.125,12.65,0.0,-15950,0,0,0.125,12.65,0.0,0,0,0,0.125,12.6,0.0,-23593,0,0,0.125,12.65,0.0,0,0,0,0.125,12.65,0.0,2,0,0,0.0,12.6,0.0,0,0,0,0.125,12.700000000000001,0.0,0,0,0,kReverse,kOff,-86.54,2.2,3.22,0.035217285,-0.982605,0.04046631,33.16,0.0,-4.0,-1.4602203,-3.7037048,
17.502928,true,true,true,0.125,12.65,0.0,-15950,0,0,0.125,12.65,0.0,0,0,0,0.125,12.6,0.0,-23593,0,0,0.125,12.65,0.0,0,0,0,0.125,12.65,0.0,2,0,0,0.0,12.6,0.0,0,0,0,0.125,12.700000000000001,0.0,0,0,0,kReverse,kOff,-86.54,2.2,3.22,0.038635254,-0.982666,0.044433594,33.16,0.0,0.0,-1.4602203,-3.7037048,
17.548182,true,true,true,0.125,12.65,0.0,-15950,0,0,0.125,12.65,0.0,0,0,0,0.125,12.6,0.0,-23593,0,0,0.125,12.65,0.0,0,0,0,0.125,12.65,0.0,2,0,0,0.0,12.6,0.0,0,0,0,0.125,12.700000000000001,0.0,0,0,0,kReverse,kOff,-86.54,2.2,3.22,0.03881836,-0.98394775,0.043945312,33.16,0.0,0.0,-1.4602203,-3.7037048,
17.584439000000003,true,true,true,0.125,12.65,0.0,-15950,0,0,0.125,12.65,0.0,0,0,0,0.125,12.6,0.0,-23593,0,0,0.125,12.65,0.0,0,0,0,0.125,12.65,0.0,2,0,0,0.0,12.6,0.0,0,0,0,0.125,12.700000000000001,0.0,0,0,0,kReverse,kOff,-86.54,2.2,3.22,0.036315918,-0.98553467,0.03930664,33.16,0.0,-3.0,-1.4602203,-3.7037048,
17.614593,true,true,true,0.125,12.65,0.0,-15950,0,0,0.125,12.6,0.0,0,0,0,0.125,12.6,0.0,-23593,0,0,0.125,12.65,0.0,0,0,0,0.0,12.65,0.0,2,0,0,0.0,12.6,0.0,0,0,0,0.125,12.700000000000001,0.0,0,0,0,kReverse,kOff,-86.54,2.2,3.22,0.038269043,-0.9857178,0.04925537,33.16,0.0,1.0,-1.4602203,-3.7037048,
17.643178,true,true,true,0.125,12.65,0.0,-15950,0,0,0.125,12.6,0.0,0,0,0,0.125,12.6,0.0,-23593,0,0,0.125,12.65,0.0,0,0,0,0.0,12.65,0.0,2,0,0,0.0,12.6,0.0,0,0,0,0.125,12.700000000000001,0.0,0,0,0,kReverse,kOff,-86.54,2.2,3.22,0.03845215,-0.9805298,0.04547119,33.16,0.0,0.0,-1.4602203,-3.7037048,
17.676554,true,true,true,0.125,12.65,0.0,-15950,0,0,0.125,12.6,0.0,0,0,0,0.125,12.6,0.0,-23593,0,0,0.125,12.65,0.0,0,0,0,0.0,12.65,0.0,2,0,0,0.0,12.6,0.0,0,0,0,0.125,12.700000000000001,0.0,0,0,0,kReverse,kOff,-86.54,2.2,3.22,0.037353516,-0.98565674,0.049621582,33.16,0.0,0.0,-1.4602203,-3.7037048,
17.691205,true,true,true,0.125,12.65,0.0,-15950,0,0,0.125,12.6,0.0,0,0,0,0.125,12.6,0.0,-23593,0,0,0.125,12.65,0.0,0,0,0,0.125,12.65,0.0,2,0,0,0.0,12.6,0.0,0,0,0,0.125,12.700000000000001,0.0,0,0,0,kReverse,kOff,-86.54,2.2,3.22,0.037902832,-0.9841919,0.04876709,33.16,0.0,1.0,-1.4602203,-3.7037048,
17.722163000000002,true,true,true,0.125,12.65,0.0,-15950,0,0,0.125,12.6,0.0,0,0,0,0.125,12.6,0.0,-23593,0,0,0.125,12.65,0.0,0,0,0,0.125,12.65,0.0,2,0,0,0.0,12.6,0.0,0,0,0,0.125,12.700000000000001,0.0,0,0,0,kReverse,kOff,-86.54,2.2,3.22,0.03930664,-0.9850464,0.046081543,33.19,0.0,1.0,-1.4602203,-3.7037048,
17.777639,true,true,true,0.125,12.65,0.0,-15950,0,0,0.125,12.6,0.0,0,0,0,0.125,12.6,0.0,-23593,0,0,0.125,12.65,0.0,0,0,0,0.0,12.65,0.0,2,0,0,0.0,12.65,0.0,0,0,0,0.125,12.700000000000001,0.0,0,0,0,kReverse,kOff,-86.53,2.2,3.23,0.039916992,-0.98547363,0.04144287,33.19,0.0,0.0,-1.4602203,-3.7037048,
17.831322,true,true,true,0.125,12.65,0.0,-15950,0,0,0.125,12.6,0.0,0,0,0,0.125,12.6,0.0,-23593,0,0,0.125,12.65,0.0,0,0,0,0.125,12.65,0.0,2,0,0,0.0,12.65,0.0,0,0,0,0.125,12.700000000000001,0.0,0,0,0,kReverse,kOff,-86.54,2.2,3.22,0.036621094,-0.9836426,0.042297363,33.19,0.0,-2.0,-1.4602203,-3.7037048,
17.865462,true,true,true,0.125,12.65,0.0,-15950,0,0,0.125,12.6,0.0,0,0,0,0.125,12.6,0.0,-23593,0,0,0.125,12.65,0.0,0,0,0,0.125,12.65,0.0,2,0,0,0.0,12.65,0.0,0,0,0,0.125,12.700000000000001,0.0,0,0,0,kReverse,kOff,-86.54,2.2,3.22,0.038513184,-0.9805908,0.05230713,33.19,0.0,3.0,-1.4602203,-3.7037048,
17.889668,true,true,true,0.125,12.65,0.0,-15950,0,0,0.125,12.6,0.0,0,0,0,0.125,12.6,0.0,-23593,0,0,0.125,12.65,0.0,0,0,0,0.125,12.65,0.0,2,0,0,0.0,12.65,0.0,0,0,0,0.125,12.700000000000001,0.0,0,0,0,kReverse,kOff,-86.54,2.2,3.22,0.03765869,-0.98413086,0.04699707,33.19,0.0,0.0,-1.4602203,-3.7037048,
17.911259,true,true,true,0.125,12.65,0.0,-15950,0,0,0.125,12.6,0.0,0,0,0,0.125,12.6,0.0,-23593,0,0,0.125,12.65,0.0,0,0,0,0.125,12.65,0.0,2,0,0,0.0,12.65,0.0,0,0,0,0.125,12.700000000000001,0.0,0,0,0,kReverse,kOff,-86.54,2.2,3.22,0.038513184,-0.98150635,0.048706055,33.19,0.0,1.0,-1.4602203,-3.7037048,
17.930053,true,true,true,0.125,12.65,0.0,-15950,0,0,0.125,12.65,0.0,0,0,0,0.125,12.6,0.0,-23593,0,0,0.125,12.65,0.0,0,0,0,0.125,12.65,0.0,2,0,0,0.0,12.6,0.0,0,0,0,0.125,12.700000000000001,0.0,0,0,0,kReverse,kOff,-86.54,2.2,3.22,0.04046631,-0.9831543,0.046020508,33.19,0.0,2.0,-1.4602203,-3.7037048,
17.949681,true,true,true,0.125,12.65,0.0,-15950,0,0,0.125,12.65,0.0,0,0,0,0.125,12.6,0.0,-23593,0,0,0.125,12.65,0.0,0,0,0,0.125,12.65,0.0,2,0,0,0.0,12.6,0.0,0,0,0,0.125,12.700000000000001,0.0,0,0,0,kReverse,kOff,-86.54,2.2,3.22,0.0357666,-0.98309326,0.04663086,33.19,0.0,-1.0,-1.4602203,-3.7037048,
17.971236,true,true,true,0.125,12.65,0.0,-15950,0,0,0.125,12.65,0.0,0,0,0,0.125,12.6,0.0,-23593,0,0,0.125,12.65,0.0,0,0,0,0.125,12.65,0.0,2,0,0,0.0,12.6,0.0,0,0,0,0.125,12.700000000000001,0.0,0,0,0,kReverse,kOff,-86.54,2.2,3.22,0.037841797,-0.98217773,0.047851562,33.19,0.0,0.0,-1.4602203,-3.7037048,
17.993292,true,true,true,0.125,12.65,0.0,-15950,0,0,0.125,12.65,0.0,0,0,0,0.125,12.6,0.0,-23593,0,0,0.125,12.65,0.0,0,0,0,0.125,12.65,0.0,2,0,0,0.0,12.6,0.0,0,0,0,0.125,12.700000000000001,0.0,0,0,0,kReverse,kOff,-86.54,2.2,3.22,0.037109375,-0.98394775,0.04675293,33.19,0.0,0.0,-1.4602203,-3.7037048,
18.02125,true,true,true,0.125,12.65,0.0,-15950,0,0,0.125,12.65,0.0,0,0,0,0.125,12.6,0.0,-23593,0,0,0.125,12.65,0.0,0,0,0,0.125,12.65,0.0,2,0,0,0.0,12.6,0.0,0,0,0,0.125,12.700000000000001,0.0,0,0,0,kReverse,kOff,-86.54,2.2,3.22,0.03942871,-0.98413086,0.04534912,33.19,0.0,1.0,-1.4602203,-3.7037048,
18.048204000000002,true,true,true,0.125,12.65,0.0,-15950,0,0,0.125,12.65,0.0,0,0,0,0.125,12.6,0.0,-23593,0,0,0.125,12.65,0.0,0,0,0,0.125,12.65,0.0,2,0,0,0.0,12.6,0.0,0,0,0,0.125,12.700000000000001,0.0,0,0,0,kReverse,kOff,-86.54,2.2,3.22,0.038391113,-0.9859009,0.042663574,33.19,0.0,0.0,-1.4602203,-3.7037048,
18.069978,true,true,true,0.125,12.65,0.0,-15950,0,0,0.125,12.65,0.0,0,0,0,0.125,12.6,0.0,-23593,0,0,0.125,12.65,0.0,0,0,0,0.125,12.65,0.0,2,0,0,0.0,12.6,0.0,0,0,0,0.125,12.700000000000001,0.0,0,0,0,kReverse,kOff,-86.54,2.2,3.22,0.03930664,-0.9846802,0.04852295,33.19,0.0,2.0,-1.4602203,-3.7037048,
18.094004,true,true,true,0.125,12.65,0.0,-15950,0,0,0.125,12.65,0.0,0,0,0,0.125,12.6,0.0,-23593,0,0,0.125,12.65,0.0,0,0,0,0.125,12.6,0.0,2,0,0,0.0,12.65,0.0,0,0,0,0.125,12.700000000000001,0.0,0,0,0,kReverse,kOff,-86.53,2.2,3.23,0.039245605,-0.98291016,0.04248047,33.19,0.0,0.0,-1.4602203,-3.7037048,
18.115229,true,true,true,0.125,12.65,0.0,-15950,0,0,0.125,12.65,0.0,0,0,0,0.125,12.6,0.0,-23593,0,0,0.125,12.65,0.0,0,0,0,0.125,12.6,0.0,2,0,0,0.0,12.65,0.0,0,0,0,0.125,12.700000000000001,0.0,0,0,0,kReverse,kOff,-86.54,2.2,3.22,0.039611816,-0.98443604,0.052246094,33.19,0.0,3.0,-1.4602203,-3.7037048,
18.140901000000003,true,true,true,0.125,12.65,0.0,-15950,0,0,0.125,12.65,0.0,0,0,0,0.125,12.6,0.0,-23593,0,0,0.125,12.65,0.0,0,0,0,0.125,12.6,0.0,2,0,0,0.0,12.65,0.0,0,0,0,0.125,12.700000000000001,0.0,0,0,0,kReverse,kOff,-86.53,2.2,3.23,0.03643799,-0.98236084,0.04559326,33.19,0.0,-1.0,-1.4602203,-3.7037048,
18.167208000000002,true,true,true,0.125,12.65,0.0,-15950,0,0,0.125,12.65,0.0,0,0,0,0.125,12.6,0.0,-23593,0,0,0.125,12.65,0.0,0,0,0,0.125,12.6,0.0,2,0,0,0.0,12.65,0.0,0,0,0,0.125,12.700000000000001,0.0,0,0,0,kReverse,kOff,-86.53,2.2,3.23,0.036376953,-0.9815674,0.044921875,33.19,0.0,-1.0,-1.4602203,-3.7037048,
18.188736000000002,true,true,true,0.125,12.65,0.0,-15950,0,0,0.125,12.65,0.0,0,0,0,0.125,12.6,0.0,-23593,0,0,0.125,12.65,0.0,0,0,0,0.125,12.6,0.0,2,0,0,0.0,12.65,0.0,0,0,0,0.125,12.700000000000001,0.0,0,0,0,kReverse,kOff,-86.53,2.2,3.23,0.03881836,-0.9827881,0.045715332,33.19,0.0,0.0,-1.4602203,-3.7037048,
18.213451,true,true,true,0.125,12.65,0.0,-15950,0,0,0.125,12.65,0.0,0,0,0,0.125,12.6,0.0,-23593,0,0,0.125,12.65,0.0,0,0,0,0.125,12.6,0.0,2,0,0,0.0,12.65,0.0,0,0,0,0.125,12.700000000000001,0.0,0,0,0,kReverse,kOff,-86.53,2.2,3.23,0.039001465,-0.982605,0.045654297,33.19,0.0,0.0,-1.4602203,-3.7037048,
18.2387,true,true,true,0.125,12.65,0.0,-15950,0,0,0.125,12.65,0.0,0,0,0,0.125,12.6,0.0,-23593,0,0,0.125,12.65,0.0,0,0,0,0.125,12.65,0.0,2,0,0,0.0,12.65,0.0,0,0,0,0.125,12.700000000000001,0.0,0,0,0,kReverse,kOff,-86.53,2.2,3.23,0.037231445,-0.98309326,0.0435791,33.17,0.0,-1.0,-1.4602203,-3.7037048,
18.264502,true,true,true,0.125,12.65,0.0,-15950,0,0,0.125,12.65,0.0,0,0,0,0.125,12.6,0.0,-23593,0,0,0.125,12.65,0.0,0,0,0,0.0,12.65,0.0,2,0,0,0.0,12.65,0.0,0,0,0,0.125,12.700000000000001,0.0,0,0,0,kReverse,kOff,-86.53,2.2,3.23,0.040222168,-0.9824219,0.04248047,33.17,0.0,0.0,-1.4602203,-3.7037048,
18.290604,true,true,true,0.125,12.65,0.0,-15950,0,0,0.125,12.65,0.0,0,0,0,0.125,12.6,0.0,-23593,0,0,0.125,12.65,0.0,0,0,0,0.0,12.65,0.0,2,0,0,0.0,12.65,0.0,0,0,0,0.125,12.700000000000001,0.0,0,0,0,kReverse,kOff,-86.54,2.2,3.23,0.038146973,-0.9831543,0.04510498,33.17,0.0,0.0,-1.4602203,-3.7037048,
18.314223000000002,true,true,true,0.125,12.65,0.0,-15950,0,0,0.125,12.65,0.0,0,0,0,0.125,12.6,0.0,-23593,0,0,0.125,12.65,0.0,0,0,0,0.125,12.65,0.0,2,0,0,0.0,12.65,0.0,0,0,0,0.125,12.700000000000001,0.0,0,0,0,kReverse,kOff,-86.54,2.2,3.23,0.035827637,-0.9819336,0.045410156,33.17,0.0,-2.0,-1.4602203,-3.7037048,
18.337885000000004,true,true,true,0.125,12.65,0.0,-15950,0,0,0.125,12.65,0.0,0,0,0,0.125,12.6,0.0,-23593,0,0,0.125,12.65,0.0,0,0,0,0.125,12.65,0.0,2,0,0,0.0,12.65,0.0,0,0,0,0.125,12.700000000000001,0.0,0,0,0,kReverse,kOff,-86.54,2.21,3.23,0.04083252,-0.98461914,0.047851562,33.17,0.0,3.0,-1.4602203,-3.7037048,
18.370905000000004,true,true,true,0.125,12.65,0.0,-15950,0,0,0.125,12.65,0.0,0,0,0,0.125,12.6,0.0,-23593,0,0,0.125,12.65,0.0,0,0,0,0.125,12.65,0.0,2,0,0,0.0,12.65,0.0,0,0,0,0.125,12.700000000000001,0.0,0,0,0,kReverse,kOff,-86.54,2.21,3.23,0.03930664,-0.9840698,0.046142578,33.17,0.0,1.0,-1.4602203,-3.7037048,
18.400647,true,true,true,0.125,12.65,0.0,-15950,0,0,0.375,12.65,0.0,0,0,0,0.5,12.55,0.0,-23598,0,0,0.25,12.6,0.0,0,0,0,0.125,12.55,0.0,2,0,0,0.0,12.55,0.0,0,0,0,0.125,12.6,0.0,0,0,0,kReverse,kOff,-86.53,2.2,3.23,0.032287598,-0.98114014,0.07324219,33.17,0.0,4.0,-1.4602203,-3.7036896,
18.426006,true,true,true,0.75,12.55,0.0,-15959,-2,0,1.0,12.55,0.0,0,0,0,0.75,12.55,0.0,-23606,-3,0,0.375,12.6,0.0,0,0,0,0.0,12.55,0.0,2,0,0,0.0,12.55,0.0,0,0,0,0.125,12.6,0.0,0,0,0,kReverse,kOff,-86.58,2.22,3.22,0.17712402,-0.97540283,0.1350708,33.17,0.0,162.0,-1.4600983,-3.7036133,
18.448644,true,true,true,1.25,12.55,0.0,-15962,-5,0,1.375,12.55,0.0,0,0,0,0.875,12.55,0.0,-23611,-8,0,0.625,12.6,0.0,0,0,0,0.0,12.55,0.0,2,0,0,0.0,12.55,0.0,0,0,0,0.125,12.6,0.0,0,0,0,kReverse,kOff,-86.74,2.25,3.16,-0.17663574,-0.9915161,-0.13909912,33.17,0.0,-265.0,-1.4597778,-3.7038116,
18.473031,true,true,true,1.375,12.55,0.0,-15964,-9,0,1.625,12.55,0.0,0,0,0,1.125,12.55,0.0,-23613,-13,0,1.0,12.6,0.0,0,0,0,0.125,12.55,0.0,2,0,0,0.0,12.55,0.0,0,0,0,0.125,12.6,0.0,0,0,0,kReverse,kOff,-86.86,2.13,3.02,-0.036621094,-0.9612427,0.08148193,33.17,0.0,-51.0,-1.4599152,-3.70401,
18.501043000000003,true,true,true,1.375,12.55,0.0,-15966,-12,0,1.875,12.55,0.0,0,0,0,1.375,12.55,0.0,-23619,-20,0,1.375,12.6,0.0,0,0,0,0.125,12.55,0.0,2,0,0,0.0,12.55,0.0,0,0,0,0.125,12.6,0.0,0,0,0,kReverse,kOff,-86.95,2.15,2.99,0.10522461,-0.92633057,-0.06451416,33.17,0.0,29.0,-1.4602356,-3.7046967,
18.528756,true,true,true,1.375,12.55,0.0,-15973,-15,0,1.875,12.55,0.0,0,0,0,1.375,12.55,0.0,-23622,-20,0,1.375,12.6,0.0,0,0,0,0.125,12.55,0.0,2,0,0,0.0,12.55,0.0,0,0,0,0.125,12.6,0.0,0,0,0,kReverse,kOff,-86.91,2.22,3.04,0.04650879,-0.96258545,0.006164551,33.17,0.0,-2.0,-1.4604187,-3.7057953,
18.561961,true,true,true,1.375,12.55,0.0,-15977,-15,0,1.875,12.55,0.0,0,0,0,1.375,12.4,0.0,-23630,-16,0,1.375,12.450000000000001,0.0,0,0,0,0.125,12.450000000000001,0.0,2,0,0,0.0,12.450000000000001,0.0,0,0,0,0.125,12.55,0.0,0,0,0,kReverse,kOff,-86.97,2.24,3.03,0.0024414062,-0.9696655,-0.042236328,33.17,0.0,-60.0,-1.4604034,-3.7076874,
18.596550999999998,true,true,true,1.375,12.450000000000001,0.0,-15987,-16,0,1.75,12.4,0.0,0,0,0,1.25,12.4,0.0,-23634,-16,0,1.25,12.450000000000001,0.0,0,0,0,0.0,12.450000000000001,0.0,2,0,0,0.0,12.450000000000001,0.0,0,0,0,0.125,12.55,0.0,0,0,0,kReverse,kOff,-87.0,2.22,3.0,0.034973145,-1.0060425,-0.12750244,33.17,0.0,-62.0,-1.4605408,-3.709198,
18.633003000000002,true,true,true,1.375,12.450000000000001,0.0,-15998,-21,0,1.625,12.4,0.0,0,0,0,1.125,12.4,0.0,-23645,-19,0,1.25,12.450000000000001,0.0,0,0,0,0.125,12.450000000000001,0.0,2,0,0,0.0,12.450000000000001,0.0,0,0,0,0.125,12.55,0.0,0,0,0,kReverse,kOff,-87.07,2.2,2.95,0.0053100586,-0.98101807,0.026245117,33.17,0.0,-32.0,-1.4607697,-3.7109222,
18.665078,true,true,true,1.25,12.450000000000001,0.0,-16012,-26,0,1.5,12.4,0.0,0,0,0,0.875,12.4,0.0,-23657,-23,0,1.25,12.450000000000001,0.0,0,0,0,0.125,12.450000000000001,0.0,2,0,0,0.0,12.450000000000001,0.0,0,0,0,0.125,12.55,0.0,0,0,0,kReverse,kOff,-87.1,2.21,2.93,0.08728027,-0.9660034,0.08660889,33.17,0.0,66.0,-1.4610748,-3.7128754,
18.689164,true,true,true,1.125,12.450000000000001,0.0,-16018,-28,0,1.5,12.4,0.0,0,0,0,0.875,12.4,0.0,-23664,-26,0,1.25,12.450000000000001,0.0,0,0,0,0.125,12.450000000000001,0.0,2,0,0,0.0,12.450000000000001,0.0,0,0,0,0.125,12.55,0.0,0,0,0,kReverse,kOff,-87.13,2.22,2.92,0.076049805,-0.97802734,0.08416748,33.17,0.0,54.0,-1.461441,-3.7150116,
18.713883000000003,true,true,true,1.125,12.450000000000001,0.0,-16026,-30,0,1.5,12.4,0.0,0,0,0,0.875,12.4,0.0,-23671,-28,0,1.0,12.450000000000001,0.0,0,0,0,0.125,12.450000000000001,0.0,2,0,0,0.0,12.450000000000001,0.0,0,0,0,0.125,12.55,0.0,0,0,0,kReverse,kOff,-87.12,2.24,2.94,0.055541992,-0.9760132,0.028259277,33.17,0.0,15.0,-1.4615784,-3.7160797,
18.741874,true,true,true,1.125,12.450000000000001,0.0,-16034,-32,0,1.5,12.450000000000001,0.0,0,0,0,0.875,12.450000000000001,0.0,-23686,-32,0,1.0,12.450000000000001,0.0,0,0,0,0.125,12.5,0.0,2,0,0,0.0,12.450000000000001,0.0,0,0,0,0.125,12.55,0.0,0,0,0,kReverse,kOff,-87.13,2.24,2.93,0.044799805,-0.97839355,0.04937744,33.19,0.0,12.0,-1.4619141,-3.7160797,
18.768912,true,true,true,1.0,12.450000000000001,0.0,-16051,-36,0,1.375,12.450000000000001,0.0,0,0,0,0.875,12.450000000000001,0.0,-23694,-34,0,0.875,12.450000000000001,0.0,0,0,0,0.125,12.5,0.0,2,0,0,0.0,12.450000000000001,0.0,0,0,0,0.125,12.55,0.0,0,0,0,kReverse,kOff,-87.15,2.24,2.92,0.0592041,-0.9869385,0.07757568,33.19,0.0,36.0,-1.4620972,-3.7158508,
18.792139,true,true,true,1.0,12.450000000000001,0.0,-16059,-38,0,1.5,12.450000000000001,0.0,0,0,0,0.875,12.450000000000001,0.0,-23702,-36,0,0.875,12.450000000000001,0.0,0,0,0,0.125,12.5,0.0,2,0,0,0.0,12.450000000000001,0.0,0,0,0,0.125,12.55,0.0,0,0,0,kReverse,kOff,-87.14,2.23,2.92,0.08917236,-0.9251709,0.08123779,33.19,0.0,68.0,-1.4620361,-3.7152863,
18.821234,true,true,true,1.0,12.450000000000001,0.0,-16068,-40,0,1.5,12.450000000000001,0.0,0,0,0,0.875,12.450000000000001,0.0,-23719,-38,0,0.875,12.450000000000001,0.0,0,0,0,0.125,12.5,0.0,2,0,0,0.0,12.450000000000001,0.0,0,0,0,0.125,12.55,0.0,0,0,0,kReverse,kOff,-87.11,2.28,2.97,-0.04949951,-1.0136719,-0.09991455,33.19,0.0,-131.0,-1.4619751,-3.7150269,
18.848812000000002,true,true,true,1.0,12.450000000000001,0.0,-16086,-42,0,1.375,12.450000000000001,0.0,0,0,0,0.75,12.450000000000001,0.0,-23728,-39,0,0.875,12.450000000000001,0.0,0,0,0,0.125,12.5,0.0,2,0,0,0.0,12.450000000000001,0.0,0,0,0,0.125,12.55,0.0,0,0,0,kReverse,kOff,-87.07,2.26,2.98,0.0024414062,-0.9394531,0.0053710938,33.19,0.0,-41.0,-1.4621277,-3.7150726,
18.871703,true,true,true,1.0,12.450000000000001,0.0,-16094,-42,0,1.375,12.450000000000001,0.0,0,0,0,0.75,12.450000000000001,0.0,-23737,-40,0,0.875,12.450000000000001,0.0,0,0,0,0.125,12.5,0.0,2,0,0,0.0,12.450000000000001,0.0,0,0,0,0.125,12.55,0.0,0,0,0,kReverse,kOff,-87.08,2.29,3.0,0.045410156,-1.0324097,0.08929443,33.19,0.0,24.0,-1.4625244,-3.7154999,
18.897343,true,true,true,1.0,12.450000000000001,0.0,-16104,-43,0,1.375,12.450000000000001,0.0,0,0,0,0.75,12.450000000000001,0.0,-23756,-43,0,0.875,12.5,0.0,0,0,0,0.0,12.5,0.0,2,0,0,0.0,12.5,0.0,0,0,0,0.125,12.55,0.0,0,0,0,kReverse,kOff,-87.05,2.29,3.01,0.09112549,-0.90997314,0.13366699,33.19,0.0,88.0,-1.4626465,-3.715683,
18.921503,true,true,true,1.0,12.450000000000001,0.0,-16113,-44,0,1.25,12.450000000000001,0.0,0,0,0,0.75,12.450000000000001,0.0,-23766,-44,0,0.875,12.5,0.0,0,0,0,0.0,12.5,0.0,2,0,0,0.0,12.5,0.0,0,0,0,0.125,12.55,0.0,0,0,0,kReverse,kOff,-87.06,2.32,3.02,-0.009399414,-0.9573364,0.09197998,33.19,0.0,-22.0,-1.4628906,-3.7161713,
18.94489,true,true,true,0.875,12.450000000000001,0.0,-16134,-46,0,1.25,12.450000000000001,0.0,0,0,0,0.75,12.450000000000001,0.0,-23776,-46,0,0.625,12.5,0.0,0,0,0,0.0,12.5,0.0,2,0,0,0.0,12.5,0.0,0,0,0,0.125,12.55,0.0,0,0,0,kReverse,kOff,-87.04,2.31,3.03,0.089782715,-1.0310669,-0.034423828,33.19,0.0,20.0,-1.4630432,-3.716446,
18.957693,true,true,true,0.875,12.450000000000001,0.0,-16134,-46,0,1.25,12.450000000000001,0.0,0,0,0,0.75,12.450000000000001,0.0,-23776,-47,0,0.625,12.5,0.0,0,0,0,0.0,12.5,0.0,2,0,0,0.0,12.5,0.0,0,0,0,0.125,12.55,0.0,0,0,0,kReverse,kOff,-87.08,2.32,3.01,0.028930664,-0.96746826,0.021606445,33.19,0.0,-12.0,-1.4631805,-3.7167664,
18.974296000000002,true,true,true,0.875,12.450000000000001,0.0,-16145,-48,0,1.25,12.450000000000001,0.0,0,0,0,0.75,12.450000000000001,0.0,-23786,-47,0,0.625,12.5,0.0,0,0,0,0.0,12.5,0.0,2,0,0,0.0,12.5,0.0,0,0,0,0.125,12.55,0.0,0,0,0,kReverse,kOff,-87.08,2.32,3.01,0.109558105,-0.97210693,0.23608398,33.19,0.0,140.0,-1.4635315,-3.7174835,
19.008444,true,true,true,0.875,12.450000000000001,0.0,-16167,-51,0,1.25,12.450000000000001,0.0,0,0,0,0.75,12.450000000000001,0.0,-23806,-49,0,0.625,12.5,0.0,0,0,0,0.0,12.5,0.0,2,0,0,0.0,12.5,0.0,0,0,0,0.125,12.55,0.0,0,0,0,kReverse,kOff,-87.03,2.33,3.05,0.0146484375,-1.0444946,-0.019958496,33.19,0.0,-45.0,-1.4638367,-3.717865,
19.039504,true,true,true,0.875,12.450000000000001,0.0,-16177,-52,0,1.25,12.450000000000001,0.0,0,0,0,0.5,12.450000000000001,0.0,-23827,-50,0,0.625,12.5,0.0,0,0,0,0.0,12.5,0.0,2,0,0,0.0,12.5,0.0,0,0,0,0.125,12.55,0.0,0,0,0,kReverse,kOff,-87.01,2.34,3.07,-0.04449463,-0.9581299,-0.11035156,33.19,0.0,-129.0,-1.4642639,-3.7181702,
19.067852000000002,true,true,true,0.875,12.450000000000001,0.0,-16200,-53,0,1.25,12.450000000000001,0.0,0,0,0,0.5,12.450000000000001,0.0,-23838,-50,0,0.625,12.5,0.0,0,0,0,0.0,12.5,0.0,2,0,0,0.0,12.5,0.0,0,0,0,0.125,12.55,0.0,0,0,0,kReverse,kOff,-86.98,2.37,3.1,0.033996582,-1.0874023,-0.10803223,33.19,0.0,-62.0,-1.4647675,-3.7185516,
19.094245000000004,true,true,true,0.875,12.450000000000001,0.0,-16211,-54,0,1.25,12.450000000000001,0.0,0,0,0,0.5,12.450000000000001,0.0,-23850,-51,0,0.625,12.5,0.0,0,0,0,0.125,12.5,0.0,2,0,0,0.0,12.5,0.0,0,0,0,0.125,12.55,0.0,0,0,0,kReverse,kOff,-86.96,2.38,3.12,0.054260254,-0.9317627,0.08380127,33.19,0.0,33.0,-1.4653778,-3.7192535,
19.124168,true,true,true,0.875,12.450000000000001,0.0,-16233,-54,0,1.25,12.450000000000001,0.0,0,0,0,0.5,12.450000000000001,0.0,-23872,-53,0,0.625,12.5,0.0,0,0,0,0.125,12.5,0.0,2,0,0,0.0,12.5,0.0,0,0,0,0.125,12.55,0.0,0,0,0,kReverse,kOff,-86.92,2.39,3.15,0.06524658,-1.0768433,0.007019043,33.19,0.0,8.0,-1.4656525,-3.719864,
19.149456,true,true,true,0.875,12.450000000000001,0.0,-16244,-55,0,1.25,12.450000000000001,0.0,0,0,0,0.5,12.450000000000001,0.0,-23883,-54,0,0.625,12.5,0.0,0,0,0,0.125,12.5,0.0,2,0,0,0.0,12.5,0.0,0,0,0,0.125,12.55,0.0,0,0,0,kReverse,kOff,-86.91,2.41,3.16,0.06958008,-1.0326538,0.06048584,33.19,0.0,33.0,-1.465622,-3.7201843,
19.171819,true,true,true,0.875,12.450000000000001,0.0,-16255,-55,0,1.25,12.450000000000001,0.0,0,0,0,0.5,12.450000000000001,0.0,-23894,-55,0,0.625,12.5,0.0,0,0,0,0.125,12.5,0.0,2,0,0,0.0,12.5,0.0,0,0,0,0.125,12.55,0.0,0,0,0,kReverse,kOff,-86.87,2.45,3.21,0.07836914,-1.1329956,-0.0029296875,33.19,0.0,12.0,-1.4654999,-3.7202148,
19.197692,true,true,true,0.75,12.450000000000001,0.0,-16267,-55,0,1.25,12.450000000000001,0.0,0,0,0,0.5,12.450000000000001,0.0,-23917,-55,0,0.625,12.55,0.0,0,0,0,0.125,12.5,0.0,2,0,0,0.0,12.5,0.0,0,0,0,0.125,12.6,0.0,0,0,0,kReverse,kOff,-86.87,2.46,3.21,0.061462402,-1.0722656,0.10888672,33.19,0.0,40.0,-1.4653015,-3.7202759,
19.223991,true,true,true,0.875,12.5,0.0,-16290,-56,0,1.25,12.5,0.0,0,0,0,0.5,12.5,0.0,-23929,-56,0,0.625,12.55,0.0,0,0,0,0.125,12.5,0.0,2,0,0,0.0,12.5,0.0,0,0,0,0.125,12.6,0.0,0,0,0,kReverse,kOff,-86.88,2.45,3.2,0.070007324,-1.0440063,0.09716797,33.19,0.0,46.0,-1.46521,-3.7203217,
19.247035,true,true,true,0.75,12.5,0.0,-16302,-56,0,1.25,12.5,0.0,0,0,0,0.5,12.5,0.0,-23940,-56,0,0.625,12.55,0.0,0,0,0,0.125,12.5,0.0,2,0,0,0.0,12.5,0.0,0,0,0,0.125,12.6,0.0,0,0,0,kReverse,kOff,-86.84,2.46,3.23,0.028503418,-0.9481201,0.07019043,33.18,0.0,2.0,-1.4649963,-3.7203217,
19.270768,true,true,true,0.875,12.5,0.0,-16313,-57,0,1.25,12.5,0.0,0,0,0,0.5,12.5,0.0,-23952,-57,0,0.625,12.55,0.0,0,0,0,0.125,12.5,0.0,2,0,0,0.0,12.5,0.0,0,0,0,0.125,12.6,0.0,0,0,0,kReverse,kOff,-86.8,2.49,3.27,0.03729248,-1.026062,0.117614746,33.18,0.0,22.0,-1.4649963,-3.7203064,
19.304749,true,true,true,0.75,12.5,0.0,-16336,-57,0,1.25,12.5,0.0,0,0,0,0.5,12.5,0.0,-23975,-57,0,0.625,12.55,0.0,0,0,0,0.125,12.5,0.0,2,0,0,0.0,12.5,0.0,0,0,0,0.125,12.6,0.0,0,0,0,kReverse,kOff,-86.75,2.48,3.3,-0.012084961,-0.9655762,0.114746094,33.18,0.0,-21.0,-1.4647217,-3.7197266,
19.328411,true,true,true,0.75,12.5,0.0,-16348,-57,0,1.25,12.5,0.0,0,0,0,0.5,12.5,0.0,-23987,-57,0,0.625,12.55,0.0,0,0,0,0.125,12.5,0.0,2,0,0,0.0,12.5,0.0,0,0,0,0.125,12.6,0.0,0,0,0,kReverse,kOff,-86.74,2.47,3.3,0.07006836,-0.9376831,0.14910889,33.18,0.0,69.0,-1.464508,-3.719223,
19.350816000000002,true,true,true,0.75,12.5,0.0,-16360,-57,0,1.0,12.5,0.0,0,0,0,0.5,12.5,0.0,-23999,-58,0,0.625,12.55,0.0,0,0,0,0.125,12.5,0.0,2,0,0,0.0,12.5,0.0,0,0,0,0.125,12.6,0.0,0,0,0,kReverse,kOff,-86.71,2.49,3.33,0.048217773,-0.9866333,0.043945312,33.18,0.0,7.0,-1.4639587,-3.7179565,
19.374745000000004,true,true,true,0.625,12.5,0.0,-16369,-57,0,0.75,12.5,0.0,0,0,0,0.875,12.450000000000001,0.0,-24012,-58,0,0.625,12.5,0.0,0,0,0,0.125,12.5,0.0,2,0,0,0.0,12.5,0.0,0,0,0,0.125,12.55,0.0,0,0,0,kReverse,kOff,-86.72,2.45,3.3,0.046081543,-0.97717285,0.041259766,33.18,0.0,5.0,-1.4632568,-3.716446,
19.410045,true,true,true,0.125,12.5,0.0,-16383,-54,0,0.125,12.5,0.0,0,0,0,2.625,12.450000000000001,0.0,-24044,-62,0,2.5,12.5,0.0,0,0,0,0.125,12.5,0.0,2,0,0,0.0,12.5,0.0,0,0,0,0.125,12.55,0.0,0,0,0,kReverse,kOff,-86.7,2.4,3.28,0.054748535,-0.9873657,0.11102295,33.18,0.0,38.0,-1.4624786,-3.7145538,
19.432654000000003,true,true,true,0.125,12.5,0.0,-16386,-49,0,0.125,12.5,0.0,0,0,0,3.625,12.450000000000001,0.0,-24059,-66,0,3.125,12.5,0.0,0,0,0,0.125,12.5,0.0,2,0,0,0.0,12.5,0.0,0,0,0,0.125,12.55,0.0,0,0,0,kReverse,kOff,-86.69,2.42,3.29,0.048034668,-0.9835205,-0.08679199,33.18,0.0,-39.0,-1.4620819,-3.7135773,
19.469131,true,true,true,0.25,12.5,0.0,-16390,-33,0,0.375,12.5,0.0,0,0,0,6.0,12.450000000000001,0.0,-24099,-76,0,5.75,12.5,0.0,0,0,0,0.125,12.5,0.0,2,0,0,0.0,12.5,0.0,0,0,0,0.125,12.55,0.0,0,0,0,kReverse,kOff,-86.59,2.41,3.28,0.08654785,-0.94921875,0.55023193,33.18,0.0,217.0,-1.4608154,-3.7107697,
19.504316000000003,true,true,true,1.25,12.5,0.0,-16395,-19,0,1.5,12.5,0.0,0,0,0,8.5,12.450000000000001,0.0,-24143,-88,0,7.875,12.5,0.0,0,0,0,0.125,12.5,0.0,2,0,0,0.0,12.5,0.0,0,0,0,0.125,12.55,0.0,0,0,0,kReverse,kOff,-86.24,2.42,3.38,-0.06213379,-0.98999023,0.20593262,33.18,0.0,-49.0,-1.4594421,-3.707138,
19.530592000000002,true,true,true,1.75,11.850000000000001,0.0,-16395,-15,0,2.125,11.9,0.0,0,0,0,9.25,11.75,0.0,-24169,-95,0,8.875,11.850000000000001,0.0,0,0,0,0.125,11.9,0.0,2,0,0,0.0,11.9,0.0,0,0,0,0.125,11.95,0.0,0,0,0,kReverse,kOff,-86.11,2.34,3.27,0.009399414,-0.9571533,-0.12988281,33.18,0.0,-80.0,-1.4580688,-3.7027893,
19.566716,true,true,true,2.125,11.850000000000001,0.0,-16390,-7,0,2.875,11.9,0.0,0,0,0,10.5,11.75,0.0,-24227,-113,0,10.0,11.850000000000001,0.0,0,0,0,0.125,11.9,0.0,2,0,0,0.0,11.9,0.0,0,0,0,0.125,11.95,0.0,0,0,0,kReverse,kOff,-86.2,2.34,3.12,-0.010925293,-0.93756104,0.11065674,33.18,0.0,-32.0,-1.4567108,-3.6987305,
19.601748,true,true,true,2.125,11.850000000000001,0.0,-16387,-2,0,3.0,11.9,0.0,0,0,0,10.875,11.75,0.0,-24291,-132,0,10.375,11.850000000000001,0.0,0,0,0,0.0,11.9,0.0,2,0,0,0.0,11.9,0.0,0,0,0,0.125,11.95,0.0,0,0,0,kReverse,kOff,-86.24,2.39,3.01,0.07904053,-0.8706665,0.054382324,33.18,0.0,43.0,-1.4556122,-3.694992,
19.616111,true,true,true,2.25,11.850000000000001,0.0,-16382,3,0,3.0,11.9,0.0,0,0,0,11.25,11.75,0.0,-24327,-142,0,10.625,11.850000000000001,0.0,0,0,0,0.0,11.9,0.0,2,0,0,0.0,11.9,0.0,0,0,0,0.125,11.95,0.0,0,0,0,kReverse,kOff,-86.12,2.48,2.97,0.02532959,-1.0483398,0.039123535,33.18,0.0,-22.0,-1.4542542,-3.691208,
19.655597,true,true,true,2.75,11.850000000000001,0.0,-16367,16,0,3.75,11.9,0.0,0,0,0,11.625,11.75,0.0,-24367,-152,0,11.125,11.850000000000001,0.0,0,0,0,0.0,11.9,0.0,2,0,0,0.0,11.9,0.0,0,0,0,0.125,11.95,0.0,0,0,0,kReverse,kOff,-86.13,2.36,2.58,0.06994629,-1.0610352,-0.03112793,33.18,0.0,19.0,-1.4523926,-3.6849213,
19.691669,true,true,true,3.375,11.5,0.0,-16343,30,0,4.5,11.5,0.0,0,0,0,12.875,11.4,0.0,-24451,-173,0,11.875,11.600000000000001,0.0,0,0,0,0.125,11.55,0.0,2,0,0,0.0,11.55,0.0,0,0,0,0.125,11.600000000000001,0.0,0,0,0,kReverse,kOff,-86.2,2.28,2.29,-0.09661865,-0.9217529,0.16790771,33.18,0.0,-132.0,-1.4516296,-3.6808777,
19.722356,true,true,true,3.75,11.5,0.0,-16327,38,0,5.125,11.5,0.0,0,0,0,13.625,11.4,0.0,-24542,-195,0,12.875,11.600000000000001,0.0,0,0,0,0.0,11.55,0.0,2,0,0,0.0,11.55,0.0,0,0,0,0.125,11.600000000000001,0.0,0,0,0,kReverse,kOff,-86.11,2.22,1.99,0.0052490234,-0.86157227,0.22595215,33.18,0.0,-41.0,-1.4514618,-3.6766968,
19.749438,true,true,true,2.75,11.5,0.0,-16300,56,0,3.625,11.5,0.0,0,0,0,10.25,11.4,0.0,-24585,-206,0,11.375,11.600000000000001,0.0,0,0,0,0.0,11.55,0.0,2,0,0,0.0,11.55,0.0,0,0,0,0.125,11.600000000000001,0.0,0,0,0,kReverse,kOff,-86.12,2.28,1.8,-0.040527344,-1.0889893,-0.5566406,33.18,0.0,10.0,-1.4512024,-3.6721344,
19.777125,true,true,true,1.5,11.5,0.0,-16290,63,0,2.125,11.5,0.0,0,0,0,6.25,11.4,0.0,-24631,-215,0,4.875,11.600000000000001,0.0,0,0,0,0.125,11.55,0.0,2,0,0,0.0,11.55,0.0,0,0,0,0.125,11.600000000000001,0.0,0,0,0,kReverse,kOff,-86.52,2.19,1.67,-0.085632324,-0.9992676,-0.3671875,33.18,0.0,-43.0,-1.4510498,-3.6707153,
19.801464,true,true,true,0.375,11.5,0.0,-16283,65,0,0.125,11.5,0.0,0,0,0,0.75,11.4,0.0,-24700,-219,0,1.25,11.600000000000001,0.0,0,0,0,0.125,11.55,0.0,2,0,0,0.0,11.55,0.0,0,0,0,0.125,11.600000000000001,0.0,0,0,0,kReverse,kOff,-86.36,2.44,1.73,0.23297119,-0.9559326,-0.118652344,33.18,0.0,227.0,-1.4501648,-3.6685486,
19.829619,true,true,true,0.125,11.5,0.0,-16273,54,0,0.125,11.5,0.0,0,0,0,0.125,11.4,0.0,-24724,-211,0,0.375,11.600000000000001,0.0,0,0,0,0.125,11.55,0.0,2,0,0,0.0,11.55,0.0,0,0,0,0.125,11.600000000000001,0.0,0,0,0,kReverse,kOff,-86.51,2.72,1.99,0.234375,-1.0463257,-0.17041016,33.18,0.0,241.0,-1.4477539,-3.6666412,
19.852414,true,true,true,0.125,12.450000000000001,0.0,-16265,46,0,0.125,12.5,0.0,0,0,0,0.125,12.450000000000001,0.0,-24757,-196,0,0.125,12.5,0.0,0,0,0,0.125,12.450000000000001,0.0,2,0,0,0.0,12.5,0.0,0,0,0,0.125,12.55,0.0,0,0,0,kReverse,kOff,-86.48,2.8,2.03,0.051513672,-0.91760254,-0.12182617,33.18,0.0,59.0,-1.4461365,-3.665924,
19.880787,true,true,true,0.125,12.450000000000001,0.0,-16256,39,0,0.125,12.5,0.0,0,0,0,0.125,12.450000000000001,0.0,-24819,-168,0,0.125,12.5,0.0,0,0,0,0.125,12.450000000000001,0.0,2,0,0,0.0,12.5,0.0,0,0,0,0.125,12.55,0.0,0,0,0,kReverse,kOff,-86.47,2.69,1.74,0.0079956055,-1.0549316,0.02935791,33.18,0.0,-33.0,-1.4431915,-3.6644135,
19.906113,true,true,true,0.125,12.450000000000001,0.0,-16243,34,0,0.125,12.5,0.0,0,0,0,0.125,12.450000000000001,0.0,-24842,-157,0,0.125,12.5,0.0,0,0,0,0.125,12.450000000000001,0.0,2,0,0,0.0,12.5,0.0,0,0,0,0.125,12.55,0.0,0,0,0,kReverse,kOff,-86.52,2.76,1.79,0.22137451,-0.892334,0.14538574,33.18,0.0,115.0,-1.4398499,-3.6632843,
19.927043,true,true,true,0.125,12.450000000000001,0.0,-16242,34,0,0.125,12.5,0.0,0,0,0,0.125,12.450000000000001,0.0,-24864,-148,0,0.125,12.5,0.0,0,0,0,0.125,12.450000000000001,0.0,2,0,0,0.0,12.5,0.0,0,0,0,0.125,12.55,0.0,0,0,0,kReverse,kOff,-86.4,2.86,1.83,0.06976318,-0.94226074,0.018981934,33.18,0.0,27.0,-1.4379578,-3.6626282,
19.952175999999998,true,true,true,0.125,12.450000000000001,0.0,-16246,31,0,0.125,12.5,0.0,0,0,0,0.125,12.450000000000001,0.0,-24884,-140,0,0.125,12.5,0.0,0,0,0,0.125,12.450000000000001,0.0,2,0,0,0.0,12.5,0.0,0,0,0,0.125,12.55,0.0,0,0,0,kReverse,kOff,-86.4,2.97,1.96,0.14251709,-0.94104004,0.046569824,33.18,0.0,77.0,-1.4338989,-3.6611023,
19.9737,true,true,true,0.125,12.450000000000001,0.0,-16252,24,0,0.125,12.5,0.0,0,0,0,0.125,12.450000000000001,0.0,-24900,-131,0,0.125,12.5,0.0,0,0,0,0.125,12.450000000000001,0.0,2,0,0,0.0,12.5,0.0,0,0,0,0.125,12.55,0.0,0,0,0,kReverse,kOff,-86.34,3.04,2.02,0.1449585,-1.0089722,0.08721924,33.18,0.0,57.0,-1.4317169,-3.6601868,
20.000054,true,true,true,0.125,12.450000000000001,0.0,-16257,12,0,0.125,12.5,0.0,0,0,0,0.125,12.55,0.0,-24924,-103,0,0.125,12.55,0.0,0,0,0,0.125,12.55,0.0,2,0,0,0.0,12.55,0.0,0,0,0,0.125,12.55,0.0,0,0,0,kReverse,kOff,-86.27,3.06,1.97,-0.02960205,-0.9816284,0.047058105,33.18,0.0,-77.0,-1.4272614,-3.6581573,
20.021523000000002,true,true,true,0.125,12.55,0.0,-16263,0,0,0.125,12.55,0.0,0,0,0,0.125,12.55,0.0,-24933,-89,0,0.125,12.55,0.0,0,0,0,0.125,12.55,0.0,2,0,0,0.0,12.55,0.0,0,0,0,0.125,12.6,0.0,0,0,0,kReverse,kOff,-86.3,2.99,1.86,0.031311035,-0.9517212,0.14227295,33.18,0.0,-65.0,-1.4230652,-3.656189,
20.049206,true,true,true,0.125,12.55,0.0,-16275,-21,0,0.125,12.55,0.0,0,0,0,0.125,12.55,0.0,-24940,-76,0,0.125,12.55,0.0,0,0,0,0.125,12.55,0.0,2,0,0,0.0,12.55,0.0,0,0,0,0.125,12.6,0.0,0,0,0,kReverse,kOff,-86.16,3.04,1.83,0.16796875,-0.9782715,0.10333252,33.18,0.0,73.0,-1.4189911,-3.6537628,
20.073661,true,true,true,0.125,12.55,0.0,-16282,-26,0,0.125,12.55,0.0,0,0,0,0.125,12.55,0.0,-24946,-64,0,0.125,12.55,0.0,0,0,0,0.0,12.55,0.0,2,0,0,0.0,12.55,0.0,0,0,0,0.125,12.6,0.0,0,0,0,kReverse,kOff,-86.07,3.11,1.87,0.08087158,-0.93792725,0.199646,33.18,0.0,-47.0,-1.4169312,-3.652298,
20.100722,true,true,true,0.125,12.55,0.0,-16289,-29,0,0.125,12.55,0.0,0,0,0,0.125,12.55,0.0,-24954,-42,0,0.125,12.55,0.0,0,0,0,0.0,12.55,0.0,2,0,0,0.0,12.55,0.0,0,0,0,0.125,12.6,0.0,0,0,0,kReverse,kOff,-85.98,3.09,1.77,-0.027648926,-0.9790039,0.06689453,33.18,0.0,-82.0,-1.4130707,-3.6488495,
20.128803,true,true,true,0.125,12.55,0.0,-16300,-31,0,0.125,12.55,0.0,0,0,0,0.125,12.55,0.0,-24958,-34,0,0.125,12.55,0.0,0,0,0,0.0,12.55,0.0,2,0,0,0.0,12.55,0.0,0,0,0,0.125,12.6,0.0,0,0,0,kReverse,kOff,-85.96,3.03,1.67,-0.02532959,-1.017334,0.09094238,33.18,0.0,-90.0,-1.4095764,-3.645279,
20.152386000000003,true,true,true,0.125,12.55,0.0,-16304,-31,0,0.125,12.55,0.0,0,0,0,0.125,12.55,0.0,-24961,-28,0,0.125,12.55,0.0,0,0,0,0.125,12.55,0.0,2,0,0,0.0,12.55,0.0,0,0,0,0.125,12.6,0.0,0,0,0,kReverse,kOff,-85.93,3.0,1.61,0.06707764,-0.963562,0.19244385,33.18,0.0,-51.0,-1.4079742,-3.6433868,
20.180692999999998,true,true,true,0.125,12.55,0.0,-16308,-29,0,0.125,12.55,0.0,0,0,0,0.125,12.55,0.0,-24965,-19,0,0.125,12.55,0.0,0,0,0,0.125,12.55,0.0,2,0,0,0.0,12.55,0.0,0,0,0,0.125,12.6,0.0,0,0,0,kReverse,kOff,-85.84,3.0,1.54,0.014465332,-0.961853,0.1430664,33.18,0.0,-74.0,-1.4049683,-3.639038,
20.206557,true,true,true,0.125,12.55,0.0,-16314,-24,0,0.125,12.55,0.0,0,0,0,0.125,12.55,0.0,-24967,-16,0,0.125,12.55,0.0,0,0,0,0.125,12.55,0.0,2,0,0,0.0,12.55,0.0,0,0,0,0.125,12.6,0.0,0,0,0,kReverse,kOff,-85.8,2.96,1.46,0.08154297,-0.9310913,0.17749023,33.18,0.0,-28.0,-1.4022827,-3.6341248,
20.227967,true,true,true,0.125,12.55,0.0,-16315,-21,0,0.125,12.55,0.0,0,0,0,0.125,12.55,0.0,-24968,-13,0,0.125,12.55,0.0,0,0,0,0.125,12.55,0.0,2,0,0,0.0,12.55,0.0,0,0,0,0.125,12.6,0.0,0,0,0,kReverse,kOff,-85.78,2.95,1.44,0.0028076172,-0.98553467,0.07147217,33.18,0.0,-51.0,-1.4010315,-3.631485,
20.242224,true,true,true,0.125,12.55,0.0,-16316,-17,0,0.125,12.55,0.0,0,0,0,0.125,12.55,0.0,-24969,-11,0,0.125,12.55,0.0,0,0,0,0.125,12.55,0.0,2,0,0,0.0,12.55,0.0,0,0,0,0.125,12.6,0.0,0,0,0,kReverse,kOff,-85.77,2.93,1.39,-0.0065307617,-0.9883423,0.059265137,33.18,0.0,-54.0,-1.3998413,-3.6288757,
20.264438000000002,true,true,true,0.125,12.55,0.0,-16316,-14,0,0.125,12.55,0.0,0,0,0,0.125,12.55,0.0,-24969,-9,0,0.125,12.55,0.0,0,0,0,0.125,12.55,0.0,2,0,0,0.0,12.55,0.0,0,0,0,0.125,12.6,0.0,0,0,0,kReverse,kOff,-85.69,2.9,1.3,0.028564453,-0.98028564,0.1564331,33.15,0.0,-65.0,-1.3977203,-3.6233368,
20.291043000000002,true,true,true,0.125,12.55,0.0,-16316,-10,0,0.125,12.55,0.0,0,0,0,0.125,12.55,0.0,-24969,-7,0,0.125,12.55,0.0,0,0,0,0.125,12.55,0.0,2,0,0,0.0,12.55,0.0,0,0,0,0.125,12.6,0.0,0,0,0,kReverse,kOff,-85.64,2.89,1.24,0.034851074,-0.9718628,0.10412598,33.15,0.0,-34.0,-1.395813,-3.6175232,
20.316395,true,true,true,0.125,12.55,0.0,-16316,-6,0,0.125,12.55,0.0,0,0,0,0.125,12.55,0.0,-24969,-5,0,0.125,12.55,0.0,0,0,0,0.125,12.55,0.0,2,0,0,0.0,12.55,0.0,0,0,0,0.125,12.6,0.0,0,0,0,kReverse,kOff,-85.61,2.87,1.2,0.020935059,-0.9707031,0.04071045,33.15,0.0,-17.0,-1.3949127,-3.6145935,
20.342002,true,true,true,0.125,12.55,0.0,-16316,-3,0,0.125,12.55,0.0,0,0,0,0.125,12.55,0.0,-24969,-1,0,0.125,12.55,0.0,0,0,0,0.125,12.55,0.0,2,0,0,0.0,12.55,0.0,0,0,0,0.125,12.6,0.0,0,0,0,kReverse,kOff,-85.67,2.84,1.19,0.03277588,-0.9847412,0.07098389,33.15,0.0,-21.0,-1.393158,-3.6116943,
20.369832000000002,true,true,true,0.125,12.55,0.0,-16316,0,0,0.25,12.55,0.0,0,0,0,0.375,12.55,0.0,-24971,0,0,0.25,12.55,0.0,0,0,0,0.125,12.55,0.0,2,0,0,0.0,12.55,0.0,0,0,0,0.125,12.6,0.0,0,0,0,kReverse,kOff,-85.67,2.85,1.2,0.020568848,-0.9577637,0.04864502,33.15,0.0,-21.0,-1.391449,-3.6116943,
20.395585999999998,true,true,true,0.625,12.55,0.0,-16321,0,0,1.0,12.55,0.0,0,0,0,0.75,12.55,0.0,-24975,-1,0,1.0,12.55,0.0,0,0,0,0.125,12.55,0.0,2,0,0,0.0,12.55,0.0,0,0,0,0.125,12.6,0.0,0,0,0,kReverse,kOff,-85.69,2.84,1.21,0.035095215,-1.0775146,0.06341553,33.15,0.0,-17.0,-1.390625,-3.6116943,
20.422144,true,true,true,1.375,12.55,0.0,-16331,-3,0,3.625,12.55,0.0,0,0,0,2.625,12.55,0.0,-24999,-12,0,2.5,12.55,0.0,0,0,0,0.125,12.55,0.0,2,0,0,0.0,12.55,0.0,0,0,0,0.125,12.6,0.0,0,0,0,kReverse,kOff,-85.82,2.96,1.48,0.291687,-0.9071045,-0.48205566,33.15,0.0,456.0,-1.388855,-3.6112366,
20.448753,true,true,true,4.75,12.55,0.0,-16342,-16,0,5.625,12.55,0.0,0,0,0,5.125,12.55,0.0,-25003,-21,0,3.875,12.55,0.0,0,0,0,0.125,12.55,0.0,2,0,0,0.0,12.55,0.0,0,0,0,0.125,12.6,0.0,0,0,0,kReverse,kOff,-86.31,2.86,1.72,-0.08660889,-0.99383545,0.35577393,33.15,0.0,-261.0,-1.3867645,-3.6113586,
20.477694,true,true,true,6.5,12.55,0.0,-16353,-23,0,7.375,12.55,0.0,0,0,0,6.75,12.55,0.0,-25012,-30,0,7.25,12.55,0.0,0,0,0,0.125,11.600000000000001,0.0,2,0,0,0.0,11.600000000000001,0.0,0,0,0,0.125,11.65,0.0,0,0,0,kReverse,kOff,-86.99,2.75,2.17,0.11401367,-1.0513916,-1.0519409,33.15,0.0,529.0,-1.3847809,-3.6125793,
20.506031999999998,true,true,true,8.75,11.55,0.0,-16382,-39,0,10.875,11.55,0.0,0,0,0,9.0,11.55,0.0,-25041,-44,0,8.375,11.600000000000001,0.0,0,0,0,0.125,11.600000000000001,0.0,2,0,0,0.0,11.600000000000001,0.0,0,0,0,0.125,11.65,0.0,0,0,0,kReverse,kOff,-87.32,2.64,2.46,-0.2387085,-0.79559326,-0.07800293,33.15,0.0,-210.0,-1.3813629,-3.617508,
20.531038,true,true,true,9.25,11.55,0.0,-16402,-48,0,11.75,11.55,0.0,0,0,0,9.5,11.55,0.0,-25059,-51,0,8.75,11.600000000000001,0.0,0,0,0,0.125,11.600000000000001,0.0,2,0,0,0.0,11.600000000000001,0.0,0,0,0,0.125,11.65,0.0,0,0,0,kReverse,kOff,-87.47,2.52,2.55,0.27270508,-0.87957764,-0.44958496,33.15,0.0,406.0,-1.3778992,-3.6234283,
20.553998,true,true,true,9.75,11.55,0.0,-16417,-58,0,12.625,11.55,0.0,0,0,0,10.125,11.55,0.0,-25074,-58,0,9.5,11.600000000000001,0.0,0,0,0,0.0,11.600000000000001,0.0,2,0,0,0.0,11.600000000000001,0.0,0,0,0,0.125,11.65,0.0,0,0,0,kReverse,kOff,-87.33,2.65,2.76,0.17340088,-0.9569092,-0.22851562,33.15,0.0,213.0,-1.3756104,-3.6267853,
20.584646,true,true,true,9.75,11.55,0.0,-16456,-78,0,12.875,11.55,0.0,0,0,0,10.75,11.55,0.0,-25110,-73,0,10.375,11.600000000000001,0.0,0,0,0,0.0,11.600000000000001,0.0,2,0,0,0.0,11.600000000000001,0.0,0,0,0,0.125,11.65,0.0,0,0,0,kReverse,kOff,-87.22,2.7,3.0,-0.01940918,-0.95928955,-0.33129883,33.15,0.0,82.0,-1.3682251,-3.6375732,
20.618541,true,true,true,9.5,11.55,0.0,-16480,-86,0,12.375,11.55,0.0,0,0,0,9.75,11.55,0.0,-25157,-87,0,9.625,11.600000000000001,0.0,0,0,0,0.125,11.600000000000001,0.0,2,0,0,0.0,11.600000000000001,0.0,0,0,0,0.125,11.65,0.0,0,0,0,kReverse,kOff,-87.19,2.67,3.09,0.2121582,-1.0505981,-0.2642212,33.15,0.0,255.0,-1.362793,-3.6461334,
20.652878,true,true,true,8.5,11.4,0.0,-16533,-101,0,11.125,11.4,0.0,0,0,0,9.375,11.4,0.0,-25185,-95,0,9.0,11.5,0.0,0,0,0,0.125,11.5,0.0,2,0,0,0.0,11.5,0.0,0,0,0,0.125,11.55,0.0,0,0,0,kReverse,kOff,-86.97,2.76,3.35,-0.021362305,-1.0939941,-0.4621582,33.15,0.0,124.0,-1.3562012,-3.6559906,
20.675667,true,true,true,8.25,11.4,0.0,-16562,-110,0,10.5,11.4,0.0,0,0,0,8.875,11.4,0.0,-25212,-103,0,8.75,11.5,0.0,0,0,0,0.125,11.5,0.0,2,0,0,0.0,11.5,0.0,0,0,0,0.125,11.55,0.0,0,0,0,kReverse,kOff,-86.96,2.72,3.36,-0.14831543,-1.1291504,-0.40246582,33.15,0.0,-18.0,-1.3527069,-3.6617432,
20.700688000000003,true,true,true,7.875,11.4,0.0,-16593,-119,0,9.625,11.4,0.0,0,0,0,8.125,11.4,0.0,-25272,-124,0,8.125,11.5,0.0,0,0,0,0.125,11.5,0.0,2,0,0,0.0,11.5,0.0,0,0,0,0.125,11.55,0.0,0,0,0,kReverse,kOff,-86.96,2.62,3.36,0.016052246,-0.89941406,-0.32983398,33.15,0.0,110.0,-1.345581,-3.6746979,
20.724412,true,true,true,7.125,11.4,0.0,-16657,-138,0,9.375,11.4,0.0,0,0,0,7.875,11.4,0.0,-25304,-133,0,7.75,11.5,0.0,0,0,0,0.125,11.5,0.0,2,0,0,0.0,11.5,0.0,0,0,0,0.125,11.55,0.0,0,0,0,kReverse,kOff,-86.92,2.61,3.39,-0.009094238,-0.9234619,-0.2977295,33.15,0.0,71.0,-1.3418427,-3.6817474,
20.746926,true,true,true,6.875,11.4,0.0,-16691,-146,0,8.875,11.4,0.0,0,0,0,7.625,11.4,0.0,-25335,-140,0,7.5,11.5,0.0,0,0,0,0.125,11.5,0.0,2,0,0,0.0,11.5,0.0,0,0,0,0.125,11.55,0.0,0,0,0,kReverse,kOff,-86.9,2.63,3.41,0.07232666,-0.9929199,-0.2053833,33.15,0.0,100.0,-1.3339233,-3.6963196,
20.767362000000002,true,true,true,6.625,11.4,0.0,-16725,-153,0,8.625,11.4,0.0,0,0,0,7.25,11.4,0.0,-25370,-147,0,7.25,11.5,0.0,0,0,0,0.125,11.5,0.0,2,0,0,0.0,11.5,0.0,0,0,0,0.125,11.55,0.0,0,0,0,kReverse,kOff,-86.86,2.63,3.45,-0.0859375,-0.9622803,-0.33807373,33.15,0.0,16.0,-1.3298035,-3.7039642,
20.788859,true,true,true,6.375,11.4,0.0,-16762,-160,0,8.25,11.4,0.0,0,0,0,7.125,11.4,0.0,-25406,-154,0,7.0,11.5,0.0,0,0,0,0.125,11.5,0.0,2,0,0,0.0,11.5,0.0,0,0,0,0.125,11.55,0.0,0,0,0,kReverse,kOff,-86.97,2.56,3.33,-0.07977295,-0.9390869,-0.25268555,33.14,0.0,-11.0,-1.3256683,-3.7200775,
20.81429,true,true,true,6.125,11.7,0.0,-16800,-166,0,7.75,11.65,0.0,0,0,0,6.875,11.65,0.0,-25442,-160,0,6.875,11.7,0.0,0,0,0,0.125,11.75,0.0,2,0,0,0.0,11.75,0.0,0,0,0,0.125,11.8,0.0,0,0,0,kReverse,kOff,-86.97,2.53,3.32,0.10083008,-1.1182861,-0.1437378,33.14,0.0,94.0,-1.3256073,-3.7284698,
20.837109,true,true,true,5.875,11.7,0.0,-16840,-173,0,7.5,11.65,0.0,0,0,0,6.75,11.65,0.0,-25477,-166,0,6.625,11.7,0.0,0,0,0,0.125,11.75,0.0,2,0,0,0.0,11.75,0.0,0,0,0,0.125,11.8,0.0,0,0,0,kReverse,kOff,-86.98,2.56,3.31,0.013671875,-0.85406494,-0.015136719,33.14,0.0,-25.0,-1.3252106,-3.7456512,
20.862992000000002,true,true,true,5.5,11.7,0.0,-16878,-179,0,5.875,11.65,0.0,0,0,0,5.25,11.65,0.0,-25555,-177,0,5.625,11.7,0.0,0,0,0,0.125,11.75,0.0,2,0,0,0.0,11.75,0.0,0,0,0,0.125,11.8,0.0,0,0,0,kReverse,kOff,-86.98,2.55,3.31,0.083496094,-1.0615845,0.024169922,33.14,0.0,9.0,-1.324997,-3.7542572,
20.881477999999998,true,true,true,4.625,11.7,0.0,-16918,-184,0,5.875,11.65,0.0,0,0,0,3.875,11.65,0.0,-25592,-182,0,4.625,11.7,0.0,0,0,0,0.125,11.75,0.0,2,0,0,0.0,11.75,0.0,0,0,0,0.125,11.8,0.0,0,0,0,kReverse,kOff,-87.01,2.53,3.28,-0.028808594,-1.1270752,0.14196777,33.14,0.0,-145.0,-1.3248749,-3.762741,
20.895417000000002,true,true,true,3.375,11.7,0.0,-16959,-189,0,4.625,11.65,0.0,0,0,0,3.875,11.65,0.0,-25628,-186,0,3.375,11.7,0.0,0,0,0,0.125,11.75,0.0,2,0,0,0.0,11.75,0.0,0,0,0,0.125,11.8,0.0,0,0,0,kReverse,kOff,-87.19,2.51,3.1,0.11590576,-0.87976074,0.06768799,33.14,0.0,32.0,-1.3248291,-3.77977,
20.928223000000003,true,true,true,1.375,11.7,0.0,-17032,-194,0,2.0,11.65,0.0,0,0,0,1.375,11.65,0.0,-25664,-187,0,2.25,11.7,0.0,0,0,0,0.125,11.75,0.0,2,0,0,0.0,11.75,0.0,0,0,0,0.125,11.8,0.0,0,0,0,kReverse,kOff,-87.34,2.49,2.92,0.066345215,-1.0794067,0.2836914,33.14,0.0,-112.0,-1.3250732,-3.7964935,
20.948605999999998,true,true,true,0.875,11.7,0.0,-17070,-194,0,1.25,11.65,0.0,0,0,0,1.125,11.65,0.0,-25700,-187,0,1.5,11.7,0.0,0,0,0,0.125,11.75,0.0,2,0,0,0.0,11.75,0.0,0,0,0,0.125,11.8,0.0,0,0,0,kReverse,kOff,-87.41,2.51,2.8,0.009765625,-1.083374,0.10803223,33.14,0.0,-85.0,-1.3254242,-3.812378,
20.971569,true,true,true,0.875,12.3,0.0,-17107,-192,0,0.75,12.3,0.0,0,0,0,0.875,12.3,0.0,-25736,-184,0,1.0,12.35,0.0,0,0,0,0.125,12.35,0.0,2,0,0,0.0,12.35,0.0,0,0,0,0.125,12.4,0.0,0,0,0,kReverse,kOff,-87.41,2.57,2.67,-0.016235352,-0.84436035,0.1885376,33.14,0.0,-131.0,-1.326416,-3.8200989,
