timer,lineLeft,lineCenter,lineRight,LeftFrontCurrent,LeftFrontVoltage,LeftFrontValue,LeftFrontPosition,LeftFrontVelocity,LeftFrontFaults,LeftRearCurrent,LeftRearVoltage,LeftRearValue,LeftRearPosition,LeftRearVelocity,LeftRearFaults,RightFrontCurrent,RightFrontVoltage,RightFrontValue,RightFrontPosition,RightFrontVelocity,RightFrontFaults,RightRearCurrent,RightRearVoltage,RightRearValue,RightRearPosition,RightRearVelocity,RightRearFaults,LiftCurrent,LiftVoltage,LiftValue,LiftPosition,LiftVelocity,LiftFaults,WristCurrent,WristVoltage,WristValue,WristPosition,WristVelocity,WristFaults,RollerCurrent,RollerVoltage,RollerValue,RollerPosition,RollerVelocity,RollerFaults,PushersState,PivotsState,navx_Pitch,navx_Roll,navx_Yaw,navx_XAcc,navx_YAcc,navx_ZAcc,navx_Temp,navx_Bar,navx_Alt,navx_XDis,navx_YDis,
156.177706,true,true,true,0.125,12.65,0.0,0,0,0,0.125,12.65,0.0,0,0,0,35.625,12.6,0.0,-54,-13,0,19.625,12.65,0.0,0,0,0,0.125,12.6,0.0,0,0,0,0.0,12.65,0.0,0,0,0,0.125,12.700000000000001,0.0,0,0,0,kReverse,kOff,-87.02,1.94,1.84,-0.5046387,-1.2341309,-0.82702637,33.38,0.0,-507.0,-4.5776367E-4,-6.5612793E-4,
156.258607,true,true,true,0.125,10.2,0.0,0,0,0,0.125,10.2,0.0,0,0,0,52.125,9.75,0.0,-125,-68,0,43.625,9.9,0.0,0,0,0,0.125,10.25,0.0,0,0,0,0.0,10.2,0.0,0,0,0,0.125,10.3,0.0,0,0,0,kReverse,kOff,-88.17,1.58,1.51,0.20135498,-0.95599365,-1.4220581,33.38,0.0,276.0,-0.0030517578,-0.006164551,
156.29614500000002,true,true,true,0.125,10.2,0.0,0,0,0,0.125,10.2,0.0,0,0,0,54.125,9.75,0.0,-204,-141,0,45.375,9.9,0.0,0,0,0,0.125,10.25,0.0,0,0,0,0.0,10.2,0.0,0,0,0,0.125,10.3,0.0,0,0,0,kReverse,kOff,-87.6,2.29,2.37,0.3447876,-0.68573,-0.25823975,33.38,0.0,-96.0,-4.4250488E-4,-0.020568848,
156.33478100000002,true,true,true,0.125,10.2,0.0,-2,0,0,0.125,10.2,0.0,0,0,0,60.25,9.75,0.0,-283,-185,0,51.375,9.9,0.0,0,0,0,0.0,10.25,0.0,0,0,0,0.0,10.2,0.0,0,0,0,0.125,10.3,0.0,0,0,0,kReverse,kOff,-87.72,2.19,2.29,-0.40301514,-1.2449341,0.10272217,33.38,0.0,-463.0,9.765625E-4,-0.029052734,
156.37682800000002,true,true,true,0.125,10.2,0.0,-13,-5,0,0.125,10.2,0.0,0,0,0,53.875,9.75,0.0,-382,-198,0,48.75,9.9,0.0,0,0,0,0.0,10.25,0.0,0,0,0,0.0,10.2,0.0,0,0,0,0.125,10.3,0.0,0,0,0,kReverse,kOff,-89.15,0.81,0.86,-0.7505493,-0.5527344,0.33203125,33.38,0.0,-816.0,-0.0011291504,-0.042114258,
156.41524900000002,true,true,true,0.125,10.4,0.0,-19,-13,0,0.125,10.4,0.0,0,0,0,43.25,10.100000000000001,0.0,-509,-228,0,40.875,10.15,0.0,0,0,0,0.125,10.45,0.0,0,0,0,0.0,10.45,0.0,0,0,0,0.125,10.45,0.0,0,0,0,kReverse,kOff,-89.43,0.51,0.59,0.309021,-1.4100952,-0.35986328,33.38,0.0,389.0,-0.0046691895,-0.051223755,
156.451515,true,true,true,0.125,10.4,0.0,-23,-17,0,0.125,10.4,0.0,0,0,0,38.125,10.100000000000001,0.0,-649,-279,0,36.625,10.15,0.0,0,0,0,0.0,10.45,0.0,0,0,0,0.0,10.45,0.0,0,0,0,0.125,10.45,0.0,0,0,0,kReverse,kOff,-88.69,1.19,1.42,0.5755615,-1.0145874,-0.4227295,33.38,0.0,675.0,-0.006088257,-0.06568909,
156.488232,true,true,true,0.125,10.4,0.0,-27,-14,0,0.125,10.4,0.0,0,0,0,34.875,10.100000000000001,0.0,-791,-322,0,33.625,10.15,0.0,0,0,0,0.0,10.45,0.0,0,0,0,0.0,10.45,0.0,0,0,0,0.125,10.45,0.0,0,0,0,kReverse,kOff,-88.32,1.51,1.91,0.026550293,-1.093689,-0.33972168,33.38,0.0,156.0,-0.0042266846,-0.07623291,
156.526686,true,true,true,0.125,10.4,0.0,-30,-11,0,0.125,10.4,0.0,0,0,0,32.375,10.100000000000001,0.0,-946,-350,0,31.625,10.15,0.0,0,0,0,0.125,10.45,0.0,0,0,0,0.0,10.45,0.0,0,0,0,0.125,10.45,0.0,0,0,0,kReverse,kOff,-88.38,1.43,1.98,0.36071777,-1.1211548,-0.09692383,33.34,0.0,316.0,3.5095215E-4,-0.09391785,
156.556078,true,true,true,0.125,10.4,0.0,-37,-11,0,0.125,10.4,0.0,0,0,0,22.75,10.100000000000001,0.0,-1015,-359,0,26.375,10.15,0.0,0,0,0,0.125,12.200000000000001,0.0,0,0,0,0.0,12.15,0.0,0,0,0,0.125,12.200000000000001,0.0,0,0,0,kReverse,kOff,-88.28,1.58,2.16,0.038330078,-0.5996094,-0.18841553,33.34,0.0,136.0,0.0053100586,-0.10610962,
156.59879,true,true,true,0.125,12.1,0.0,-43,-14,0,0.125,12.1,0.0,0,0,0,0.25,12.1,0.0,-1165,-343,0,0.375,12.200000000000001,0.0,0,0,0,0.125,12.200000000000001,0.0,0,0,0,0.0,12.15,0.0,0,0,0,0.125,12.200000000000001,0.0,0,0,0,kReverse,kOff,-88.17,1.7,2.44,0.578125,-1.0821533,0.5153198,33.34,0.0,-43.0,0.014297485,-0.12239075,
156.63580000000002,true,true,true,0.125,12.1,0.0,-52,-16,0,0.125,12.1,0.0,0,0,0,0.125,12.1,0.0,-1218,-318,0,0.125,12.200000000000001,0.0,0,0,0,0.125,12.200000000000001,0.0,0,0,0,0.0,12.15,0.0,0,0,0,0.125,12.200000000000001,0.0,0,0,0,kReverse,kOff,-89.13,0.86,0.91,-0.3793335,-0.59375,0.5533447,33.34,0.0,-675.0,0.019165039,-0.13214111,
156.674316,true,true,true,0.125,12.1,0.0,-79,-23,0,0.125,12.1,0.0,0,0,0,0.125,12.1,0.0,-1300,-263,0,0.125,12.200000000000001,0.0,0,0,0,0.125,12.200000000000001,0.0,0,0,0,0.0,12.15,0.0,0,0,0,0.125,12.200000000000001,0.0,0,0,0,kReverse,kOff,-87.89,1.99,0.47,0.9141846,-1.1962891,-0.007446289,33.34,0.0,495.0,0.025161743,-0.1499939,
156.753337,true,true,true,0.125,12.4,0.0,-150,-73,0,0.125,12.4,0.0,0,0,0,0.125,12.4,0.0,-1445,-202,0,0.125,12.450000000000001,0.0,0,0,0,0.125,12.4,0.0,0,0,0,0.0,12.4,0.0,0,0,0,0.125,12.450000000000001,0.0,0,0,0,kReverse,kOff,-86.87,3.07,2.18,-0.019958496,-0.9812622,0.18029785,33.34,0.0,-184.0,0.0342865,-0.15127563,
156.78045699999998,true,true,true,0.125,12.4,0.0,-167,-81,0,0.125,12.4,0.0,0,0,0,0.125,12.4,0.0,-1473,-191,0,0.125,12.450000000000001,0.0,0,0,0,0.125,12.4,0.0,0,0,0,0.0,12.4,0.0,0,0,0,0.125,12.450000000000001,0.0,0,0,0,kReverse,kOff,-87.07,2.82,1.57,-0.46520996,-0.9428711,0.70977783,33.34,0.0,-860.0,0.03703308,-0.15162659,
156.809895,true,true,true,0.125,12.4,0.0,-203,-86,0,0.125,12.4,0.0,0,0,0,0.125,12.4,0.0,-1521,-166,0,0.125,12.450000000000001,0.0,0,0,0,0.125,12.4,0.0,0,0,0,0.0,12.4,0.0,0,0,0,0.125,12.450000000000001,0.0,0,0,0,kReverse,kOff,-87.0,2.81,1.06,0.1408081,-1.0220947,0.3135376,33.34,0.0,-209.0,0.043502808,-0.1519928,
156.84200700000002,true,true,true,0.125,12.4,0.0,-224,-87,0,0.125,12.4,0.0,0,0,0,0.125,12.4,0.0,-1560,-137,0,0.125,12.450000000000001,0.0,0,0,0,0.125,12.4,0.0,0,0,0,0.0,12.4,0.0,0,0,0,0.125,12.450000000000001,0.0,0,0,0,kReverse,kOff,-86.65,3.0,0.52,0.25830078,-0.7709961,0.07434082,33.34,0.0,63.0,0.04701233,-0.15075684,
156.874092,true,true,true,0.125,12.4,0.0,-268,-92,0,0.125,12.4,0.0,0,0,0,0.125,12.4,0.0,-1578,-123,0,0.125,12.450000000000001,0.0,0,0,0,0.125,12.4,0.0,0,0,0,0.0,12.4,0.0,0,0,0,0.125,12.5,0.0,0,0,0,kReverse,kOff,-86.59,3.11,0.81,-0.15991211,-1.0632935,0.013061523,33.34,0.0,-100.0,0.050308228,-0.14872742,
156.90935700000003,true,true,true,0.125,12.450000000000001,0.0,-305,-100,0,0.125,12.450000000000001,0.0,0,0,0,0.125,12.450000000000001,0.0,-1610,-101,0,0.125,12.450000000000001,0.0,0,0,0,0.125,12.450000000000001,0.0,0,0,0,0.0,12.450000000000001,0.0,0,0,0,0.125,12.5,0.0,0,0,0,kReverse,kOff,-86.71,2.9,0.37,-0.09075928,-0.9088745,0.19708252,33.34,0.0,-218.0,0.053146362,-0.14738464,
156.935769,true,true,true,0.125,12.450000000000001,0.0,-322,-101,0,0.125,12.450000000000001,0.0,0,0,0,0.125,12.450000000000001,0.0,-1625,-93,0,0.125,12.450000000000001,0.0,0,0,0,0.125,12.450000000000001,0.0,0,0,0,0.0,12.450000000000001,0.0,0,0,0,0.125,12.5,0.0,0,0,0,kReverse,kOff,-86.73,2.78,-0.03,0.01361084,-0.960022,0.16882324,33.34,0.0,-137.0,0.05531311,-0.14634705,
156.967003,true,true,true,0.125,12.450000000000001,0.0,-337,-99,0,0.125,12.450000000000001,0.0,0,0,0,0.125,12.450000000000001,0.0,-1652,-82,0,0.125,12.450000000000001,0.0,0,0,0,0.125,12.450000000000001,0.0,0,0,0,0.0,12.450000000000001,0.0,0,0,0,0.125,12.5,0.0,0,0,0,kReverse,kOff,-86.55,2.79,-0.53,0.079956055,-1.0223389,0.22045898,33.34,0.0,-142.0,0.05683899,-0.14503479,
156.99360099999998,true,true,true,0.125,12.450000000000001,0.0,-366,-88,0,0.125,12.450000000000001,0.0,0,0,0,0.125,12.450000000000001,0.0,-1665,-77,0,0.125,12.450000000000001,0.0,0,0,0,0.125,12.450000000000001,0.0,0,0,0,0.0,12.450000000000001,0.0,0,0,0,0.125,12.5,0.0,0,0,0,kReverse,kOff,-86.5,2.76,-0.75,0.009094238,-1.036438,0.09844971,33.34,0.0,-72.0,0.057632446,-0.14326477,
157.032078,true,true,true,0.125,12.450000000000001,0.0,-392,-76,0,0.125,12.450000000000001,0.0,0,0,0,0.125,12.450000000000001,0.0,-1689,-68,0,0.125,12.450000000000001,0.0,0,0,0,0.125,12.450000000000001,0.0,0,0,0,0.0,12.450000000000001,0.0,0,0,0,0.125,12.5,0.0,0,0,0,kReverse,kOff,-86.41,2.74,-1.0,-0.020629883,-0.8960571,-0.071777344,33.29,0.0,58.0,0.057861328,-0.14016724,
157.064253,true,true,true,0.125,12.450000000000001,0.0,-416,-68,0,0.125,12.5,0.0,0,0,0,0.125,12.450000000000001,0.0,-1709,-62,0,0.125,12.5,0.0,0,0,0,0.125,12.450000000000001,0.0,0,0,0,0.0,12.450000000000001,0.0,0,0,0,0.125,12.55,0.0,0,0,0,kReverse,kOff,-86.32,2.74,-1.22,0.11279297,-0.9345703,0.26342773,33.29,0.0,-154.0,0.057540894,-0.13687134,
157.111066,true,true,true,0.125,12.450000000000001,0.0,-437,-62,0,0.125,12.5,0.0,0,0,0,0.125,12.450000000000001,0.0,-1727,-55,0,0.125,12.5,0.0,0,0,0,0.0,12.450000000000001,0.0,0,0,0,0.0,12.450000000000001,0.0,0,0,0,0.125,12.55,0.0,0,0,0,kReverse,kOff,-86.19,2.71,-1.59,0.03326416,-0.953125,0.19494629,33.29,0.0,-134.0,0.056030273,-0.1329956,
157.16859,true,true,true,0.125,12.450000000000001,0.0,-462,-52,0,0.125,12.5,0.0,0,0,0,0.125,12.450000000000001,0.0,-1759,-43,0,0.125,12.5,0.0,0,0,0,0.125,12.450000000000001,0.0,0,0,0,0.0,12.5,0.0,0,0,0,0.125,12.55,0.0,0,0,0,kReverse,kOff,-86.13,2.59,-2.03,0.058532715,-0.97180176,0.07122803,33.29,0.0,-11.0,0.051101685,-0.13017273,
157.24491500000002,true,true,true,0.125,12.5,0.0,-481,-40,0,0.125,12.5,0.0,0,0,0,0.125,12.450000000000001,0.0,-1776,-36,0,0.125,12.5,0.0,0,0,0,0.125,12.5,0.0,0,0,0,0.0,12.5,0.0,0,0,0,0.125,12.55,0.0,0,0,0,kReverse,kOff,-86.04,2.59,-2.22,0.04156494,-0.9803467,0.13269043,33.29,0.0,-70.0,0.050827026,-0.12983704,
157.27236000000002,true,true,true,0.125,12.5,0.0,-492,-34,0,0.125,12.5,0.0,0,0,0,0.125,12.450000000000001,0.0,-1780,-33,0,0.125,12.5,0.0,0,0,0,0.125,12.5,0.0,0,0,0,0.0,12.5,0.0,0,0,0,0.125,12.55,0.0,0,0,0,kReverse,kOff,-86.01,2.59,-2.27,0.0087890625,-0.9918823,0.040771484,33.29,0.0,-8.0,0.0501709,-0.12931824,
157.29744,true,true,true,0.125,12.5,0.0,-495,-31,0,0.125,12.5,0.0,0,0,0,0.125,12.450000000000001,0.0,-1784,-30,0,0.125,12.5,0.0,0,0,0,0.125,12.5,0.0,0,0,0,0.0,12.5,0.0,0,0,0,0.125,12.55,0.0,0,0,0,kReverse,kOff,-85.94,2.57,-2.47,0.02758789,-0.9666748,0.17602539,33.29,0.0,-112.0,0.049713135,-0.12905884,
157.330174,true,true,true,0.75,12.5,0.0,-512,-27,0,1.0,12.5,0.0,0,0,0,0.125,12.450000000000001,0.0,-1790,-24,0,0.125,12.5,0.0,0,0,0,0.125,12.5,0.0,0,0,0,0.0,12.5,0.0,0,0,0,0.125,12.55,0.0,0,0,0,kReverse,kOff,-85.93,2.55,-2.53,0.045715332,-0.930603,0.2119751,33.29,0.0,-134.0,0.04849243,-0.12837219,
157.35562299999998,true,true,true,1.375,12.5,0.0,-528,-29,0,2.0,12.5,0.0,0,0,0,0.125,12.450000000000001,0.0,-1792,-21,0,0.125,12.5,0.0,0,0,0,0.0,12.5,0.0,0,0,0,0.0,12.3,0.0,0,0,0,0.125,12.4,0.0,0,0,0,kReverse,kOff,-86.2,2.68,-1.54,-0.020141602,-1.0625,-0.84020996,33.29,0.0,713.0,0.048034668,-0.12782288,
157.391702,true,true,true,3.875,12.3,0.0,-545,-41,0,5.0,12.25,0.0,0,0,0,0.125,12.3,0.0,-1797,-15,0,0.125,12.35,0.0,0,0,0,0.0,12.35,0.0,0,0,0,0.0,12.3,0.0,0,0,0,0.125,12.4,0.0,0,0,0,kReverse,kOff,-86.32,2.47,-1.68,-0.12042236,-0.9035034,-0.29864502,33.29,0.0,199.0,0.04928589,-0.1285553,
157.416885,true,true,true,6.25,12.3,0.0,-556,-46,0,6.375,12.25,0.0,0,0,0,0.125,12.3,0.0,-1798,-13,0,0.125,12.35,0.0,0,0,0,0.125,12.35,0.0,0,0,0,0.0,12.3,0.0,0,0,0,0.125,12.4,0.0,0,0,0,kReverse,kOff,-86.66,2.42,-1.05,-0.051757812,-1.0494385,-0.45526123,33.29,0.0,362.0,0.050186157,-0.12940979,
157.433648,true,true,true,14.375,12.3,0.0,-576,-51,0,11.125,12.25,0.0,0,0,0,0.125,12.3,0.0,-1798,-11,0,0.125,12.35,0.0,0,0,0,0.125,12.35,0.0,0,0,0,0.0,12.3,0.0,0,0,0,0.125,12.4,0.0,0,0,0,kReverse,kOff,-86.71,2.48,-0.72,-0.06750488,-1.1472168,-0.07647705,33.29,0.0,34.0,0.051361084,-0.13061523,
157.47527100000002,true,true,true,34.375,12.3,0.0,-634,-69,0,30.375,12.25,0.0,0,0,0,0.125,12.3,0.0,-1798,-7,0,0.125,12.35,0.0,0,0,0,0.0,12.35,0.0,0,0,0,0.0,12.3,0.0,0,0,0,0.125,12.4,0.0,0,0,0,kReverse,kOff,-87.35,2.45,1.12,-0.21417236,-0.77960205,-0.4272461,33.29,0.0,207.0,0.05821228,-0.1377716,
157.506486,true,true,true,40.0,12.3,0.0,-666,-86,0,45.5,12.25,0.0,0,0,0,0.125,12.3,0.0,-1799,-3,0,0.125,12.35,0.0,0,0,0,0.0,12.35,0.0,0,0,0,0.0,12.3,0.0,0,0,0,0.125,12.4,0.0,0,0,0,kReverse,kOff,-87.51,2.39,1.58,0.20916748,-1.1660767,-0.7545166,33.29,0.0,700.0,0.06513977,-0.14916992,
157.536834,true,true,true,46.875,9.55,0.0,-757,-136,0,49.0,9.5,0.0,0,0,0,0.125,9.95,0.0,-1799,-1,0,0.125,9.95,0.0,0,0,0,0.0,9.95,0.0,0,0,0,0.0,10.0,0.0,0,0,0,0.125,10.0,0.0,0,0,0,kReverse,kOff,-87.46,2.53,2.48,-0.16394043,-0.88726807,-0.7661133,33.29,0.0,460.0,0.06967163,-0.14916992,
157.567012,true,true,true,49.125,9.55,0.0,-811,-164,0,50.625,9.5,0.0,0,0,0,0.125,9.95,0.0,-1799,-1,0,0.125,9.95,0.0,0,0,0,0.0,9.95,0.0,0,0,0,0.0,10.0,0.0,0,0,0,0.125,10.0,0.0,0,0,0,kReverse,kOff,-87.46,2.49,2.96,0.19970703,-1.2412109,-0.022216797,33.23,0.0,266.0,0.08496094,-0.16395569,
157.593753,true,true,true,42.5,9.55,0.0,-928,-220,0,48.5,9.5,0.0,0,0,0,0.125,9.95,0.0,-1799,0,0,0.125,9.95,0.0,0,0,0,0.0,9.95,0.0,0,0,0,0.0,10.0,0.0,0,0,0,0.125,10.0,0.0,0,0,0,kReverse,kOff,-87.28,2.48,3.55,0.062927246,-0.805603,-0.29840088,33.23,0.0,216.0,0.09059143,-0.16957092,
157.61798800000003,true,true,true,40.375,9.55,0.0,-987,-243,0,46.5,9.5,0.0,0,0,0,0.125,9.95,0.0,-1800,0,0,0.125,9.95,0.0,0,0,0,0.125,9.95,0.0,0,0,0,0.0,10.0,0.0,0,0,0,0.125,10.0,0.0,0,0,0,kReverse,kOff,-87.09,2.51,3.74,-0.11651611,-0.8803711,-0.6828613,33.23,0.0,308.0,0.10281372,-0.18261719,
157.648609,true,true,true,36.5,9.55,0.0,-1116,-283,0,43.125,9.5,0.0,0,0,0,0.125,9.95,0.0,-1800,0,0,0.125,9.95,0.0,0,0,0,0.125,9.95,0.0,0,0,0,0.0,10.0,0.0,0,0,0,0.125,10.0,0.0,0,0,0,kReverse,kOff,-86.88,2.53,3.86,-0.13031006,-0.8754883,-0.38024902,33.23,0.0,71.0,0.11590576,-0.19805908,
157.67246300000002,true,true,true,35.0,9.55,0.0,-1184,-297,0,40.75,9.5,0.0,0,0,0,0.125,9.95,0.0,-1801,-1,0,0.125,9.95,0.0,0,0,0,0.0,9.95,0.0,0,0,0,0.0,10.0,0.0,0,0,0,0.125,10.0,0.0,0,0,0,kReverse,kOff,-86.82,2.52,3.77,-0.40301514,-1.1188354,-0.34350586,33.23,0.0,-224.0,0.12879944,-0.21549988,
157.70122899999998,true,true,true,33.625,10.350000000000001,0.0,-1254,-310,0,39.125,10.25,0.0,0,0,0,0.125,10.55,0.0,-1802,-2,0,0.125,10.600000000000001,0.0,0,0,0,0.0,10.600000000000001,0.0,0,0,0,0.0,10.600000000000001,0.0,0,0,0,0.125,10.65,0.0,0,0,0,kReverse,kOff,-86.72,2.38,3.64,-0.1538086,-0.4381714,0.010498047,33.23,0.0,-163.0,0.13485718,-0.22488403,
157.73089500000003,true,true,true,25.375,10.350000000000001,0.0,-1408,-337,0,31.625,10.25,0.0,0,0,0,0.125,10.55,0.0,-1802,-2,0,0.125,10.600000000000001,0.0,0,0,0,0.125,10.600000000000001,0.0,0,0,0,0.0,10.600000000000001,0.0,0,0,0,0.125,10.65,0.0,0,0,0,kReverse,kOff,-86.86,2.34,3.29,-1.1201782,-2.0,-0.58843994,33.23,0.0,-879.0,0.14697266,-0.2545929,
157.757736,true,true,true,19.375,10.350000000000001,0.0,-1475,-348,0,27.0,10.25,0.0,0,0,0,0.125,10.55,0.0,-1804,-2,0,0.125,10.600000000000001,0.0,0,0,0,0.125,10.600000000000001,0.0,0,0,0,0.0,10.600000000000001,0.0,0,0,0,0.125,10.65,0.0,0,0,0,kReverse,kOff,-86.71,2.15,2.92,-0.010498047,-0.9894409,-0.018859863,33.23,0.0,-52.0,0.15878296,-0.277771,
157.796026,true,true,true,5.75,10.350000000000001,0.0,-1574,-348,0,8.625,10.25,0.0,0,0,0,0.125,10.55,0.0,-1804,-2,0,0.125,10.600000000000001,0.0,0,0,0,0.125,10.600000000000001,0.0,0,0,0,0.0,10.600000000000001,0.0,0,0,0,0.125,10.65,0.0,0,0,0,kReverse,kOff,-87.22,1.86,2.32,-0.33068848,-0.9540405,1.1397705,33.23,0.0,-605.0,0.16436768,-0.3002777,
157.837807,true,true,true,0.125,10.350000000000001,0.0,-1698,-314,0,0.125,10.25,0.0,0,0,0,0.125,10.55,0.0,-1812,-4,0,0.125,10.600000000000001,0.0,0,0,0,0.125,12.35,0.0,0,0,0,0.0,12.35,0.0,0,0,0,0.125,12.4,0.0,0,0,0,kReverse,kOff,-87.79,2.58,2.58,-0.05834961,-0.6296997,0.13128662,33.23,0.0,-103.0,0.17025757,-0.32356262,
157.868829,true,true,true,0.125,12.35,0.0,-1809,-288,0,0.125,12.35,0.0,0,0,0,0.125,12.35,0.0,-1835,-14,0,0.125,12.35,0.0,0,0,0,0.125,12.35,0.0,0,0,0,0.0,12.35,0.0,0,0,0,0.125,12.4,0.0,0,0,0,kReverse,kOff,-87.44,2.51,2.55,-0.7975464,-1.1882935,-1.1619873,33.23,0.0,-747.0,0.17311096,-0.3374176,
157.89459200000002,true,true,true,0.125,12.35,0.0,-1852,-282,0,0.125,12.35,0.0,0,0,0,0.125,12.35,0.0,-1848,-24,0,0.125,12.35,0.0,0,0,0,0.125,12.35,0.0,0,0,0,0.0,12.35,0.0,0,0,0,0.125,12.4,0.0,0,0,0,kReverse,kOff,-88.81,1.16,1.17,-0.70965576,-0.8899536,0.51831055,33.23,0.0,-745.0,0.17140198,-0.35279846,
157.929226,true,true,true,0.125,12.35,0.0,-1933,-265,0,0.125,12.35,0.0,0,0,0,0.125,12.35,0.0,-1870,-47,0,0.125,12.35,0.0,0,0,0,0.125,12.35,0.0,0,0,0,0.0,12.35,0.0,0,0,0,0.125,12.4,0.0,0,0,0,kReverse,kOff,-89.09,0.59,0.59,-0.025878906,-1.0326538,0.15460205,33.23,0.0,-35.0,0.16622925,-0.36825562,
157.95283,true,true,true,0.125,12.35,0.0,-1973,-248,0,0.125,12.35,0.0,0,0,0,0.125,12.35,0.0,-1878,-53,0,0.125,12.35,0.0,0,0,0,0.125,12.35,0.0,0,0,0,0.0,12.35,0.0,0,0,0,0.125,12.4,0.0,0,0,0,kReverse,kOff,-89.18,0.77,0.76,0.020446777,-1.3381348,0.4229126,33.23,0.0,13.0,0.16342163,-0.37574768,
157.97807,true,true,true,0.125,12.35,0.0,-2013,-228,0,0.125,12.35,0.0,0,0,0,0.125,12.35,0.0,-1889,-55,0,0.125,12.35,0.0,0,0,0,0.0,12.35,0.0,0,0,0,0.0,12.35,0.0,0,0,0,0.125,12.4,0.0,0,0,0,kReverse,kOff,-88.92,0.98,1.01,0.17102051,-1.1010132,0.66900635,33.23,0.0,188.0,0.15776062,-0.38891602,
158.006025,true,true,true,0.125,12.35,0.0,-2052,-213,0,0.125,12.4,0.0,0,0,0,0.125,12.4,0.0,-1918,-54,0,0.125,12.4,0.0,0,0,0,0.0,12.4,0.0,0,0,0,0.0,12.4,0.0,0,0,0,0.125,12.450000000000001,0.0,0,0,0,kReverse,kOff,-88.62,1.1,1.17,-0.14898682,-1.0980225,0.25341797,33.23,0.0,-150.0,0.15226746,-0.39979553,
158.033319,true,true,true,0.125,12.4,0.0,-2122,-197,0,0.125,12.4,0.0,0,0,0,0.125,12.4,0.0,-1934,-56,0,0.125,12.4,0.0,0,0,0,0.0,12.4,0.0,0,0,0,0.0,12.4,0.0,0,0,0,0.125,12.450000000000001,0.0,0,0,0,kReverse,kOff,-88.54,1.0,1.1,-0.2854004,-0.91259766,0.1642456,33.23,0.0,-262.0,0.14567566,-0.40957642,
158.05658000000003,true,true,true,0.125,12.4,0.0,-2152,-191,0,0.125,12.4,0.0,0,0,0,0.125,12.4,0.0,-1949,-61,0,0.125,12.4,0.0,0,0,0,0.0,12.4,0.0,0,0,0,0.0,12.4,0.0,0,0,0,0.125,12.450000000000001,0.0,0,0,0,kReverse,kOff,-88.83,0.6,0.71,-0.29492188,-1.1925049,0.066711426,33.21,0.0,-300.0,0.14179993,-0.41419983,
158.07548,true,true,true,0.125,12.4,0.0,-2179,-183,0,0.125,12.4,0.0,0,0,0,0.125,12.4,0.0,-1964,-67,0,0.125,12.4,0.0,0,0,0,0.0,12.4,0.0,0,0,0,0.0,12.4,0.0,0,0,0,0.125,12.450000000000001,0.0,0,0,0,kReverse,kOff,-88.88,0.4,0.53,0.12402344,-0.9925537,0.4192505,33.21,0.0,166.0,0.13334656,-0.42303467,
158.113617,true,true,true,0.125,12.4,0.0,-2227,-159,0,0.125,12.4,0.0,0,0,0,0.125,12.4,0.0,-1990,-73,0,0.125,12.4,0.0,0,0,0,0.0,12.4,0.0,0,0,0,0.0,12.4,0.0,0,0,0,0.125,12.450000000000001,0.0,0,0,0,kReverse,kOff,-88.66,0.6,0.77,0.04840088,-1.0407715,0.17840576,33.21,0.0,59.0,0.12550354,-0.43075562,
158.141405,true,true,true,0.125,12.4,0.0,-2248,-146,0,0.125,12.4,0.0,0,0,0,0.125,12.4,0.0,-2003,-73,0,0.125,12.4,0.0,0,0,0,0.0,12.4,0.0,0,0,0,0.0,12.4,0.0,0,0,0,0.125,12.450000000000001,0.0,0,0,0,kReverse,kOff,-88.5,0.62,0.86,0.050720215,-1.0084839,0.2952881,33.21,0.0,81.0,0.11793518,-0.43745422,
158.166089,true,true,true,0.125,12.4,0.0,-2271,-134,0,0.125,12.450000000000001,0.0,0,0,0,0.125,12.4,0.0,-2028,-67,0,0.125,12.450000000000001,0.0,0,0,0,0.125,12.450000000000001,0.0,0,0,0,0.0,12.450000000000001,0.0,0,0,0,0.125,12.5,0.0,0,0,0,kReverse,kOff,-88.09,0.67,0.97,-0.057800293,-1.0343018,0.12384033,33.21,0.0,-53.0,0.110702515,-0.44291687,
158.194087,true,true,true,0.125,12.450000000000001,0.0,-2312,-117,0,0.125,12.450000000000001,0.0,0,0,0,0.125,12.4,0.0,-2041,-65,0,0.125,12.450000000000001,0.0,0,0,0,0.125,12.450000000000001,0.0,0,0,0,0.0,12.450000000000001,0.0,0,0,0,0.125,12.5,0.0,0,0,0,kReverse,kOff,-87.93,0.58,0.93,-0.077697754,-0.89312744,0.25689697,33.21,0.0,-46.0,0.10336304,-0.44721985,
158.225189,true,true,true,0.125,12.450000000000001,0.0,-2330,-111,0,0.125,12.450000000000001,0.0,0,0,0,0.125,12.4,0.0,-2069,-64,0,0.125,12.450000000000001,0.0,0,0,0,0.125,12.450000000000001,0.0,0,0,0,0.0,12.450000000000001,0.0,0,0,0,0.125,12.5,0.0,0,0,0,kReverse,kOff,-87.85,0.48,0.86,-0.070739746,-0.96936035,0.121276855,33.21,0.0,-62.0,0.095840454,-0.45065308,
158.25712600000003,true,true,true,0.125,12.450000000000001,0.0,-2362,-100,0,0.125,12.450000000000001,0.0,0,0,0,0.125,12.4,0.0,-2082,-65,0,0.125,12.450000000000001,0.0,0,0,0,0.125,12.450000000000001,0.0,0,0,0,0.0,12.450000000000001,0.0,0,0,0,0.125,12.5,0.0,0,0,0,kReverse,kOff,-87.84,0.43,0.81,2.4414062E-4,-1.0513916,0.029846191,33.21,0.0,-9.0,0.09199524,-0.4522705,
158.28136,true,true,true,0.125,12.450000000000001,0.0,-2376,-94,0,0.125,12.450000000000001,0.0,0,0,0,0.125,12.4,0.0,-2105,-65,0,0.125,12.450000000000001,0.0,0,0,0,0.125,12.450000000000001,0.0,0,0,0,0.0,12.450000000000001,0.0,0,0,0,0.125,12.5,0.0,0,0,0,kReverse,kOff,-87.7,0.51,0.92,0.050476074,-0.9224243,0.17102051,33.21,0.0,65.0,0.08451843,-0.45518494,
158.30880800000003,true,true,true,0.125,12.450000000000001,0.0,-2401,-80,0,0.125,12.450000000000001,0.0,0,0,0,0.125,12.4,0.0,-2116,-64,0,0.125,12.450000000000001,0.0,0,0,0,0.125,12.450000000000001,0.0,0,0,0,0.0,12.450000000000001,0.0,0,0,0,0.125,12.5,0.0,0,0,0,kReverse,kOff,-87.49,0.54,0.99,-0.016052246,-0.9498291,0.15838623,33.21,0.0,-3.0,0.07740784,-0.45726013,
158.33277600000002,true,true,true,0.125,12.450000000000001,0.0,-2413,-74,0,0.125,12.450000000000001,0.0,0,0,0,0.125,12.450000000000001,0.0,-2127,-62,0,0.125,12.450000000000001,0.0,0,0,0,0.0,12.450000000000001,0.0,0,0,0,0.0,12.450000000000001,0.0,0,0,0,0.125,12.5,0.0,0,0,0,kReverse,kOff,-87.3,0.57,1.06,0.06439209,-0.9812622,0.23834229,33.21,0.0,88.0,0.07052612,-0.4588318,
158.357597,true,true,true,0.125,12.450000000000001,0.0,-2424,-69,0,0.125,12.450000000000001,0.0,0,0,0,0.5,12.450000000000001,0.0,-2147,-56,0,0.25,12.450000000000001,0.0,0,0,0,0.0,12.450000000000001,0.0,0,0,0,0.0,12.450000000000001,0.0,0,0,0,0.125,12.5,0.0,0,0,0,kReverse,kOff,-87.19,0.57,1.08,0.10412598,-0.9961548,0.30297852,33.21,0.0,139.0,0.063827515,-0.45985413,
158.39589999999998,true,true,true,0.125,12.450000000000001,0.0,-2443,-60,0,0.125,12.450000000000001,0.0,0,0,0,1.25,12.450000000000001,0.0,-2164,-55,0,1.0,12.450000000000001,0.0,0,0,0,0.0,12.450000000000001,0.0,0,0,0,0.0,12.450000000000001,0.0,0,0,0,0.125,12.5,0.0,0,0,0,kReverse,kOff,-87.06,0.6,1.14,0.026367188,-1.0255737,0.034301758,33.21,0.0,12.0,0.06062317,-0.4602661,
158.416176,true,true,true,0.125,12.450000000000001,0.0,-2451,-56,0,0.125,12.450000000000001,0.0,0,0,0,9.75,12.450000000000001,0.0,-2192,-58,0,1.5,12.450000000000001,0.0,0,0,0,0.125,12.450000000000001,0.0,0,0,0,0.0,12.450000000000001,0.0,0,0,0,0.125,12.5,0.0,0,0,0,kReverse,kOff,-87.07,0.62,1.16,-0.038085938,-1.1051025,0.1048584,33.21,0.0,-40.0,0.06059265,-0.46043396,
158.44823000000002,true,true,true,0.125,12.450000000000001,0.0,-2467,-48,0,0.125,12.450000000000001,0.0,0,0,0,41.625,12.450000000000001,0.0,-2264,-87,0,26.875,12.450000000000001,0.0,0,0,0,0.125,12.450000000000001,0.0,0,0,0,0.0,12.450000000000001,0.0,0,0,0,0.125,12.5,0.0,0,0,0,kReverse,kOff,-87.31,0.33,0.81,-0.13256836,-1.2001343,0.16320801,33.21,0.0,-118.0,0.060394287,-0.45970154,
158.486661,true,true,true,0.125,12.450000000000001,0.0,-2484,-43,0,0.125,9.75,0.0,0,0,0,60.625,9.3,0.0,-2342,-137,0,49.875,9.45,0.0,0,0,0,0.125,9.75,0.0,0,0,0,0.0,9.75,0.0,0,0,0,0.125,9.8,0.0,0,0,0,kReverse,kOff,-88.11,0.65,0.94,0.21539307,-0.7706909,-1.0025635,33.21,0.0,39.0,0.05958557,-0.46144104,
158.51113700000002,true,true,true,0.125,9.75,0.0,-2492,-41,0,0.125,9.75,0.0,0,0,0,59.375,9.3,0.0,-2384,-162,0,50.75,9.45,0.0,0,0,0,0.125,9.75,0.0,0,0,0,0.0,9.75,0.0,0,0,0,0.125,9.8,0.0,0,0,0,kReverse,kOff,-88.39,1.05,1.22,0.9242554,-1.2252197,-0.5090332,33.21,0.0,816.0,0.05973816,-0.46420288,
158.529766,true,true,true,0.125,9.75,0.0,-2502,-41,0,0.125,9.75,0.0,0,0,0,57.875,9.3,0.0,-2428,-181,0,49.0,9.45,0.0,0,0,0,0.125,9.75,0.0,0,0,0,0.0,9.75,0.0,0,0,0,0.125,9.8,0.0,0,0,0,kReverse,kOff,-88.57,1.28,1.34,-0.33648682,-0.99627686,-0.05596924,33.21,0.0,-363.0,0.06085205,-0.47221375,
158.55147,true,true,true,0.125,9.75,0.0,-2512,-42,0,0.125,9.75,0.0,0,0,0,56.375,9.3,0.0,-2476,-195,0,48.25,9.45,0.0,0,0,0,0.125,9.75,0.0,0,0,0,0.0,9.75,0.0,0,0,0,0.125,9.8,0.0,0,0,0,kReverse,kOff,-88.88,0.98,1.02,-0.42193604,-1.175415,0.20678711,33.21,0.0,-426.0,0.06072998,-0.47636414,
158.571952,true,true,true,0.125,9.75,0.0,-2523,-43,0,0.125,9.75,0.0,0,0,0,53.625,9.3,0.0,-2528,-207,0,46.625,9.45,0.0,0,0,0,0.125,9.75,0.0,0,0,0,0.0,9.75,0.0,0,0,0,0.125,9.8,0.0,0,0,0,kReverse,kOff,-88.94,0.73,0.76,-0.046203613,-0.97473145,-0.29748535,33.13,0.0,-68.0,0.059936523,-0.4840088,
158.593893,true,true,true,0.125,9.75,0.0,-2533,-45,0,0.125,9.75,0.0,0,0,0,49.0,9.3,0.0,-2587,-219,0,44.25,9.45,0.0,0,0,0,0.0,9.75,0.0,0,0,0,0.0,9.75,0.0,0,0,0,0.125,9.8,0.0,0,0,0,kReverse,kOff,-88.96,0.67,0.68,-0.06689453,-1.0515137,0.0015258789,33.13,0.0,-79.0,0.059432983,-0.48805237,
158.61756400000002,true,true,true,0.125,9.75,0.0,-2542,-47,0,0.125,9.75,0.0,0,0,0,45.0,9.3,0.0,-2650,-235,0,41.5,9.45,0.0,0,0,0,0.0,9.75,0.0,0,0,0,0.0,9.75,0.0,0,0,0,0.125,9.8,0.0,0,0,0,kReverse,kOff,-88.91,0.59,0.55,0.11151123,-1.0882568,-0.48651123,33.13,0.0,121.0,0.058502197,-0.49653625,
158.63864500000003,true,true,true,0.125,9.75,0.0,-2552,-49,0,0.125,9.75,0.0,0,0,0,41.5,9.3,0.0,-2715,-254,0,39.125,9.45,0.0,0,0,0,0.0,10.5,0.0,0,0,0,0.0,10.45,0.0,0,0,0,0.125,10.5,0.0,0,0,0,kReverse,kOff,-89.13,0.55,0.5,0.23278809,-0.9863281,0.117492676,33.13,0.0,214.0,0.05831909,-0.5012207,
158.664744,true,true,true,0.125,10.45,0.0,-2561,-49,0,0.125,10.45,0.0,0,0,0,37.25,10.15,0.0,-2854,-296,0,35.25,10.25,0.0,0,0,0,0.0,10.5,0.0,0,0,0,0.0,10.45,0.0,0,0,0,0.125,10.5,0.0,0,0,0,kReverse,kOff,-89.09,0.7,0.63,0.24127197,-0.9453125,-0.25299072,33.13,0.0,235.0,0.058898926,-0.51060486,
158.686063,true,true,true,0.125,10.45,0.0,-2570,-49,0,0.125,10.45,0.0,0,0,0,35.5,10.15,0.0,-2928,-315,0,33.625,10.25,0.0,0,0,0,0.0,10.5,0.0,0,0,0,0.0,10.45,0.0,0,0,0,0.125,10.5,0.0,0,0,0,kReverse,kOff,-89.06,0.82,0.74,0.043945312,-1.0449219,-0.02557373,33.13,0.0,34.0,0.059539795,-0.51556396,
158.700296,true,true,true,0.125,10.45,0.0,-2581,-48,0,0.125,10.45,0.0,0,0,0,35.5,10.15,0.0,-2928,-315,0,32.375,10.25,0.0,0,0,0,0.0,10.5,0.0,0,0,0,0.0,10.45,0.0,0,0,0,0.125,10.5,0.0,0,0,0,kReverse,kOff,-89.03,0.92,0.85,0.047851562,-0.8486328,-0.03125,33.13,0.0,41.0,0.06163025,-0.5256195,
158.731979,true,true,true,0.125,10.45,0.0,-2601,-48,0,0.125,10.45,0.0,0,0,0,32.25,10.15,0.0,-3082,-345,0,31.125,10.25,0.0,0,0,0,0.125,10.5,0.0,0,0,0,0.0,10.45,0.0,0,0,0,0.125,10.5,0.0,0,0,0,kReverse,kOff,-89.03,0.93,0.85,0.20874023,-1.0280762,-0.14447021,33.13,0.0,227.0,0.06300354,-0.53074646,
158.755259,true,true,true,0.125,10.45,0.0,-2610,-49,0,0.125,10.45,0.0,0,0,0,31.0,10.15,0.0,-3161,-358,0,30.375,10.25,0.0,0,0,0,0.0,10.5,0.0,0,0,0,0.0,10.45,0.0,0,0,0,0.125,10.5,0.0,0,0,0,kReverse,kOff,-88.9,1.09,1.08,0.12634277,-0.81677246,-0.07623291,33.13,0.0,131.0,0.066833496,-0.5415039,
158.77587100000002,true,true,true,0.125,10.45,0.0,-2619,-49,0,0.125,10.45,0.0,0,0,0,29.5,10.15,0.0,-3248,-371,0,29.375,10.25,0.0,0,0,0,0.0,10.5,0.0,0,0,0,0.0,10.45,0.0,0,0,0,0.125,10.5,0.0,0,0,0,kReverse,kOff,-88.9,1.09,1.1,0.33770752,-1.0112915,-0.15374756,33.13,0.0,353.0,0.069229126,-0.54696655,
158.79972800000002,true,true,true,0.125,10.45,0.0,-2628,-48,0,0.125,10.45,0.0,0,0,0,27.625,10.15,0.0,-3327,-382,0,28.75,10.25,0.0,0,0,0,0.125,11.05,0.0,0,0,0,0.0,11.05,0.0,0,0,0,0.125,11.100000000000001,0.0,0,0,0,kReverse,kOff,-88.57,1.38,1.55,0.33312988,-1.1456299,0.030212402,33.13,0.0,247.0,0.07569885,-0.5579071,
158.827957,true,true,true,0.625,11.05,0.0,-2654,-48,0,0.75,11.05,0.0,0,0,0,19.25,10.9,0.0,-3496,-402,0,26.125,10.850000000000001,0.0,0,0,0,0.125,11.05,0.0,0,0,0,0.0,11.05,0.0,0,0,0,0.125,11.100000000000001,0.0,0,0,0,kReverse,kOff,-88.44,1.52,1.7,0.40344238,-1.1050415,-0.020324707,33.13,0.0,324.0,0.079589844,-0.56307983,
158.84579300000001,true,true,true,0.625,11.05,0.0,-2673,-51,0,1.375,11.05,0.0,0,0,0,11.0,10.9,0.0,-3569,-407,0,15.125,10.850000000000001,0.0,0,0,0,0.125,11.05,0.0,0,0,0,0.0,11.05,0.0,0,0,0,0.125,11.100000000000001,0.0,0,0,0,kReverse,kOff,-88.31,1.67,1.79,0.17523193,-1.0307007,-0.010009766,33.13,0.0,119.0,0.08843994,-0.5729523,
158.871315,true,true,true,1.75,11.05,0.0,-2689,-57,0,2.375,11.05,0.0,0,0,0,5.875,10.9,0.0,-3633,-406,0,9.375,10.850000000000001,0.0,0,0,0,0.125,11.05,0.0,0,0,0,0.0,11.05,0.0,0,0,0,0.125,11.100000000000001,0.0,0,0,0,kReverse,kOff,-88.17,1.82,1.93,0.557312,-1.0806885,-0.40100098,33.13,0.0,654.0,0.09863281,-0.5827484,
158.894881,true,true,true,2.25,11.05,0.0,-2703,-64,0,3.125,11.05,0.0,0,0,0,1.75,10.9,0.0,-3692,-396,0,4.125,10.850000000000001,0.0,0,0,0,0.125,11.05,0.0,0,0,0,0.0,11.05,0.0,0,0,0,0.125,11.100000000000001,0.0,0,0,0,kReverse,kOff,-87.98,2.0,2.17,0.44714355,-0.7697754,-0.22576904,33.13,0.0,454.0,0.104782104,-0.5875397,
158.91944400000003,true,true,true,2.625,11.05,0.0,-2719,-71,0,3.75,11.05,0.0,0,0,0,0.0,10.9,0.0,-3755,-379,0,0.0,10.850000000000001,0.0,0,0,0,0.125,11.05,0.0,0,0,0,0.0,11.05,0.0,0,0,0,0.125,11.100000000000001,0.0,0,0,0,kReverse,kOff,-88.09,1.9,1.94,-0.3619995,-0.854187,-0.027954102,33.13,0.0,-233.0,0.117507935,-0.59661865,
158.938816,true,true,true,2.375,11.05,0.0,-2740,-77,0,3.75,11.05,0.0,0,0,0,0.125,10.9,0.0,-3817,-357,0,0.0,10.850000000000001,0.0,0,0,0,0.0,11.05,0.0,0,0,0,0.0,11.05,0.0,0,0,0,0.125,11.100000000000001,0.0,0,0,0,kReverse,kOff,-88.34,1.64,1.8,-0.030700684,-0.7963257,0.21704102,33.13,0.0,-203.0,0.12347412,-0.6013336,
158.96595200000002,true,true,true,1.5,11.05,0.0,-2763,-82,0,1.5,11.05,0.0,0,0,0,0.125,12.25,0.0,-3916,-314,0,0.125,10.850000000000001,0.0,0,0,0,0.0,12.3,0.0,0,0,0,0.0,12.3,0.0,0,0,0,0.125,12.35,0.0,0,0,0,kReverse,kOff,-88.47,1.51,1.21,0.3408203,-1.092041,0.1987915,33.13,0.0,31.0,0.13545227,-0.6109009,
158.99083199999998,true,true,true,0.375,12.3,0.0,-2802,-91,0,0.625,12.3,0.0,0,0,0,0.125,12.25,0.0,-3963,-294,0,0.125,12.35,0.0,0,0,0,0.0,12.3,0.0,0,0,0,0.0,12.3,0.0,0,0,0,0.125,12.35,0.0,0,0,0,kReverse,kOff,-88.15,1.76,1.03,0.760376,-1.4141235,0.33831787,33.13,0.0,160.0,0.14163208,-0.6148529,
159.010778,true,true,true,0.125,12.3,0.0,-2824,-96,0,0.125,12.3,0.0,0,0,0,0.125,12.25,0.0,-4009,-278,0,0.125,12.35,0.0,0,0,0,0.125,12.3,0.0,0,0,0,0.0,12.3,0.0,0,0,0,0.125,12.35,0.0,0,0,0,kReverse,kOff,-87.1,2.81,1.83,0.70892334,-0.98773193,0.4650879,33.13,0.0,3.0,0.15509033,-0.6196289,
159.03068,true,true,true,0.125,12.3,0.0,-2854,-102,0,0.125,12.3,0.0,0,0,0,0.125,12.25,0.0,-4052,-262,0,0.125,12.35,0.0,0,0,0,0.125,12.3,0.0,0,0,0,0.0,12.3,0.0,0,0,0,0.125,12.35,0.0,0,0,0,kReverse,kOff,-86.68,3.13,1.55,0.25567627,-0.7494507,0.29943848,33.13,0.0,-116.0,0.16189575,-0.620697,
159.05195600000002,true,true,true,0.125,12.3,0.0,-2883,-109,0,0.125,12.3,0.0,0,0,0,0.125,12.25,0.0,-4090,-245,0,0.125,12.35,0.0,0,0,0,0.125,12.3,0.0,0,0,0,0.0,12.3,0.0,0,0,0,0.125,12.35,0.0,0,0,0,kReverse,kOff,-86.78,3.11,1.91,-0.11407471,-0.9711304,-0.19372559,33.13,0.0,83.0,0.17532349,-0.62260437,
159.071975,true,true,true,0.125,12.3,0.0,-2910,-116,0,0.125,12.3,0.0,0,0,0,0.125,12.25,0.0,-4125,-229,0,0.125,12.35,0.0,0,0,0,0.125,12.3,0.0,0,0,0,0.0,12.3,0.0,0,0,0,0.125,12.35,0.0,0,0,0,kReverse,kOff,-86.87,3.05,2.03,0.11193848,-1.0306396,0.01763916,33.14,0.0,25.0,0.1821289,-0.62379456,
159.093886,true,true,true,0.125,12.3,0.0,-2938,-123,0,0.125,12.3,0.0,0,0,0,0.125,12.25,0.0,-4158,-215,0,0.125,12.35,0.0,0,0,0,0.125,12.3,0.0,0,0,0,0.0,12.3,0.0,0,0,0,0.125,12.35,0.0,0,0,0,kReverse,kOff,-86.46,3.35,1.64,0.4882202,-0.78930664,0.18847656,33.14,0.0,92.0,0.1960144,-0.62480164,
159.115614,true,true,true,0.125,12.3,0.0,-2968,-131,0,0.125,12.3,0.0,0,0,0,0.125,12.25,0.0,-4187,-201,0,0.125,12.35,0.0,0,0,0,0.125,12.3,0.0,0,0,0,0.0,12.3,0.0,0,0,0,0.125,12.35,0.0,0,0,0,kReverse,kOff,-86.28,3.55,1.86,0.11767578,-0.897583,0.2199707,33.14,0.0,-137.0,0.20297241,-0.6245575,
159.138869,true,true,true,0.125,12.4,0.0,-2998,-138,0,0.125,12.35,0.0,0,0,0,0.125,12.35,0.0,-4215,-187,0,0.125,12.4,0.0,0,0,0,0.125,12.35,0.0,0,0,0,0.0,12.35,0.0,0,0,0,0.125,12.4,0.0,0,0,0,kReverse,kOff,-86.34,3.51,1.94,0.10858154,-1.0667725,-0.036132812,33.14,0.0,69.0,0.21665955,-0.6239166,
159.164019,true,true,true,0.125,12.4,0.0,-3027,-142,0,0.125,12.35,0.0,0,0,0,0.125,12.35,0.0,-4266,-159,0,0.125,12.4,0.0,0,0,0,0.125,12.35,0.0,0,0,0,0.0,12.35,0.0,0,0,0,0.125,12.4,0.0,0,0,0,kReverse,kOff,-86.26,3.55,1.75,0.10620117,-1.0491943,0.49731445,33.14,0.0,-377.0,0.22329712,-0.6233978,
159.181777,true,true,true,0.125,12.4,0.0,-3056,-144,0,0.125,12.35,0.0,0,0,0,0.125,12.35,0.0,-4288,-147,0,0.125,12.4,0.0,0,0,0,0.125,12.35,0.0,0,0,0,0.0,12.35,0.0,0,0,0,0.125,12.4,0.0,0,0,0,kReverse,kOff,-86.16,3.55,1.37,0.001159668,-1.03125,0.051696777,33.14,0.0,-56.0,0.22964478,-0.6227112,
159.203215,true,true,true,0.125,12.4,0.0,-3083,-144,0,0.125,12.35,0.0,0,0,0,0.125,12.35,0.0,-4310,-137,0,0.125,12.4,0.0,0,0,0,0.125,12.35,0.0,0,0,0,0.0,12.35,0.0,0,0,0,0.125,12.4,0.0,0,0,0,kReverse,kOff,-86.19,3.47,1.13,-0.02142334,-1.1936035,0.37072754,33.14,0.0,-334.0,0.24189758,-0.62145996,
159.228614,true,true,true,0.125,12.4,0.0,-3133,-142,0,0.125,12.35,0.0,0,0,0,0.125,12.35,0.0,-4330,-127,0,0.125,12.4,0.0,0,0,0,0.0,12.35,0.0,0,0,0,0.0,12.35,0.0,0,0,0,0.125,12.4,0.0,0,0,0,kReverse,kOff,-86.11,3.41,0.59,-0.024475098,-0.8868408,0.25457764,33.14,0.0,-231.0,0.24749756,-0.620697,
159.247843,true,true,true,0.125,12.4,0.0,-3155,-137,0,0.125,12.35,0.0,0,0,0,0.125,12.35,0.0,-4349,-119,0,0.125,12.4,0.0,0,0,0,0.0,12.35,0.0,0,0,0,0.0,12.35,0.0,0,0,0,0.125,12.4,0.0,0,0,0,kReverse,kOff,-85.97,3.38,0.11,0.019592285,-1.0913086,0.32513428,33.14,0.0,-260.0,0.2578888,-0.6187439,
159.27214,true,true,true,0.125,12.4,0.0,-3177,-131,0,0.125,12.35,0.0,0,0,0,0.125,12.35,0.0,-4368,-112,0,0.125,12.4,0.0,0,0,0,0.0,12.35,0.0,0,0,0,0.0,12.35,0.0,0,0,0,0.125,12.4,0.0,0,0,0,kReverse,kOff,-85.84,3.35,-0.28,0.019897461,-0.9996948,0.12005615,33.14,0.0,-85.0,0.26698303,-0.61613464,
159.294479,true,true,true,0.125,12.4,0.0,-3200,-125,0,0.125,12.4,0.0,0,0,0,0.125,12.4,0.0,-4387,-106,0,0.125,12.4,0.0,0,0,0,0.125,12.4,0.0,0,0,0,0.0,12.4,0.0,0,0,0,0.125,12.450000000000001,0.0,0,0,0,kReverse,kOff,-85.86,3.35,-0.2,0.04559326,-1.0751343,0.083984375,33.14,0.0,-42.0,0.2713318,-0.61613464,
159.318866,true,true,true,0.125,12.4,0.0,-3221,-119,0,0.125,12.4,0.0,0,0,0,0.125,12.4,0.0,-4405,-101,0,0.125,12.4,0.0,0,0,0,0.125,12.4,0.0,0,0,0,0.0,12.4,0.0,0,0,0,0.125,12.450000000000001,0.0,0,0,0,kReverse,kOff,-85.87,3.3,-0.3,-0.05895996,-0.8789673,0.16442871,33.14,0.0,-166.0,0.27947998,-0.61605835,
159.33899499999998,true,true,true,0.125,12.4,0.0,-3242,-115,0,0.125,12.4,0.0,0,0,0,0.125,12.4,0.0,-4422,-97,0,0.125,12.4,0.0,0,0,0,0.125,12.4,0.0,0,0,0,0.0,12.4,0.0,0,0,0,0.125,12.450000000000001,0.0,0,0,0,kReverse,kOff,-85.91,3.25,-0.33,0.013305664,-1.0289307,0.11230469,33.14,0.0,-81.0,0.28326416,-0.61602783,
159.36173300000002,true,true,true,0.125,12.4,0.0,-3262,-111,0,0.125,12.4,0.0,0,0,0,0.125,12.4,0.0,-4437,-93,0,0.125,12.4,0.0,0,0,0,0.125,12.4,0.0,0,0,0,0.0,12.4,0.0,0,0,0,0.125,12.450000000000001,0.0,0,0,0,kReverse,kOff,-85.93,3.23,-0.33,0.031433105,-0.96276855,0.06738281,33.14,0.0,-34.0,0.2869568,-0.61602783,
159.382834,true,true,true,0.125,12.4,0.0,-3281,-108,0,0.125,12.4,0.0,0,0,0,0.125,12.4,0.0,-4465,-85,0,0.125,12.4,0.0,0,0,0,0.125,12.4,0.0,0,0,0,0.0,12.4,0.0,0,0,0,0.125,12.450000000000001,0.0,0,0,0,kReverse,kOff,-85.85,3.18,-0.61,0.066589355,-1.0435791,0.15289307,33.14,0.0,-80.0,0.29393005,-0.6159668,
159.406271,true,true,true,0.125,12.4,0.0,-3299,-105,0,0.125,12.4,0.0,0,0,0,0.125,12.4,0.0,-4478,-81,0,0.125,12.4,0.0,0,0,0,0.125,12.4,0.0,0,0,0,0.0,12.4,0.0,0,0,0,0.125,12.450000000000001,0.0,0,0,0,kReverse,kOff,-85.85,3.18,-0.61,0.066589355,-1.0435791,0.15289307,33.14,0.0,-80.0,0.29393005,-0.6159668,
159.425739,true,true,true,0.125,12.4,0.0,-3315,-101,0,0.125,12.4,0.0,0,0,0,0.125,12.4,0.0,-4491,-76,0,0.125,12.4,0.0,0,0,0,0.125,12.4,0.0,0,0,0,0.0,12.4,0.0,0,0,0,0.125,12.450000000000001,0.0,0,0,0,kReverse,kOff,-85.69,3.18,-0.93,0.008605957,-0.99798584,0.23327637,33.14,0.0,-176.0,0.30029297,-0.61561584,
159.454093,true,true,true,0.125,12.450000000000001,0.0,-3343,-90,0,0.125,12.4,0.0,0,0,0,0.125,12.4,0.0,-4502,-71,0,0.125,12.450000000000001,0.0,0,0,0,0.125,12.4,0.0,0,0,0,0.0,12.4,0.0,0,0,0,0.125,12.450000000000001,0.0,0,0,0,kReverse,kOff,-85.54,3.09,-1.44,-0.06768799,-1.003479,0.06689453,33.14,0.0,-79.0,0.30593872,-0.6151123,
159.481019,true,true,true,0.125,12.450000000000001,0.0,-3356,-84,0,0.125,12.4,0.0,0,0,0,0.125,12.4,0.0,-4513,-67,0,0.125,12.450000000000001,0.0,0,0,0,0.125,12.4,0.0,0,0,0,0.0,12.4,0.0,0,0,0,0.125,12.450000000000001,0.0,0,0,0,kReverse,kOff,-85.42,3.01,-1.83,0.034851074,-1.0211792,0.21234131,33.14,0.0,-133.0,0.31069946,-0.61442566,
159.50539999999998,true,true,true,0.125,12.450000000000001,0.0,-3368,-78,0,0.125,12.4,0.0,0,0,0,0.125,12.4,0.0,-4533,-59,0,0.125,12.450000000000001,0.0,0,0,0,0.125,12.4,0.0,0,0,0,0.0,12.4,0.0,0,0,0,0.125,12.450000000000001,0.0,0,0,0,kReverse,kOff,-85.38,2.98,-1.95,0.02746582,-0.965271,0.16662598,33.14,0.0,-100.0,0.31277466,-0.61390686,
159.52878900000002,true,true,true,0.125,12.450000000000001,0.0,-3391,-68,0,0.125,12.4,0.0,0,0,0,0.125,12.4,0.0,-4543,-56,0,0.125,12.450000000000001,0.0,0,0,0,0.125,12.4,0.0,0,0,0,0.0,12.4,0.0,0,0,0,0.125,12.450000000000001,0.0,0,0,0,kReverse,kOff,-85.3,2.97,-2.1,0.05029297,-0.9298706,0.25598145,33.14,0.0,-158.0,0.3164673,-0.6126404,
159.554989,true,true,true,0.125,12.450000000000001,0.0,-3401,-63,0,0.125,12.4,0.0,0,0,0,0.125,12.4,0.0,-4551,-53,0,0.125,12.450000000000001,0.0,0,0,0,0.125,12.4,0.0,0,0,0,0.0,12.4,0.0,0,0,0,0.125,12.450000000000001,0.0,0,0,0,kReverse,kOff,-85.27,2.95,-2.18,0.005065918,-1.0418701,0.10650635,33.14,0.0,-60.0,0.31806946,-0.61187744,
159.568972,true,true,true,0.125,12.450000000000001,0.0,-3410,-60,0,0.125,12.4,0.0,0,0,0,0.125,12.4,0.0,-4559,-50,0,0.125,12.450000000000001,0.0,0,0,0,0.125,12.4,0.0,0,0,0,0.0,12.4,0.0,0,0,0,0.125,12.450000000000001,0.0,0,0,0,kReverse,kOff,-85.28,2.92,-2.21,0.051879883,-1.0060425,0.1361084,33.14,0.0,-57.0,0.31959534,-0.61109924,
159.58219400000002,true,true,true,0.125,12.450000000000001,0.0,-3410,-60,0,0.125,12.4,0.0,0,0,0,0.125,12.4,0.0,-4559,-47,0,0.125,12.450000000000001,0.0,0,0,0,0.125,12.4,0.0,0,0,0,0.0,12.4,0.0,0,0,0,0.125,12.450000000000001,0.0,0,0,0,kReverse,kOff,-85.27,2.91,-2.24,0.035705566,-0.93725586,0.21026611,33.14,0.0,-128.0,0.3209839,-0.6102295,
159.598386,true,true,true,0.125,12.450000000000001,0.0,-3419,-56,0,0.125,12.4,0.0,0,0,0,0.125,12.4,0.0,-4566,-47,0,0.125,12.450000000000001,0.0,0,0,0,0.125,12.4,0.0,0,0,0,0.0,12.4,0.0,0,0,0,0.125,12.450000000000001,0.0,0,0,0,kReverse,kOff,-85.25,2.88,-2.34,0.009460449,-1.0197754,0.055114746,33.06,0.0,-14.0,0.32229614,-0.6093445,
159.61297,true,true,true,0.125,12.450000000000001,0.0,-3426,-52,0,0.125,12.450000000000001,0.0,0,0,0,0.125,12.4,0.0,-4573,-44,0,0.125,12.450000000000001,0.0,0,0,0,0.125,12.450000000000001,0.0,0,0,0,0.0,12.450000000000001,0.0,0,0,0,0.125,12.5,0.0,0,0,0,kReverse,kOff,-85.17,2.84,-2.53,0.018127441,-0.973938,0.18408203,33.06,0.0,-113.0,0.32466125,-0.60765076,
159.63520300000002,true,true,true,0.125,12.450000000000001,0.0,-3432,-48,0,0.125,12.450000000000001,0.0,0,0,0,0.125,12.4,0.0,-4579,-41,0,0.125,12.450000000000001,0.0,0,0,0,0.0,12.450000000000001,0.0,0,0,0,0.0,12.450000000000001,0.0,0,0,0,0.125,12.5,0.0,0,0,0,kReverse,kOff,-85.13,2.81,-2.66,0.012939453,-0.9795532,0.13415527,33.06,0.0,-74.0,0.32566833,-0.6067505,
159.655441,true,true,true,0.125,12.450000000000001,0.0,-3438,-43,0,0.125,12.450000000000001,0.0,0,0,0,0.125,12.4,0.0,-4584,-38,0,0.125,12.450000000000001,0.0,0,0,0,0.0,12.450000000000001,0.0,0,0,0,0.0,12.450000000000001,0.0,0,0,0,0.125,12.5,0.0,0,0,0,kReverse,kOff,-85.08,2.79,-2.78,0.00982666,-0.998291,0.17285156,33.06,0.0,-105.0,0.32655334,-0.60583496,
159.675397,true,true,true,0.125,12.450000000000001,0.0,-3442,-38,0,0.125,12.450000000000001,0.0,0,0,0,0.125,12.4,0.0,-4589,-34,0,0.125,12.450000000000001,0.0,0,0,0,0.0,12.450000000000001,0.0,0,0,0,0.0,12.450000000000001,0.0,0,0,0,0.125,12.5,0.0,0,0,0,kReverse,kOff,-84.98,2.75,-3.01,0.0107421875,-1.0130005,0.095947266,33.06,0.0,-39.0,0.32783508,-0.6038208,
159.696042,true,true,true,0.125,12.450000000000001,0.0,-3446,-34,0,0.125,12.450000000000001,0.0,0,0,0,0.125,12.4,0.0,-4593,-31,0,0.125,12.450000000000001,0.0,0,0,0,0.125,12.450000000000001,0.0,0,0,0,0.0,12.450000000000001,0.0,0,0,0,0.125,12.5,0.0,0,0,0,kReverse,kOff,-84.95,2.73,-3.1,0.039855957,-0.97143555,0.21783447,33.06,0.0,-121.0,0.3283081,-0.60276794,
159.720135,true,true,true,0.125,12.450000000000001,0.0,-3450,-29,0,0.125,12.450000000000001,0.0,0,0,0,0.125,12.4,0.0,-4597,-28,0,0.125,12.450000000000001,0.0,0,0,0,0.125,12.450000000000001,0.0,0,0,0,0.0,12.450000000000001,0.0,0,0,0,0.125,12.5,0.0,0,0,0,kReverse,kOff,-84.88,2.7,-3.27,0.037719727,-0.97314453,0.14593506,33.06,0.0,-63.0,0.32891846,-0.6004944,
159.7479,true,true,true,0.125,12.450000000000001,0.0,-3455,-22,0,0.125,12.450000000000001,0.0,0,0,0,0.125,12.4,0.0,-4602,-22,0,0.125,12.450000000000001,0.0,0,0,0,0.125,12.450000000000001,0.0,0,0,0,0.0,12.450000000000001,0.0,0,0,0,0.125,12.5,0.0,0,0,0,kReverse,kOff,-84.86,2.7,-3.31,0.059143066,-0.97558594,0.17608643,33.06,0.0,-74.0,0.32910156,-0.59928894,
159.766716,true,true,true,0.125,12.450000000000001,0.0,-3456,-19,0,0.125,12.450000000000001,0.0,0,0,0,0.125,12.450000000000001,0.0,-4605,-20,0,0.125,12.450000000000001,0.0,0,0,0,0.0,12.450000000000001,0.0,0,0,0,0.0,12.450000000000001,0.0,0,0,0,0.125,12.5,0.0,0,0,0,kReverse,kOff,-84.8,2.7,-3.41,0.03515625,-0.9770508,0.14788818,33.06,0.0,-64.0,0.32925415,-0.596756,
159.79341200000002,true,true,true,0.125,12.450000000000001,0.0,-3457,-15,0,0.125,12.450000000000001,0.0,0,0,0,0.125,12.450000000000001,0.0,-4606,-17,0,0.125,12.450000000000001,0.0,0,0,0,0.0,12.450000000000001,0.0,0,0,0,0.0,12.450000000000001,0.0,0,0,0,0.125,12.5,0.0,0,0,0,kReverse,kOff,-84.75,2.69,-3.51,4.272461E-4,-1.00177,0.0791626,33.06,0.0,-27.0,0.32913208,-0.5940857,
159.815393,true,true,true,0.25,12.450000000000001,0.0,-3457,-12,0,0.125,12.450000000000001,0.0,0,0,0,0.375,12.450000000000001,0.0,-4607,-14,0,0.125,12.450000000000001,0.0,0,0,0,0.0,12.450000000000001,0.0,0,0,0,0.0,12.450000000000001,0.0,0,0,0,0.125,12.5,0.0,0,0,0,kReverse,kOff,-84.73,2.67,-3.58,0.020446777,-0.9743042,0.1661377,33.06,0.0,-86.0,0.32894897,-0.5927582,
159.83991400000002,true,true,true,1.0,12.450000000000001,0.0,-3453,-9,0,0.75,12.450000000000001,0.0,0,0,0,1.125,12.450000000000001,0.0,-4601,-7,0,1.875,12.450000000000001,0.0,0,0,0,0.125,12.450000000000001,0.0,0,0,0,0.0,12.450000000000001,0.0,0,0,0,0.125,12.5,0.0,0,0,0,kReverse,kOff,-84.71,2.64,-3.67,0.16815186,-0.94348145,0.16680908,33.06,0.0,-1.0,0.32841492,-0.58999634,
159.864535,true,true,true,3.875,12.450000000000001,0.0,-3441,-2,0,7.75,12.450000000000001,0.0,0,0,0,6.0,12.450000000000001,0.0,-4595,-2,0,3.875,12.450000000000001,0.0,0,0,0,0.125,12.450000000000001,0.0,0,0,0,0.0,12.450000000000001,0.0,0,0,0,0.125,12.5,0.0,0,0,0,kReverse,kOff,-84.33,2.61,-4.3,-0.12426758,-0.76812744,0.63061523,33.06,0.0,-548.0,0.32807922,-0.5877075,
159.891928,true,true,true,12.5,12.450000000000001,0.0,-3415,18,0,12.25,12.450000000000001,0.0,0,0,0,10.5,12.450000000000001,0.0,-4581,5,0,7.25,12.450000000000001,0.0,0,0,0,0.125,12.450000000000001,0.0,0,0,0,0.0,12.450000000000001,0.0,0,0,0,0.125,12.5,0.0,0,0,0,kReverse,kOff,-83.43,2.62,-5.69,0.34539795,-1.1035156,1.428894,33.06,0.0,-888.0,0.32684326,-0.58584595,
159.914418,true,true,true,15.25,12.450000000000001,0.0,-3397,33,0,16.125,12.450000000000001,0.0,0,0,0,14.0,12.450000000000001,0.0,-4562,18,0,10.375,12.450000000000001,0.0,0,0,0,0.125,12.450000000000001,0.0,0,0,0,0.0,12.450000000000001,0.0,0,0,0,0.125,12.5,0.0,0,0,0,kReverse,kOff,-82.17,2.65,-7.63,-0.033081055,-0.8084717,0.6258545,33.06,0.0,-464.0,0.32196045,-0.57980347,
159.940305,true,true,true,16.125,10.45,0.0,-3374,51,0,18.125,10.45,0.0,0,0,0,16.75,10.45,0.0,-4543,35,0,14.125,10.5,0.0,0,0,0,0.125,10.65,0.0,0,0,0,0.0,10.65,0.0,0,0,0,0.125,10.7,0.0,0,0,0,kReverse,kOff,-81.79,2.6,-8.34,-0.03277588,-0.8173218,0.6030884,33.06,0.0,-439.0,0.31860352,-0.57624817,
159.964008,true,true,true,16.125,10.45,0.0,-3349,67,0,19.25,10.45,0.0,0,0,0,17.625,10.45,0.0,-4522,52,0,16.375,10.5,0.0,0,0,0,0.125,10.65,0.0,0,0,0,0.0,10.65,0.0,0,0,0,0.125,10.7,0.0,0,0,0,kReverse,kOff,-80.87,2.64,-9.62,0.14324951,-0.85754395,0.8249512,33.06,0.0,-503.0,0.31001282,-0.5678406,
159.980072,true,true,true,15.875,10.45,0.0,-3320,84,0,19.25,10.45,0.0,0,0,0,18.25,10.45,0.0,-4500,69,0,16.375,10.5,0.0,0,0,0,0.125,10.65,0.0,0,0,0,0.0,10.65,0.0,0,0,0,0.125,10.7,0.0,0,0,0,kReverse,kOff,-80.48,2.67,-10.14,-0.07080078,-0.80895996,0.5385132,33.06,0.0,-394.0,0.30477905,-0.56292725,
160.008362,true,true,true,14.875,10.45,0.0,-3262,113,0,18.75,10.45,0.0,0,0,0,16.875,10.45,0.0,-4448,97,0,15.375,10.5,0.0,0,0,0,0.125,10.65,0.0,0,0,0,0.0,10.65,0.0,0,0,0,0.125,10.7,0.0,0,0,0,kReverse,kOff,-80.26,2.62,-10.62,0.008056641,-0.9365845,0.4888916,33.06,0.0,-291.0,0.28668213,-0.54714966,
160.042973,true,true,true,14.25,10.45,0.0,-3228,127,0,18.125,10.45,0.0,0,0,0,15.0,10.45,0.0,-4383,120,0,14.0,10.5,0.0,0,0,0,0.0,10.65,0.0,0,0,0,0.0,10.65,0.0,0,0,0,0.125,10.7,0.0,0,0,0,kReverse,kOff,-80.24,2.69,-10.65,0.24041748,-1.3341064,0.44995117,33.06,0.0,-86.0,0.2729187,-0.53570557,
160.071383,true,true,true,12.875,10.45,0.0,-3153,151,0,16.375,10.45,0.0,0,0,0,15.125,10.45,0.0,-4348,131,0,14.0,10.5,0.0,0,0,0,0.0,10.65,0.0,0,0,0,0.0,10.65,0.0,0,0,0,0.125,10.7,0.0,0,0,0,kReverse,kOff,-80.26,2.87,-10.44,-0.023071289,-1.0293579,0.31652832,33.06,0.0,-163.0,0.25868225,-0.5233307,
160.09476500000002,true,true,true,12.125,10.7,0.0,-3112,162,0,15.375,10.75,0.0,0,0,0,15.625,10.7,0.0,-4307,145,0,14.0,10.8,0.0,0,0,0,0.0,10.850000000000001,0.0,0,0,0,0.0,10.850000000000001,0.0,0,0,0,0.125,10.850000000000001,0.0,0,0,0,kReverse,kOff,-80.15,2.87,-10.59,0.01763916,-1.0836792,0.25976562,33.04,0.0,-86.0,0.25135803,-0.51704407,
160.118455,true,true,true,11.25,10.7,0.0,-3068,174,0,14.5,10.75,0.0,0,0,0,16.625,10.7,0.0,-4261,160,0,14.875,10.8,0.0,0,0,0,0.125,10.850000000000001,0.0,0,0,0,0.0,10.850000000000001,0.0,0,0,0,0.125,10.850000000000001,0.0,0,0,0,kReverse,kOff,-79.98,2.93,-10.74,0.07104492,-1.1505127,0.26348877,33.04,0.0,-49.0,0.23692322,-0.5042114,
160.143486,true,true,true,9.875,10.7,0.0,-3019,187,0,13.5,10.75,0.0,0,0,0,16.875,10.7,0.0,-4166,192,0,16.125,10.8,0.0,0,0,0,0.125,10.850000000000001,0.0,0,0,0,0.0,10.850000000000001,0.0,0,0,0,0.125,10.850000000000001,0.0,0,0,0,kReverse,kOff,-79.74,2.95,-11.03,0.045532227,-1.0221558,0.5241699,33.04,0.0,-287.0,0.22953796,-0.49757385,
160.166071,true,true,true,8.375,10.7,0.0,-2975,199,0,9.875,10.75,0.0,0,0,0,16.125,10.7,0.0,-4114,208,0,16.0,10.8,0.0,0,0,0,0.125,10.850000000000001,0.0,0,0,0,0.0,10.850000000000001,0.0,0,0,0,0.125,10.850000000000001,0.0,0,0,0,kReverse,kOff,-79.52,2.96,-11.28,0.0680542,-0.8397827,0.37243652,33.04,0.0,-168.0,0.21376038,-0.4835205,
160.191712,true,true,true,5.375,10.7,0.0,-2879,220,0,8.25,10.75,0.0,0,0,0,15.375,10.7,0.0,-4061,224,0,15.5,10.8,0.0,0,0,0,0.125,10.850000000000001,0.0,0,0,0,0.0,10.850000000000001,0.0,0,0,0,0.125,10.850000000000001,0.0,0,0,0,kReverse,kOff,-79.61,3.0,-10.96,0.04333496,-1.0292358,0.08898926,33.04,0.0,67.0,0.1974945,-0.4686737,
160.22454399999998,true,true,true,4.375,10.7,0.0,-2833,226,0,5.125,10.75,0.0,0,0,0,14.25,10.7,0.0,-3948,250,0,14.75,10.8,0.0,0,0,0,0.125,10.850000000000001,0.0,0,0,0,0.0,10.850000000000001,0.0,0,0,0,0.125,10.850000000000001,0.0,0,0,0,kReverse,kOff,-79.7,3.0,-10.74,0.03289795,-0.95269775,0.1928711,33.04,0.0,-32.0,0.18940735,-0.46122742,
160.247267,true,true,true,1.625,10.7,0.0,-2748,232,0,3.125,10.75,0.0,0,0,0,13.75,11.350000000000001,0.0,-3889,261,0,14.25,11.55,0.0,0,0,0,0.125,11.55,0.0,0,0,0,0.0,11.55,0.0,0,0,0,0.125,11.600000000000001,0.0,0,0,0,kReverse,kOff,-79.8,2.97,-10.39,0.041503906,-0.9893799,-0.19683838,33.04,0.0,288.0,0.17314148,-0.44612122,
160.270006,true,true,true,0.125,11.5,0.0,-2714,228,0,1.0,11.55,0.0,0,0,0,13.25,11.350000000000001,0.0,-3827,271,0,13.75,11.55,0.0,0,0,0,0.125,11.55,0.0,0,0,0,0.0,11.55,0.0,0,0,0,0.125,11.600000000000001,0.0,0,0,0,kReverse,kOff,-80.01,2.94,-10.0,0.26739502,-0.7371826,-0.025817871,33.04,0.0,254.0,0.16543579,-0.43865967,
160.28941,true,true,true,0.125,11.5,0.0,-2680,219,0,0.125,11.55,0.0,0,0,0,12.5,11.350000000000001,0.0,-3761,282,0,13.25,11.55,0.0,0,0,0,0.125,11.55,0.0,0,0,0,0.0,11.55,0.0,0,0,0,0.125,11.600000000000001,0.0,0,0,0,kReverse,kOff,-80.35,2.87,-9.28,0.34240723,-0.8643799,-0.37939453,33.04,0.0,591.0,0.1512909,-0.4236145,
160.31076800000002,true,true,true,0.125,11.5,0.0,-2632,210,0,0.125,11.55,0.0,0,0,0,12.25,11.350000000000001,0.0,-3700,291,0,13.0,11.55,0.0,0,0,0,0.125,11.55,0.0,0,0,0,0.0,11.55,0.0,0,0,0,0.125,11.600000000000001,0.0,0,0,0,kReverse,kOff,-80.86,2.93,-8.18,0.25805664,-0.8083496,-0.7215576,33.04,0.0,796.0,0.14546204,-0.41636658,
160.332774,true,true,true,0.125,11.5,0.0,-2584,204,0,0.125,11.55,0.0,0,0,0,11.75,11.350000000000001,0.0,-3635,300,0,12.5,11.55,0.0,0,0,0,0.125,11.55,0.0,0,0,0,0.0,11.55,0.0,0,0,0,0.125,11.600000000000001,0.0,0,0,0,kReverse,kOff,-80.78,2.93,-7.74,-0.2111206,-0.99035645,0.3330078,33.04,0.0,-305.0,0.13424683,-0.4010315,
160.355306,true,true,true,0.125,11.5,0.0,-2539,203,0,0.125,11.55,0.0,0,0,0,11.5,11.350000000000001,0.0,-3564,309,0,12.0,11.55,0.0,0,0,0,0.125,11.55,0.0,0,0,0,0.0,11.55,0.0,0,0,0,0.125,11.600000000000001,0.0,0,0,0,kReverse,kOff,-81.1,2.64,-7.51,0.12640381,-1.3150024,-0.25274658,33.04,0.0,384.0,0.12850952,-0.39338684,
160.375785,true,true,true,0.125,11.5,0.0,-2496,207,0,0.125,11.55,0.0,0,0,0,11.625,11.350000000000001,0.0,-3499,316,0,11.75,11.55,0.0,0,0,0,0.125,11.55,0.0,0,0,0,0.0,11.55,0.0,0,0,0,0.125,11.600000000000001,0.0,0,0,0,kReverse,kOff,-81.18,2.78,-6.74,0.21850586,-0.7453003,0.2989502,33.04,0.0,-22.0,0.11807251,-0.37783813,
160.40164199999998,true,true,true,0.125,11.5,0.0,-2457,212,0,0.125,11.55,0.0,0,0,0,12.25,11.350000000000001,0.0,-3427,323,0,13.25,11.5,0.0,0,0,0,0.125,11.55,0.0,0,0,0,0.0,11.55,0.0,0,0,0,0.125,11.600000000000001,0.0,0,0,0,kReverse,kOff,-81.16,2.69,-6.3,0.3104248,-1.0931396,-0.034179688,33.04,0.0,318.0,0.108291626,-0.3617401,
160.428044,true,true,true,0.125,11.55,0.0,-2374,217,0,0.125,11.55,0.0,0,0,0,14.25,11.4,0.0,-3283,339,0,14.125,11.5,0.0,0,0,0,0.125,11.55,0.0,0,0,0,0.0,11.55,0.0,0,0,0,0.125,11.600000000000001,0.0,0,0,0,kReverse,kOff,-81.07,2.8,-5.93,0.20214844,-0.9748535,0.056152344,33.04,0.0,170.0,0.103881836,-0.3452301,
160.453948,true,true,true,0.125,11.55,0.0,-2332,213,0,0.125,11.55,0.0,0,0,0,15.375,11.4,0.0,-3209,347,0,15.125,11.5,0.0,0,0,0,0.125,11.55,0.0,0,0,0,0.0,11.55,0.0,0,0,0,0.125,11.600000000000001,0.0,0,0,0,kReverse,kOff,-81.01,2.92,-5.3,0.24285889,-0.8878174,0.11279297,33.04,0.0,155.0,0.09588623,-0.33648682,
160.47480900000002,true,true,true,0.125,11.55,0.0,-2290,209,0,0.125,11.55,0.0,0,0,0,17.125,11.4,0.0,-3134,354,0,15.625,11.5,0.0,0,0,0,0.125,11.55,0.0,0,0,0,0.0,11.55,0.0,0,0,0,0.125,11.600000000000001,0.0,0,0,0,kReverse,kOff,-81.15,2.86,-4.99,-0.026733398,-0.883667,-0.0076293945,33.04,0.0,41.0,0.09213257,-0.3277588,
160.495081,true,true,true,0.125,11.55,0.0,-2248,207,0,0.125,11.55,0.0,0,0,0,20.75,11.4,0.0,-3052,361,0,18.375,11.5,0.0,0,0,0,0.125,11.55,0.0,0,0,0,0.0,11.55,0.0,0,0,0,0.125,11.600000000000001,0.0,0,0,0,kReverse,kOff,-81.17,2.84,-4.47,0.34051514,-0.91186523,0.080200195,33.04,0.0,256.0,0.0848999,-0.30975342,
160.51523,true,true,true,0.125,11.55,0.0,-2206,207,0,0.125,11.55,0.0,0,0,0,24.125,11.4,0.0,-2976,367,0,21.75,11.5,0.0,0,0,0,0.125,11.55,0.0,0,0,0,0.0,11.55,0.0,0,0,0,0.125,11.600000000000001,0.0,0,0,0,kReverse,kOff,-81.23,2.89,-4.1,0.04675293,-0.92749023,0.047912598,33.04,0.0,55.0,0.081588745,-0.30052185,
160.53920200000002,true,true,true,0.125,11.55,0.0,-2163,209,0,0.125,11.55,0.0,0,0,0,27.0,11.4,0.0,-2889,375,0,25.0,11.5,0.0,0,0,0,0.0,11.55,0.0,0,0,0,0.0,11.55,0.0,0,0,0,0.125,11.600000000000001,0.0,0,0,0,kReverse,kOff,-81.44,2.73,-3.55,0.32025146,-1.0265503,0.17480469,33.04,0.0,196.0,0.075164795,-0.28190613,
160.570571,true,true,true,0.125,11.0,0.0,-2077,211,0,0.125,11.0,0.0,0,0,0,25.5,10.8,0.0,-2720,394,0,26.625,10.850000000000001,0.0,0,0,0,0.0,11.0,0.0,0,0,0,0.0,11.0,0.0,0,0,0,0.125,11.05,0.0,0,0,0,kReverse,kOff,-81.31,2.77,-3.0,0.38165283,-1.0944824,0.44854736,33.04,0.0,102.0,0.06982422,-0.2626953,
160.595356,true,true,true,0.125,11.0,0.0,-2035,212,0,0.125,11.0,0.0,0,0,0,24.25,10.8,0.0,-2627,407,0,25.625,10.850000000000001,0.0,0,0,0,0.125,11.0,0.0,0,0,0,0.0,11.0,0.0,0,0,0,0.125,11.05,0.0,0,0,0,kReverse,kOff,-81.16,2.9,-2.36,0.031311035,-1.1138916,-0.17248535,33.03,0.0,157.0,0.065582275,-0.24284363,
160.61536,true,true,true,0.125,11.0,0.0,-1992,213,0,0.125,11.0,0.0,0,0,0,23.5,10.8,0.0,-2541,418,0,25.0,10.850000000000001,0.0,0,0,0,0.125,11.0,0.0,0,0,0,0.0,11.0,0.0,0,0,0,0.125,11.05,0.0,0,0,0,kReverse,kOff,-81.16,2.9,-2.36,0.031311035,-1.1138916,-0.17248535,33.03,0.0,157.0,0.065582275,-0.24284363,
160.628822,true,true,true,0.125,11.0,0.0,-1949,213,0,0.125,11.0,0.0,0,0,0,23.125,10.8,0.0,-2450,429,0,24.5,10.850000000000001,0.0,0,0,0,0.125,11.0,0.0,0,0,0,0.0,11.0,0.0,0,0,0,0.125,11.05,0.0,0,0,0,kReverse,kOff,-81.06,2.92,-1.83,0.34362793,-0.6101074,0.091796875,33.03,0.0,271.0,0.06239319,-0.22322083,
160.658301,true,true,true,0.125,11.0,0.0,-1906,213,0,0.125,11.0,0.0,0,0,0,22.75,10.8,0.0,-2358,437,0,24.125,10.850000000000001,0.0,0,0,0,0.125,11.0,0.0,0,0,0,0.0,11.0,0.0,0,0,0,0.125,11.05,0.0,0,0,0,kReverse,kOff,-81.05,2.95,-1.24,0.19256592,-1.196228,-0.23352051,33.03,0.0,299.0,0.060409546,-0.20300293,
160.689151,true,true,true,0.125,11.0,0.0,-1819,214,0,0.125,11.0,0.0,0,0,0,14.375,10.8,0.0,-2182,449,0,18.875,10.850000000000001,0.0,0,0,0,0.125,11.0,0.0,0,0,0,0.0,11.0,0.0,0,0,0,0.125,11.05,0.0,0,0,0,kReverse,kOff,-81.05,2.98,-0.64,0.23358154,-0.869751,0.16497803,33.03,0.0,157.0,0.05996704,-0.18287659,
160.715343,true,true,true,0.125,11.0,0.0,-1776,215,0,0.125,11.0,0.0,0,0,0,6.875,10.8,0.0,-2101,449,0,13.75,10.850000000000001,0.0,0,0,0,0.125,11.0,0.0,0,0,0,0.0,11.0,0.0,0,0,0,0.125,11.05,0.0,0,0,0,kReverse,kOff,-81.26,2.94,-0.07,0.22302246,-0.8255005,-0.1359253,33.03,0.0,257.0,0.06071472,-0.16242981,
160.738247,true,true,true,0.125,12.25,0.0,-1733,215,0,0.125,12.25,0.0,0,0,0,1.25,12.3,0.0,-2041,441,0,5.625,12.15,0.0,0,0,0,0.125,12.25,0.0,0,0,0,0.0,12.25,0.0,0,0,0,0.125,12.3,0.0,0,0,0,kReverse,kOff,-81.5,2.9,0.21,0.4043579,-1.0403442,-0.055419922,33.03,0.0,397.0,0.061691284,-0.15242004,
160.760639,true,true,true,0.125,12.25,0.0,-1691,216,0,0.125,12.25,0.0,0,0,0,0.875,12.3,0.0,-1988,421,0,1.625,12.15,0.0,0,0,0,0.125,12.25,0.0,0,0,0,0.0,12.25,0.0,0,0,0,0.125,12.3,0.0,0,0,0,kReverse,kOff,-82.16,2.55,0.44,-0.34320068,-1.8659058,0.09051514,33.03,0.0,-368.0,0.06347656,-0.13069153,
160.78126,true,true,true,0.125,12.25,0.0,-1648,215,0,0.125,12.25,0.0,0,0,0,0.125,12.3,0.0,-1918,393,0,0.0,12.15,0.0,0,0,0,0.125,12.25,0.0,0,0,0,0.0,12.25,0.0,0,0,0,0.125,12.3,0.0,0,0,0,kReverse,kOff,-82.41,2.04,0.11,-0.32263184,-0.43249512,-1.1108398,33.03,0.0,-28.0,0.06390381,-0.12055969,
160.805887,true,true,true,0.125,12.25,0.0,-1604,215,0,0.125,12.25,0.0,0,0,0,0.125,12.3,0.0,-1805,336,0,0.0,12.15,0.0,0,0,0,0.125,12.25,0.0,0,0,0,0.0,12.25,0.0,0,0,0,0.125,12.3,0.0,0,0,0,kReverse,kOff,-82.74,1.63,-0.14,-0.25500488,-0.2999878,-0.2503662,33.03,0.0,-185.0,0.06417847,-0.11149597,
160.82578400000003,true,true,true,0.125,12.25,0.0,-1560,214,0,0.125,12.25,0.0,0,0,0,0.125,12.3,0.0,-1749,313,0,0.0,12.15,0.0,0,0,0,0.125,12.25,0.0,0,0,0,0.0,12.25,0.0,0,0,0,0.125,12.3,0.0,0,0,0,kReverse,kOff,-83.09,1.98,0.35,0.616333,-1.8106079,-0.60913086,33.03,0.0,733.0,0.06512451,-0.094192505,
160.84784900000002,true,true,true,0.125,12.25,0.0,-1464,218,0,0.125,12.25,0.0,0,0,0,0.125,12.3,0.0,-1693,299,0,0.0,12.15,0.0,0,0,0,0.125,12.25,0.0,0,0,0,0.0,12.25,0.0,0,0,0,0.125,12.3,0.0,0,0,0,kReverse,kOff,-83.44,2.2,0.7,0.39794922,-1.3552246,0.44128418,33.03,0.0,260.0,0.068359375,-0.07827759,
160.871202,true,true,true,0.125,12.25,0.0,-1416,223,0,0.125,12.25,0.0,0,0,0,0.125,12.3,0.0,-1643,290,0,0.0,12.15,0.0,0,0,0,0.125,12.25,0.0,0,0,0,0.0,12.25,0.0,0,0,0,0.125,12.3,0.0,0,0,0,kReverse,kOff,-82.65,2.69,1.06,0.05834961,-1.1950073,-0.29449463,33.03,0.0,104.0,0.070388794,-0.07029724,
160.89258,true,true,true,0.125,12.35,0.0,-1369,228,0,0.125,12.35,0.0,0,0,0,0.125,12.35,0.0,-1596,283,0,0.0,12.35,0.0,0,0,0,0.125,12.35,0.0,0,0,0,0.0,12.35,0.0,0,0,0,0.125,12.4,0.0,0,0,0,kReverse,kOff,-82.83,2.93,1.39,0.057495117,-0.9310913,-0.17907715,33.03,0.0,75.0,0.07507324,-0.055541992,
160.914918,true,true,true,0.125,12.35,0.0,-1323,232,0,0.125,12.35,0.0,0,0,0,0.125,12.35,0.0,-1552,271,0,0.0,12.35,0.0,0,0,0,0.125,12.35,0.0,0,0,0,0.0,12.35,0.0,0,0,0,0.125,12.4,0.0,0,0,0,kReverse,kOff,-82.79,2.84,1.3,-0.101745605,-1.0837402,-0.2366333,33.03,0.0,-68.0,0.07751465,-0.04878235,
160.935938,true,true,true,0.125,12.35,0.0,-1278,235,0,0.125,12.35,0.0,0,0,0,0.125,12.35,0.0,-1512,258,0,0.0,12.35,0.0,0,0,0,0.0,12.35,0.0,0,0,0,0.0,12.35,0.0,0,0,0,0.125,12.4,0.0,0,0,0,kReverse,kOff,-83.12,2.76,1.34,-0.10430908,-0.8609009,-0.63134766,33.03,0.0,27.0,0.08241272,-0.03727722,
160.959152,true,true,true,0.125,12.35,0.0,-1233,235,0,0.125,12.35,0.0,0,0,0,0.125,12.35,0.0,-1475,244,0,0.0,12.35,0.0,0,0,0,0.0,12.35,0.0,0,0,0,0.0,12.35,0.0,0,0,0,0.125,12.4,0.0,0,0,0,kReverse,kOff,-83.78,2.77,1.4,0.0018310547,-0.8286133,-0.23358154,33.03,0.0,38.0,0.08493042,-0.03263855,
160.984543,true,true,true,0.125,12.35,0.0,-1190,233,0,0.125,12.35,0.0,0,0,0,0.125,12.35,0.0,-1406,213,0,0.0,12.35,0.0,0,0,0,0.0,12.35,0.0,0,0,0,0.0,12.35,0.0,0,0,0,0.125,12.4,0.0,0,0,0,kReverse,kOff,-84.26,2.72,1.42,0.058410645,-1.0536499,-0.1585083,33.03,0.0,70.0,0.090164185,-0.024642944,
161.008519,true,true,true,0.125,12.35,0.0,-1108,224,0,0.125,12.35,0.0,0,0,0,0.125,12.35,0.0,-1375,198,0,0.0,12.35,0.0,0,0,0,0.125,12.35,0.0,0,0,0,0.0,12.35,0.0,0,0,0,0.125,12.4,0.0,0,0,0,kReverse,kOff,-84.45,2.76,1.5,0.14776611,-0.84588623,-0.27301025,33.03,0.0,191.0,0.09300232,-0.021224976,
161.030291,true,true,true,0.125,12.35,0.0,-1068,218,0,0.125,12.35,0.0,0,0,0,0.125,12.35,0.0,-1344,185,0,0.0,12.35,0.0,0,0,0,0.125,12.35,0.0,0,0,0,0.0,12.35,0.0,0,0,0,0.125,12.4,0.0,0,0,0,kReverse,kOff,-84.67,2.76,1.52,-0.14282227,-0.86291504,-0.47320557,33.03,0.0,-34.0,0.09883118,-0.015563965,
161.05302600000002,true,true,true,0.125,12.4,0.0,-1028,212,0,0.125,12.4,0.0,0,0,0,0.125,12.4,0.0,-1314,174,0,0.0,12.4,0.0,0,0,0,0.125,12.4,0.0,0,0,0,0.0,12.4,0.0,0,0,0,0.125,12.450000000000001,0.0,0,0,0,kReverse,kOff,-84.8,2.7,1.46,0.06591797,-2.0,-0.33825684,33.03,0.0,106.0,0.10177612,-0.013717651,
161.073837,true,true,true,0.125,12.4,0.0,-988,208,0,0.125,12.4,0.0,0,0,0,0.125,12.4,0.0,-1284,165,0,0.0,12.4,0.0,0,0,0,0.125,12.4,0.0,0,0,0,0.0,12.4,0.0,0,0,0,0.125,12.450000000000001,0.0,0,0,0,kReverse,kOff,-85.09,2.5,1.3,-0.5739746,-1.013855,-0.34429932,33.03,0.0,-479.0,0.10446167,-0.012573242,
161.091946,true,true,true,0.125,12.4,0.0,-950,203,0,0.125,12.4,0.0,0,0,0,0.125,12.4,0.0,-1256,158,0,0.0,12.4,0.0,0,0,0,0.125,12.4,0.0,0,0,0,0.0,12.4,0.0,0,0,0,0.125,12.450000000000001,0.0,0,0,0,kReverse,kOff,-85.02,2.55,1.26,-0.0960083,-0.9345703,-0.45361328,33.03,0.0,19.0,0.10925293,-0.012176514,
161.11292300000002,true,true,true,0.125,12.4,0.0,-913,200,0,0.125,12.4,0.0,0,0,0,0.125,12.4,0.0,-1231,153,0,0.0,12.4,0.0,0,0,0,0.125,12.4,0.0,0,0,0,0.0,12.4,0.0,0,0,0,0.125,12.450000000000001,0.0,0,0,0,kReverse,kOff,-85.02,2.55,1.26,-0.0960083,-0.9345703,-0.45361328,33.03,0.0,19.0,0.10925293,-0.012176514,
161.132132,true,true,true,0.125,12.4,0.0,-878,196,0,0.125,12.4,0.0,0,0,0,0.125,12.4,0.0,-1208,146,0,0.0,12.4,0.0,0,0,0,0.125,12.4,0.0,0,0,0,0.0,12.4,0.0,0,0,0,0.125,12.450000000000001,0.0,0,0,0,kReverse,kOff,-85.45,2.28,1.02,0.10430908,-0.70532227,-0.20324707,33.0,0.0,149.0,0.11355591,-0.013839722,
161.153842,true,true,true,0.125,12.4,0.0,-843,192,0,0.125,12.4,0.0,0,0,0,0.125,12.4,0.0,-1187,139,0,0.0,12.4,0.0,0,0,0,0.125,12.4,0.0,0,0,0,0.0,12.4,0.0,0,0,0,0.125,12.450000000000001,0.0,0,0,0,kReverse,kOff,-85.41,2.48,1.21,0.07287598,-1.0640869,-0.15283203,33.0,0.0,95.0,0.11581421,-0.015136719,
