timer,lineLeft,lineCenter,lineRight,LeftFrontCurrent,LeftFrontVoltage,LeftFrontValue,LeftFrontPosition,LeftFrontVelocity,LeftFrontFaults,LeftRearCurrent,LeftRearVoltage,LeftRearValue,LeftRearPosition,LeftRearVelocity,LeftRearFaults,RightFrontCurrent,RightFrontVoltage,RightFrontValue,RightFrontPosition,RightFrontVelocity,RightFrontFaults,RightRearCurrent,RightRearVoltage,RightRearValue,RightRearPosition,RightRearVelocity,RightRearFaults,LiftCurrent,LiftVoltage,LiftValue,LiftPosition,LiftVelocity,LiftFaults,WristCurrent,WristVoltage,WristValue,WristPosition,WristVelocity,WristFaults,RollerCurrent,RollerVoltage,RollerValue,RollerPosition,RollerVelocity,RollerFaults,PushersState,PivotsState,navx_Pitch,navx_Roll,navx_Yaw,navx_XAcc,navx_YAcc,navx_ZAcc,navx_Temp,navx_Bar,navx_Alt,navx_XDis,navx_YDis,
2436.0606080000002,true,true,true,0.125,12.65,0.0,0,0,0,0.125,12.65,0.0,0,0,0,0.125,12.65,0.0,0,0,0,0.125,12.700000000000001,0.0,0,0,0,0.125,12.65,0.0,0,0,0,0.0,12.65,0.0,0,0,0,0.125,12.75,0.0,0,0,0,kReverse,kReverse,-87.03,2.22,2.55,0.04852295,-0.9848633,0.032409668,34.37,0.0,9.0,-7.484619,15.12352,
2436.080186,true,true,true,0.125,12.65,0.0,0,0,0,0.125,12.65,0.0,0,0,0,0.125,12.65,0.0,0,0,0,0.125,12.700000000000001,0.0,0,0,0,0.0,12.65,0.0,0,0,0,0.0,12.65,0.0,0,0,0,0.125,12.75,0.0,0,0,0,kReverse,kReverse,-87.01,2.24,2.57,0.045715332,-0.97735596,0.026184082,34.37,0.0,6.0,-7.484619,15.12352,
2436.0976870000004,true,true,true,0.125,12.65,0.0,0,0,0,0.125,12.65,0.0,0,0,0,0.125,12.65,0.0,0,0,0,0.125,12.700000000000001,0.0,0,0,0,0.0,12.65,0.0,0,0,0,0.0,12.65,0.0,0,0,0,0.125,12.75,0.0,0,0,0,kReverse,kReverse,-87.02,2.24,2.57,0.05078125,-0.9963379,-6.1035156E-4,34.37,0.0,5.0,-7.484619,15.123489,
2436.117197,true,true,true,0.125,12.65,0.0,0,0,0,0.125,12.65,0.0,0,0,0,0.125,12.65,0.0,0,0,0,0.125,12.700000000000001,0.0,0,0,0,0.0,12.65,0.0,0,0,0,0.0,12.65,0.0,0,0,0,0.125,12.75,0.0,0,0,0,kReverse,kReverse,-87.01,2.25,2.58,0.08984375,-0.98095703,0.04736328,34.37,0.0,52.0,-7.4845886,15.123474,
2436.138321,true,true,true,0.125,12.65,0.0,0,0,0,0.125,12.65,0.0,0,0,0,0.125,12.65,0.0,0,0,0,0.125,12.700000000000001,0.0,0,0,0,0.0,12.65,0.0,0,0,0,0.0,12.65,0.0,0,0,0,0.125,12.75,0.0,0,0,0,kReverse,kReverse,-86.98,2.3,2.62,-0.12432861,-0.5998535,-0.019470215,34.37,0.0,-152.0,-7.484619,15.123474,
2436.157452,true,true,true,0.125,12.65,0.0,0,0,0,0.125,12.25,0.0,0,0,0,0.125,12.65,0.0,0,0,0,0.125,12.700000000000001,0.0,0,0,0,0.0,12.65,0.0,0,0,0,0.0,12.65,0.0,0,0,0,0.125,12.75,0.0,0,0,0,kReverse,kReverse,-87.0,2.28,2.61,0.041015625,-1.2901611,0.00592041,34.37,0.0,-16.0,-7.4847565,15.123428,
2436.1775530000004,true,true,true,0.125,12.25,0.0,0,0,0,0.125,12.25,0.0,0,0,0,0.125,12.25,0.0,0,0,0,0.125,12.3,0.0,0,0,0,0.0,12.25,0.0,0,0,0,0.0,12.65,0.0,0,0,0,0.125,12.35,0.0,0,0,0,kReverse,kReverse,-87.03,2.25,2.57,0.04168701,-0.89038086,0.08325195,34.39,0.0,15.0,-7.485031,15.123581,
2436.1995580000003,true,true,true,0.125,12.25,0.0,0,0,0,0.125,12.25,0.0,0,0,0,0.125,12.25,0.0,0,0,0,0.125,12.3,0.0,0,0,0,0.125,12.25,0.0,0,0,0,0.0,12.25,0.0,0,0,0,0.125,12.35,0.0,0,0,0,kReverse,kReverse,-87.03,2.24,2.57,0.1850586,-1.3201904,0.16143799,34.39,0.0,150.0,-7.485031,15.12381,
2436.219557,true,true,true,0.125,12.25,0.0,0,0,0,0.125,12.25,0.0,0,0,0,0.125,12.25,0.0,0,0,0,0.125,12.3,0.0,0,0,0,0.125,12.25,0.0,0,0,0,0.0,12.25,0.0,0,0,0,0.125,12.35,0.0,0,0,0,kReverse,kReverse,-86.99,2.27,2.6,0.074035645,-1.1843262,0.09729004,34.39,0.0,35.0,-7.484909,15.12413,
2436.239219,true,true,true,0.125,12.25,0.0,0,0,0,0.125,12.25,0.0,0,0,0,0.125,12.25,0.0,0,0,0,0.125,12.3,0.0,0,0,0,0.125,12.25,0.0,0,0,0,0.0,12.25,0.0,0,0,0,0.125,12.35,0.0,0,0,0,kReverse,kReverse,-86.98,2.28,2.61,-0.03387451,-1.1682739,0.14971924,34.39,0.0,-61.0,-7.484833,15.1249695,
2436.261359,true,true,true,0.125,12.25,0.0,0,0,0,0.125,12.25,0.0,0,0,0,0.125,12.25,0.0,0,0,0,0.125,12.3,0.0,0,0,0,0.0,12.25,0.0,0,0,0,0.0,12.25,0.0,0,0,0,0.125,12.35,0.0,0,0,0,kReverse,kReverse,-87.04,2.27,2.59,-0.03491211,-1.09375,0.008972168,34.39,0.0,-81.0,-7.4852448,15.125931,
2436.29449,true,true,true,0.125,12.25,0.0,0,0,0,0.125,12.25,0.0,0,0,0,0.125,12.25,0.0,0,0,0,0.125,12.3,0.0,0,0,0,0.0,12.25,0.0,0,0,0,0.0,12.25,0.0,0,0,0,0.125,12.35,0.0,0,0,0,kReverse,kReverse,-87.04,2.26,2.58,0.0859375,-0.83984375,-0.045288086,34.39,0.0,39.0,-7.4858856,15.126663,
2436.319217,true,true,true,0.125,12.25,0.0,0,0,0,0.125,12.3,0.0,0,0,0,0.125,12.25,0.0,0,0,0,0.125,12.3,0.0,0,0,0,0.0,12.25,0.0,0,0,0,0.0,12.25,0.0,0,0,0,0.125,12.35,0.0,0,0,0,kReverse,kReverse,-86.99,2.29,2.62,-0.05529785,-0.8602295,-0.3026123,34.39,0.0,-143.0,-7.4864655,15.126694,
2436.3458880000003,true,true,true,0.125,12.25,0.0,0,0,0,0.125,12.3,0.0,0,0,0,0.125,12.25,0.0,0,0,0,0.125,12.3,0.0,0,0,0,0.0,12.3,0.0,0,0,0,0.0,12.25,0.0,0,0,0,0.125,12.35,0.0,0,0,0,kReverse,kReverse,-87.01,2.29,2.61,-0.010864258,-0.76708984,-0.054260254,34.39,0.0,-54.0,-7.4869385,15.126297,
2436.367319,true,true,true,0.125,12.25,0.0,0,0,0,0.125,12.3,0.0,0,0,0,0.125,12.25,0.0,0,0,0,0.125,12.3,0.0,0,0,0,0.0,12.3,0.0,0,0,0,0.0,12.25,0.0,0,0,0,0.125,12.35,0.0,0,0,0,kReverse,kReverse,-87.02,2.27,2.59,0.027954102,-0.83618164,-0.03881836,34.39,0.0,-16.0,-7.4881287,15.1250305,
2436.386808,true,true,true,0.125,12.25,0.0,0,0,0,0.125,12.3,0.0,0,0,0,0.125,12.25,0.0,0,0,0,0.125,12.3,0.0,0,0,0,0.0,12.3,0.0,0,0,0,0.0,12.25,0.0,0,0,0,0.125,12.35,0.0,0,0,0,kReverse,kReverse,-87.0,2.26,2.59,0.034973145,-0.8682251,-0.08520508,34.39,0.0,-18.0,-7.488785,15.124207,
2436.407094,true,true,true,0.125,12.25,0.0,0,0,0,0.125,12.3,0.0,0,0,0,0.125,12.25,0.0,0,0,0,0.125,12.3,0.0,0,0,0,0.125,12.3,0.0,0,0,0,0.0,12.25,0.0,0,0,0,0.125,12.35,0.0,0,0,0,kReverse,kReverse,-87.02,2.26,2.59,0.14520264,-1.1740723,-0.0025024414,34.39,0.0,90.0,-7.489395,15.1232605,
2436.4263140000003,true,true,true,0.125,12.25,0.0,0,0,0,0.125,12.3,0.0,0,0,0,0.125,12.25,0.0,0,0,0,0.125,12.3,0.0,0,0,0,0.125,12.3,0.0,0,0,0,0.0,12.25,0.0,0,0,0,0.125,12.35,0.0,0,0,0,kReverse,kReverse,-87.01,2.27,2.6,0.061279297,-1.092102,0.18078613,34.39,0.0,41.0,-7.490265,15.121506,
2436.450849,true,true,true,0.125,12.25,0.0,0,0,0,0.125,12.3,0.0,0,0,0,0.125,12.25,0.0,0,0,0,0.125,12.3,0.0,0,0,0,0.125,12.3,0.0,0,0,0,0.0,12.25,0.0,0,0,0,0.125,12.35,0.0,0,0,0,kReverse,kReverse,-87.01,2.27,2.59,-0.028259277,-1.0401611,0.25860596,34.39,0.0,-31.0,-7.4906464,15.120941,
2436.477385,true,true,true,0.125,12.25,0.0,0,0,0,0.125,12.25,0.0,0,0,0,0.125,12.25,0.0,0,0,0,0.125,12.3,0.0,0,0,0,0.125,12.3,0.0,0,0,0,0.0,12.25,0.0,0,0,0,0.125,12.35,0.0,0,0,0,kReverse,kReverse,-87.0,2.25,2.59,-0.016418457,-1.2496948,0.036376953,34.39,0.0,-65.0,-7.491577,15.120483,
2436.5002350000004,true,true,true,0.125,12.25,0.0,0,0,0,0.125,12.25,0.0,0,0,0,0.125,12.25,0.0,0,0,0,0.125,12.3,0.0,0,0,0,0.125,12.25,0.0,0,0,0,0.0,12.25,0.0,0,0,0,0.125,12.35,0.0,0,0,0,kReverse,kReverse,-87.02,2.25,2.58,-0.024963379,-1.0038452,-0.09411621,34.39,0.0,-84.0,-7.4922028,15.120239,
2436.5202090000002,true,true,true,0.125,12.25,0.0,0,0,0,0.125,12.25,0.0,0,0,0,0.125,12.25,0.0,0,0,0,0.125,12.3,0.0,0,0,0,0.125,12.25,0.0,0,0,0,0.0,12.25,0.0,0,0,0,0.125,12.35,0.0,0,0,0,kReverse,kReverse,-87.02,2.25,2.58,0.050048828,-0.7937012,-0.050964355,34.39,0.0,5.0,-7.493515,15.119507,
2436.544146,true,true,true,0.125,12.25,0.0,0,0,0,0.125,12.25,0.0,0,0,0,0.125,12.25,0.0,0,0,0,0.125,12.3,0.0,0,0,0,0.125,12.25,0.0,0,0,0,0.0,12.25,0.0,0,0,0,0.125,12.35,0.0,0,0,0,kReverse,kReverse,-86.97,2.27,2.61,-0.007385254,-0.87060547,-0.24176025,34.39,0.0,-86.0,-7.494934,15.118134,
2436.56626,true,true,true,0.125,12.25,0.0,0,0,0,0.125,12.25,0.0,0,0,0,0.125,12.25,0.0,0,0,0,0.125,12.3,0.0,0,0,0,0.0,12.25,0.0,0,0,0,0.0,12.25,0.0,0,0,0,0.125,12.35,0.0,0,0,0,kReverse,kReverse,-86.99,2.28,2.61,-0.03540039,-0.8195801,-0.13861084,34.39,0.0,-94.0,-7.495804,15.117035,
2436.587527,true,true,true,0.125,12.25,0.0,0,0,0,0.125,12.25,0.0,0,0,0,0.125,12.25,0.0,0,0,0,0.125,12.3,0.0,0,0,0,0.0,12.25,0.0,0,0,0,0.0,12.25,0.0,0,0,0,0.125,12.35,0.0,0,0,0,kReverse,kReverse,-86.98,2.26,2.6,0.06903076,-0.9879761,-0.1459961,34.39,0.0,0.0,-7.4978333,15.114212,
2436.609554,true,true,true,0.125,12.25,0.0,0,0,0,0.125,12.25,0.0,0,0,0,0.125,12.25,0.0,0,0,0,0.125,12.3,0.0,0,0,0,0.0,12.25,0.0,0,0,0,0.0,12.25,0.0,0,0,0,0.125,12.35,0.0,0,0,0,kReverse,kReverse,-86.97,2.28,2.61,0.10723877,-1.1092529,-0.05731201,34.39,0.0,46.0,-7.4988556,15.112503,
2436.635197,true,true,true,0.125,12.25,0.0,0,0,0,0.125,12.25,0.0,0,0,0,0.125,12.25,0.0,0,0,0,0.125,12.3,0.0,0,0,0,0.0,12.25,0.0,0,0,0,0.0,12.25,0.0,0,0,0,0.125,12.35,0.0,0,0,0,kReverse,kReverse,-87.0,2.28,2.61,0.08111572,-1.1189575,0.18981934,34.39,0.0,61.0,-7.500458,15.109146,
2436.657375,true,true,true,0.125,12.25,0.0,0,0,0,0.125,12.25,0.0,0,0,0,0.125,12.25,0.0,0,0,0,0.125,12.25,0.0,0,0,0,0.125,12.25,0.0,0,0,0,0.0,12.25,0.0,0,0,0,0.125,12.35,0.0,0,0,0,kReverse,kReverse,-87.01,2.28,2.6,0.016845703,-1.0359497,0.25787354,34.39,0.0,12.0,-7.501129,15.107788,
2436.6823660000005,true,true,true,0.125,12.25,0.0,0,0,0,0.125,12.25,0.0,0,0,0,0.125,12.25,0.0,0,0,0,0.125,12.25,0.0,0,0,0,0.125,12.25,0.0,0,0,0,0.0,12.25,0.0,0,0,0,0.125,12.35,0.0,0,0,0,kReverse,kReverse,-87.02,2.26,2.59,-0.0134887695,-1.1037598,0.17510986,34.36,0.0,-33.0,-7.5025177,15.106003,
2436.701731,true,true,true,0.125,12.25,0.0,0,0,0,0.125,12.25,0.0,0,0,0,0.125,12.25,0.0,0,0,0,0.125,12.25,0.0,0,0,0,0.125,12.25,0.0,0,0,0,0.0,12.25,0.0,0,0,0,0.125,12.35,0.0,0,0,0,kReverse,kReverse,-87.03,2.26,2.58,0.0289917,-1.065918,0.1239624,34.36,0.0,1.0,-7.5032654,15.105408,
2436.724531,true,true,true,0.125,12.25,0.0,0,0,0,0.125,12.25,0.0,0,0,0,0.125,12.25,0.0,0,0,0,0.125,12.25,0.0,0,0,0,0.125,12.25,0.0,0,0,0,0.0,12.25,0.0,0,0,0,0.125,12.35,0.0,0,0,0,kReverse,kReverse,-87.03,2.24,2.57,0.07092285,-0.8063965,-0.030822754,34.36,0.0,29.0,-7.5047455,15.104141,
2436.7464760000003,true,true,true,0.125,12.25,0.0,0,0,0,0.125,12.25,0.0,0,0,0,0.125,12.25,0.0,0,0,0,0.125,12.25,0.0,0,0,0,0.125,12.25,0.0,0,0,0,0.0,12.25,0.0,0,0,0,0.125,12.35,0.0,0,0,0,kReverse,kReverse,-87.0,2.27,2.59,0.0029296875,-0.8729248,-0.12097168,34.36,0.0,-56.0,-7.5062103,15.102234,
2436.772307,true,true,true,0.125,12.25,0.0,0,0,0,0.125,12.25,0.0,0,0,0,0.125,12.25,0.0,0,0,0,0.125,12.25,0.0,0,0,0,0.125,12.25,0.0,0,0,0,0.0,12.25,0.0,0,0,0,0.125,12.35,0.0,0,0,0,kReverse,kReverse,-86.99,2.27,2.61,1.2207031E-4,-0.8511963,-0.08514404,34.36,0.0,-52.0,-7.507019,15.100983,
2436.796083,true,true,true,0.125,12.25,0.0,0,0,0,0.125,12.25,0.0,0,0,0,0.125,12.25,0.0,0,0,0,0.125,12.25,0.0,0,0,0,0.125,12.25,0.0,0,0,0,0.0,12.25,0.0,0,0,0,0.125,12.35,0.0,0,0,0,kReverse,kReverse,-86.98,2.26,2.6,0.036071777,-0.9473877,-0.04852295,34.36,0.0,-14.0,-7.50885,15.0980835,
2436.8201400000003,true,true,true,0.125,12.25,0.0,0,0,0,0.125,12.25,0.0,0,0,0,0.125,12.25,0.0,0,0,0,0.125,12.25,0.0,0,0,0,0.125,12.25,0.0,0,0,0,0.0,12.25,0.0,0,0,0,0.125,12.3,0.0,0,0,0,kReverse,kReverse,-87.01,2.25,2.58,0.15100098,-1.2355957,0.018310547,34.36,0.0,96.0,-7.50972,15.096497,
2436.840815,true,true,true,0.125,12.25,0.0,0,0,0,0.125,12.25,0.0,0,0,0,0.125,12.25,0.0,0,0,0,0.125,12.25,0.0,0,0,0,0.125,12.25,0.0,0,0,0,0.0,12.25,0.0,0,0,0,0.125,12.3,0.0,0,0,0,kReverse,kReverse,-87.0,2.26,2.59,0.09844971,-1.1654663,0.111206055,34.36,0.0,63.0,-7.510483,15.09491,
2436.859398,true,true,true,0.125,12.25,0.0,0,0,0,0.125,12.25,0.0,0,0,0,0.125,12.25,0.0,0,0,0,0.125,12.25,0.0,0,0,0,0.125,12.25,0.0,0,0,0,0.0,12.25,0.0,0,0,0,0.125,12.3,0.0,0,0,0,kReverse,kReverse,-87.02,2.26,2.59,-0.0037841797,-1.0843506,0.2592163,34.36,0.0,-9.0,-7.5117645,15.092331,
2436.880516,true,true,true,0.125,12.25,0.0,0,0,0,0.125,12.25,0.0,0,0,0,0.125,12.25,0.0,0,0,0,0.125,12.25,0.0,0,0,0,0.125,12.25,0.0,0,0,0,0.0,12.25,0.0,0,0,0,0.125,12.3,0.0,0,0,0,kReverse,kReverse,-87.02,2.26,2.58,-0.007507324,-1.1395264,0.23980713,34.36,0.0,-18.0,-7.5124054,15.091476,
2436.9025380000003,true,true,true,0.125,12.25,0.0,0,0,0,0.125,12.25,0.0,0,0,0,0.125,12.25,0.0,0,0,0,0.125,12.25,0.0,0,0,0,0.125,12.25,0.0,0,0,0,0.0,12.25,0.0,0,0,0,0.125,12.3,0.0,0,0,0,kReverse,kReverse,-87.02,2.26,2.59,0.002380371,-0.85601807,0.01928711,34.36,0.0,-32.0,-7.513794,15.090317,
2436.9226240000003,true,true,true,0.125,12.25,0.0,0,0,0,0.125,12.25,0.0,0,0,0,0.125,12.25,0.0,0,0,0,0.125,12.25,0.0,0,0,0,0.125,12.25,0.0,0,0,0,0.0,12.25,0.0,0,0,0,0.125,12.3,0.0,0,0,0,kReverse,kReverse,-87.01,2.26,2.59,0.051208496,-0.7988281,-0.038879395,34.36,0.0,8.0,-7.5145264,15.089706,
2436.94493,true,true,true,0.125,12.25,0.0,0,0,0,0.125,12.25,0.0,0,0,0,0.125,12.25,0.0,0,0,0,0.125,12.25,0.0,0,0,0,0.125,12.25,0.0,0,0,0,0.0,12.25,0.0,0,0,0,0.125,12.3,0.0,0,0,0,kReverse,kReverse,-87.0,2.27,2.6,0.041931152,-0.8682251,-0.10089111,34.36,0.0,-14.0,-7.5145264,15.087891,
2436.9673140000004,true,true,true,0.125,12.25,0.0,0,0,0,0.125,12.25,0.0,0,0,0,0.125,12.25,0.0,0,0,0,0.125,12.25,0.0,0,0,0,0.0,12.25,0.0,0,0,0,0.0,12.25,0.0,0,0,0,0.125,12.3,0.0,0,0,0,kReverse,kReverse,-86.98,2.27,2.61,0.009155273,-0.838501,-0.0814209,34.36,0.0,-42.0,-7.514557,15.0867,
2436.992378,true,true,true,0.125,12.25,0.0,0,0,0,0.125,12.25,0.0,0,0,0,0.125,12.25,0.0,0,0,0,0.125,12.25,0.0,0,0,0,0.0,12.25,0.0,0,0,0,0.0,12.25,0.0,0,0,0,0.125,12.3,0.0,0,0,0,kReverse,kReverse,-86.98,2.27,2.61,-0.015930176,-0.8676758,-0.018127441,34.36,0.0,-57.0,-7.5146637,15.085419,
2437.0174480000005,true,true,true,0.125,12.25,0.0,0,0,0,0.125,12.25,0.0,0,0,0,0.125,12.25,0.0,0,0,0,0.125,12.25,0.0,0,0,0,0.0,12.25,0.0,0,0,0,0.0,12.25,0.0,0,0,0,0.125,12.3,0.0,0,0,0,kReverse,kReverse,-86.98,2.26,2.59,0.024658203,-0.9291992,-0.012817383,34.36,0.0,-19.0,-7.5148315,15.084076,
2437.0394330000004,true,true,true,0.125,12.25,0.0,0,0,0,0.125,12.25,0.0,0,0,0,0.125,12.25,0.0,0,0,0,0.125,12.25,0.0,0,0,0,0.0,12.25,0.0,0,0,0,0.0,12.25,0.0,0,0,0,0.125,12.3,0.0,0,0,0,kReverse,kReverse,-87.0,2.25,2.58,0.09680176,-1.1710815,0.052001953,34.36,0.0,51.0,-7.5150146,15.081192,
2437.059031,true,true,true,0.125,12.25,0.0,0,0,0,0.125,12.25,0.0,0,0,0,0.125,12.25,0.0,0,0,0,0.125,12.25,0.0,0,0,0,0.125,12.25,0.0,0,0,0,0.0,12.25,0.0,0,0,0,0.125,12.3,0.0,0,0,0,kReverse,kReverse,-87.03,2.24,2.57,0.111083984,-1.0654297,0.16278076,34.36,0.0,89.0,-7.514969,15.079803,
2437.08054,true,true,true,0.125,12.25,0.0,0,0,0,0.125,12.25,0.0,0,0,0,0.125,12.25,0.0,0,0,0,0.125,12.25,0.0,0,0,0,0.125,12.25,0.0,0,0,0,0.0,12.25,0.0,0,0,0,0.125,12.3,0.0,0,0,0,kReverse,kReverse,-87.02,2.25,2.58,0.0036010742,-1.1678467,0.29107666,34.36,0.0,0.0,-7.51474,15.077805,
2437.093875,true,true,true,0.125,12.25,0.0,0,0,0,0.125,12.25,0.0,0,0,0,0.125,12.25,0.0,0,0,0,0.125,12.25,0.0,0,0,0,0.125,12.25,0.0,0,0,0,0.0,12.25,0.0,0,0,0,0.125,12.3,0.0,0,0,0,kReverse,kReverse,-87.02,2.25,2.58,0.0036010742,-1.1678467,0.29107666,34.36,0.0,0.0,-7.51474,15.077805,
2437.108282,true,true,true,0.125,12.25,0.0,0,0,0,0.125,12.25,0.0,0,0,0,0.125,12.25,0.0,0,0,0,0.125,12.25,0.0,0,0,0,0.125,12.25,0.0,0,0,0,0.0,12.25,0.0,0,0,0,0.125,12.3,0.0,0,0,0,kReverse,kReverse,-87.02,2.26,2.59,-0.019958496,-1.1796875,0.22174072,34.36,0.0,-35.0,-7.5146484,15.077255,
2437.120006,true,true,true,0.125,12.25,0.0,0,0,0,0.125,12.25,0.0,0,0,0,0.125,12.25,0.0,0,0,0,0.125,12.25,0.0,0,0,0,0.125,12.25,0.0,0,0,0,0.0,12.25,0.0,0,0,0,0.125,12.3,0.0,0,0,0,kReverse,kReverse,-87.02,2.25,2.58,-0.012634277,-0.84606934,0.06677246,34.36,0.0,-38.0,-7.5146027,15.076889,
2437.134315,true,true,true,0.125,12.25,0.0,0,0,0,0.125,12.25,0.0,0,0,0,0.125,12.200000000000001,0.0,0,0,0,0.125,12.25,0.0,0,0,0,0.125,12.25,0.0,0,0,0,0.0,12.25,0.0,0,0,0,0.125,12.3,0.0,0,0,0,kReverse,kReverse,-87.01,2.24,2.57,0.03955078,-0.7998657,-0.034240723,34.36,0.0,-2.0,-7.5145874,15.076492,
2437.146161,true,true,true,0.125,12.25,0.0,0,0,0,0.125,12.25,0.0,0,0,0,0.125,12.200000000000001,0.0,0,0,0,0.125,12.25,0.0,0,0,0,0.125,12.25,0.0,0,0,0,0.0,12.200000000000001,0.0,0,0,0,0.125,12.3,0.0,0,0,0,kReverse,kReverse,-87.0,2.23,2.57,0.07104492,-0.78326416,-0.24969482,34.36,0.0,-6.0,-7.5145874,15.075867,
2437.166483,true,true,true,0.125,12.25,0.0,0,0,0,0.125,12.25,0.0,0,0,0,0.125,12.200000000000001,0.0,0,0,0,0.125,12.25,0.0,0,0,0,0.125,12.25,0.0,0,0,0,0.0,12.200000000000001,0.0,0,0,0,0.125,12.3,0.0,0,0,0,kReverse,kReverse,-86.99,2.25,2.59,0.0022583008,-0.84606934,-0.10180664,34.36,0.0,-52.0,-7.5147247,15.073761,
2437.1879190000004,true,true,true,0.125,12.25,0.0,0,0,0,0.125,12.25,0.0,0,0,0,0.125,12.200000000000001,0.0,0,0,0,0.125,12.25,0.0,0,0,0,0.125,12.25,0.0,0,0,0,0.0,12.200000000000001,0.0,0,0,0,0.125,12.3,0.0,0,0,0,kReverse,kReverse,-87.0,2.24,2.58,-0.0020751953,-0.8331299,-0.007385254,34.37,0.0,-40.0,-7.5148926,15.072479,
2437.210856,true,true,true,0.125,12.25,0.0,0,0,0,0.125,12.25,0.0,0,0,0,0.125,12.200000000000001,0.0,0,0,0,0.125,12.25,0.0,0,0,0,0.125,12.25,0.0,0,0,0,0.0,12.200000000000001,0.0,0,0,0,0.125,12.3,0.0,0,0,0,kReverse,kReverse,-86.99,2.23,2.56,0.13494873,-1.236206,-0.08416748,34.37,0.0,64.0,-7.5152893,15.069672,
2437.235386,true,true,true,0.125,12.25,0.0,0,0,0,0.125,12.25,0.0,0,0,0,0.125,12.200000000000001,0.0,0,0,0,0.125,12.25,0.0,0,0,0,0.125,12.25,0.0,0,0,0,0.0,12.200000000000001,0.0,0,0,0,0.125,12.3,0.0,0,0,0,kReverse,kReverse,-87.01,2.23,2.56,0.120666504,-1.1764526,0.021484375,34.37,0.0,70.0,-7.515381,15.068085,
2437.260082,true,true,true,0.125,12.25,0.0,0,0,0,0.125,12.25,0.0,0,0,0,0.125,12.200000000000001,0.0,0,0,0,0.125,12.25,0.0,0,0,0,0.125,12.25,0.0,0,0,0,0.0,12.200000000000001,0.0,0,0,0,0.125,12.3,0.0,0,0,0,kReverse,kReverse,-87.03,2.23,2.56,-0.025756836,-1.1107178,0.28485107,34.37,0.0,-27.0,-7.51532,15.065323,
2437.284628,true,true,true,0.125,12.25,0.0,0,0,0,0.125,12.200000000000001,0.0,0,0,0,0.125,12.200000000000001,0.0,0,0,0,0.125,12.25,0.0,0,0,0,0.125,12.25,0.0,0,0,0,0.0,12.200000000000001,0.0,0,0,0,0.125,12.3,0.0,0,0,0,kReverse,kReverse,-87.04,2.22,2.55,0.0056762695,-1.1917725,0.2376709,34.37,0.0,-7.0,-7.5153046,15.063934,
2437.3128680000004,true,true,true,0.125,12.200000000000001,0.0,0,0,0,0.125,12.200000000000001,0.0,0,0,0,0.125,12.200000000000001,0.0,0,0,0,0.125,12.25,0.0,0,0,0,0.125,12.200000000000001,0.0,0,0,0,0.0,12.200000000000001,0.0,0,0,0,0.125,12.25,0.0,0,0,0,kReverse,kReverse,-87.01,2.23,2.56,0.036743164,-0.7606201,-0.045959473,34.37,0.0,-5.0,-7.5154266,15.063141,
2437.335586,true,true,true,0.125,12.200000000000001,0.0,0,0,0,0.125,12.200000000000001,0.0,0,0,0,0.125,12.200000000000001,0.0,0,0,0,0.125,12.25,0.0,0,0,0,0.125,12.200000000000001,0.0,0,0,0,0.0,12.200000000000001,0.0,0,0,0,0.125,12.25,0.0,0,0,0,kReverse,kReverse,-87.0,2.23,2.57,0.08502197,-0.7859497,-0.18695068,34.37,0.0,17.0,-7.5154877,15.0625305,
2437.357774,true,true,true,0.125,12.200000000000001,0.0,0,0,0,0.125,12.200000000000001,0.0,0,0,0,0.125,12.200000000000001,0.0,0,0,0,0.125,12.25,0.0,0,0,0,0.125,12.200000000000001,0.0,0,0,0,0.0,12.200000000000001,0.0,0,0,0,0.125,12.25,0.0,0,0,0,kReverse,kReverse,-86.98,2.26,2.6,0.020629883,-0.8399048,-0.05987549,34.37,0.0,-27.0,-7.515518,15.060669,
2437.3806630000004,true,true,true,0.125,12.200000000000001,0.0,0,0,0,0.125,12.200000000000001,0.0,0,0,0,0.125,12.200000000000001,0.0,0,0,0,0.125,12.25,0.0,0,0,0,0.125,12.200000000000001,0.0,0,0,0,0.0,12.200000000000001,0.0,0,0,0,0.125,12.25,0.0,0,0,0,kReverse,kReverse,-86.99,2.26,2.59,-0.00793457,-0.91119385,0.030273438,34.37,0.0,-43.0,-7.5155945,15.059616,
2437.404981,true,true,true,0.125,12.200000000000001,0.0,0,0,0,0.125,12.200000000000001,0.0,0,0,0,0.125,12.200000000000001,0.0,0,0,0,0.125,12.25,0.0,0,0,0,0.125,12.200000000000001,0.0,0,0,0,0.0,12.200000000000001,0.0,0,0,0,0.125,12.25,0.0,0,0,0,kReverse,kReverse,-87.0,2.23,2.56,0.1149292,-1.2307129,-8.544922E-4,34.37,0.0,58.0,-7.515793,15.05748,
2437.4258330000002,true,true,true,0.125,12.200000000000001,0.0,0,0,0,0.125,12.200000000000001,0.0,0,0,0,0.125,12.200000000000001,0.0,0,0,0,0.125,12.25,0.0,0,0,0,0.125,12.200000000000001,0.0,0,0,0,0.0,12.200000000000001,0.0,0,0,0,0.125,12.25,0.0,0,0,0,kReverse,kReverse,-87.01,2.23,2.56,0.08441162,-1.1706543,0.06842041,34.37,0.0,42.0,-7.515793,15.056381,
2437.451534,true,true,true,0.125,12.200000000000001,0.0,0,0,0,0.125,12.200000000000001,0.0,0,0,0,0.125,12.200000000000001,0.0,0,0,0,0.125,12.25,0.0,0,0,0,0.125,12.200000000000001,0.0,0,0,0,0.0,12.200000000000001,0.0,0,0,0,0.125,12.25,0.0,0,0,0,kReverse,kReverse,-87.02,2.22,2.56,-0.019348145,-1.1015625,0.22802734,34.37,0.0,-29.0,-7.5156097,15.054642,
2437.476964,true,true,true,0.125,12.200000000000001,0.0,0,0,0,0.125,12.200000000000001,0.0,0,0,0,0.125,12.200000000000001,0.0,0,0,0,0.125,12.25,0.0,0,0,0,0.125,12.200000000000001,0.0,0,0,0,0.0,12.200000000000001,0.0,0,0,0,0.125,12.25,0.0,0,0,0,kReverse,kReverse,-87.03,2.23,2.56,-0.031188965,-1.0648804,0.20916748,34.37,0.0,-43.0,-7.5155487,15.054138,
2437.496716,true,true,true,0.125,12.200000000000001,0.0,0,0,0,0.125,12.200000000000001,0.0,0,0,0,0.125,12.200000000000001,0.0,0,0,0,0.125,12.25,0.0,0,0,0,0.125,12.200000000000001,0.0,0,0,0,0.0,12.200000000000001,0.0,0,0,0,0.125,12.25,0.0,0,0,0,kReverse,kReverse,-87.0,2.24,2.57,0.012451172,-0.83013916,-0.11364746,34.37,0.0,-43.0,-7.5155945,15.0533905,
2437.5205730000002,true,true,true,0.125,12.200000000000001,0.0,0,0,0,0.125,12.200000000000001,0.0,0,0,0,0.125,12.200000000000001,0.0,0,0,0,0.125,12.25,0.0,0,0,0,0.125,12.200000000000001,0.0,0,0,0,0.0,12.200000000000001,0.0,0,0,0,0.125,12.25,0.0,0,0,0,kReverse,kReverse,-86.99,2.24,2.57,0.08996582,-0.7863159,-0.15515137,34.37,0.0,28.0,-7.5157623,15.05191,
2437.543506,true,true,true,0.125,12.200000000000001,0.0,0,0,0,0.125,12.200000000000001,0.0,0,0,0,0.125,12.200000000000001,0.0,0,0,0,0.125,12.25,0.0,0,0,0,0.125,12.200000000000001,0.0,0,0,0,0.0,12.200000000000001,0.0,0,0,0,0.125,12.25,0.0,0,0,0,kReverse,kReverse,-86.99,2.25,2.58,0.051086426,-0.89575195,-0.0065307617,34.37,0.0,9.0,-7.515808,15.050888,
2437.5665870000003,true,true,true,0.125,12.200000000000001,0.0,0,0,0,0.125,12.200000000000001,0.0,0,0,0,0.125,12.200000000000001,0.0,0,0,0,0.125,12.25,0.0,0,0,0,0.125,12.200000000000001,0.0,0,0,0,0.0,12.200000000000001,0.0,0,0,0,0.125,12.25,0.0,0,0,0,kReverse,kReverse,-86.97,2.25,2.59,0.0044555664,-1.0023193,0.019714355,34.37,0.0,-37.0,-7.515915,15.048889,
2437.5877910000004,true,true,true,0.125,12.200000000000001,0.0,0,0,0,0.125,12.200000000000001,0.0,0,0,0,0.125,12.200000000000001,0.0,0,0,0,0.125,12.25,0.0,0,0,0,0.125,12.200000000000001,0.0,0,0,0,0.0,12.200000000000001,0.0,0,0,0,0.125,12.25,0.0,0,0,0,kReverse,kReverse,-86.98,2.24,2.58,0.021850586,-1.007019,0.0021972656,34.37,0.0,-22.0,-7.5160217,15.047867,
2437.612962,true,true,true,0.125,12.200000000000001,0.0,0,0,0,0.125,12.200000000000001,0.0,0,0,0,0.125,12.200000000000001,0.0,0,0,0,0.125,12.200000000000001,0.0,0,0,0,0.125,12.200000000000001,0.0,0,0,0,0.0,12.200000000000001,0.0,0,0,0,0.125,12.25,0.0,0,0,0,kReverse,kReverse,-87.0,2.24,2.57,0.06555176,-1.1630249,0.0949707,34.37,0.0,28.0,-7.516144,15.045746,
2437.6417,true,true,true,0.125,12.200000000000001,0.0,0,0,0,0.125,12.200000000000001,0.0,0,0,0,0.125,12.200000000000001,0.0,0,0,0,0.125,12.200000000000001,0.0,0,0,0,0.125,12.200000000000001,0.0,0,0,0,0.0,12.200000000000001,0.0,0,0,0,0.125,12.25,0.0,0,0,0,kReverse,kReverse,-87.02,2.24,2.57,0.0021972656,-1.145813,0.2630005,34.37,0.0,-5.0,-7.5160217,15.044327,
2437.663625,true,true,true,0.125,12.200000000000001,0.0,0,0,0,0.125,12.200000000000001,0.0,0,0,0,0.125,12.200000000000001,0.0,0,0,0,0.125,12.200000000000001,0.0,0,0,0,0.125,12.200000000000001,0.0,0,0,0,0.0,12.200000000000001,0.0,0,0,0,0.125,12.25,0.0,0,0,0,kReverse,kReverse,-87.01,2.24,2.58,-0.016235352,-0.9470215,0.15075684,34.37,0.0,-33.0,-7.515976,15.044006,
2437.68458,true,true,true,0.125,12.200000000000001,0.0,0,0,0,0.125,12.200000000000001,0.0,0,0,0,0.125,12.200000000000001,0.0,0,0,0,0.125,12.200000000000001,0.0,0,0,0,0.125,12.200000000000001,0.0,0,0,0,0.0,12.200000000000001,0.0,0,0,0,0.125,12.25,0.0,0,0,0,kReverse,kReverse,-86.98,2.26,2.59,0.037841797,-0.80255127,-0.23724365,34.4,0.0,-37.0,-7.5160065,15.043259,
2437.706169,true,true,true,0.125,12.200000000000001,0.0,0,0,0,0.125,12.200000000000001,0.0,0,0,0,0.125,12.200000000000001,0.0,0,0,0,0.125,12.200000000000001,0.0,0,0,0,0.125,12.200000000000001,0.0,0,0,0,0.0,12.200000000000001,0.0,0,0,0,0.125,12.25,0.0,0,0,0,kReverse,kReverse,-86.98,2.26,2.59,0.06225586,-0.8064575,-0.21472168,34.4,0.0,-10.0,-7.516083,15.042419,
2437.72751,true,true,true,0.125,12.200000000000001,0.0,0,0,0,0.125,12.200000000000001,0.0,0,0,0,0.125,12.200000000000001,0.0,0,0,0,0.125,12.200000000000001,0.0,0,0,0,0.0,12.200000000000001,0.0,0,0,0,0.0,12.200000000000001,0.0,0,0,0,0.125,12.25,0.0,0,0,0,kReverse,kReverse,-86.97,2.28,2.61,0.07342529,-0.888916,0.022338867,34.4,0.0,36.0,-7.516159,15.040085,
2437.7516130000004,true,true,true,0.125,12.200000000000001,0.0,0,0,0,0.125,12.200000000000001,0.0,0,0,0,0.125,12.200000000000001,0.0,0,0,0,0.125,12.200000000000001,0.0,0,0,0,0.0,12.200000000000001,0.0,0,0,0,0.0,12.200000000000001,0.0,0,0,0,0.125,12.25,0.0,0,0,0,kReverse,kReverse,-86.96,2.26,2.6,0.13226318,-0.9076538,0.10559082,34.4,0.0,107.0,-7.5160675,15.038879,
2437.776018,true,true,true,0.125,12.200000000000001,0.0,0,0,0,0.125,12.200000000000001,0.0,0,0,0,0.125,12.200000000000001,0.0,0,0,0,0.125,12.200000000000001,0.0,0,0,0,0.0,12.200000000000001,0.0,0,0,0,0.0,12.200000000000001,0.0,0,0,0,0.125,12.25,0.0,0,0,0,kReverse,kReverse,-87.02,2.17,2.52,0.12042236,-1.2811279,-0.030029297,34.4,0.0,58.0,-7.515518,15.036423,
2437.796665,true,true,true,0.125,12.200000000000001,0.0,0,0,0,0.125,12.200000000000001,0.0,0,0,0,0.125,12.200000000000001,0.0,0,0,0,0.125,12.200000000000001,0.0,0,0,0,0.125,12.200000000000001,0.0,0,0,0,0.0,12.200000000000001,0.0,0,0,0,0.125,12.25,0.0,0,0,0,kReverse,kReverse,-87.03,2.17,2.51,0.10675049,-1.2026367,0.057678223,34.4,0.0,62.0,-7.515106,15.035095,
2437.8145780000004,true,true,true,0.125,12.200000000000001,0.0,0,0,0,0.125,12.200000000000001,0.0,0,0,0,0.125,12.200000000000001,0.0,0,0,0,0.125,12.200000000000001,0.0,0,0,0,0.125,12.200000000000001,0.0,0,0,0,0.0,12.200000000000001,0.0,0,0,0,0.125,12.25,0.0,0,0,0,kReverse,kReverse,-87.04,2.17,2.5,-0.09320068,-1.05896,0.13391113,34.4,0.0,-115.0,-7.5147247,15.033859,
2437.8364100000003,true,true,true,0.125,12.200000000000001,0.0,0,0,0,0.125,12.200000000000001,0.0,0,0,0,0.125,12.200000000000001,0.0,0,0,0,0.125,12.200000000000001,0.0,0,0,0,0.125,12.200000000000001,0.0,0,0,0,0.0,12.200000000000001,0.0,0,0,0,0.125,12.25,0.0,0,0,0,kReverse,kReverse,-87.07,2.15,2.48,-0.06817627,-1.2341919,0.2121582,34.4,0.0,-84.0,-7.5142975,15.032181,
2437.858129,true,true,true,0.125,12.200000000000001,0.0,0,0,0,0.125,12.200000000000001,0.0,0,0,0,0.125,12.200000000000001,0.0,0,0,0,0.125,12.200000000000001,0.0,0,0,0,0.125,12.200000000000001,0.0,0,0,0,0.0,12.200000000000001,0.0,0,0,0,0.125,12.25,0.0,0,0,0,kReverse,kReverse,-87.07,2.16,2.49,0.022766113,-0.96917725,0.1651001,34.4,0.0,8.0,-7.514206,15.031708,
2437.880156,true,true,true,0.125,12.200000000000001,0.0,0,0,0,0.125,12.200000000000001,0.0,0,0,0,0.125,12.200000000000001,0.0,0,0,0,0.125,12.200000000000001,0.0,0,0,0,0.125,12.200000000000001,0.0,0,0,0,0.0,12.200000000000001,0.0,0,0,0,0.125,12.25,0.0,0,0,0,kReverse,kReverse,-87.03,2.18,2.51,0.008972168,-0.72875977,-0.10406494,34.4,0.0,-39.0,-7.513962,15.0312195,
2437.902293,true,true,true,0.125,12.200000000000001,0.0,0,0,0,0.125,12.200000000000001,0.0,0,0,0,0.125,12.200000000000001,0.0,0,0,0,0.125,12.200000000000001,0.0,0,0,0,0.125,12.200000000000001,0.0,0,0,0,0.0,12.200000000000001,0.0,0,0,0,0.125,12.25,0.0,0,0,0,kReverse,kReverse,-87.01,2.2,2.54,0.061645508,-0.89172363,-0.184021,34.4,0.0,-8.0,-7.5138855,15.030746,
2437.922494,true,true,true,0.125,12.200000000000001,0.0,0,0,0,0.125,12.200000000000001,0.0,0,0,0,0.125,12.200000000000001,0.0,0,0,0,0.125,12.200000000000001,0.0,0,0,0,0.125,12.200000000000001,0.0,0,0,0,0.0,12.200000000000001,0.0,0,0,0,0.125,12.25,0.0,0,0,0,kReverse,kReverse,-86.98,2.25,2.59,0.0059814453,-0.8225708,-0.08081055,34.4,0.0,-44.0,-7.5138245,15.028976,
2437.943441,true,true,true,0.125,12.200000000000001,0.0,0,0,0,0.125,12.200000000000001,0.0,0,0,0,0.125,12.200000000000001,0.0,0,0,0,0.125,12.200000000000001,0.0,0,0,0,0.125,12.200000000000001,0.0,0,0,0,0.0,12.200000000000001,0.0,0,0,0,0.125,12.25,0.0,0,0,0,kReverse,kReverse,-86.96,2.25,2.59,0.08831787,-0.86053467,-0.032287598,34.4,0.0,43.0,-7.5138245,15.027847,
2437.9648540000003,true,true,true,0.125,12.200000000000001,0.0,0,0,0,0.125,12.200000000000001,0.0,0,0,0,0.125,12.200000000000001,0.0,0,0,0,0.125,12.200000000000001,0.0,0,0,0,0.125,12.200000000000001,0.0,0,0,0,0.0,12.200000000000001,0.0,0,0,0,0.125,12.25,0.0,0,0,0,kReverse,kReverse,-87.0,2.24,2.58,0.10479736,-1.1995239,0.011108398,34.4,0.0,51.0,-7.513489,15.0252075,
2437.9853310000003,true,true,true,0.125,12.200000000000001,0.0,0,0,0,0.125,12.200000000000001,0.0,0,0,0,0.125,12.200000000000001,0.0,0,0,0,0.125,12.200000000000001,0.0,0,0,0,0.125,12.200000000000001,0.0,0,0,0,0.0,12.200000000000001,0.0,0,0,0,0.125,12.25,0.0,0,0,0,kReverse,kReverse,-87.0,2.24,2.58,0.10479736,-1.1995239,0.011108398,34.4,0.0,51.0,-7.513489,15.0252075,
2438.005744,true,true,true,0.125,12.200000000000001,0.0,0,0,0,0.125,12.200000000000001,0.0,0,0,0,0.125,12.200000000000001,0.0,0,0,0,0.125,12.200000000000001,0.0,0,0,0,0.125,12.200000000000001,0.0,0,0,0,0.0,12.200000000000001,0.0,0,0,0,0.125,12.25,0.0,0,0,0,kReverse,kReverse,-87.03,2.23,2.56,-0.020141602,-1.211792,0.3548584,34.4,0.0,-14.0,-7.5129547,15.022995,
2438.0269620000004,true,true,true,0.125,12.200000000000001,0.0,0,0,0,0.125,12.200000000000001,0.0,0,0,0,0.125,12.200000000000001,0.0,0,0,0,0.125,12.200000000000001,0.0,0,0,0,0.125,12.200000000000001,0.0,0,0,0,0.0,12.200000000000001,0.0,0,0,0,0.125,12.25,0.0,0,0,0,kReverse,kReverse,-87.05,2.22,2.54,-0.0041503906,-1.1903687,0.35040283,34.4,0.0,1.0,-7.5129547,15.022491,
2438.0474360000003,true,true,true,0.125,12.200000000000001,0.0,0,0,0,0.125,12.200000000000001,0.0,0,0,0,0.125,12.200000000000001,0.0,0,0,0,0.125,12.200000000000001,0.0,0,0,0,0.125,12.200000000000001,0.0,0,0,0,0.0,12.200000000000001,0.0,0,0,0,0.125,12.25,0.0,0,0,0,kReverse,kReverse,-87.05,2.22,2.54,0.016967773,-0.9968872,0.18286133,34.4,0.0,3.0,-7.5129547,15.022293,
2438.0700460000003,true,true,true,0.125,12.200000000000001,0.0,0,0,0,0.125,12.200000000000001,0.0,0,0,0,0.125,12.200000000000001,0.0,0,0,0,0.125,12.200000000000001,0.0,0,0,0,0.125,12.200000000000001,0.0,0,0,0,0.0,12.200000000000001,0.0,0,0,0,0.125,12.25,0.0,0,0,0,kReverse,kReverse,-87.01,2.21,2.54,-0.0016479492,-0.7164917,-0.17419434,34.4,0.0,-61.0,-7.5130463,15.021805,
2438.09025,true,true,true,0.125,12.200000000000001,0.0,0,0,0,0.125,12.200000000000001,0.0,0,0,0,0.125,12.200000000000001,0.0,0,0,0,0.125,12.200000000000001,0.0,0,0,0,0.125,12.200000000000001,0.0,0,0,0,0.0,12.200000000000001,0.0,0,0,0,0.125,12.25,0.0,0,0,0,kReverse,kReverse,-87.02,2.2,2.53,0.0024414062,-0.81848145,-0.29748535,34.4,0.0,-82.0,-7.5132294,15.021103,
2438.1160130000003,true,true,true,0.125,12.200000000000001,0.0,0,0,0,0.125,12.200000000000001,0.0,0,0,0,0.125,12.200000000000001,0.0,0,0,0,0.125,12.200000000000001,0.0,0,0,0,0.0,12.200000000000001,0.0,0,0,0,0.0,12.200000000000001,0.0,0,0,0,0.125,12.25,0.0,0,0,0,kReverse,kReverse,-87.04,2.18,2.51,0.047973633,-0.70098877,-0.0927124,34.4,0.0,1.0,-7.513809,15.018631,
2438.13573,true,true,true,0.125,12.200000000000001,0.0,0,0,0,0.125,12.200000000000001,0.0,0,0,0,0.125,12.200000000000001,0.0,0,0,0,0.125,12.200000000000001,0.0,0,0,0,0.0,12.200000000000001,0.0,0,0,0,0.0,12.200000000000001,0.0,0,0,0,0.125,12.25,0.0,0,0,0,kReverse,kReverse,-87.05,2.14,2.48,0.17651367,-1.008728,0.026855469,34.4,0.0,135.0,-7.514038,15.017151,
2438.157295,true,true,true,0.125,12.200000000000001,0.0,0,0,0,0.125,12.200000000000001,0.0,0,0,0,0.125,12.200000000000001,0.0,0,0,0,0.125,12.200000000000001,0.0,0,0,0,0.0,12.200000000000001,0.0,0,0,0,0.0,12.200000000000001,0.0,0,0,0,0.125,12.25,0.0,0,0,0,kReverse,kReverse,-87.06,2.17,2.5,0.121520996,-1.2322388,0.23480225,34.4,0.0,105.0,-7.5139008,15.0142975,
2438.1778540000005,true,true,true,0.125,12.200000000000001,0.0,0,0,0,0.125,12.200000000000001,0.0,0,0,0,0.125,12.200000000000001,0.0,0,0,0,0.125,12.200000000000001,0.0,0,0,0,0.0,12.200000000000001,0.0,0,0,0,0.0,12.200000000000001,0.0,0,0,0,0.125,12.25,0.0,0,0,0,kReverse,kReverse,-87.05,2.19,2.52,-0.070373535,-1.0215454,0.31848145,34.4,0.0,-60.0,-7.5137024,15.01326,
2438.200831,true,true,true,0.125,12.200000000000001,0.0,0,0,0,0.125,12.200000000000001,0.0,0,0,0,0.125,12.200000000000001,0.0,0,0,0,0.125,12.200000000000001,0.0,0,0,0,0.0,12.200000000000001,0.0,0,0,0,0.0,12.200000000000001,0.0,0,0,0,0.125,12.25,0.0,0,0,0,kReverse,kReverse,-87.09,2.17,2.49,0.028198242,-1.2547607,0.26123047,34.4,0.0,17.0,-7.513565,15.012238,
2438.2226980000005,true,true,true,0.125,12.200000000000001,0.0,0,0,0,0.125,12.200000000000001,0.0,0,0,0,0.125,12.200000000000001,0.0,0,0,0,0.125,12.200000000000001,0.0,0,0,0,0.125,12.200000000000001,0.0,0,0,0,0.0,12.200000000000001,0.0,0,0,0,0.125,12.25,0.0,0,0,0,kReverse,kReverse,-87.07,2.21,2.53,0.040161133,-0.8737793,0.16265869,34.4,0.0,28.0,-7.513489,15.0121155,
2438.245264,true,true,true,0.125,12.200000000000001,0.0,0,0,0,0.125,12.200000000000001,0.0,0,0,0,0.125,12.200000000000001,0.0,0,0,0,0.125,12.200000000000001,0.0,0,0,0,0.125,12.200000000000001,0.0,0,0,0,0.0,12.200000000000001,0.0,0,0,0,0.125,12.25,0.0,0,0,0,kReverse,kReverse,-87.0,2.22,2.56,-0.023132324,-0.74279785,-0.30169678,34.4,0.0,-105.0,-7.513504,15.011917,
2438.268724,true,true,true,0.125,12.200000000000001,0.0,0,0,0,0.125,12.200000000000001,0.0,0,0,0,0.125,12.200000000000001,0.0,0,0,0,0.125,12.200000000000001,0.0,0,0,0,0.125,12.200000000000001,0.0,0,0,0,0.0,12.200000000000001,0.0,0,0,0,0.125,12.25,0.0,0,0,0,kReverse,kReverse,-86.99,2.23,2.57,0.008422852,-0.87701416,-0.45043945,34.4,0.0,-105.0,-7.5137024,15.011169,
2438.295684,true,true,true,0.125,12.200000000000001,0.0,0,0,0,0.125,12.200000000000001,0.0,0,0,0,0.125,12.200000000000001,0.0,0,0,0,0.125,12.200000000000001,0.0,0,0,0,0.125,12.200000000000001,0.0,0,0,0,0.0,12.200000000000001,0.0,0,0,0,0.125,12.25,0.0,0,0,0,kReverse,kReverse,-87.04,2.16,2.5,0.22314453,-1.0591431,0.24511719,34.4,0.0,214.0,-7.513962,15.007385,
2438.327483,true,true,true,0.125,12.200000000000001,0.0,0,0,0,0.125,12.200000000000001,0.0,0,0,0,0.125,12.200000000000001,0.0,0,0,0,0.125,12.200000000000001,0.0,0,0,0,0.125,12.200000000000001,0.0,0,0,0,0.0,12.200000000000001,0.0,0,0,0,0.125,12.25,0.0,0,0,0,kReverse,kReverse,-87.07,2.17,2.5,0.2189331,-1.3309937,0.30963135,34.4,0.0,209.0,-7.5135345,15.006424,
2438.351208,true,true,true,0.125,12.200000000000001,0.0,0,0,0,0.125,12.200000000000001,0.0,0,0,0,0.125,12.200000000000001,0.0,0,0,0,0.125,12.200000000000001,0.0,0,0,0,0.125,12.200000000000001,0.0,0,0,0,0.0,12.200000000000001,0.0,0,0,0,0.125,12.25,0.0,0,0,0,kReverse,kReverse,-87.06,2.16,2.49,-0.13977051,-0.98669434,0.168396,34.4,0.0,-152.0,-7.5125732,15.00528,
2438.381416,true,true,true,0.125,12.200000000000001,0.0,0,0,0,0.125,12.200000000000001,0.0,0,0,0,0.125,12.200000000000001,0.0,0,0,0,0.125,12.200000000000001,0.0,0,0,0,0.125,12.200000000000001,0.0,0,0,0,0.0,12.200000000000001,0.0,0,0,0,0.125,12.25,0.0,0,0,0,kReverse,kReverse,-87.11,2.16,2.48,-0.076049805,-1.1101685,0.2994995,34.4,0.0,-72.0,-7.5121155,15.005478,
2438.4024160000004,true,true,true,0.125,12.200000000000001,0.0,0,0,0,0.125,12.200000000000001,0.0,0,0,0,0.125,12.200000000000001,0.0,0,0,0,0.125,12.200000000000001,0.0,0,0,0,0.125,12.200000000000001,0.0,0,0,0,0.0,12.200000000000001,0.0,0,0,0,0.125,12.25,0.0,0,0,0,kReverse,kReverse,-87.08,2.16,2.49,-0.10406494,-0.79541016,0.016723633,34.4,0.0,-133.0,-7.5120697,15.005981,
2438.422659,true,true,true,0.125,12.200000000000001,0.0,0,0,0,0.125,12.200000000000001,0.0,0,0,0,0.125,12.15,0.0,0,0,0,0.125,12.200000000000001,0.0,0,0,0,0.125,12.200000000000001,0.0,0,0,0,0.0,12.200000000000001,0.0,0,0,0,0.125,12.25,0.0,0,0,0,kReverse,kReverse,-87.02,2.16,2.5,-0.023071289,-0.71759033,-0.611084,34.4,0.0,-154.0,-7.512665,15.005615,
2438.442548,true,true,true,0.125,12.200000000000001,0.0,0,0,0,0.125,12.200000000000001,0.0,0,0,0,0.125,12.15,0.0,0,0,0,0.125,12.200000000000001,0.0,0,0,0,0.125,12.200000000000001,0.0,0,0,0,0.0,12.15,0.0,0,0,0,0.125,12.25,0.0,0,0,0,kReverse,kReverse,-87.03,2.16,2.5,0.07836914,-0.74438477,-0.34857178,34.4,0.0,-12.0,-7.5131836,15.004395,
2438.4610040000002,true,true,true,0.125,12.200000000000001,0.0,0,0,0,0.125,12.200000000000001,0.0,0,0,0,0.125,12.15,0.0,0,0,0,0.125,12.200000000000001,0.0,0,0,0,0.125,12.200000000000001,0.0,0,0,0,0.0,12.15,0.0,0,0,0,0.125,12.25,0.0,0,0,0,kReverse,kReverse,-87.03,2.17,2.51,0.14752197,-0.8880005,-0.052734375,34.4,0.0,98.0,-7.5136414,15.002838,
2438.4833710000003,true,true,true,0.125,12.200000000000001,0.0,0,0,0,0.125,12.200000000000001,0.0,0,0,0,0.125,12.15,0.0,0,0,0,0.125,12.200000000000001,0.0,0,0,0,0.125,12.200000000000001,0.0,0,0,0,0.0,12.15,0.0,0,0,0,0.125,12.25,0.0,0,0,0,kReverse,kReverse,-87.06,2.15,2.49,0.23510742,-1.3052368,0.2919922,34.4,0.0,223.0,-7.5139465,14.999939,
2438.502774,true,true,true,0.125,12.200000000000001,0.0,0,0,0,0.125,12.200000000000001,0.0,0,0,0,0.125,12.15,0.0,0,0,0,0.125,12.200000000000001,0.0,0,0,0,0.125,12.200000000000001,0.0,0,0,0,0.0,12.15,0.0,0,0,0,0.125,12.25,0.0,0,0,0,kReverse,kReverse,-87.04,2.18,2.52,0.119506836,-1.3345947,0.17285156,34.4,0.0,88.0,-7.513748,14.99881,
2438.526191,true,true,true,0.125,12.200000000000001,0.0,0,0,0,0.125,12.200000000000001,0.0,0,0,0,0.125,12.15,0.0,0,0,0,0.125,12.200000000000001,0.0,0,0,0,0.125,12.200000000000001,0.0,0,0,0,0.0,12.15,0.0,0,0,0,0.125,12.25,0.0,0,0,0,kReverse,kReverse,-87.06,2.19,2.52,-0.10284424,-1.100769,0.2420044,34.4,0.0,-109.0,-7.513443,14.997055,
2438.555117,true,true,true,0.125,12.200000000000001,0.0,0,0,0,0.125,12.200000000000001,0.0,0,0,0,0.125,12.15,0.0,0,0,0,0.125,12.200000000000001,0.0,0,0,0,0.125,12.200000000000001,0.0,0,0,0,0.0,12.15,0.0,0,0,0,0.125,12.25,0.0,0,0,0,kReverse,kReverse,-87.08,2.21,2.53,0.036193848,-0.98828125,0.39300537,34.4,0.0,57.0,-7.5134125,14.996613,
2438.580248,true,true,true,0.125,12.200000000000001,0.0,0,0,0,0.125,12.200000000000001,0.0,0,0,0,0.125,12.15,0.0,0,0,0,0.125,12.200000000000001,0.0,0,0,0,0.125,12.200000000000001,0.0,0,0,0,0.0,12.15,0.0,0,0,0,0.125,12.200000000000001,0.0,0,0,0,kReverse,kReverse,-87.03,2.23,2.56,-0.044921875,-0.71343994,0.060546875,34.4,0.0,-65.0,-7.513397,14.996872,
2438.604161,true,true,true,0.125,12.200000000000001,0.0,0,0,0,0.125,12.200000000000001,0.0,0,0,0,0.125,12.15,0.0,0,0,0,0.125,12.200000000000001,0.0,0,0,0,0.125,12.200000000000001,0.0,0,0,0,0.0,12.15,0.0,0,0,0,0.125,12.200000000000001,0.0,0,0,0,kReverse,kReverse,-86.99,2.22,2.56,0.059692383,-0.89141846,-0.54296875,34.4,0.0,-70.0,-7.5137787,14.996262,
2438.6253090000005,true,true,true,0.125,12.200000000000001,0.0,0,0,0,0.125,12.200000000000001,0.0,0,0,0,0.125,12.15,0.0,0,0,0,0.125,12.200000000000001,0.0,0,0,0,0.125,12.200000000000001,0.0,0,0,0,0.0,12.15,0.0,0,0,0,0.125,12.200000000000001,0.0,0,0,0,kReverse,kReverse,-86.99,2.24,2.57,0.032836914,-0.77685547,-0.27331543,34.4,0.0,-47.0,-7.5141144,14.995041,
2438.6456460000004,true,true,true,0.125,12.200000000000001,0.0,0,0,0,0.125,12.200000000000001,0.0,0,0,0,0.125,12.15,0.0,0,0,0,0.125,12.200000000000001,0.0,0,0,0,0.125,12.200000000000001,0.0,0,0,0,0.0,12.15,0.0,0,0,0,0.125,12.200000000000001,0.0,0,0,0,kReverse,kReverse,-87.04,2.18,2.52,0.25750732,-1.2128906,0.21911621,34.4,0.0,237.0,-7.5145264,14.992279,
2438.6670700000004,true,true,true,0.125,12.200000000000001,0.0,0,0,0,0.125,12.200000000000001,0.0,0,0,0,0.125,12.15,0.0,0,0,0,0.125,12.200000000000001,0.0,0,0,0,0.125,12.200000000000001,0.0,0,0,0,0.0,12.15,0.0,0,0,0,0.125,12.200000000000001,0.0,0,0,0,kReverse,kReverse,-87.03,2.19,2.53,0.17047119,-1.3457642,0.20953369,34.4,0.0,-23.0,-7.5141144,14.990128,
2438.69741,true,true,true,0.125,12.200000000000001,0.0,0,0,0,0.125,12.200000000000001,0.0,0,0,0,0.125,12.15,0.0,0,0,0,0.125,12.200000000000001,0.0,0,0,0,0.125,12.200000000000001,0.0,0,0,0,0.0,12.15,0.0,0,0,0,0.125,12.200000000000001,0.0,0,0,0,kReverse,kReverse,-87.07,2.18,2.51,-0.10296631,-0.99658203,0.31793213,34.4,0.0,-91.0,-7.513962,14.989471,
2438.719446,true,true,true,0.125,12.200000000000001,0.0,0,0,0,0.125,12.15,0.0,0,0,0,0.125,12.15,0.0,0,0,0,0.125,12.200000000000001,0.0,0,0,0,0.125,12.200000000000001,0.0,0,0,0,0.0,12.15,0.0,0,0,0,0.125,12.200000000000001,0.0,0,0,0,kReverse,kReverse,-87.1,2.18,2.5,-0.0146484375,-1.1373901,0.35656738,34.43,0.0,-4.0,-7.5138855,14.98941,
2438.743612,true,true,true,0.125,12.15,0.0,0,0,0,0.125,12.15,0.0,0,0,0,0.125,12.15,0.0,0,0,0,0.125,12.200000000000001,0.0,0,0,0,0.0,12.15,0.0,0,0,0,0.0,12.15,0.0,0,0,0,0.125,12.200000000000001,0.0,0,0,0,kReverse,kReverse,-87.05,2.19,2.52,-0.10546875,-0.80407715,0.04901123,34.43,0.0,-130.0,-7.513962,14.989838,
2438.7634340000004,true,true,true,0.125,12.15,0.0,0,0,0,0.125,12.15,0.0,0,0,0,0.125,12.15,0.0,0,0,0,0.125,12.200000000000001,0.0,0,0,0,0.0,12.15,0.0,0,0,0,0.0,12.15,0.0,0,0,0,0.125,12.200000000000001,0.0,0,0,0,kReverse,kReverse,-87.02,2.17,2.51,0.024414062,-0.80841064,-0.590271,34.43,0.0,-108.0,-7.5147552,14.989487,
2438.7833840000003,true,true,true,0.125,12.15,0.0,0,0,0,0.125,12.15,0.0,0,0,0,0.125,12.15,0.0,0,0,0,0.125,12.200000000000001,0.0,0,0,0,0.0,12.15,0.0,0,0,0,0.0,12.15,0.0,0,0,0,0.125,12.200000000000001,0.0,0,0,0,kReverse,kReverse,-87.02,2.18,2.52,0.018737793,-0.8236084,-0.44335938,34.43,0.0,-90.0,-7.515381,14.988235,
2438.8044340000006,true,true,true,0.125,12.15,0.0,0,0,0,0.125,12.15,0.0,0,0,0,0.125,12.15,0.0,0,0,0,0.125,12.200000000000001,0.0,0,0,0,0.125,12.15,0.0,0,0,0,0.0,12.15,0.0,0,0,0,0.125,12.200000000000001,0.0,0,0,0,kReverse,kReverse,-87.05,2.17,2.5,0.26385498,-1.1295776,0.2836914,34.43,0.0,258.0,-7.5164337,14.9852295,
2438.8254580000003,true,true,true,0.125,12.15,0.0,0,0,0,0.125,12.15,0.0,0,0,0,0.125,12.15,0.0,0,0,0,0.125,12.200000000000001,0.0,0,0,0,0.125,12.15,0.0,0,0,0,0.0,12.15,0.0,0,0,0,0.125,12.200000000000001,0.0,0,0,0,kReverse,kReverse,-87.02,2.19,2.53,0.20074463,-1.2871094,0.13824463,34.43,0.0,164.0,-7.516556,14.983978,
2438.8468740000003,true,true,true,0.125,12.15,0.0,0,0,0,0.125,12.15,0.0,0,0,0,0.125,12.15,0.0,0,0,0,0.125,12.200000000000001,0.0,0,0,0,0.125,12.15,0.0,0,0,0,0.0,12.15,0.0,0,0,0,0.125,12.200000000000001,0.0,0,0,0,kReverse,kReverse,-87.03,2.23,2.56,0.08544922,-1.1016235,0.20532227,34.43,0.0,69.0,-7.51651,14.98288,
2438.870102,true,true,true,0.125,12.15,0.0,0,0,0,0.125,12.15,0.0,0,0,0,0.125,12.15,0.0,0,0,0,0.125,12.200000000000001,0.0,0,0,0,0.125,12.15,0.0,0,0,0,0.0,12.15,0.0,0,0,0,0.125,12.200000000000001,0.0,0,0,0,kReverse,kReverse,-87.06,2.22,2.54,-0.059692383,-1.1882935,0.22961426,34.43,0.0,-72.0,-7.5164795,14.981445,
2438.891791,true,true,true,0.125,12.15,0.0,0,0,0,0.125,12.15,0.0,0,0,0,0.125,12.15,0.0,0,0,0,0.125,12.200000000000001,0.0,0,0,0,0.125,12.15,0.0,0,0,0,0.0,12.15,0.0,0,0,0,0.125,12.200000000000001,0.0,0,0,0,kReverse,kReverse,-87.08,2.22,2.54,0.0076904297,-1.1463623,0.37438965,34.43,0.0,19.0,-7.5165405,14.981232,
2438.9162520000004,true,true,true,0.125,12.15,0.0,0,0,0,0.125,12.15,0.0,0,0,0,0.125,12.15,0.0,0,0,0,0.125,12.200000000000001,0.0,0,0,0,0.125,12.15,0.0,0,0,0,0.0,12.15,0.0,0,0,0,0.125,12.200000000000001,0.0,0,0,0,kReverse,kReverse,-87.01,2.22,2.56,-0.050048828,-0.73168945,-0.24865723,34.43,0.0,-122.0,-7.5167847,14.9813385,
2438.93554,true,true,true,0.125,12.15,0.0,0,0,0,0.125,12.15,0.0,0,0,0,0.125,12.15,0.0,0,0,0,0.125,12.200000000000001,0.0,0,0,0,0.125,12.15,0.0,0,0,0,0.0,12.15,0.0,0,0,0,0.125,12.200000000000001,0.0,0,0,0,kReverse,kReverse,-87.01,2.19,2.53,0.02178955,-0.82470703,-0.5251465,34.43,0.0,-101.0,-7.5171204,14.980804,
2438.9570630000003,true,true,true,0.125,12.15,0.0,0,0,0,0.125,12.15,0.0,0,0,0,0.125,12.15,0.0,0,0,0,0.125,12.200000000000001,0.0,0,0,0,0.0,12.15,0.0,0,0,0,0.0,12.15,0.0,0,0,0,0.125,12.200000000000001,0.0,0,0,0,kReverse,kReverse,-87.04,2.18,2.52,0.09118652,-0.7289429,-0.042053223,34.43,0.0,51.0,-7.5180817,14.977966,
2438.980682,true,true,true,0.125,12.15,0.0,0,0,0,0.125,12.15,0.0,0,0,0,0.125,12.15,0.0,0,0,0,0.125,12.200000000000001,0.0,0,0,0,0.0,12.15,0.0,0,0,0,0.0,12.15,0.0,0,0,0,0.125,12.200000000000001,0.0,0,0,0,kReverse,kReverse,-87.06,2.14,2.47,0.22644043,-1.0037842,0.19610596,34.43,0.0,212.0,-7.518387,14.976395,
2439.0022350000004,true,true,true,0.125,12.15,0.0,0,0,0,0.125,12.15,0.0,0,0,0,0.125,12.15,0.0,0,0,0,0.125,12.200000000000001,0.0,0,0,0,0.0,12.15,0.0,0,0,0,0.0,12.15,0.0,0,0,0,0.125,12.200000000000001,0.0,0,0,0,kReverse,kReverse,-87.08,2.15,2.48,0.13970947,-1.1971436,0.24163818,34.43,0.0,126.0,-7.5182953,14.973648,
2439.023446,true,true,true,0.125,12.15,0.0,0,0,0,0.125,12.15,0.0,0,0,0,0.125,12.15,0.0,0,0,0,0.125,12.200000000000001,0.0,0,0,0,0.0,12.15,0.0,0,0,0,0.0,12.15,0.0,0,0,0,0.125,12.200000000000001,0.0,0,0,0,kReverse,kReverse,-87.06,2.16,2.5,-0.09320068,-0.9979248,0.1716919,34.43,0.0,-106.0,-7.5181427,14.972595,
2439.0454950000003,true,true,true,0.125,12.15,0.0,0,0,0,0.125,12.15,0.0,0,0,0,0.125,12.15,0.0,0,0,0,0.125,12.200000000000001,0.0,0,0,0,0.0,12.15,0.0,0,0,0,0.0,12.15,0.0,0,0,0,0.125,12.200000000000001,0.0,0,0,0,kReverse,kReverse,-87.13,2.13,2.45,-0.023620605,-1.3465576,0.3303833,34.43,0.0,-25.0,-7.5183105,14.971176,
2439.065317,true,true,true,0.125,12.15,0.0,0,0,0,0.125,12.15,0.0,0,0,0,0.125,12.15,0.0,0,0,0,0.125,12.200000000000001,0.0,0,0,0,0.0,12.15,0.0,0,0,0,0.0,12.15,0.0,0,0,0,0.125,12.200000000000001,0.0,0,0,0,kReverse,kReverse,-87.12,2.15,2.47,-0.022216797,-0.96069336,0.24481201,34.43,0.0,-22.0,-7.5184937,14.970963,
2439.095967,true,true,true,0.125,12.15,0.0,0,0,0,0.125,12.15,0.0,0,0,0,0.125,12.15,0.0,0,0,0,0.125,12.200000000000001,0.0,0,0,0,0.0,12.15,0.0,0,0,0,0.0,12.15,0.0,0,0,0,0.125,12.200000000000001,0.0,0,0,0,kReverse,kReverse,-87.05,2.12,2.47,-0.040649414,-0.75701904,-0.44726562,34.43,0.0,-146.0,-7.5191803,14.97052,
2439.1198560000003,true,true,true,0.125,12.15,0.0,0,0,0,0.125,12.15,0.0,0,0,0,0.125,12.15,0.0,0,0,0,0.125,12.200000000000001,0.0,0,0,0,0.125,12.15,0.0,0,0,0,0.0,12.15,0.0,0,0,0,0.125,12.200000000000001,0.0,0,0,0,kReverse,kReverse,-87.03,2.15,2.49,-9.1552734E-4,-0.8135376,-0.62249756,34.43,0.0,-138.0,-7.5197906,14.969391,
2439.143265,true,true,true,0.125,12.15,0.0,0,0,0,0.125,12.15,0.0,0,0,0,0.125,12.15,0.0,0,0,0,0.125,12.200000000000001,0.0,0,0,0,0.125,12.15,0.0,0,0,0,0.0,12.15,0.0,0,0,0,0.125,12.200000000000001,0.0,0,0,0,kReverse,kReverse,-87.08,2.12,2.46,0.27313232,-0.9991455,0.21221924,34.43,0.0,261.0,-7.520996,14.965866,
2439.1635,true,true,true,0.125,12.15,0.0,0,0,0,0.125,12.15,0.0,0,0,0,0.125,12.15,0.0,0,0,0,0.125,12.200000000000001,0.0,0,0,0,0.125,12.15,0.0,0,0,0,0.0,12.15,0.0,0,0,0,0.125,12.200000000000001,0.0,0,0,0,kReverse,kReverse,-87.07,2.13,2.47,0.25250244,-1.2365112,0.23754883,34.43,0.0,235.0,-7.5211487,14.964279,
2439.185097,true,true,true,0.125,12.15,0.0,0,0,0,0.125,12.15,0.0,0,0,0,0.125,12.15,0.0,0,0,0,0.125,12.200000000000001,0.0,0,0,0,0.0,12.15,0.0,0,0,0,0.0,12.15,0.0,0,0,0,0.125,12.200000000000001,0.0,0,0,0,kReverse,kReverse,-87.07,2.18,2.51,0.16479492,-1.2001343,0.31158447,34.43,0.0,161.0,-7.521042,14.962952,
2439.206915,true,true,true,0.125,12.15,0.0,0,0,0,0.125,12.15,0.0,0,0,0,0.125,12.1,0.0,0,0,0,0.125,12.200000000000001,0.0,0,0,0,0.0,12.15,0.0,0,0,0,0.0,12.15,0.0,0,0,0,0.125,12.200000000000001,0.0,0,0,0,kReverse,kReverse,-87.07,2.19,2.52,-0.090270996,-1.1317139,0.19714355,34.43,0.0,-105.0,-7.520752,14.961227,
2439.231063,true,true,true,0.125,12.15,0.0,0,0,0,0.125,12.15,0.0,0,0,0,0.125,12.1,0.0,0,0,0,0.125,12.200000000000001,0.0,0,0,0,0.125,12.15,0.0,0,0,0,0.0,12.15,0.0,0,0,0,0.125,12.200000000000001,0.0,0,0,0,kReverse,kReverse,-87.09,2.2,2.52,0.02355957,-1.197937,0.397583,34.39,0.0,36.0,-7.520691,14.960861,
2439.250985,true,true,true,0.125,12.15,0.0,0,0,0,0.125,12.15,0.0,0,0,0,0.125,12.1,0.0,0,0,0,0.125,12.200000000000001,0.0,0,0,0,0.125,12.15,0.0,0,0,0,0.0,12.15,0.0,0,0,0,0.125,12.200000000000001,0.0,0,0,0,kReverse,kReverse,-87.03,2.23,2.56,-0.057800293,-0.7133179,-0.19122314,34.39,0.0,-120.0,-7.520706,14.960861,
2439.2729110000005,true,true,true,0.125,12.15,0.0,0,0,0,0.125,12.15,0.0,0,0,0,0.125,12.1,0.0,0,0,0,0.125,12.200000000000001,0.0,0,0,0,0.125,12.15,0.0,0,0,0,0.0,12.15,0.0,0,0,0,0.125,12.200000000000001,0.0,0,0,0,kReverse,kReverse,-87.0,2.21,2.55,0.021850586,-0.80267334,-0.5397339,34.39,0.0,-103.0,-7.5209045,14.960342,
2439.295844,true,true,true,0.125,12.15,0.0,0,0,0,0.125,12.15,0.0,0,0,0,0.125,12.1,0.0,0,0,0,0.125,12.200000000000001,0.0,0,0,0,0.125,12.15,0.0,0,0,0,0.0,12.15,0.0,0,0,0,0.125,12.200000000000001,0.0,0,0,0,kReverse,kReverse,-87.01,2.21,2.55,0.118896484,-0.8196411,-0.044189453,34.39,0.0,73.0,-7.5216064,14.957413,
2439.326426,true,true,true,0.125,12.15,0.0,0,0,0,0.125,12.15,0.0,0,0,0,0.125,12.1,0.0,0,0,0,0.125,12.200000000000001,0.0,0,0,0,0.125,12.15,0.0,0,0,0,0.0,12.15,0.0,0,0,0,0.125,12.200000000000001,0.0,0,0,0,kReverse,kReverse,-87.04,2.17,2.51,0.17095947,-1.3468018,0.12878418,34.39,0.0,131.0,-7.5216827,14.954239,
2439.348206,true,true,true,0.125,12.15,0.0,0,0,0,0.125,12.15,0.0,0,0,0,0.125,12.1,0.0,0,0,0,0.125,12.200000000000001,0.0,0,0,0,0.125,12.15,0.0,0,0,0,0.0,12.15,0.0,0,0,0,0.125,12.200000000000001,0.0,0,0,0,kReverse,kReverse,-87.05,2.19,2.52,0.0357666,-1.1760254,0.16900635,34.39,0.0,12.0,-7.5214996,14.952835,
2439.3725600000002,true,true,true,0.125,12.15,0.0,0,0,0,0.125,12.15,0.0,0,0,0,0.125,12.1,0.0,0,0,0,0.125,12.200000000000001,0.0,0,0,0,0.125,12.15,0.0,0,0,0,0.0,12.15,0.0,0,0,0,0.125,12.200000000000001,0.0,0,0,0,kReverse,kReverse,-87.11,2.17,2.49,-0.059326172,-1.1046143,0.53808594,34.39,0.0,-16.0,-7.521179,14.951111,
2439.3975330000003,true,true,true,0.125,12.15,0.0,0,0,0,0.125,12.15,0.0,0,0,0,0.125,12.1,0.0,0,0,0,0.125,12.200000000000001,0.0,0,0,0,0.125,12.15,0.0,0,0,0,0.0,12.1,0.0,0,0,0,0.125,12.200000000000001,0.0,0,0,0,kReverse,kReverse,-87.11,2.18,2.5,-0.0927124,-1.1827393,0.4678955,34.39,0.0,-64.0,-7.521103,14.951172,
2439.419753,true,true,true,0.125,12.15,0.0,0,0,0,0.125,12.15,0.0,0,0,0,0.125,12.1,0.0,0,0,0,0.125,12.200000000000001,0.0,0,0,0,0.125,12.15,0.0,0,0,0,0.0,12.1,0.0,0,0,0,0.125,12.200000000000001,0.0,0,0,0,kReverse,kReverse,-87.02,2.17,2.51,-0.057556152,-0.649353,-0.67559814,34.39,0.0,-196.0,-7.521576,14.951004,
2439.4424360000003,true,true,true,0.125,12.15,0.0,0,0,0,0.125,12.15,0.0,0,0,0,0.125,12.1,0.0,0,0,0,0.125,12.200000000000001,0.0,0,0,0,0.125,12.15,0.0,0,0,0,0.0,12.1,0.0,0,0,0,0.125,12.200000000000001,0.0,0,0,0,kReverse,kReverse,-87.04,2.16,2.49,0.0892334,-0.65649414,-0.52941895,34.39,0.0,-27.0,-7.5221252,14.949783,
2439.463463,true,true,true,0.125,12.15,0.0,0,0,0,0.125,12.15,0.0,0,0,0,0.125,12.1,0.0,0,0,0,0.125,12.200000000000001,0.0,0,0,0,0.125,12.15,0.0,0,0,0,0.0,12.1,0.0,0,0,0,0.125,12.200000000000001,0.0,0,0,0,kReverse,kReverse,-87.08,2.12,2.46,0.20825195,-1.1037598,0.26965332,34.39,0.0,202.0,-7.522934,14.946426,
2439.4854000000005,true,true,true,0.125,12.15,0.0,0,0,0,0.125,12.15,0.0,0,0,0,0.125,12.1,0.0,0,0,0,0.125,12.200000000000001,0.0,0,0,0,0.125,12.15,0.0,0,0,0,0.0,12.1,0.0,0,0,0,0.125,12.200000000000001,0.0,0,0,0,kReverse,kReverse,-87.04,2.15,2.49,0.064453125,-1.3217163,-0.04827881,34.39,0.0,-1.0,-7.5230255,14.943436,
2439.5071040000003,true,true,true,0.125,12.15,0.0,0,0,0,0.125,12.15,0.0,0,0,0,0.125,12.1,0.0,0,0,0,0.125,12.200000000000001,0.0,0,0,0,0.0,12.15,0.0,0,0,0,0.0,12.1,0.0,0,0,0,0.125,12.200000000000001,0.0,0,0,0,kReverse,kReverse,-87.07,2.15,2.48,0.032958984,-1.190918,0.105407715,34.39,0.0,-1.0,-7.5230255,14.94191,
2439.5311380000003,true,true,true,0.125,12.15,0.0,0,0,0,0.125,12.15,0.0,0,0,0,0.125,12.1,0.0,0,0,0,0.125,12.15,0.0,0,0,0,0.0,12.15,0.0,0,0,0,0.0,12.1,0.0,0,0,0,0.125,12.200000000000001,0.0,0,0,0,kReverse,kReverse,-87.11,2.2,2.51,-0.04748535,-1.1288452,0.67333984,34.39,0.0,15.0,-7.5230255,14.940186,
2439.5544390000005,true,true,true,0.125,12.15,0.0,0,0,0,0.125,12.15,0.0,0,0,0,0.125,12.1,0.0,0,0,0,0.125,12.15,0.0,0,0,0,0.0,12.15,0.0,0,0,0,0.0,12.15,0.0,0,0,0,0.125,12.200000000000001,0.0,0,0,0,kReverse,kReverse,-87.07,2.21,2.53,-0.081726074,-0.90252686,0.30493164,34.39,0.0,-69.0,-7.523056,14.940308,
2439.5757540000004,true,true,true,0.125,12.15,0.0,0,0,0,0.125,12.15,0.0,0,0,0,0.125,12.1,0.0,0,0,0,0.125,12.15,0.0,0,0,0,0.0,12.15,0.0,0,0,0,0.0,12.15,0.0,0,0,0,0.125,12.200000000000001,0.0,0,0,0,kReverse,kReverse,-86.98,2.23,2.57,0.0026245117,-0.6320801,-0.69433594,34.39,0.0,-140.0,-7.523758,14.939697,
2439.600839,true,true,true,0.125,12.15,0.0,0,0,0,0.125,12.15,0.0,0,0,0,0.125,12.1,0.0,0,0,0,0.125,12.15,0.0,0,0,0,0.125,12.15,0.0,0,0,0,0.0,12.15,0.0,0,0,0,0.125,12.200000000000001,0.0,0,0,0,kReverse,kReverse,-87.0,2.22,2.56,0.10266113,-0.65515137,-0.40167236,34.39,0.0,5.0,-7.5243073,14.938248,
2439.6226210000004,true,true,true,0.125,12.15,0.0,0,0,0,0.125,12.15,0.0,0,0,0,0.125,12.1,0.0,0,0,0,0.125,12.15,0.0,0,0,0,0.125,12.15,0.0,0,0,0,0.0,12.15,0.0,0,0,0,0.125,12.200000000000001,0.0,0,0,0,kReverse,kReverse,-87.03,2.19,2.53,0.21246338,-1.2055054,0.22290039,34.39,0.0,193.0,-7.5250397,14.93486,
2439.6441550000004,true,true,true,0.125,12.15,0.0,0,0,0,0.125,12.15,0.0,0,0,0,0.125,12.1,0.0,0,0,0,0.125,12.15,0.0,0,0,0,0.125,12.15,0.0,0,0,0,0.0,12.15,0.0,0,0,0,0.125,12.200000000000001,0.0,0,0,0,kReverse,kReverse,-87.01,2.21,2.54,0.12335205,-1.2381592,0.021728516,34.39,0.0,70.0,-7.5251007,14.933304,
2439.665825,true,true,true,0.125,12.15,0.0,0,0,0,0.125,12.15,0.0,0,0,0,0.125,12.1,0.0,0,0,0,0.125,12.15,0.0,0,0,0,0.125,12.15,0.0,0,0,0,0.0,12.15,0.0,0,0,0,0.125,12.200000000000001,0.0,0,0,0,kReverse,kReverse,-87.06,2.19,2.52,0.027160645,-1.130249,0.18493652,34.39,0.0,8.0,-7.5252075,14.930023,
2439.687647,true,true,true,0.125,12.15,0.0,0,0,0,0.125,12.15,0.0,0,0,0,0.125,12.1,0.0,0,0,0,0.125,12.15,0.0,0,0,0,0.125,12.1,0.0,0,0,0,0.0,12.15,0.0,0,0,0,0.125,12.200000000000001,0.0,0,0,0,kReverse,kReverse,-87.1,2.19,2.51,-0.0038452148,-1.086792,0.56243896,34.39,0.0,42.0,-7.525238,14.928864,
2439.7112779999998,true,true,true,0.125,12.1,0.0,0,0,0,0.125,12.15,0.0,0,0,0,0.125,12.1,0.0,0,0,0,0.125,12.15,0.0,0,0,0,0.125,12.1,0.0,0,0,0,0.0,12.1,0.0,0,0,0,0.125,12.200000000000001,0.0,0,0,0,kReverse,kReverse,-87.05,2.21,2.54,-0.12011719,-0.79022217,0.15930176,34.39,0.0,-126.0,-7.5253143,14.928589,
2439.732634,true,true,true,0.125,12.1,0.0,0,0,0,0.125,12.15,0.0,0,0,0,0.125,12.1,0.0,0,0,0,0.125,12.15,0.0,0,0,0,0.125,12.1,0.0,0,0,0,0.0,12.1,0.0,0,0,0,0.125,12.200000000000001,0.0,0,0,0,kReverse,kReverse,-87.0,2.21,2.55,-0.13250732,-0.6051636,-0.5315552,34.41,0.0,-245.0,-7.52565,14.928467,
2439.752789,true,true,true,0.125,12.1,0.0,0,0,0,0.125,12.15,0.0,0,0,0,0.125,12.1,0.0,0,0,0,0.125,12.15,0.0,0,0,0,0.125,12.1,0.0,0,0,0,0.0,12.1,0.0,0,0,0,0.125,12.200000000000001,0.0,0,0,0,kReverse,kReverse,-86.99,2.21,2.55,0.015197754,-0.64141846,-0.711792,34.41,0.0,-131.0,-7.5262604,14.92749,
2439.771959,true,true,true,0.125,12.1,0.0,0,0,0,0.125,12.15,0.0,0,0,0,0.125,12.1,0.0,0,0,0,0.125,12.15,0.0,0,0,0,0.125,12.1,0.0,0,0,0,0.0,12.1,0.0,0,0,0,0.125,12.200000000000001,0.0,0,0,0,kReverse,kReverse,-87.04,2.18,2.52,0.2074585,-1.0579834,0.16552734,34.41,0.0,185.0,-7.5274353,14.923935,
2439.798416,true,true,true,0.125,12.1,0.0,0,0,0,0.125,12.15,0.0,0,0,0,0.125,12.1,0.0,0,0,0,0.125,12.15,0.0,0,0,0,0.125,12.1,0.0,0,0,0,0.0,12.1,0.0,0,0,0,0.125,12.200000000000001,0.0,0,0,0,kReverse,kReverse,-87.01,2.18,2.52,0.105651855,-1.2833252,0.026367188,34.41,0.0,52.0,-7.5277863,14.9207,
2439.819713,true,true,true,0.125,12.1,0.0,0,0,0,0.125,12.15,0.0,0,0,0,0.125,12.1,0.0,0,0,0,0.125,12.15,0.0,0,0,0,0.125,12.1,0.0,0,0,0,0.0,12.1,0.0,0,0,0,0.125,12.200000000000001,0.0,0,0,0,kReverse,kReverse,-87.02,2.17,2.51,0.022277832,-1.2693481,-0.0390625,34.41,0.0,-39.0,-7.5278625,14.919067,
2439.8372790000003,true,true,true,0.125,12.1,0.0,0,0,0,0.125,12.1,0.0,0,0,0,0.125,12.1,0.0,0,0,0,0.125,12.15,0.0,0,0,0,0.125,12.1,0.0,0,0,0,0.0,12.1,0.0,0,0,0,0.125,12.200000000000001,0.0,0,0,0,kReverse,kReverse,-87.07,2.17,2.5,0.018127441,-1.0838623,0.18536377,34.41,0.0,1.0,-7.5279846,14.91748,
2439.858485,true,true,true,0.125,12.1,0.0,0,0,0,0.125,12.1,0.0,0,0,0,0.125,12.1,0.0,0,0,0,0.125,12.15,0.0,0,0,0,0.125,12.15,0.0,0,0,0,0.0,12.1,0.0,0,0,0,0.125,12.200000000000001,0.0,0,0,0,kReverse,kReverse,-87.11,2.18,2.49,-0.009094238,-1.1170044,0.65667725,34.41,0.0,51.0,-7.5280457,14.916412,
2439.8762370000004,true,true,true,0.125,12.1,0.0,0,0,0,0.125,12.1,0.0,0,0,0,0.125,12.1,0.0,0,0,0,0.125,12.15,0.0,0,0,0,0.125,12.15,0.0,0,0,0,0.0,12.1,0.0,0,0,0,0.125,12.200000000000001,0.0,0,0,0,kReverse,kReverse,-87.09,2.2,2.54,-0.12945557,-0.70910645,-0.018432617,34.41,0.0,-161.0,-7.5282745,14.916306,
2439.8933420000003,true,true,true,0.125,12.1,0.0,0,0,0,0.125,12.1,0.0,0,0,0,0.125,12.1,0.0,0,0,0,0.125,12.15,0.0,0,0,0,0.125,12.15,0.0,0,0,0,0.0,12.1,0.0,0,0,0,0.125,12.200000000000001,0.0,0,0,0,kReverse,kReverse,-86.99,2.2,2.55,-0.08770752,-0.6102295,-0.6824951,34.41,0.0,-226.0,-7.528702,14.91597,
2439.91721,true,true,true,0.125,12.1,0.0,0,0,0,0.125,12.1,0.0,0,0,0,0.125,12.1,0.0,0,0,0,0.125,12.15,0.0,0,0,0,0.125,12.15,0.0,0,0,0,0.0,12.1,0.0,0,0,0,0.125,12.200000000000001,0.0,0,0,0,kReverse,kReverse,-87.03,2.19,2.52,0.15032959,-0.86608887,-0.16479492,34.41,0.0,83.0,-7.5300446,14.912872,
2439.9394429999998,true,true,true,0.125,12.1,0.0,0,0,0,0.125,12.1,0.0,0,0,0,0.125,12.1,0.0,0,0,0,0.125,12.15,0.0,0,0,0,0.125,12.15,0.0,0,0,0,0.0,12.1,0.0,0,0,0,0.125,12.200000000000001,0.0,0,0,0,kReverse,kReverse,-87.05,2.17,2.51,0.21972656,-1.1306152,0.2775879,34.41,0.0,213.0,-7.5305023,14.911011,
2439.9619700000003,true,true,true,0.125,12.1,0.0,0,0,0,0.125,12.1,0.0,0,0,0,0.125,12.1,0.0,0,0,0,0.125,12.15,0.0,0,0,0,0.125,12.15,0.0,0,0,0,0.0,12.1,0.0,0,0,0,0.125,12.200000000000001,0.0,0,0,0,kReverse,kReverse,-87.02,2.18,2.52,0.061584473,-1.2945557,-0.04522705,34.41,0.0,-3.0,-7.5308685,14.90773,
2439.9842200000003,true,true,true,0.125,12.1,0.0,0,0,0,0.125,12.1,0.0,0,0,0,0.125,12.1,0.0,0,0,0,0.125,12.15,0.0,0,0,0,0.0,12.15,0.0,0,0,0,0.0,12.1,0.0,0,0,0,0.125,12.200000000000001,0.0,0,0,0,kReverse,kReverse,-87.04,2.17,2.51,0.03161621,-1.2112427,0.030639648,34.41,0.0,-16.0,-7.5308685,14.906021,
2440.003176,true,true,true,0.125,12.1,0.0,0,0,0,0.125,12.1,0.0,0,0,0,0.125,12.1,0.0,0,0,0,0.125,12.15,0.0,0,0,0,0.0,12.15,0.0,0,0,0,0.0,12.1,0.0,0,0,0,0.125,12.200000000000001,0.0,0,0,0,kReverse,kReverse,-87.11,2.2,2.51,-0.029296875,-1.1489258,0.7069702,34.41,0.0,38.0,-7.530777,14.903717,
2440.0242820000003,true,true,true,0.125,12.1,0.0,0,0,0,0.125,12.1,0.0,0,0,0,0.125,12.1,0.0,0,0,0,0.125,12.15,0.0,0,0,0,0.0,12.1,0.0,0,0,0,0.0,12.1,0.0,0,0,0,0.125,12.200000000000001,0.0,0,0,0,kReverse,kReverse,-87.08,2.21,2.53,-0.118896484,-0.8902588,0.39440918,34.41,0.0,-90.0,-7.5307465,14.9036255,
2440.044423,true,true,true,0.125,12.1,0.0,0,0,0,0.125,12.1,0.0,0,0,0,0.125,12.1,0.0,0,0,0,0.125,12.15,0.0,0,0,0,0.125,12.1,0.0,0,0,0,0.0,12.1,0.0,0,0,0,0.125,12.200000000000001,0.0,0,0,0,kReverse,kReverse,-87.02,2.2,2.54,-0.12371826,-0.6288452,-0.3388672,34.41,0.0,-205.0,-7.5309143,14.90358,
2440.0653880000004,true,true,true,0.125,12.1,0.0,0,0,0,0.125,12.1,0.0,0,0,0,0.125,12.1,0.0,0,0,0,0.125,12.15,0.0,0,0,0,0.125,12.1,0.0,0,0,0,0.0,12.1,0.0,0,0,0,0.125,12.200000000000001,0.0,0,0,0,kReverse,kReverse,-87.02,2.2,2.54,0.07525635,-0.6849365,-0.44366455,34.41,0.0,-29.0,-7.5318756,14.901169,
2440.086083,true,true,true,0.125,12.1,0.0,0,0,0,0.125,12.1,0.0,0,0,0,0.125,12.1,0.0,0,0,0,0.125,12.15,0.0,0,0,0,0.125,12.1,0.0,0,0,0,0.0,12.1,0.0,0,0,0,0.125,12.200000000000001,0.0,0,0,0,kReverse,kReverse,-87.02,2.2,2.54,0.07525635,-0.6849365,-0.44366455,34.41,0.0,-29.0,-7.5318756,14.901169,
2440.106602,true,true,true,0.125,12.1,0.0,0,0,0,0.125,12.1,0.0,0,0,0,0.125,12.1,0.0,0,0,0,0.125,12.15,0.0,0,0,0,0.125,12.1,0.0,0,0,0,0.0,12.1,0.0,0,0,0,0.125,12.200000000000001,0.0,0,0,0,kReverse,kReverse,-87.04,2.18,2.52,0.21209717,-1.1824951,0.24951172,34.41,0.0,198.0,-7.5326233,14.897354,
2440.1289610000003,true,true,true,0.125,12.1,0.0,0,0,0,0.125,12.1,0.0,0,0,0,0.125,12.1,0.0,0,0,0,0.125,12.15,0.0,0,0,0,0.125,12.1,0.0,0,0,0,0.0,12.1,0.0,0,0,0,0.125,12.200000000000001,0.0,0,0,0,kReverse,kReverse,-87.02,2.19,2.52,0.123046875,-1.2507324,0.068847656,34.41,0.0,78.0,-7.5326996,14.89563,
