timer,lineLeft,lineCenter,lineRight,LeftFrontCurrent,LeftFrontVoltage,LeftFrontValue,LeftFrontPosition,LeftFrontVelocity,LeftFrontFaults,LeftRearCurrent,LeftRearVoltage,LeftRearValue,LeftRearPosition,LeftRearVelocity,LeftRearFaults,RightFrontCurrent,RightFrontVoltage,RightFrontValue,RightFrontPosition,RightFrontVelocity,RightFrontFaults,RightRearCurrent,RightRearVoltage,RightRearValue,RightRearPosition,RightRearVelocity,RightRearFaults,LiftCurrent,LiftVoltage,LiftValue,LiftPosition,LiftVelocity,LiftFaults,WristCurrent,WristVoltage,WristValue,WristPosition,WristVelocity,WristFaults,RollerCurrent,RollerVoltage,RollerValue,RollerPosition,RollerVelocity,RollerFaults,PushersState,PivotsState,navx_Pitch,navx_Roll,navx_Yaw,navx_XAcc,navx_YAcc,navx_ZAcc,navx_Temp,navx_Bar,navx_Alt,navx_XDis,navx_YDis,
721.0054399999999,true,true,true,0.125,12.65,0.0,-34449,0,0,0.125,12.65,0.0,0,0,0,0.125,12.6,0.0,0,0,0,0.125,12.65,0.0,0,0,0,0.125,12.65,0.0,4,0,0,0.0,12.65,0.0,0,0,0,0.125,12.700000000000001,0.0,0,0,0,kReverse,kOff,-87.25,2.08,2.64,0.03363037,-0.98376465,0.032409668,34.98,0.0,-1.0,-8.126633,11.907196,
721.034949,true,true,true,0.125,12.65,0.0,-34449,0,0,0.125,12.65,0.0,0,0,0,0.125,12.6,0.0,0,0,0,0.125,12.65,0.0,0,0,0,0.125,12.65,0.0,4,0,0,0.0,12.65,0.0,0,0,0,0.125,12.700000000000001,0.0,0,0,0,kReverse,kOff,-87.25,2.08,2.64,0.038208008,-0.98236084,0.02911377,34.98,0.0,1.0,-8.126633,11.907196,
721.061231,true,true,true,0.125,12.65,0.0,-34449,0,0,0.125,12.65,0.0,0,0,0,0.125,12.6,0.0,0,0,0,0.125,12.65,0.0,0,0,0,0.125,12.65,0.0,4,0,0,0.0,12.65,0.0,0,0,0,0.125,12.700000000000001,0.0,0,0,0,kReverse,kOff,-87.25,2.08,2.64,0.03277588,-0.98321533,0.024841309,34.98,0.0,-4.0,-8.126633,11.907196,
721.084242,true,true,true,0.125,12.65,0.0,-34449,0,0,0.125,12.65,0.0,0,0,0,0.125,12.6,0.0,0,0,0,0.125,12.65,0.0,0,0,0,0.125,12.65,0.0,4,0,0,0.0,12.65,0.0,0,0,0,0.125,12.700000000000001,0.0,0,0,0,kReverse,kOff,-87.25,2.08,2.64,0.036010742,-0.9840698,0.030883789,34.98,0.0,0.0,-8.126633,11.907196,
721.103842,true,true,true,0.125,12.65,0.0,-34449,0,0,0.125,12.65,0.0,0,0,0,0.125,12.6,0.0,0,0,0,0.125,12.65,0.0,0,0,0,0.125,12.65,0.0,4,0,0,0.0,12.65,0.0,0,0,0,0.125,12.700000000000001,0.0,0,0,0,kReverse,kOff,-87.25,2.08,2.64,0.03338623,-0.98547363,0.030090332,34.98,0.0,-2.0,-8.126633,11.907196,
721.124262,true,true,true,0.125,12.65,0.0,-34449,0,0,0.125,12.65,0.0,0,0,0,0.125,12.6,0.0,0,0,0,0.125,12.65,0.0,0,0,0,0.125,12.65,0.0,4,0,0,0.0,12.65,0.0,0,0,0,0.125,12.700000000000001,0.0,0,0,0,kReverse,kOff,-87.25,2.08,2.64,0.035217285,-0.9840088,0.029296875,34.98,0.0,0.0,-8.126633,11.907196,
721.1449640000001,true,true,true,0.125,12.65,0.0,-34449,0,0,0.125,12.65,0.0,0,0,0,0.125,12.6,0.0,0,0,0,0.125,12.65,0.0,0,0,0,0.125,12.65,0.0,4,0,0,0.0,12.65,0.0,0,0,0,0.125,12.700000000000001,0.0,0,0,0,kReverse,kOff,-87.26,2.08,2.64,0.03717041,-0.9840698,0.03253174,34.98,0.0,1.0,-8.126633,11.907196,
721.166143,true,true,true,0.125,12.65,0.0,-34449,0,0,0.125,12.65,0.0,0,0,0,0.125,12.6,0.0,0,0,0,0.125,12.65,0.0,0,0,0,0.125,12.65,0.0,4,0,0,0.0,12.65,0.0,0,0,0,0.125,12.700000000000001,0.0,0,0,0,kReverse,kOff,-87.26,2.08,2.64,0.03741455,-0.9868164,0.03491211,34.98,0.0,2.0,-8.126633,11.907196,
721.1908589999999,true,true,true,0.125,12.65,0.0,-34449,0,0,0.125,12.65,0.0,0,0,0,0.125,12.6,0.0,0,0,0,0.125,12.65,0.0,0,0,0,0.125,12.65,0.0,4,0,0,0.0,12.65,0.0,0,0,0,0.125,12.700000000000001,0.0,0,0,0,kReverse,kOff,-87.26,2.07,2.64,0.036254883,-0.9807739,0.028076172,34.98,0.0,0.0,-8.126633,11.907196,
721.212044,true,true,true,0.125,12.65,0.0,-34449,0,0,0.125,12.65,0.0,0,0,0,0.125,12.6,0.0,0,0,0,0.125,12.65,0.0,0,0,0,0.125,12.65,0.0,4,0,0,0.0,12.65,0.0,0,0,0,0.125,12.700000000000001,0.0,0,0,0,kReverse,kOff,-87.26,2.08,2.64,0.038330078,-0.9824219,0.030090332,34.98,0.0,2.0,-8.126633,11.907196,
721.2351289999999,true,true,true,0.125,12.65,0.0,-34449,0,0,0.125,12.65,0.0,0,0,0,0.125,12.6,0.0,0,0,0,0.125,12.65,0.0,0,0,0,0.125,12.65,0.0,4,0,0,0.0,12.65,0.0,0,0,0,0.125,12.700000000000001,0.0,0,0,0,kReverse,kOff,-87.26,2.07,2.64,0.037109375,-0.9828491,0.030273438,34.98,0.0,1.0,-8.126633,11.907196,
721.259292,true,true,true,0.125,12.65,0.0,-34449,0,0,0.125,12.65,0.0,0,0,0,0.125,12.6,0.0,0,0,0,0.125,12.65,0.0,0,0,0,0.125,12.65,0.0,4,0,0,0.0,12.65,0.0,0,0,0,0.125,12.700000000000001,0.0,0,0,0,kReverse,kOff,-87.26,2.07,2.64,0.03515625,-0.98028564,0.03112793,34.98,0.0,0.0,-8.126633,11.907196,
721.280504,true,true,true,0.125,12.65,0.0,-34449,0,0,0.125,12.65,0.0,0,0,0,0.125,12.6,0.0,0,0,0,0.125,12.65,0.0,0,0,0,0.125,12.65,0.0,4,0,0,0.0,12.65,0.0,0,0,0,0.125,12.700000000000001,0.0,0,0,0,kReverse,kOff,-87.26,2.07,2.64,0.03564453,-0.98321533,0.026245117,34.98,0.0,-1.0,-8.126633,11.907196,
721.30275,true,true,true,0.125,12.65,0.0,-34449,0,0,0.125,12.65,0.0,0,0,0,0.125,12.65,0.0,0,0,0,0.125,12.65,0.0,0,0,0,0.125,12.65,0.0,4,0,0,0.0,12.65,0.0,0,0,0,0.125,12.700000000000001,0.0,0,0,0,kReverse,kOff,-87.26,2.08,2.64,0.034606934,-0.9824829,0.033569336,34.98,0.0,0.0,-8.126633,11.907196,
721.3253440000001,true,true,true,0.125,12.65,0.0,-34449,0,0,0.125,12.65,0.0,0,0,0,0.125,12.65,0.0,0,0,0,0.125,12.65,0.0,0,0,0,0.125,12.65,0.0,4,0,0,0.0,12.65,0.0,0,0,0,0.125,12.700000000000001,0.0,0,0,0,kReverse,kOff,-87.26,2.07,2.64,0.037719727,-0.9875488,0.028808594,34.98,0.0,1.0,-8.126633,11.907196,
721.345579,true,true,true,0.125,12.65,0.0,-34449,0,0,0.125,12.65,0.0,0,0,0,0.125,12.65,0.0,0,0,0,0.125,12.65,0.0,0,0,0,0.125,12.65,0.0,4,0,0,0.0,12.65,0.0,0,0,0,0.125,12.700000000000001,0.0,0,0,0,kReverse,kOff,-87.26,2.07,2.64,0.03778076,-0.9834595,0.028320312,34.98,0.0,1.0,-8.126633,11.907196,
721.367924,true,true,true,0.125,12.65,0.0,-34449,0,0,0.125,12.65,0.0,0,0,0,0.125,12.65,0.0,0,0,0,0.125,12.65,0.0,0,0,0,0.125,12.65,0.0,4,0,0,0.125,12.65,0.0,0,0,0,0.125,12.700000000000001,0.0,0,0,0,kReverse,kOff,-87.26,2.08,2.64,0.034484863,-0.98291016,0.03540039,34.98,0.0,0.0,-8.126633,11.907196,
721.392505,true,true,true,0.125,12.65,0.0,-34449,0,0,0.125,12.65,0.0,0,0,0,0.125,12.65,0.0,0,0,0,0.125,12.65,0.0,0,0,0,0.125,12.65,0.0,4,0,0,0.0,12.65,0.0,0,0,0,0.125,12.700000000000001,0.0,0,0,0,kReverse,kOff,-87.26,2.08,2.64,0.036071777,-0.98083496,0.032714844,34.98,0.0,1.0,-8.126633,11.907196,
721.4155910000001,true,true,true,0.125,12.65,0.0,-34449,0,0,0.125,12.65,0.0,0,0,0,0.125,12.65,0.0,0,0,0,0.125,12.65,0.0,0,0,0,0.125,12.65,0.0,4,0,0,0.0,12.65,0.0,0,0,0,0.125,12.700000000000001,0.0,0,0,0,kReverse,kOff,-87.26,2.07,2.64,0.036743164,-0.9783325,0.03692627,34.98,0.0,3.0,-8.126633,11.907196,
721.4383839999999,true,true,true,0.125,12.65,0.0,-34449,0,0,0.125,12.65,0.0,0,0,0,0.125,12.65,0.0,0,0,0,0.125,12.65,0.0,0,0,0,0.125,12.65,0.0,4,0,0,0.0,12.65,0.0,0,0,0,0.125,12.700000000000001,0.0,0,0,0,kReverse,kOff,-87.26,2.07,2.64,0.033935547,-0.98565674,0.03173828,34.98,0.0,-1.0,-8.126633,11.907196,
721.460948,true,true,true,0.125,12.65,0.0,-34449,0,0,0.125,12.65,0.0,0,0,0,0.125,12.65,0.0,0,0,0,0.125,12.65,0.0,0,0,0,0.125,12.65,0.0,4,0,0,0.0,12.65,0.0,0,0,0,0.125,12.700000000000001,0.0,0,0,0,kReverse,kOff,-87.26,2.07,2.64,0.0368042,-0.97998047,0.032470703,34.98,0.0,1.0,-8.126633,11.907196,
721.480934,true,true,true,0.125,12.65,0.0,-34449,0,0,0.125,12.65,0.0,0,0,0,0.125,12.65,0.0,0,0,0,0.125,12.65,0.0,0,0,0,0.125,12.65,0.0,4,0,0,0.0,12.65,0.0,0,0,0,0.125,12.700000000000001,0.0,0,0,0,kReverse,kOff,-87.25,2.08,2.65,0.03527832,-0.98461914,0.03338623,34.98,0.0,0.0,-8.126633,11.907196,
721.502875,true,true,true,0.125,12.65,0.0,-34449,0,0,0.125,12.65,0.0,0,0,0,0.125,12.65,0.0,0,0,0,0.125,12.65,0.0,0,0,0,0.125,12.65,0.0,4,0,0,0.0,12.65,0.0,0,0,0,0.125,12.700000000000001,0.0,0,0,0,kReverse,kOff,-87.25,2.08,2.65,0.036193848,-0.9838867,0.032836914,34.98,0.0,0.0,-8.126633,11.907196,
721.5230849999999,true,true,true,0.125,12.65,0.0,-34449,0,0,0.125,12.65,0.0,0,0,0,0.125,12.65,0.0,0,0,0,0.125,12.65,0.0,0,0,0,0.125,12.65,0.0,4,0,0,0.0,12.65,0.0,0,0,0,0.125,12.700000000000001,0.0,0,0,0,kReverse,kOff,-87.25,2.08,2.65,0.036499023,-0.98095703,0.027893066,34.98,0.0,0.0,-8.126633,11.907196,
721.542331,true,true,true,0.125,12.65,0.0,-34449,0,0,0.125,12.65,0.0,0,0,0,0.125,12.65,0.0,0,0,0,0.125,12.65,0.0,0,0,0,0.125,12.65,0.0,4,0,0,0.0,12.65,0.0,0,0,0,0.125,12.700000000000001,0.0,0,0,0,kReverse,kOff,-87.25,2.09,2.65,0.03552246,-0.98724365,0.03515625,34.98,0.0,0.0,-8.126633,11.907196,
721.564443,true,true,true,0.125,12.65,0.0,-34449,0,0,0.125,12.65,0.0,0,0,0,0.125,12.65,0.0,0,0,0,0.125,12.65,0.0,0,0,0,0.125,12.65,0.0,4,0,0,0.0,12.65,0.0,0,0,0,0.125,12.700000000000001,0.0,0,0,0,kReverse,kOff,-87.25,2.09,2.65,0.03277588,-0.98431396,0.032714844,34.98,0.0,-2.0,-8.126633,11.907196,
721.5848540000001,true,true,true,0.125,12.65,0.0,-34449,0,0,0.125,12.65,0.0,0,0,0,0.125,12.65,0.0,0,0,0,0.125,12.65,0.0,0,0,0,0.125,12.65,0.0,4,0,0,0.0,12.65,0.0,0,0,0,0.125,12.700000000000001,0.0,0,0,0,kReverse,kOff,-87.25,2.09,2.65,0.033325195,-0.9794922,0.032958984,34.98,0.0,-1.0,-8.126633,11.907196,
721.60673,true,true,true,0.125,12.65,0.0,-34449,0,0,0.125,12.65,0.0,0,0,0,0.125,12.65,0.0,0,0,0,0.125,12.65,0.0,0,0,0,0.125,12.65,0.0,4,0,0,0.0,12.65,0.0,0,0,0,0.125,12.700000000000001,0.0,0,0,0,kReverse,kOff,-87.26,2.07,2.64,0.031555176,-0.9874878,0.035888672,34.98,0.0,-2.0,-8.126633,11.907196,
721.626087,true,true,true,0.125,12.65,0.0,-34449,0,0,0.125,12.65,0.0,0,0,0,0.125,12.65,0.0,0,0,0,0.125,12.65,0.0,0,0,0,0.125,12.65,0.0,4,0,0,0.0,12.65,0.0,0,0,0,0.125,12.700000000000001,0.0,0,0,0,kReverse,kOff,-87.26,2.07,2.64,0.04321289,-0.98394775,0.020202637,34.98,0.0,3.0,-8.126633,11.907196,
721.646227,true,true,true,0.125,12.65,0.0,-34449,0,0,0.125,12.65,0.0,0,0,0,0.125,12.65,0.0,0,0,0,0.125,12.65,0.0,0,0,0,0.125,12.65,0.0,4,0,0,0.0,12.65,0.0,0,0,0,0.125,12.700000000000001,0.0,0,0,0,kReverse,kOff,-87.26,2.08,2.64,0.033081055,-0.9847412,0.029296875,34.98,0.0,-3.0,-8.126633,11.907196,
721.669616,true,true,true,0.125,12.65,0.0,-34449,0,0,0.125,12.65,0.0,0,0,0,0.125,12.65,0.0,0,0,0,0.125,12.65,0.0,0,0,0,0.125,12.65,0.0,4,0,0,0.0,12.65,0.0,0,0,0,0.125,12.700000000000001,0.0,0,0,0,kReverse,kOff,-87.26,2.08,2.64,0.04058838,-0.98150635,0.027648926,34.98,0.0,3.0,-8.126633,11.907196,
721.691798,true,true,true,0.125,12.65,0.0,-34449,0,0,0.125,12.65,0.0,0,0,0,0.125,12.65,0.0,0,0,0,0.125,12.65,0.0,0,0,0,0.125,12.65,0.0,4,0,0,0.0,12.65,0.0,0,0,0,0.125,12.700000000000001,0.0,0,0,0,kReverse,kOff,-87.26,2.08,2.64,0.034606934,-0.9851074,0.029052734,34.98,0.0,-1.0,-8.126633,11.907196,
721.712255,true,true,true,0.125,12.65,0.0,-34449,0,0,0.125,12.65,0.0,0,0,0,0.125,12.65,0.0,0,0,0,0.125,12.65,0.0,0,0,0,0.125,12.65,0.0,4,0,0,0.0,12.65,0.0,0,0,0,0.125,12.700000000000001,0.0,0,0,0,kReverse,kOff,-87.26,2.08,2.64,0.0357666,-0.97888184,0.023010254,34.98,0.0,-2.0,-8.126633,11.907196,
721.729482,true,true,true,0.125,12.65,0.0,-34449,0,0,0.125,12.65,0.0,0,0,0,0.125,12.65,0.0,0,0,0,0.125,12.65,0.0,0,0,0,0.125,12.65,0.0,4,0,0,0.0,12.65,0.0,0,0,0,0.125,12.700000000000001,0.0,0,0,0,kReverse,kOff,-87.26,2.08,2.64,0.032409668,-0.98516846,0.03643799,34.98,0.0,-1.0,-8.126633,11.907196,
721.750403,true,true,true,0.125,12.65,0.0,-34449,0,0,0.125,12.65,0.0,0,0,0,0.125,12.65,0.0,0,0,0,0.125,12.65,0.0,0,0,0,0.125,12.65,0.0,4,0,0,0.0,12.65,0.0,0,0,0,0.125,12.700000000000001,0.0,0,0,0,kReverse,kOff,-87.26,2.08,2.64,0.035217285,-0.9845581,0.03479004,34.98,0.0,0.0,-8.126633,11.907196,
721.770155,true,true,true,0.125,12.65,0.0,-34449,0,0,0.125,12.65,0.0,0,0,0,0.125,12.65,0.0,0,0,0,0.125,12.65,0.0,0,0,0,0.125,12.65,0.0,4,0,0,0.0,12.65,0.0,0,0,0,0.125,12.700000000000001,0.0,0,0,0,kReverse,kOff,-87.26,2.08,2.64,0.03479004,-0.98669434,0.030029297,34.98,0.0,-1.0,-8.126633,11.907196,
721.795236,true,true,true,0.125,12.65,0.0,-34449,0,0,0.125,12.65,0.0,0,0,0,0.125,12.65,0.0,0,0,0,0.125,12.65,0.0,0,0,0,0.125,12.65,0.0,4,0,0,0.0,12.65,0.0,0,0,0,0.125,12.700000000000001,0.0,0,0,0,kReverse,kOff,-87.26,2.07,2.64,0.034606934,-0.9804077,0.03100586,34.98,0.0,0.0,-8.126633,11.907196,
721.815514,true,true,true,0.125,12.65,0.0,-34449,0,0,0.125,12.65,0.0,0,0,0,0.125,12.65,0.0,0,0,0,0.125,12.65,0.0,0,0,0,0.125,12.65,0.0,4,0,0,0.0,12.65,0.0,0,0,0,0.125,12.700000000000001,0.0,0,0,0,kReverse,kOff,-87.26,2.07,2.64,0.033203125,-0.98187256,0.036621094,34.98,0.0,0.0,-8.126633,11.907196,
721.839033,true,true,true,0.125,12.65,0.0,-34449,0,0,0.125,12.65,0.0,0,0,0,0.125,12.65,0.0,0,0,0,0.125,12.65,0.0,0,0,0,0.125,12.65,0.0,4,0,0,0.0,12.65,0.0,0,0,0,0.125,12.700000000000001,0.0,0,0,0,kReverse,kOff,-87.26,2.07,2.64,0.037902832,-0.98272705,0.029724121,34.98,0.0,1.0,-8.126633,11.907196,
721.859654,true,true,true,0.125,12.65,0.0,-34449,0,0,0.125,12.65,0.0,0,0,0,0.125,12.65,0.0,0,0,0,0.125,12.65,0.0,0,0,0,0.125,12.65,0.0,4,0,0,0.0,12.65,0.0,0,0,0,0.125,12.700000000000001,0.0,0,0,0,kReverse,kOff,-87.26,2.07,2.64,0.030883789,-0.98065186,0.028869629,34.98,0.0,-5.0,-8.126633,11.907196,
721.879976,true,true,true,0.125,12.65,0.0,-34449,0,0,0.125,12.65,0.0,0,0,0,0.125,12.65,0.0,0,0,0,0.125,12.65,0.0,0,0,0,0.125,12.65,0.0,4,0,0,0.0,12.65,0.0,0,0,0,0.125,12.700000000000001,0.0,0,0,0,kReverse,kOff,-87.26,2.07,2.64,0.036315918,-0.982666,0.03363037,34.98,0.0,1.0,-8.126633,11.907196,
721.903143,true,true,true,0.125,12.65,0.0,-34449,0,0,0.125,12.65,0.0,0,0,0,0.125,12.65,0.0,0,0,0,0.125,12.65,0.0,0,0,0,0.125,12.65,0.0,4,0,0,0.0,12.65,0.0,0,0,0,0.125,12.700000000000001,0.0,0,0,0,kReverse,kOff,-87.26,2.07,2.64,0.034179688,-0.98461914,0.035217285,34.98,0.0,0.0,-8.126633,11.907196,
721.9238379999999,true,true,true,0.125,12.65,0.0,-34449,0,0,0.125,12.65,0.0,0,0,0,0.125,12.65,0.0,0,0,0,0.125,12.65,0.0,0,0,0,0.125,12.65,0.0,4,0,0,0.0,12.65,0.0,0,0,0,0.125,12.700000000000001,0.0,0,0,0,kReverse,kOff,-87.26,2.07,2.64,0.034973145,-0.98205566,0.02520752,34.98,0.0,-2.0,-8.126633,11.907196,
721.946101,true,true,true,0.125,12.65,0.0,-34449,0,0,0.125,12.65,0.0,0,0,0,0.125,12.65,0.0,0,0,0,0.125,12.65,0.0,0,0,0,0.125,12.65,0.0,4,0,0,0.0,12.65,0.0,0,0,0,0.125,12.700000000000001,0.0,0,0,0,kReverse,kOff,-87.26,2.08,2.64,0.040893555,-0.9821167,0.030456543,34.98,0.0,4.0,-8.126633,11.907196,
721.965817,true,true,true,0.125,12.65,0.0,-34449,0,0,0.125,12.65,0.0,0,0,0,0.125,12.65,0.0,0,0,0,0.125,12.65,0.0,0,0,0,0.125,12.65,0.0,4,0,0,0.0,12.65,0.0,0,0,0,0.125,12.700000000000001,0.0,0,0,0,kReverse,kOff,-87.26,2.08,2.64,0.033325195,-0.9821167,0.027893066,34.98,0.0,-3.0,-8.126633,11.907196,
721.987426,true,true,true,0.125,12.65,0.0,-34449,0,0,0.125,12.65,0.0,0,0,0,0.125,12.65,0.0,0,0,0,0.125,12.65,0.0,0,0,0,0.125,12.65,0.0,4,0,0,0.0,12.65,0.0,0,0,0,0.125,12.700000000000001,0.0,0,0,0,kReverse,kOff,-87.26,2.07,2.64,0.037597656,-0.98376465,0.034484863,35.0,0.0,2.0,-8.126633,11.907196,
722.01265,true,true,true,0.125,12.65,0.0,-34449,0,0,0.125,12.65,0.0,0,0,0,0.125,12.65,0.0,0,0,0,0.125,12.65,0.0,0,0,0,0.125,12.65,0.0,4,0,0,0.0,12.65,0.0,0,0,0,0.125,12.700000000000001,0.0,0,0,0,kReverse,kOff,-87.26,2.07,2.64,0.032836914,-0.9838867,0.03515625,35.0,0.0,-1.0,-8.126633,11.907196,
722.036472,true,true,true,0.125,12.65,0.0,-34449,0,0,0.125,12.65,0.0,0,0,0,0.125,12.65,0.0,0,0,0,0.125,12.65,0.0,0,0,0,0.125,12.65,0.0,4,0,0,0.0,12.65,0.0,0,0,0,0.125,12.700000000000001,0.0,0,0,0,kReverse,kOff,-87.26,2.07,2.64,0.035583496,-0.9857178,0.029663086,35.0,0.0,0.0,-8.126633,11.907196,
722.058315,true,true,true,0.125,12.65,0.0,-34449,0,0,0.125,12.65,0.0,0,0,0,0.125,12.65,0.0,0,0,0,0.125,12.65,0.0,0,0,0,0.125,12.65,0.0,4,0,0,0.0,12.65,0.0,0,0,0,0.125,12.700000000000001,0.0,0,0,0,kReverse,kOff,-87.26,2.07,2.64,0.033996582,-0.9827881,0.031921387,35.0,0.0,-1.0,-8.126633,11.907196,
722.0807659999999,true,true,true,0.125,12.65,0.0,-34449,0,0,0.125,12.65,0.0,0,0,0,0.125,12.65,0.0,0,0,0,0.125,12.65,0.0,0,0,0,0.125,12.65,0.0,4,0,0,0.0,12.65,0.0,0,0,0,0.125,12.700000000000001,0.0,0,0,0,kReverse,kOff,-87.26,2.07,2.64,0.0368042,-0.9844971,0.033691406,35.0,0.0,1.0,-8.126633,11.907196,
722.102087,true,true,true,0.125,12.65,0.0,-34449,0,0,0.125,12.65,0.0,0,0,0,0.125,12.65,0.0,0,0,0,0.125,12.65,0.0,0,0,0,0.125,12.65,0.0,4,0,0,0.0,12.65,0.0,0,0,0,0.125,12.700000000000001,0.0,0,0,0,kReverse,kOff,-87.26,2.07,2.64,0.038330078,-0.9835205,0.029052734,35.0,0.0,2.0,-8.126633,11.907196,
722.1235479999999,true,true,true,0.125,12.65,0.0,-34449,0,0,0.125,12.65,0.0,0,0,0,0.125,12.65,0.0,0,0,0,0.125,12.65,0.0,0,0,0,0.125,12.65,0.0,4,0,0,0.0,12.65,0.0,0,0,0,0.125,12.700000000000001,0.0,0,0,0,kReverse,kOff,-87.26,2.07,2.64,0.037902832,-0.98583984,0.027038574,35.0,0.0,0.0,-8.126633,11.907196,
722.142376,true,true,true,0.125,12.65,0.0,-34449,0,0,0.125,12.65,0.0,0,0,0,0.125,12.65,0.0,0,0,0,0.125,12.65,0.0,0,0,0,0.125,12.65,0.0,4,0,0,0.0,12.65,0.0,0,0,0,0.125,12.700000000000001,0.0,0,0,0,kReverse,kOff,-87.26,2.08,2.64,0.03564453,-0.98327637,0.027526855,35.0,0.0,-1.0,-8.126633,11.907196,
722.163434,true,true,true,0.125,12.65,0.0,-34449,0,0,0.125,12.65,0.0,0,0,0,0.125,12.65,0.0,0,0,0,0.125,12.65,0.0,0,0,0,0.125,12.65,0.0,4,0,0,0.0,12.65,0.0,0,0,0,0.125,12.700000000000001,0.0,0,0,0,kReverse,kOff,-87.26,2.08,2.64,0.032470703,-0.9821167,0.034118652,35.0,0.0,-2.0,-8.126633,11.907196,
722.1848209999999,true,true,true,0.125,12.65,0.0,-34449,0,0,0.125,12.65,0.0,0,0,0,0.125,12.65,0.0,0,0,0,0.125,12.65,0.0,0,0,0,0.125,12.65,0.0,4,0,0,0.0,12.65,0.0,0,0,0,0.125,12.700000000000001,0.0,0,0,0,kReverse,kOff,-87.25,2.08,2.65,0.03656006,-0.98254395,0.03173828,35.0,0.0,1.0,-8.126633,11.907196,
722.206616,true,true,true,0.125,12.65,0.0,-34449,0,0,0.125,12.65,0.0,0,0,0,0.125,12.65,0.0,0,0,0,0.125,12.65,0.0,0,0,0,0.125,12.65,0.0,4,0,0,0.0,12.65,0.0,0,0,0,0.125,12.700000000000001,0.0,0,0,0,kReverse,kOff,-87.25,2.08,2.65,0.035949707,-0.9851074,0.03253174,35.0,0.0,0.0,-8.126633,11.907196,
722.22877,true,true,true,0.125,12.65,0.0,-34449,0,0,0.125,12.65,0.0,0,0,0,0.125,12.65,0.0,0,0,0,0.125,12.65,0.0,0,0,0,0.125,12.65,0.0,4,0,0,0.0,12.65,0.0,0,0,0,0.125,12.700000000000001,0.0,0,0,0,kReverse,kOff,-87.26,2.08,2.64,0.035095215,-0.98431396,0.035705566,35.0,0.0,0.0,-8.126633,11.907196,
722.249294,true,true,true,0.125,12.65,0.0,-34449,0,0,0.125,12.65,0.0,0,0,0,0.125,12.65,0.0,0,0,0,0.125,12.65,0.0,0,0,0,0.125,12.65,0.0,4,0,0,0.0,12.65,0.0,0,0,0,0.125,12.700000000000001,0.0,0,0,0,kReverse,kOff,-87.26,2.07,2.64,0.034484863,-0.98095703,0.035827637,35.0,0.0,0.0,-8.126633,11.907196,
722.273035,true,true,true,0.125,12.65,0.0,-34449,0,0,0.125,12.65,0.0,0,0,0,0.125,12.65,0.0,0,0,0,0.125,12.65,0.0,0,0,0,0.0,12.65,0.0,4,0,0,0.0,12.65,0.0,0,0,0,0.125,12.700000000000001,0.0,0,0,0,kReverse,kOff,-87.26,2.07,2.64,0.0357666,-0.98413086,0.030883789,35.0,0.0,0.0,-8.126633,11.907196,
722.291701,true,true,true,0.125,12.65,0.0,-34449,0,0,0.125,12.65,0.0,0,0,0,0.125,12.65,0.0,0,0,0,0.125,12.65,0.0,0,0,0,0.0,12.65,0.0,4,0,0,0.0,12.65,0.0,0,0,0,0.125,12.700000000000001,0.0,0,0,0,kReverse,kOff,-87.25,2.08,2.65,0.03881836,-0.98309326,0.02545166,35.0,0.0,1.0,-8.126633,11.907196,
722.316329,true,true,true,0.125,12.65,0.0,-34449,0,0,0.125,12.65,0.0,0,0,0,0.125,12.65,0.0,0,0,0,0.125,12.65,0.0,0,0,0,0.0,12.65,0.0,4,0,0,0.0,12.65,0.0,0,0,0,0.125,12.700000000000001,0.0,0,0,0,kReverse,kOff,-87.25,2.08,2.64,0.03491211,-0.982605,0.026916504,35.0,0.0,-1.0,-8.126633,11.907196,
722.337623,true,true,true,0.125,12.65,0.0,-34449,0,0,0.125,12.65,0.0,0,0,0,0.125,12.65,0.0,0,0,0,0.125,12.65,0.0,0,0,0,0.125,12.65,0.0,4,0,0,0.0,12.65,0.0,0,0,0,0.125,12.700000000000001,0.0,0,0,0,kReverse,kOff,-87.26,2.08,2.64,0.03253174,-0.9849243,0.032470703,35.0,0.0,-2.0,-8.126633,11.907196,
722.35855,true,true,true,0.125,12.65,0.0,-34449,0,0,0.125,12.65,0.0,0,0,0,0.125,12.65,0.0,0,0,0,0.125,12.65,0.0,0,0,0,0.125,12.65,0.0,4,0,0,0.0,12.65,0.0,0,0,0,0.125,12.700000000000001,0.0,0,0,0,kReverse,kOff,-87.25,2.09,2.65,0.03515625,-0.9828491,0.031799316,35.0,0.0,0.0,-8.126633,11.907196,
722.39235,true,true,true,0.125,12.65,0.0,-34449,0,0,0.125,12.65,0.0,0,0,0,0.125,12.65,0.0,0,0,0,0.125,12.65,0.0,0,0,0,0.125,12.65,0.0,4,0,0,0.0,12.65,0.0,0,0,0,0.125,12.700000000000001,0.0,0,0,0,kReverse,kOff,-87.25,2.09,2.65,0.0413208,-0.9840088,0.035827637,35.0,0.0,6.0,-8.126633,11.907196,
722.414804,true,true,true,0.125,12.65,0.0,-34449,0,0,0.125,12.65,0.0,0,0,0,0.125,12.65,0.0,0,0,0,0.125,12.65,0.0,0,0,0,0.125,12.65,0.0,4,0,0,0.0,12.65,0.0,0,0,0,0.125,12.700000000000001,0.0,0,0,0,kReverse,kOff,-87.25,2.09,2.65,0.03564453,-0.9840088,0.028808594,35.0,0.0,0.0,-8.126633,11.907196,
722.437232,true,true,true,0.125,12.65,0.0,-34449,0,0,0.125,12.65,0.0,0,0,0,0.125,12.65,0.0,0,0,0,0.125,12.65,0.0,0,0,0,0.125,12.65,0.0,4,0,0,0.0,12.65,0.0,0,0,0,0.125,12.700000000000001,0.0,0,0,0,kReverse,kOff,-87.25,2.09,2.65,0.038085938,-0.9819336,0.028869629,35.0,0.0,1.0,-8.126633,11.907196,
722.460545,true,true,true,0.125,12.65,0.0,-34449,0,0,0.125,12.65,0.0,0,0,0,0.125,12.65,0.0,0,0,0,0.125,12.65,0.0,0,0,0,0.125,12.65,0.0,4,0,0,0.0,12.65,0.0,0,0,0,0.125,12.700000000000001,0.0,0,0,0,kReverse,kOff,-87.25,2.09,2.65,0.03503418,-0.98394775,0.035949707,35.0,0.0,0.0,-8.126633,11.907196,
722.4813220000001,true,true,true,0.125,12.65,0.0,-34449,0,0,0.125,12.65,0.0,0,0,0,0.125,12.65,0.0,0,0,0,0.125,12.65,0.0,0,0,0,0.125,12.65,0.0,4,0,0,0.0,12.65,0.0,0,0,0,0.125,12.700000000000001,0.0,0,0,0,kReverse,kOff,-87.25,2.09,2.65,0.031982422,-0.9830322,0.029846191,35.0,0.0,-3.0,-8.126633,11.907196,
722.500816,true,true,true,0.125,12.65,0.0,-34449,0,0,0.125,12.65,0.0,0,0,0,0.125,12.65,0.0,0,0,0,0.125,12.65,0.0,0,0,0,0.125,12.65,0.0,4,0,0,0.0,12.65,0.0,0,0,0,0.125,12.700000000000001,0.0,0,0,0,kReverse,kOff,-87.25,2.09,2.65,0.0413208,-0.9846802,0.024658203,35.01,0.0,3.0,-8.126633,11.907196,
722.521618,true,true,true,0.125,12.65,0.0,-34449,0,0,0.125,12.65,0.0,0,0,0,0.125,12.65,0.0,0,0,0,0.125,12.65,0.0,0,0,0,0.125,12.65,0.0,4,0,0,0.0,12.65,0.0,0,0,0,0.125,12.700000000000001,0.0,0,0,0,kReverse,kOff,-87.25,2.1,2.66,0.024108887,-0.9863281,0.023010254,35.01,0.0,-13.0,-8.126633,11.907196,
722.541013,true,true,true,0.125,12.65,0.0,-34449,0,0,0.125,12.65,0.0,0,0,0,0.125,12.65,0.0,0,0,0,0.125,12.65,0.0,0,0,0,0.125,12.65,0.0,4,0,0,0.0,12.65,0.0,0,0,0,0.125,12.700000000000001,0.0,0,0,0,kReverse,kOff,-87.26,2.09,2.65,0.040039062,-0.98321533,0.029968262,35.01,0.0,3.0,-8.126633,11.907196,
722.560786,true,true,true,0.125,12.65,0.0,-34449,0,0,0.125,12.65,0.0,0,0,0,0.125,12.65,0.0,0,0,0,0.125,12.65,0.0,0,0,0,0.125,12.65,0.0,4,0,0,0.0,12.65,0.0,0,0,0,0.125,12.700000000000001,0.0,0,0,0,kReverse,kOff,-87.25,2.1,2.66,0.038513184,-0.98443604,0.03186035,35.01,0.0,2.0,-8.126633,11.907196,
722.5819079999999,true,true,true,0.125,12.65,0.0,-34449,0,0,0.125,12.65,0.0,0,0,0,0.125,12.65,0.0,0,0,0,0.125,12.65,0.0,0,0,0,0.125,12.65,0.0,4,0,0,0.0,12.65,0.0,0,0,0,0.125,12.700000000000001,0.0,0,0,0,kReverse,kOff,-87.24,2.1,2.66,0.03656006,-0.9824829,0.03100586,35.01,0.0,0.0,-8.126633,11.907196,
722.603209,true,true,true,0.125,12.65,0.0,-34449,0,0,0.125,12.65,0.0,0,0,0,0.125,12.65,0.0,0,0,0,0.125,12.65,0.0,0,0,0,0.125,12.65,0.0,4,0,0,0.0,12.65,0.0,0,0,0,0.125,12.700000000000001,0.0,0,0,0,kReverse,kOff,-87.24,2.1,2.66,0.038146973,-0.9818115,0.02319336,35.01,0.0,0.0,-8.126633,11.907196,
722.623578,true,true,true,0.125,12.65,0.0,-34449,0,0,0.125,12.65,0.0,0,0,0,0.125,12.65,0.0,0,0,0,0.125,12.65,0.0,0,0,0,0.125,12.65,0.0,4,0,0,0.125,12.65,0.0,0,0,0,0.125,12.700000000000001,0.0,0,0,0,kReverse,kOff,-87.24,2.1,2.66,0.03326416,-0.9814453,0.032104492,35.01,0.0,-2.0,-8.126633,11.907196,
722.6428129999999,true,true,true,0.125,12.65,0.0,-34449,0,0,0.125,12.65,0.0,0,0,0,0.125,12.65,0.0,0,0,0,0.125,12.65,0.0,0,0,0,0.125,12.65,0.0,4,0,0,0.125,12.65,0.0,0,0,0,0.125,12.700000000000001,0.0,0,0,0,kReverse,kOff,-87.25,2.1,2.66,0.030639648,-0.98223877,0.03564453,35.01,0.0,-3.0,-8.126633,11.907196,
722.6628760000001,true,true,true,0.125,12.65,0.0,-34449,0,0,0.125,12.65,0.0,0,0,0,0.125,12.65,0.0,0,0,0,0.125,12.65,0.0,0,0,0,0.125,12.65,0.0,4,0,0,0.0,12.65,0.0,0,0,0,0.125,12.700000000000001,0.0,0,0,0,kReverse,kOff,-87.25,2.09,2.65,0.029541016,-0.9850464,0.03778076,35.01,0.0,-3.0,-8.126633,11.907196,
722.68372,true,true,true,0.125,12.65,0.0,-34449,0,0,0.125,12.65,0.0,0,0,0,0.125,12.65,0.0,0,0,0,0.125,12.65,0.0,0,0,0,0.125,12.65,0.0,4,0,0,0.0,12.65,0.0,0,0,0,0.125,12.700000000000001,0.0,0,0,0,kReverse,kOff,-87.25,2.09,2.65,0.031677246,-0.98431396,0.034729004,35.01,0.0,-2.0,-8.126633,11.907196,
722.7048249999999,true,true,true,0.125,12.65,0.0,-34449,0,0,0.125,12.65,0.0,0,0,0,0.125,12.65,0.0,0,0,0,0.125,12.65,0.0,0,0,0,0.125,12.65,0.0,4,0,0,0.0,12.65,0.0,0,0,0,0.125,12.700000000000001,0.0,0,0,0,kReverse,kOff,-87.25,2.09,2.65,0.030639648,-0.98516846,0.027404785,35.01,0.0,-6.0,-8.126633,11.907196,
722.725062,true,true,true,0.125,12.65,0.0,-34449,0,0,0.125,12.65,0.0,0,0,0,0.125,12.65,0.0,0,0,0,0.125,12.65,0.0,0,0,0,0.125,12.65,0.0,4,0,0,0.0,12.65,0.0,0,0,0,0.125,12.700000000000001,0.0,0,0,0,kReverse,kOff,-87.25,2.09,2.65,0.030639648,-0.98651123,0.030212402,35.01,0.0,-5.0,-8.126633,11.907196,
722.749452,true,true,true,0.125,12.65,0.0,-34449,0,0,0.125,12.65,0.0,0,0,0,0.125,12.65,0.0,0,0,0,0.125,12.65,0.0,0,0,0,0.125,12.65,0.0,4,0,0,0.0,12.65,0.0,0,0,0,0.125,12.700000000000001,0.0,0,0,0,kReverse,kOff,-87.24,2.1,2.66,0.037475586,-0.9849243,0.034729004,35.01,0.0,2.0,-8.126633,11.907196,
722.7734869999999,true,true,true,0.125,12.65,0.0,-34449,0,0,0.125,12.65,0.0,0,0,0,0.125,12.65,0.0,0,0,0,0.125,12.65,0.0,0,0,0,0.125,12.65,0.0,4,0,0,0.0,12.65,0.0,0,0,0,0.125,12.700000000000001,0.0,0,0,0,kReverse,kOff,-87.24,2.11,2.67,0.034729004,-0.98339844,0.034729004,35.01,0.0,0.0,-8.126633,11.907196,
722.791,true,true,true,0.125,12.65,0.0,-34449,0,0,0.125,12.65,0.0,0,0,0,0.125,12.65,0.0,0,0,0,0.125,12.65,0.0,0,0,0,0.125,12.65,0.0,4,0,0,0.0,12.65,0.0,0,0,0,0.125,12.700000000000001,0.0,0,0,0,kReverse,kOff,-87.24,2.11,2.67,0.02960205,-0.9824829,0.026916504,35.01,0.0,-7.0,-8.126633,11.907196,
722.81426,true,true,true,0.125,12.65,0.0,-34449,0,0,0.125,12.65,0.0,0,0,0,0.125,12.65,0.0,0,0,0,0.125,12.65,0.0,0,0,0,0.125,12.65,0.0,4,0,0,0.0,12.65,0.0,0,0,0,0.125,12.700000000000001,0.0,0,0,0,kReverse,kOff,-87.24,2.12,2.68,0.03125,-0.98535156,0.026184082,35.01,0.0,-6.0,-8.126633,11.907196,
722.837035,true,true,true,0.125,12.65,0.0,-34449,0,0,0.125,12.65,0.0,0,0,0,0.125,12.65,0.0,0,0,0,0.125,12.65,0.0,0,0,0,0.125,12.65,0.0,4,0,0,0.0,12.65,0.0,0,0,0,0.125,12.700000000000001,0.0,0,0,0,kReverse,kOff,-87.24,2.13,2.68,0.032409668,-0.9834595,0.03643799,35.01,0.0,-2.0,-8.126633,11.907196,
722.8593510000001,true,true,true,0.125,12.65,0.0,-34449,0,0,0.125,12.65,0.0,0,0,0,0.125,12.65,0.0,0,0,0,0.125,12.65,0.0,0,0,0,0.125,12.65,0.0,4,0,0,0.0,12.65,0.0,0,0,0,0.125,12.700000000000001,0.0,0,0,0,kReverse,kOff,-87.24,2.13,2.68,0.032409668,-0.9834595,0.02911377,35.01,0.0,-3.0,-8.126633,11.907196,
722.881601,true,true,true,0.125,12.65,0.0,-34449,0,0,0.125,12.65,0.0,0,0,0,0.125,12.65,0.0,0,0,0,0.125,12.65,0.0,0,0,0,0.125,12.65,0.0,4,0,0,0.0,12.65,0.0,0,0,0,0.125,12.700000000000001,0.0,0,0,0,kReverse,kOff,-87.24,2.14,2.69,0.04248047,-0.98498535,0.023864746,35.01,0.0,3.0,-8.126633,11.907196,
722.901805,true,true,true,0.125,12.65,0.0,-34449,0,0,0.125,12.65,0.0,0,0,0,0.125,12.65,0.0,0,0,0,0.125,12.65,0.0,0,0,0,0.125,12.65,0.0,4,0,0,0.0,12.65,0.0,0,0,0,0.125,12.700000000000001,0.0,0,0,0,kReverse,kOff,-87.24,2.14,2.69,0.041503906,-0.9831543,0.029724121,35.01,0.0,4.0,-8.126633,11.907196,
722.9217639999999,true,true,true,0.125,12.65,0.0,-34449,0,0,0.125,12.65,0.0,0,0,0,0.125,12.65,0.0,0,0,0,0.125,12.65,0.0,0,0,0,0.125,12.65,0.0,4,0,0,0.0,12.65,0.0,0,0,0,0.125,12.700000000000001,0.0,0,0,0,kReverse,kOff,-87.22,2.18,2.72,0.048828125,-0.9828491,0.020751953,35.01,0.0,8.0,-8.126633,11.907196,
722.940517,true,true,true,0.125,12.65,0.0,-34449,0,0,0.125,12.65,0.0,0,0,0,0.125,12.65,0.0,0,0,0,0.125,12.65,0.0,0,0,0,0.125,12.65,0.0,4,0,0,0.0,12.65,0.0,0,0,0,0.125,12.700000000000001,0.0,0,0,0,kReverse,kOff,-87.22,2.19,2.73,0.051330566,-0.98638916,0.013427734,35.01,0.0,8.0,-8.126633,11.907196,
722.96169,true,true,true,0.125,12.65,0.0,-34449,0,0,0.125,12.65,0.0,0,0,0,0.125,12.65,0.0,0,0,0,0.125,12.65,0.0,0,0,0,0.125,12.65,0.0,4,0,0,0.0,12.65,0.0,0,0,0,0.125,12.700000000000001,0.0,0,0,0,kReverse,kOff,-87.21,2.21,2.74,0.049926758,-0.98010254,0.025878906,35.01,0.0,10.0,-8.126633,11.907196,
722.983731,true,true,true,0.125,12.65,0.0,-34449,0,0,0.125,12.65,0.0,0,0,0,0.125,12.65,0.0,0,0,0,0.125,12.65,0.0,0,0,0,0.125,12.65,0.0,4,0,0,0.0,12.65,0.0,0,0,0,0.125,12.700000000000001,0.0,0,0,0,kReverse,kOff,-87.2,2.24,2.77,0.06573486,-0.9830322,0.018798828,35.01,0.0,22.0,-8.126602,11.907196,
723.0044499999999,true,true,true,0.125,12.65,0.0,-34449,0,0,0.125,12.65,0.0,0,0,0,0.125,12.65,0.0,0,0,0,0.125,12.65,0.0,0,0,0,0.125,12.65,0.0,4,0,0,0.0,12.65,0.0,0,0,0,0.125,12.700000000000001,0.0,0,0,0,kReverse,kOff,-87.19,2.25,2.78,0.05419922,-0.9802246,0.022338867,35.01,0.0,12.0,-8.126556,11.907196,
723.02523,true,true,true,0.125,12.65,0.0,-34449,0,0,0.125,12.65,0.0,0,0,0,0.125,12.65,0.0,0,0,0,0.125,12.65,0.0,0,0,0,0.125,12.65,0.0,4,0,0,0.0,12.65,0.0,0,0,0,0.125,12.700000000000001,0.0,0,0,0,kReverse,kOff,-87.19,2.26,2.78,0.04498291,-0.9827881,0.01965332,35.01,0.0,3.0,-8.126511,11.907196,
723.049196,true,true,true,0.125,12.65,0.0,-34449,0,0,0.125,12.65,0.0,0,0,0,0.125,12.65,0.0,0,0,0,0.125,12.65,0.0,0,0,0,0.125,12.65,0.0,4,0,0,0.0,12.65,0.0,0,0,0,0.125,12.700000000000001,0.0,0,0,0,kReverse,kOff,-87.2,2.25,2.78,0.040527344,-0.984375,0.02178955,35.01,0.0,0.0,-8.126511,11.907196,
723.0724309999999,true,true,true,0.125,12.65,0.0,-34449,0,0,0.125,12.65,0.0,0,0,0,0.125,12.65,0.0,0,0,0,0.125,12.65,0.0,0,0,0,0.125,12.65,0.0,4,0,0,0.0,12.65,0.0,0,0,0,0.125,12.700000000000001,0.0,0,0,0,kReverse,kOff,-87.21,2.23,2.76,0.03564453,-0.9836426,0.04296875,35.01,0.0,1.0,-8.126511,11.907196,
723.096088,true,true,true,0.125,12.65,0.0,-34449,0,0,0.125,12.65,0.0,0,0,0,0.125,12.65,0.0,0,0,0,0.125,12.65,0.0,0,0,0,0.125,12.65,0.0,4,0,0,0.0,12.65,0.0,0,0,0,0.125,12.700000000000001,0.0,0,0,0,kReverse,kOff,-87.21,2.22,2.76,0.029296875,-0.98669434,0.038391113,35.01,0.0,-5.0,-8.126511,11.907196,
723.116991,true,true,true,0.125,12.65,0.0,-34449,0,0,0.125,12.65,0.0,0,0,0,0.125,12.65,0.0,0,0,0,0.125,12.65,0.0,0,0,0,0.125,12.65,0.0,4,0,0,0.0,12.65,0.0,0,0,0,0.125,12.700000000000001,0.0,0,0,0,kReverse,kOff,-87.22,2.21,2.74,0.024963379,-0.98394775,0.030090332,35.01,0.0,-12.0,-8.126511,11.907196,
723.140469,true,true,true,0.125,12.65,0.0,-34449,0,0,0.125,12.65,0.0,0,0,0,0.125,12.65,0.0,0,0,0,0.125,12.65,0.0,0,0,0,0.125,12.65,0.0,4,0,0,0.0,12.65,0.0,0,0,0,0.125,12.700000000000001,0.0,0,0,0,kReverse,kOff,-87.23,2.2,2.74,0.029724121,-0.9852905,0.03338623,35.01,0.0,-6.0,-8.126511,11.907196,
723.162142,true,true,true,0.125,12.65,0.0,-34449,0,0,0.125,12.65,0.0,0,0,0,0.125,12.65,0.0,0,0,0,0.125,12.65,0.0,0,0,0,0.125,12.65,0.0,4,0,0,0.0,12.65,0.0,0,0,0,0.125,12.700000000000001,0.0,0,0,0,kReverse,kOff,-87.23,2.2,2.74,0.03503418,-0.9867554,0.0345459,35.01,0.0,-1.0,-8.126511,11.907196,
723.1831480000001,true,true,true,0.125,12.65,0.0,-34449,0,0,0.125,12.65,0.0,0,0,0,0.125,12.65,0.0,0,0,0,0.125,12.65,0.0,0,0,0,0.125,12.65,0.0,4,0,0,0.0,12.65,0.0,0,0,0,0.125,12.700000000000001,0.0,0,0,0,kReverse,kOff,-87.22,2.21,2.74,0.037109375,-0.9815674,0.036499023,35.01,0.0,1.0,-8.126511,11.907196,
723.204248,true,true,true,0.125,12.65,0.0,-34449,0,0,0.125,12.65,0.0,0,0,0,0.125,12.65,0.0,0,0,0,0.125,12.65,0.0,0,0,0,0.125,12.65,0.0,4,0,0,0.0,12.65,0.0,0,0,0,0.125,12.700000000000001,0.0,0,0,0,kReverse,kOff,-87.21,2.23,2.76,0.041625977,-0.9821167,0.025024414,35.01,0.0,2.0,-8.126511,11.907196,
723.224963,true,true,true,0.125,12.65,0.0,-34449,0,0,0.125,12.65,0.0,0,0,0,0.125,12.65,0.0,0,0,0,0.125,12.65,0.0,0,0,0,0.125,12.65,0.0,4,0,0,0.0,12.65,0.0,0,0,0,0.125,12.700000000000001,0.0,0,0,0,kReverse,kOff,-87.21,2.23,2.77,0.03918457,-0.98236084,0.020996094,35.01,0.0,-1.0,-8.126511,11.907196,
723.2456480000001,true,true,true,0.125,12.65,0.0,-34449,0,0,0.125,12.65,0.0,0,0,0,0.125,12.65,0.0,0,0,0,0.125,12.65,0.0,0,0,0,0.125,12.65,0.0,4,0,0,0.0,12.65,0.0,0,0,0,0.125,12.700000000000001,0.0,0,0,0,kReverse,kOff,-87.21,2.24,2.77,0.044189453,-0.9802246,0.027282715,35.01,0.0,5.0,-8.126511,11.907196,
723.266815,true,true,true,0.125,12.65,0.0,-34449,0,0,0.125,12.65,0.0,0,0,0,0.125,12.65,0.0,0,0,0,0.125,12.65,0.0,0,0,0,0.125,12.65,0.0,4,0,0,0.0,12.65,0.0,0,0,0,0.125,12.700000000000001,0.0,0,0,0,kReverse,kOff,-87.2,2.25,2.77,0.04296875,-0.98254395,0.01763916,35.01,0.0,0.0,-8.126511,11.907196,
723.285053,true,true,true,0.125,12.65,0.0,-34449,0,0,0.125,12.65,0.0,0,0,0,0.125,12.65,0.0,0,0,0,0.125,12.65,0.0,0,0,0,0.125,12.65,0.0,4,0,0,0.0,12.65,0.0,0,0,0,0.125,12.700000000000001,0.0,0,0,0,kReverse,kOff,-87.2,2.25,2.77,0.040771484,-0.97998047,0.020507812,35.01,0.0,0.0,-8.126511,11.907196,
723.311231,true,true,true,0.125,12.65,0.0,-34449,0,0,0.125,12.65,0.0,0,0,0,0.125,12.65,0.0,0,0,0,0.125,12.65,0.0,0,0,0,0.125,12.65,0.0,4,0,0,0.0,12.65,0.0,0,0,0,0.125,12.700000000000001,0.0,0,0,0,kReverse,kOff,-87.21,2.24,2.77,0.041381836,-0.98394775,0.029418945,35.01,0.0,2.0,-8.126511,11.907196,
723.333136,true,true,true,0.125,12.65,0.0,-34449,0,0,0.125,12.65,0.0,0,0,0,0.125,12.65,0.0,0,0,0,0.125,12.65,0.0,0,0,0,0.125,12.65,0.0,4,0,0,0.0,12.65,0.0,0,0,0,0.125,12.700000000000001,0.0,0,0,0,kReverse,kOff,-87.21,2.24,2.76,0.03881836,-0.98779297,0.02911377,35.01,0.0,0.0,-8.126511,11.907196,
723.353485,true,true,true,0.125,12.65,0.0,-34449,0,0,0.125,12.65,0.0,0,0,0,0.125,12.65,0.0,0,0,0,0.125,12.65,0.0,0,0,0,0.125,12.65,0.0,4,0,0,0.0,12.65,0.0,0,0,0,0.125,12.700000000000001,0.0,0,0,0,kReverse,kOff,-87.21,2.24,2.76,0.03656006,-0.98327637,0.026062012,35.01,0.0,-2.0,-8.126511,11.907196,
723.3743049999999,true,true,true,0.125,12.65,0.0,-34449,0,0,0.125,12.65,0.0,0,0,0,0.125,12.65,0.0,0,0,0,0.125,12.65,0.0,0,0,0,0.125,12.65,0.0,4,0,0,0.0,12.65,0.0,0,0,0,0.125,12.700000000000001,0.0,0,0,0,kReverse,kOff,-87.21,2.23,2.76,0.032714844,-0.9828491,0.038085938,35.01,0.0,-2.0,-8.126511,11.907196,
723.398402,true,true,true,0.125,12.65,0.0,-34449,0,0,0.125,12.65,0.0,0,0,0,0.125,12.65,0.0,0,0,0,0.125,12.65,0.0,0,0,0,0.125,12.65,0.0,4,0,0,0.0,12.65,0.0,0,0,0,0.125,12.700000000000001,0.0,0,0,0,kReverse,kOff,-87.22,2.22,2.75,0.033325195,-0.9867554,0.032958984,35.01,0.0,-3.0,-8.126511,11.907196,
723.420176,true,true,true,0.125,12.65,0.0,-34449,0,0,0.125,12.65,0.0,0,0,0,0.125,12.65,0.0,0,0,0,0.125,12.65,0.0,0,0,0,0.125,12.65,0.0,4,0,0,0.0,12.65,0.0,0,0,0,0.125,12.700000000000001,0.0,0,0,0,kReverse,kOff,-87.22,2.22,2.75,0.03479004,-0.9817505,0.030517578,35.01,0.0,-2.0,-8.126511,11.907196,
723.440108,true,true,true,0.125,12.65,0.0,-34449,0,0,0.125,12.65,0.0,0,0,0,0.125,12.65,0.0,0,0,0,0.125,12.65,0.0,0,0,0,0.125,12.65,0.0,4,0,0,0.0,12.65,0.0,0,0,0,0.125,12.700000000000001,0.0,0,0,0,kReverse,kOff,-87.22,2.21,2.75,0.032592773,-0.9836426,0.029541016,35.01,0.0,-4.0,-8.126511,11.907196,
723.4618290000001,true,true,true,0.125,12.65,0.0,-34449,0,0,0.125,12.65,0.0,0,0,0,0.125,12.65,0.0,0,0,0,0.125,12.65,0.0,0,0,0,0.125,12.65,0.0,4,0,0,0.0,12.65,0.0,0,0,0,0.125,12.700000000000001,0.0,0,0,0,kReverse,kOff,-87.22,2.21,2.74,0.035827637,-0.97680664,0.024353027,35.01,0.0,-3.0,-8.126511,11.907196,
723.481239,true,true,true,0.125,12.65,0.0,-34449,0,0,0.125,12.65,0.0,0,0,0,0.125,12.65,0.0,0,0,0,0.125,12.65,0.0,0,0,0,0.125,12.65,0.0,4,0,0,0.0,12.65,0.0,0,0,0,0.125,12.700000000000001,0.0,0,0,0,kReverse,kOff,-87.23,2.2,2.74,0.03387451,-0.9831543,0.020080566,35.01,0.0,-6.0,-8.126511,11.907196,
723.5025,true,true,true,0.125,12.65,0.0,-34449,0,0,0.125,12.65,0.0,0,0,0,0.125,12.65,0.0,0,0,0,0.125,12.65,0.0,0,0,0,0.125,12.65,0.0,4,0,0,0.0,12.65,0.0,0,0,0,0.125,12.700000000000001,0.0,0,0,0,kReverse,kOff,-87.23,2.2,2.74,0.037841797,-0.9857788,0.029541016,35.01,0.0,0.0,-8.126511,11.907196,
723.5240819999999,true,true,true,0.125,12.65,0.0,-34449,0,0,0.125,12.65,0.0,0,0,0,0.125,12.65,0.0,0,0,0,0.125,12.65,0.0,0,0,0,0.125,12.65,0.0,4,0,0,0.0,12.65,0.0,0,0,0,0.125,12.700000000000001,0.0,0,0,0,kReverse,kOff,-87.23,2.21,2.74,0.041931152,-0.9824219,0.024902344,34.98,0.0,2.0,-8.126511,11.907196,
723.5448170000001,true,true,true,0.125,12.65,0.0,-34449,0,0,0.125,12.65,0.0,0,0,0,0.125,12.65,0.0,0,0,0,0.125,12.65,0.0,0,0,0,0.125,12.65,0.0,4,0,0,0.0,12.65,0.0,0,0,0,0.125,12.700000000000001,0.0,0,0,0,kReverse,kOff,-87.22,2.21,2.75,0.035217285,-0.9837036,0.02911377,34.98,0.0,-2.0,-8.126511,11.907196,
723.566128,true,true,true,0.125,12.65,0.0,-34449,0,0,0.125,12.65,0.0,0,0,0,0.125,12.65,0.0,0,0,0,0.125,12.65,0.0,0,0,0,0.125,12.65,0.0,4,0,0,0.0,12.65,0.0,0,0,0,0.125,12.700000000000001,0.0,0,0,0,kReverse,kOff,-87.22,2.21,2.75,0.04638672,-0.9818115,0.021362305,34.98,0.0,5.0,-8.126511,11.907196,
723.58476,true,true,true,0.125,12.65,0.0,-34449,0,0,0.125,12.65,0.0,0,0,0,0.125,12.65,0.0,0,0,0,0.125,12.65,0.0,0,0,0,0.125,12.65,0.0,4,0,0,0.0,12.65,0.0,0,0,0,0.125,12.700000000000001,0.0,0,0,0,kReverse,kOff,-87.22,2.22,2.75,0.03857422,-0.9824829,0.028564453,34.98,0.0,0.0,-8.126511,11.907196,
723.608341,true,true,true,0.125,12.65,0.0,-34449,0,0,0.125,12.65,0.0,0,0,0,0.125,12.65,0.0,0,0,0,0.125,12.65,0.0,0,0,0,0.125,12.65,0.0,4,0,0,0.0,12.65,0.0,0,0,0,0.125,12.700000000000001,0.0,0,0,0,kReverse,kOff,-87.22,2.22,2.75,0.040649414,-0.98010254,0.035095215,34.98,0.0,4.0,-8.126511,11.907196,
723.632112,true,true,true,0.125,12.65,0.0,-34449,0,0,0.125,12.65,0.0,0,0,0,0.125,12.65,0.0,0,0,0,0.125,12.65,0.0,0,0,0,0.125,12.65,0.0,4,0,0,0.0,12.65,0.0,0,0,0,0.125,12.700000000000001,0.0,0,0,0,kReverse,kOff,-87.21,2.22,2.76,0.045288086,-0.982666,0.020202637,34.98,0.0,4.0,-8.126511,11.907196,
723.65657,true,true,true,0.125,12.65,0.0,-34449,0,0,0.125,12.65,0.0,0,0,0,0.125,12.65,0.0,0,0,0,0.125,12.65,0.0,0,0,0,0.125,12.65,0.0,4,0,0,0.0,12.65,0.0,0,0,0,0.125,12.700000000000001,0.0,0,0,0,kReverse,kOff,-87.22,2.23,2.76,0.035888672,-0.9819336,0.023498535,34.98,0.0,-3.0,-8.126511,11.907196,
723.677275,true,true,true,0.125,12.65,0.0,-34449,0,0,0.125,12.65,0.0,0,0,0,0.125,12.65,0.0,0,0,0,0.125,12.65,0.0,0,0,0,0.0,12.65,0.0,4,0,0,0.0,12.65,0.0,0,0,0,0.125,12.700000000000001,0.0,0,0,0,kReverse,kOff,-87.22,2.23,2.76,0.0390625,-0.98431396,0.029296875,34.98,0.0,0.0,-8.126511,11.907196,
723.7001230000001,true,true,true,0.125,12.65,0.0,-34449,0,0,0.125,12.65,0.0,0,0,0,0.125,12.65,0.0,0,0,0,0.125,12.65,0.0,0,0,0,0.0,12.65,0.0,4,0,0,0.0,12.65,0.0,0,0,0,0.125,12.700000000000001,0.0,0,0,0,kReverse,kOff,-87.22,2.22,2.75,0.035827637,-0.9817505,0.033325195,34.98,0.0,0.0,-8.126511,11.907196,
723.722058,true,true,true,0.125,12.65,0.0,-34449,0,0,0.125,12.65,0.0,0,0,0,0.125,12.65,0.0,0,0,0,0.125,12.65,0.0,0,0,0,0.0,12.65,0.0,4,0,0,0.0,12.65,0.0,0,0,0,0.125,12.700000000000001,0.0,0,0,0,kReverse,kOff,-87.22,2.21,2.75,0.036987305,-0.9844971,0.03277588,34.98,0.0,0.0,-8.126511,11.907196,
723.7397900000001,true,true,true,0.125,12.65,0.0,-34449,0,0,0.125,12.65,0.0,0,0,0,0.125,12.65,0.0,0,0,0,0.125,12.65,0.0,0,0,0,0.125,12.65,0.0,4,0,0,0.0,12.65,0.0,0,0,0,0.125,12.700000000000001,0.0,0,0,0,kReverse,kOff,-87.22,2.21,2.75,0.03656006,-0.9835205,0.02935791,34.98,0.0,-1.0,-8.126511,11.907196,
723.760541,true,true,true,0.125,12.65,0.0,-34449,0,0,0.125,12.65,0.0,0,0,0,0.125,12.65,0.0,0,0,0,0.125,12.65,0.0,0,0,0,0.125,12.65,0.0,4,0,0,0.0,12.65,0.0,0,0,0,0.125,12.700000000000001,0.0,0,0,0,kReverse,kOff,-87.22,2.21,2.75,0.03656006,-0.9835205,0.02935791,34.98,0.0,-1.0,-8.126511,11.907196,
723.7813179999999,true,true,true,0.125,12.65,0.0,-34449,0,0,0.125,12.65,0.0,0,0,0,0.125,12.65,0.0,0,0,0,0.125,12.65,0.0,0,0,0,0.125,12.65,0.0,4,0,0,0.0,12.65,0.0,0,0,0,0.125,12.700000000000001,0.0,0,0,0,kReverse,kOff,-87.22,2.21,2.75,0.040222168,-0.9842529,0.031555176,34.98,0.0,2.0,-8.126511,11.907196,
723.802182,true,true,true,0.125,12.65,0.0,-34449,0,0,0.125,12.65,0.0,0,0,0,0.125,12.65,0.0,0,0,0,0.125,12.65,0.0,0,0,0,0.125,12.65,0.0,4,0,0,0.0,12.65,0.0,0,0,0,0.125,12.700000000000001,0.0,0,0,0,kReverse,kOff,-87.22,2.21,2.75,0.040222168,-0.9842529,0.031555176,34.98,0.0,2.0,-8.126511,11.907196,
723.824364,true,true,true,0.125,12.65,0.0,-34449,0,0,0.125,12.65,0.0,0,0,0,0.125,12.65,0.0,0,0,0,0.125,12.65,0.0,0,0,0,0.125,12.65,0.0,4,0,0,0.0,12.65,0.0,0,0,0,0.125,12.700000000000001,0.0,0,0,0,kReverse,kOff,-87.22,2.21,2.75,0.0413208,-0.9837036,0.027526855,34.98,0.0,2.0,-8.126511,11.907196,
723.84391,true,true,true,0.125,12.65,0.0,-34449,0,0,0.125,12.65,0.0,0,0,0,0.125,12.65,0.0,0,0,0,0.125,12.65,0.0,0,0,0,0.125,12.65,0.0,4,0,0,0.0,12.65,0.0,0,0,0,0.125,12.700000000000001,0.0,0,0,0,kReverse,kOff,-87.22,2.21,2.75,0.0357666,-0.98327637,0.032348633,34.98,0.0,-1.0,-8.126511,11.907196,
723.87525,true,true,true,0.125,12.65,0.0,-34449,0,0,0.125,12.65,0.0,0,0,0,0.125,12.65,0.0,0,0,0,0.125,12.65,0.0,0,0,0,0.125,12.65,0.0,4,0,0,0.0,12.65,0.0,0,0,0,0.125,12.700000000000001,0.0,0,0,0,kReverse,kOff,-87.22,2.21,2.74,0.03704834,-0.98376465,0.03253174,34.98,0.0,0.0,-8.126511,11.907196,
723.896062,true,true,true,0.125,12.65,0.0,-34449,0,0,0.125,12.65,0.0,0,0,0,0.125,12.65,0.0,0,0,0,0.125,12.65,0.0,0,0,0,0.125,12.65,0.0,4,0,0,0.0,12.65,0.0,0,0,0,0.125,12.700000000000001,0.0,0,0,0,kReverse,kOff,-87.22,2.21,2.74,0.036254883,-0.98309326,0.03149414,34.98,0.0,0.0,-8.126511,11.907196,
723.914222,true,true,true,0.125,12.65,0.0,-34449,0,0,0.125,12.65,0.0,0,0,0,0.125,12.65,0.0,0,0,0,0.125,12.65,0.0,0,0,0,0.125,12.65,0.0,4,0,0,0.0,12.65,0.0,0,0,0,0.125,12.700000000000001,0.0,0,0,0,kReverse,kOff,-87.22,2.21,2.74,0.038330078,-0.9810791,0.030029297,34.98,0.0,0.0,-8.126511,11.907196,
723.933132,true,true,true,0.125,12.65,0.0,-34449,0,0,0.125,12.65,0.0,0,0,0,0.125,12.65,0.0,0,0,0,0.125,12.65,0.0,0,0,0,0.125,12.65,0.0,4,0,0,0.0,12.65,0.0,0,0,0,0.125,12.700000000000001,0.0,0,0,0,kReverse,kOff,-87.22,2.21,2.74,0.038391113,-0.98046875,0.022888184,34.98,0.0,-1.0,-8.126511,11.907196,
723.953362,true,true,true,0.125,12.65,0.0,-34449,0,0,0.125,12.65,0.0,0,0,0,0.125,12.65,0.0,0,0,0,0.125,12.65,0.0,0,0,0,0.125,12.65,0.0,4,0,0,0.0,12.65,0.0,0,0,0,0.125,12.700000000000001,0.0,0,0,0,kReverse,kOff,-87.22,2.2,2.74,0.041870117,-0.98535156,0.02722168,34.98,0.0,3.0,-8.126511,11.907196,
723.976625,true,true,true,0.125,12.65,0.0,-34449,0,0,0.125,12.65,0.0,0,0,0,0.125,12.65,0.0,0,0,0,0.125,12.65,0.0,0,0,0,0.125,12.65,0.0,4,0,0,0.125,12.65,0.0,0,0,0,0.125,12.700000000000001,0.0,0,0,0,kReverse,kOff,-87.22,2.2,2.74,0.040771484,-0.98583984,0.03149414,34.98,0.0,3.0,-8.126511,11.907196,
723.999203,true,true,true,0.125,12.65,0.0,-34449,0,0,0.125,12.65,0.0,0,0,0,0.125,12.65,0.0,0,0,0,0.125,12.65,0.0,0,0,0,0.125,12.65,0.0,4,0,0,0.125,12.65,0.0,0,0,0,0.125,12.700000000000001,0.0,0,0,0,kReverse,kOff,-87.22,2.2,2.74,0.039489746,-0.9824829,0.027709961,34.98,0.0,1.0,-8.126511,11.907196,
724.020758,true,true,true,0.125,12.65,0.0,-34449,0,0,0.125,12.65,0.0,0,0,0,0.125,12.65,0.0,0,0,0,0.125,12.65,0.0,0,0,0,0.125,12.65,0.0,4,0,0,0.0,12.65,0.0,0,0,0,0.125,12.700000000000001,0.0,0,0,0,kReverse,kOff,-87.23,2.19,2.73,0.035461426,-0.98535156,0.030822754,35.0,0.0,-1.0,-8.126511,11.907196,
724.044789,true,true,true,0.125,12.65,0.0,-34449,0,0,0.125,12.65,0.0,0,0,0,0.125,12.65,0.0,0,0,0,0.125,12.65,0.0,0,0,0,0.125,12.65,0.0,4,0,0,0.0,12.65,0.0,0,0,0,0.125,12.700000000000001,0.0,0,0,0,kReverse,kOff,-87.22,2.19,2.73,0.035217285,-0.9830322,0.029052734,35.0,0.0,-2.0,-8.126511,11.907196,
724.070255,true,true,true,0.125,12.65,0.0,-34449,0,0,0.125,12.65,0.0,0,0,0,0.125,12.65,0.0,0,0,0,0.125,12.65,0.0,0,0,0,0.125,12.65,0.0,4,0,0,0.0,12.65,0.0,0,0,0,0.125,12.700000000000001,0.0,0,0,0,kReverse,kOff,-87.23,2.18,2.73,0.035217285,-0.98443604,0.031433105,35.0,0.0,-1.0,-8.126511,11.907196,
724.09384,true,true,true,0.125,12.65,0.0,-34449,0,0,0.125,12.65,0.0,0,0,0,0.125,12.65,0.0,0,0,0,0.125,12.65,0.0,0,0,0,0.125,12.65,0.0,4,0,0,0.0,12.65,0.0,0,0,0,0.125,12.700000000000001,0.0,0,0,0,kReverse,kOff,-87.23,2.17,2.72,0.039367676,-0.98413086,0.030639648,35.0,0.0,2.0,-8.126511,11.907196,
724.118305,true,true,true,0.125,12.65,0.0,-34449,0,0,0.125,12.65,0.0,0,0,0,0.125,12.65,0.0,0,0,0,0.125,12.65,0.0,0,0,0,0.125,12.65,0.0,4,0,0,0.0,12.65,0.0,0,0,0,0.125,12.700000000000001,0.0,0,0,0,kReverse,kOff,-87.23,2.17,2.72,0.030273438,-0.9854126,0.034484863,35.0,0.0,-5.0,-8.126511,11.907196,
724.141013,true,true,true,0.125,12.65,0.0,-34449,0,0,0.125,12.65,0.0,0,0,0,0.125,12.65,0.0,0,0,0,0.125,12.65,0.0,0,0,0,0.125,12.65,0.0,4,0,0,0.0,12.65,0.0,0,0,0,0.125,12.700000000000001,0.0,0,0,0,kReverse,kOff,-87.23,2.17,2.71,0.032226562,-0.9807739,0.025817871,35.0,0.0,-5.0,-8.126511,11.907196,
724.162145,true,true,true,0.125,12.65,0.0,-34449,0,0,0.125,12.65,0.0,0,0,0,0.125,12.65,0.0,0,0,0,0.125,12.65,0.0,0,0,0,0.0,12.65,0.0,4,0,0,0.0,12.65,0.0,0,0,0,0.125,12.700000000000001,0.0,0,0,0,kReverse,kOff,-87.23,2.17,2.71,0.036315918,-0.9810791,0.026367188,35.0,0.0,-1.0,-8.126511,11.907196,
724.185059,true,true,true,0.125,12.65,0.0,-34449,0,0,0.125,12.65,0.0,0,0,0,0.125,12.65,0.0,0,0,0,0.125,12.65,0.0,0,0,0,0.0,12.65,0.0,4,0,0,0.0,12.65,0.0,0,0,0,0.125,12.700000000000001,0.0,0,0,0,kReverse,kOff,-87.23,2.17,2.72,0.03918457,-0.9844971,0.026611328,35.0,0.0,0.0,-8.126511,11.907196,
724.205553,true,true,true,0.125,12.65,0.0,-34449,0,0,0.125,12.65,0.0,0,0,0,0.125,12.65,0.0,0,0,0,0.125,12.65,0.0,0,0,0,0.125,12.65,0.0,4,0,0,0.0,12.65,0.0,0,0,0,0.125,12.700000000000001,0.0,0,0,0,kReverse,kOff,-87.22,2.18,2.72,0.04058838,-0.98187256,0.031555176,35.0,0.0,3.0,-8.126511,11.907196,
724.2257589999999,true,true,true,0.125,12.65,0.0,-34449,0,0,0.125,12.65,0.0,0,0,0,0.125,12.65,0.0,0,0,0,0.125,12.65,0.0,0,0,0,0.125,12.65,0.0,4,0,0,0.0,12.65,0.0,0,0,0,0.125,12.700000000000001,0.0,0,0,0,kReverse,kOff,-87.22,2.18,2.73,0.03765869,-0.9805298,0.030578613,35.0,0.0,0.0,-8.126511,11.907196,
724.247171,true,true,true,0.125,12.65,0.0,-34449,0,0,0.125,12.65,0.0,0,0,0,0.125,12.65,0.0,0,0,0,0.125,12.65,0.0,0,0,0,0.125,12.65,0.0,4,0,0,0.0,12.65,0.0,0,0,0,0.125,12.700000000000001,0.0,0,0,0,kReverse,kOff,-87.23,2.18,2.72,0.037902832,-0.9814453,0.0234375,35.0,0.0,-1.0,-8.126511,11.907196,
724.2719569999999,true,true,true,0.125,12.65,0.0,-34449,0,0,0.125,12.65,0.0,0,0,0,0.125,12.65,0.0,0,0,0,0.125,12.65,0.0,0,0,0,0.125,12.65,0.0,4,0,0,0.0,12.65,0.0,0,0,0,0.125,12.700000000000001,0.0,0,0,0,kReverse,kOff,-87.22,2.18,2.73,0.042053223,-0.9859619,0.034851074,35.0,0.0,5.0,-8.126511,11.907196,
724.2975359999999,true,true,true,0.125,12.65,0.0,-34449,0,0,0.125,12.65,0.0,0,0,0,0.125,12.65,0.0,0,0,0,0.125,12.65,0.0,0,0,0,0.125,12.65,0.0,4,0,0,0.0,12.65,0.0,0,0,0,0.125,12.700000000000001,0.0,0,0,0,kReverse,kOff,-87.22,2.18,2.73,0.04449463,-0.98321533,0.026062012,35.0,0.0,5.0,-8.126511,11.907196,
724.3208440000001,true,true,true,0.125,12.65,0.0,-34449,0,0,0.125,12.65,0.0,0,0,0,0.125,12.65,0.0,0,0,0,0.125,12.65,0.0,0,0,0,0.125,12.65,0.0,4,0,0,0.0,12.65,0.0,0,0,0,0.125,12.700000000000001,0.0,0,0,0,kReverse,kOff,-87.22,2.18,2.73,0.041870117,-0.98394775,0.028381348,35.0,0.0,3.0,-8.126511,11.907196,
724.3419329999999,true,true,true,0.125,12.65,0.0,-34449,0,0,0.125,12.65,0.0,0,0,0,0.125,12.65,0.0,0,0,0,0.125,12.65,0.0,0,0,0,0.125,12.65,0.0,4,0,0,0.0,12.65,0.0,0,0,0,0.125,12.700000000000001,0.0,0,0,0,kReverse,kOff,-87.22,2.18,2.73,0.0357666,-0.9857178,0.024230957,35.0,0.0,-3.0,-8.126511,11.907196,
724.363245,true,true,true,0.125,12.65,0.0,-34449,0,0,0.125,12.65,0.0,0,0,0,0.125,12.65,0.0,0,0,0,0.125,12.65,0.0,0,0,0,0.125,12.65,0.0,4,0,0,0.0,12.65,0.0,0,0,0,0.125,12.700000000000001,0.0,0,0,0,kReverse,kOff,-87.22,2.18,2.72,0.03778076,-0.9855957,0.03326416,35.0,0.0,1.0,-8.126511,11.907196,
724.383964,true,true,true,0.125,12.65,0.0,-34449,0,0,0.125,12.65,0.0,0,0,0,0.125,12.65,0.0,0,0,0,0.125,12.65,0.0,0,0,0,0.125,12.65,0.0,4,0,0,0.0,12.65,0.0,0,0,0,0.125,12.700000000000001,0.0,0,0,0,kReverse,kOff,-87.22,2.18,2.72,0.042297363,-0.98327637,0.028320312,35.0,0.0,4.0,-8.126511,11.907196,
724.4043,true,true,true,0.125,12.65,0.0,-34449,0,0,0.125,12.65,0.0,0,0,0,0.125,12.65,0.0,0,0,0,0.125,12.65,0.0,0,0,0,0.125,12.65,0.0,4,0,0,0.0,12.65,0.0,0,0,0,0.125,12.700000000000001,0.0,0,0,0,kReverse,kOff,-87.22,2.18,2.72,0.04144287,-0.9824219,0.01965332,35.0,0.0,0.0,-8.126511,11.907196,
724.425885,true,true,true,0.125,12.65,0.0,-34449,0,0,0.125,12.65,0.0,0,0,0,0.125,12.65,0.0,0,0,0,0.125,12.65,0.0,0,0,0,0.125,12.65,0.0,4,0,0,0.0,12.65,0.0,0,0,0,0.125,12.700000000000001,0.0,0,0,0,kReverse,kOff,-87.22,2.18,2.72,0.045410156,-0.9867554,0.022949219,35.0,0.0,5.0,-8.126511,11.907196,
724.448763,true,true,true,0.125,12.65,0.0,-34449,0,0,0.125,12.65,0.0,0,0,0,0.125,12.65,0.0,0,0,0,0.125,12.65,0.0,0,0,0,0.125,12.65,0.0,4,0,0,0.0,12.65,0.0,0,0,0,0.125,12.700000000000001,0.0,0,0,0,kReverse,kOff,-87.21,2.19,2.73,0.045410156,-0.9852905,0.020080566,35.0,0.0,4.0,-8.126511,11.907196,
724.47026,true,true,true,0.125,12.65,0.0,-34449,0,0,0.125,12.65,0.0,0,0,0,0.125,12.65,0.0,0,0,0,0.125,12.65,0.0,0,0,0,0.125,12.65,0.0,4,0,0,0.0,12.65,0.0,0,0,0,0.125,12.700000000000001,0.0,0,0,0,kReverse,kOff,-87.22,2.19,2.73,0.04650879,-0.98583984,0.0211792,35.0,0.0,5.0,-8.126511,11.907196,
724.494898,true,true,true,0.125,12.65,0.0,-34449,0,0,0.125,12.65,0.0,0,0,0,0.125,12.65,0.0,0,0,0,0.125,12.65,0.0,0,0,0,0.125,12.65,0.0,4,0,0,0.0,12.65,0.0,0,0,0,0.125,12.700000000000001,0.0,0,0,0,kReverse,kOff,-87.21,2.19,2.74,0.047973633,-0.98535156,0.0256958,35.0,0.0,8.0,-8.126511,11.907196,
724.5161750000001,true,true,true,0.125,12.65,0.0,-34449,0,0,0.125,12.65,0.0,0,0,0,0.125,12.65,0.0,0,0,0,0.125,12.65,0.0,0,0,0,0.125,12.65,0.0,4,0,0,0.0,12.65,0.0,0,0,0,0.125,12.700000000000001,0.0,0,0,0,kReverse,kOff,-87.22,2.18,2.73,0.045776367,-0.9753418,0.035461426,35.0,0.0,10.0,-8.126511,11.907196,
724.534844,true,true,true,0.125,12.65,0.0,-34449,0,0,0.125,12.65,0.0,0,0,0,0.125,12.65,0.0,0,0,0,0.125,12.65,0.0,0,0,0,0.125,12.65,0.0,4,0,0,0.0,12.65,0.0,0,0,0,0.125,12.700000000000001,0.0,0,0,0,kReverse,kOff,-87.22,2.17,2.72,0.035461426,-0.9752197,0.05407715,35.0,0.0,5.0,-8.126511,11.907227,
724.5510899999999,true,true,true,0.125,12.65,0.0,-34449,0,0,0.125,12.65,0.0,0,0,0,0.125,12.65,0.0,0,0,0,0.125,12.65,0.0,0,0,0,0.125,12.65,0.0,4,0,0,0.0,12.65,0.0,0,0,0,0.125,12.700000000000001,0.0,0,0,0,kReverse,kOff,-87.21,2.16,2.72,0.020874023,-0.9819946,0.06707764,35.01,0.0,-4.0,-8.126511,11.907288,
724.568463,true,true,true,0.125,12.65,0.0,-34449,0,0,0.125,12.65,0.0,0,0,0,0.125,12.65,0.0,0,0,0,0.125,12.65,0.0,0,0,0,0.125,12.65,0.0,4,0,0,0.0,12.65,0.0,0,0,0,0.125,12.700000000000001,0.0,0,0,0,kReverse,kOff,-87.24,2.1,2.67,0.0044555664,-0.9875488,0.020263672,35.01,0.0,-33.0,-8.126541,11.9075165,
724.59249,true,true,true,0.125,12.65,0.0,-34449,0,0,0.125,12.65,0.0,0,0,0,0.125,12.65,0.0,0,0,0,0.125,12.65,0.0,0,0,0,0.125,12.65,0.0,4,0,0,0.0,12.65,0.0,0,0,0,0.125,12.700000000000001,0.0,0,0,0,kReverse,kOff,-87.27,2.06,2.63,-0.005432129,-0.9887085,0.029052734,35.01,0.0,-39.0,-8.126617,11.907654,
724.618395,true,true,true,0.125,12.65,0.0,-34449,0,0,0.125,12.65,0.0,0,0,0,0.125,12.65,0.0,0,0,0,0.125,12.65,0.0,0,0,0,0.125,12.65,0.0,4,0,0,0.0,12.65,0.0,0,0,0,0.125,12.700000000000001,0.0,0,0,0,kReverse,kOff,-87.29,2.03,2.6,0.008728027,-0.9890747,0.032958984,35.01,0.0,-24.0,-8.1267395,11.907654,
724.636177,true,true,true,0.125,12.65,0.0,-34449,0,0,0.125,12.65,0.0,0,0,0,0.125,12.65,0.0,0,0,0,0.125,12.65,0.0,0,0,0,0.125,12.65,0.0,4,0,0,0.0,12.65,0.0,0,0,0,0.125,12.700000000000001,0.0,0,0,0,kReverse,kOff,-87.3,2.02,2.59,0.018981934,-0.9932251,0.041381836,35.01,0.0,-12.0,-8.127045,11.907654,
724.65916,true,true,true,0.125,12.65,0.0,-34449,0,0,0.125,12.65,0.0,0,0,0,0.125,12.65,0.0,0,0,0,0.125,12.65,0.0,0,0,0,0.125,12.65,0.0,4,0,0,0.0,12.65,0.0,0,0,0,0.125,12.700000000000001,0.0,0,0,0,kReverse,kOff,-87.26,2.06,2.63,0.030456543,-0.984375,0.023803711,35.01,0.0,-6.0,-8.127045,11.907654,
724.680764,true,true,true,0.125,12.65,0.0,-34449,0,0,0.125,12.65,0.0,0,0,0,0.125,12.65,0.0,0,0,0,0.125,12.65,0.0,0,0,0,0.125,12.65,0.0,4,0,0,0.0,12.65,0.0,0,0,0,0.125,12.700000000000001,0.0,0,0,0,kReverse,kOff,-87.26,2.09,2.65,0.050476074,-0.98205566,0.014953613,35.01,0.0,9.0,-8.127045,11.907654,
724.701665,true,true,true,0.125,12.65,0.0,-34449,0,0,0.125,12.65,0.0,0,0,0,0.125,12.65,0.0,0,0,0,0.125,12.65,0.0,0,0,0,0.125,12.65,0.0,4,0,0,0.0,12.65,0.0,0,0,0,0.125,12.700000000000001,0.0,0,0,0,kReverse,kOff,-87.24,2.12,2.68,0.058288574,-0.9770508,0.009094238,35.01,0.0,14.0,-8.127045,11.907623,
724.7213049999999,true,true,true,0.125,12.65,0.0,-34449,0,0,0.125,12.65,0.0,0,0,0,0.125,12.65,0.0,0,0,0,0.125,12.65,0.0,0,0,0,0.125,12.65,0.0,4,0,0,0.0,12.65,0.0,0,0,0,0.125,12.700000000000001,0.0,0,0,0,kReverse,kOff,-87.21,2.15,2.71,0.05609131,-0.9772339,0.04156494,35.01,0.0,21.0,-8.127014,11.907501,
724.7414640000001,true,true,true,0.125,12.65,0.0,-34449,0,0,0.125,12.65,0.0,0,0,0,0.125,12.65,0.0,0,0,0,0.125,12.65,0.0,0,0,0,0.125,12.65,0.0,4,0,0,0.0,12.65,0.0,0,0,0,0.125,12.700000000000001,0.0,0,0,0,kReverse,kOff,-87.21,2.15,2.71,0.0413208,-0.9869385,0.039123535,35.01,0.0,6.0,-8.126968,11.907501,
724.76264,true,true,true,0.125,12.65,0.0,-34449,0,0,0.125,12.65,0.0,0,0,0,0.125,12.65,0.0,0,0,0,0.125,12.65,0.0,0,0,0,0.125,12.65,0.0,4,0,0,0.0,12.65,0.0,0,0,0,0.125,12.700000000000001,0.0,0,0,0,kReverse,kOff,-87.21,2.15,2.71,0.03656006,-0.9859619,0.031677246,35.01,0.0,0.0,-8.126907,11.907501,
724.784251,true,true,true,0.125,12.65,0.0,-34449,0,0,0.125,12.65,0.0,0,0,0,0.125,12.65,0.0,0,0,0,0.125,12.65,0.0,0,0,0,0.125,12.65,0.0,4,0,0,0.0,12.65,0.0,0,0,0,0.125,12.700000000000001,0.0,0,0,0,kReverse,kOff,-87.22,2.13,2.69,0.032043457,-0.9904785,0.0056762695,35.01,0.0,-12.0,-8.126907,11.907486,
724.810701,true,true,true,0.125,12.65,0.0,-34449,0,0,0.125,12.65,0.0,0,0,0,0.125,12.6,0.0,0,0,0,0.125,12.65,0.0,0,0,0,0.125,12.65,0.0,4,0,0,0.0,12.65,0.0,0,0,0,0.125,12.700000000000001,0.0,0,0,0,kReverse,kOff,-87.25,2.11,2.67,0.038330078,-0.980896,0.0345459,35.01,0.0,3.0,-8.126907,11.90741,
724.833392,true,true,true,0.125,12.65,0.0,-34449,0,0,0.125,12.65,0.0,0,0,0,0.125,12.6,0.0,0,0,0,0.125,12.65,0.0,0,0,0,0.125,12.65,0.0,4,0,0,0.0,12.65,0.0,0,0,0,0.125,12.700000000000001,0.0,0,0,0,kReverse,kOff,-87.25,2.11,2.67,0.042663574,-0.9771118,0.031677246,35.01,0.0,6.0,-8.126907,11.90741,
724.8531700000001,true,true,true,0.125,12.65,0.0,-34449,0,0,0.125,12.65,0.0,0,0,0,0.125,12.6,0.0,0,0,0,0.125,12.65,0.0,0,0,0,0.125,12.65,0.0,4,0,0,0.0,12.65,0.0,0,0,0,0.125,12.700000000000001,0.0,0,0,0,kReverse,kOff,-87.24,2.1,2.67,0.03778076,-0.9819336,0.04425049,35.01,0.0,5.0,-8.126907,11.90741,
724.8843,true,true,true,0.125,12.65,0.0,-34449,0,0,0.125,12.65,0.0,0,0,0,0.125,12.6,0.0,0,0,0,0.125,12.65,0.0,0,0,0,0.0,12.65,0.0,4,0,0,0.0,12.65,0.0,0,0,0,0.125,12.700000000000001,0.0,0,0,0,kReverse,kOff,-87.25,2.08,2.65,0.012634277,-0.98779297,0.02355957,35.01,0.0,-24.0,-8.126938,11.90741,
724.911659,true,true,true,0.125,12.65,0.0,-34449,0,0,0.125,12.65,0.0,0,0,0,0.125,12.6,0.0,0,0,0,0.125,12.65,0.0,0,0,0,0.0,12.65,0.0,4,0,0,0.0,12.65,0.0,0,0,0,0.125,12.700000000000001,0.0,0,0,0,kReverse,kOff,-87.27,2.07,2.63,0.027404785,-0.9883423,0.036376953,35.01,0.0,-6.0,-8.12706,11.90741,
724.934024,true,true,true,0.125,12.65,0.0,-34449,0,0,0.125,12.65,0.0,0,0,0,0.125,12.6,0.0,0,0,0,0.125,12.65,0.0,0,0,0,0.0,12.65,0.0,4,0,0,0.0,12.65,0.0,0,0,0,0.125,12.700000000000001,0.0,0,0,0,kReverse,kOff,-87.26,2.08,2.64,0.033935547,-0.98828125,0.030761719,35.01,0.0,-1.0,-8.12706,11.90741,
724.9590420000001,true,true,true,0.125,12.65,0.0,-34449,0,0,0.125,12.65,0.0,0,0,0,0.125,12.6,0.0,0,0,0,0.125,12.65,0.0,0,0,0,0.0,12.65,0.0,4,0,0,0.0,12.65,0.0,0,0,0,0.125,12.700000000000001,0.0,0,0,0,kReverse,kOff,-87.24,2.1,2.67,0.052612305,-0.98028564,0.027893066,35.01,0.0,14.0,-8.12706,11.90741,
724.9803049999999,true,true,true,0.125,12.65,0.0,-34449,0,0,0.125,12.65,0.0,0,0,0,0.125,12.65,0.0,0,0,0,0.125,12.65,0.0,0,0,0,0.125,12.65,0.0,4,0,0,0.0,12.65,0.0,0,0,0,0.125,12.700000000000001,0.0,0,0,0,kReverse,kOff,-87.23,2.13,2.69,0.057678223,-0.9789429,0.014343262,35.01,0.0,15.0,-8.12706,11.907379,
725.001813,true,true,true,0.125,12.65,0.0,-34449,0,0,0.125,12.65,0.0,0,0,0,0.125,12.65,0.0,0,0,0,0.125,12.65,0.0,0,0,0,0.125,12.65,0.0,4,0,0,0.0,12.65,0.0,0,0,0,0.125,12.700000000000001,0.0,0,0,0,kReverse,kOff,-87.22,2.15,2.71,0.055908203,-0.9735718,0.026977539,35.01,0.0,17.0,-8.12706,11.907272,
725.022489,true,true,true,0.125,12.65,0.0,-34449,0,0,0.125,12.65,0.0,0,0,0,0.125,12.65,0.0,0,0,0,0.125,12.65,0.0,0,0,0,0.125,12.65,0.0,4,0,0,0.0,12.65,0.0,0,0,0,0.125,12.700000000000001,0.0,0,0,0,kReverse,kOff,-87.21,2.15,2.71,0.05029297,-0.97888184,0.03765869,35.01,0.0,15.0,-8.12706,11.907272,
725.0436550000001,true,true,true,0.125,12.65,0.0,-34449,0,0,0.125,12.65,0.0,0,0,0,0.125,12.65,0.0,0,0,0,0.125,12.65,0.0,0,0,0,0.125,12.65,0.0,4,0,0,0.0,12.65,0.0,0,0,0,0.125,12.700000000000001,0.0,0,0,0,kReverse,kOff,-87.22,2.13,2.7,0.033569336,-0.9805908,0.036193848,35.03,0.0,-1.0,-8.12706,11.907272,
725.0663149999999,true,true,true,0.125,12.65,0.0,-34449,0,0,0.125,12.65,0.0,0,0,0,0.125,12.65,0.0,0,0,0,0.125,12.65,0.0,0,0,0,0.125,12.65,0.0,4,0,0,0.0,12.65,0.0,0,0,0,0.125,12.700000000000001,0.0,0,0,0,kReverse,kOff,-87.23,2.11,2.68,0.015991211,-0.9821167,0.03765869,35.03,0.0,-17.0,-8.12706,11.907272,
725.091198,true,true,true,0.125,12.65,0.0,-34449,0,0,0.125,12.65,0.0,0,0,0,0.125,12.65,0.0,0,0,0,0.125,12.65,0.0,0,0,0,0.125,12.65,0.0,4,0,0,0.0,12.65,0.0,0,0,0,0.125,12.700000000000001,0.0,0,0,0,kReverse,kOff,-87.25,2.07,2.64,0.019042969,-0.98413086,0.03955078,35.03,0.0,-13.0,-8.12706,11.907272,
725.117378,true,true,true,0.125,12.65,0.0,-34449,0,0,0.125,12.65,0.0,0,0,0,0.125,12.65,0.0,0,0,0,0.125,12.65,0.0,0,0,0,0.125,12.65,0.0,4,0,0,0.0,12.65,0.0,0,0,0,0.125,12.700000000000001,0.0,0,0,0,kReverse,kOff,-87.26,2.05,2.62,0.01361084,-0.9871216,0.03515625,35.03,0.0,-19.0,-8.12706,11.907272,
725.1398049999999,true,true,true,0.125,12.65,0.0,-34449,0,0,0.125,12.65,0.0,0,0,0,0.125,12.65,0.0,0,0,0,0.125,12.65,0.0,0,0,0,0.125,12.65,0.0,4,0,0,0.0,12.65,0.0,0,0,0,0.125,12.700000000000001,0.0,0,0,0,kReverse,kOff,-87.27,2.04,2.61,0.026550293,-0.98779297,0.04168701,35.03,0.0,-5.0,-8.12706,11.907272,
725.159401,true,true,true,0.125,12.65,0.0,-34449,0,0,0.125,12.65,0.0,0,0,0,0.125,12.65,0.0,0,0,0,0.125,12.65,0.0,0,0,0,0.125,12.65,0.0,4,0,0,0.0,12.65,0.0,0,0,0,0.125,12.700000000000001,0.0,0,0,0,kReverse,kOff,-87.26,2.04,2.62,0.027709961,-0.98651123,0.031677246,35.03,0.0,-7.0,-8.12706,11.907272,
725.1812389999999,true,true,true,0.125,12.65,0.0,-34449,0,0,0.125,12.65,0.0,0,0,0,0.125,12.65,0.0,0,0,0,0.125,12.65,0.0,0,0,0,0.125,12.65,0.0,4,0,0,0.0,12.65,0.0,0,0,0,0.125,12.700000000000001,0.0,0,0,0,kReverse,kOff,-87.27,2.04,2.61,0.03302002,-0.98809814,0.020080566,35.03,0.0,-5.0,-8.12706,11.907272,
725.201453,true,true,true,0.125,12.65,0.0,-34449,0,0,0.125,12.65,0.0,0,0,0,0.125,12.65,0.0,0,0,0,0.125,12.65,0.0,0,0,0,0.125,12.65,0.0,4,0,0,0.0,12.65,0.0,0,0,0,0.125,12.700000000000001,0.0,0,0,0,kReverse,kOff,-87.25,2.07,2.64,0.041381836,-0.98028564,0.031982422,35.03,0.0,5.0,-8.12706,11.907272,
725.22387,true,true,true,0.125,12.65,0.0,-34449,0,0,0.125,12.65,0.0,0,0,0,0.125,12.65,0.0,0,0,0,0.125,12.65,0.0,0,0,0,0.125,12.65,0.0,4,0,0,0.0,12.65,0.0,0,0,0,0.125,12.700000000000001,0.0,0,0,0,kReverse,kOff,-87.22,2.11,2.68,0.053527832,-0.9762573,0.0345459,35.03,0.0,17.0,-8.12706,11.907272,
725.245076,true,true,true,0.125,12.65,0.0,-34449,0,0,0.125,12.65,0.0,0,0,0,0.125,12.65,0.0,0,0,0,0.125,12.65,0.0,0,0,0,0.125,12.65,0.0,4,0,0,0.0,12.65,0.0,0,0,0,0.125,12.700000000000001,0.0,0,0,0,kReverse,kOff,-87.21,2.13,2.7,0.052246094,-0.9729614,0.019104004,35.03,0.0,11.0,-8.12706,11.907272,
725.267231,true,true,true,0.125,12.65,0.0,-34449,0,0,0.125,12.65,0.0,0,0,0,0.125,12.65,0.0,0,0,0,0.125,12.65,0.0,0,0,0,0.125,12.65,0.0,4,0,0,0.0,12.65,0.0,0,0,0,0.125,12.700000000000001,0.0,0,0,0,kReverse,kOff,-87.21,2.13,2.7,0.049560547,-0.97979736,0.017944336,35.03,0.0,8.0,-8.12706,11.907272,
725.28762,true,true,true,0.125,12.65,0.0,-34449,0,0,0.125,12.65,0.0,0,0,0,0.125,12.65,0.0,0,0,0,0.125,12.65,0.0,0,0,0,0.125,12.65,0.0,4,0,0,0.0,12.65,0.0,0,0,0,0.125,12.700000000000001,0.0,0,0,0,kReverse,kOff,-87.21,2.13,2.7,0.041503906,-0.9818115,0.025939941,35.03,0.0,3.0,-8.12706,11.907272,
725.313338,true,true,true,0.125,12.65,0.0,-34449,0,0,0.125,12.65,0.0,0,0,0,0.125,12.65,0.0,0,0,0,0.125,12.65,0.0,0,0,0,0.125,12.65,0.0,4,0,0,0.0,12.65,0.0,0,0,0,0.125,12.700000000000001,0.0,0,0,0,kReverse,kOff,-87.22,2.12,2.69,0.038330078,-0.9866333,0.023742676,35.03,0.0,0.0,-8.12706,11.907272,
