timer,lineLeft,lineCenter,lineRight,LeftFrontCurrent,LeftFrontVoltage,LeftFrontValue,LeftFrontPosition,LeftFrontVelocity,LeftFrontFaults,LeftRearCurrent,LeftRearVoltage,LeftRearValue,LeftRearPosition,LeftRearVelocity,LeftRearFaults,RightFrontCurrent,RightFrontVoltage,RightFrontValue,RightFrontPosition,RightFrontVelocity,RightFrontFaults,RightRearCurrent,RightRearVoltage,RightRearValue,RightRearPosition,RightRearVelocity,RightRearFaults,LiftCurrent,LiftVoltage,LiftValue,LiftPosition,LiftVelocity,LiftFaults,WristCurrent,WristVoltage,WristValue,WristPosition,WristVelocity,WristFaults,RollerCurrent,RollerVoltage,RollerValue,RollerPosition,RollerVelocity,RollerFaults,PushersState,PivotsState,navx_Pitch,navx_Roll,navx_Yaw,navx_XAcc,navx_YAcc,navx_ZAcc,navx_Temp,navx_Bar,navx_Alt,navx_XDis,navx_YDis,
193.120448,true,true,true,0.125,12.75,0.0,0,0,0,0.125,12.75,0.0,0,0,0,0.125,12.700000000000001,0.0,0,0,0,0.125,12.75,0.0,0,0,0,0.0,12.75,0.0,0,0,0,0.0,12.75,0.0,0,0,0,0.125,12.8,0.0,0,0,0,kReverse,kReverse,-86.94,2.22,2.25,0.040222168,-0.98413086,0.032226562,32.73,0.0,1.0,-8.070038,11.855484,
193.152049,true,true,true,0.125,12.75,0.0,0,0,0,0.125,12.75,0.0,0,0,0,0.125,12.700000000000001,0.0,0,0,0,0.125,12.75,0.0,0,0,0,0.0,12.75,0.0,0,0,0,0.0,12.75,0.0,0,0,0,0.125,12.8,0.0,0,0,0,kReverse,kReverse,-86.94,2.22,2.25,0.039367676,-0.98217773,0.037109375,32.73,0.0,1.0,-8.070038,11.855484,
193.175244,true,true,true,0.125,12.75,0.0,0,0,0,0.125,12.75,0.0,0,0,0,0.125,12.700000000000001,0.0,0,0,0,0.125,12.75,0.0,0,0,0,0.125,12.75,0.0,0,0,0,0.0,12.75,0.0,0,0,0,0.125,12.8,0.0,0,0,0,kReverse,kReverse,-86.94,2.22,2.25,0.038269043,-0.98254395,0.03656006,32.73,0.0,0.0,-8.070038,11.855484,
193.197608,true,true,true,0.125,12.75,0.0,0,0,0,0.125,12.75,0.0,0,0,0,0.125,12.700000000000001,0.0,0,0,0,0.125,12.75,0.0,0,0,0,0.125,12.75,0.0,0,0,0,0.0,12.75,0.0,0,0,0,0.125,12.8,0.0,0,0,0,kReverse,kReverse,-86.94,2.23,2.26,0.039123535,-0.98327637,0.036499023,32.73,0.0,0.0,-8.070038,11.855484,
193.218858,true,true,true,0.125,12.75,0.0,0,0,0,0.125,12.75,0.0,0,0,0,0.125,12.700000000000001,0.0,0,0,0,0.125,12.75,0.0,0,0,0,0.125,12.75,0.0,0,0,0,0.0,12.75,0.0,0,0,0,0.125,12.8,0.0,0,0,0,kReverse,kReverse,-86.94,2.22,2.25,0.041015625,-0.9824219,0.03765869,32.73,0.0,2.0,-8.070038,11.855484,
193.23972600000002,true,true,true,0.125,12.75,0.0,0,0,0,0.125,12.75,0.0,0,0,0,0.125,12.700000000000001,0.0,0,0,0,0.125,12.75,0.0,0,0,0,0.125,12.75,0.0,0,0,0,0.0,12.75,0.0,0,0,0,0.125,12.8,0.0,0,0,0,kReverse,kReverse,-86.94,2.22,2.25,0.03869629,-0.98376465,0.03778076,32.73,0.0,0.0,-8.070038,11.855484,
193.261538,true,true,true,0.125,12.75,0.0,0,0,0,0.125,12.75,0.0,0,0,0,0.125,12.700000000000001,0.0,0,0,0,0.125,12.75,0.0,0,0,0,0.0,12.75,0.0,0,0,0,0.0,12.75,0.0,0,0,0,0.125,12.8,0.0,0,0,0,kReverse,kReverse,-86.94,2.22,2.25,0.037719727,-0.9834595,0.038146973,32.73,0.0,0.0,-8.070038,11.855484,
193.28175900000002,true,true,true,0.125,12.75,0.0,0,0,0,0.125,12.75,0.0,0,0,0,0.125,12.700000000000001,0.0,0,0,0,0.125,12.75,0.0,0,0,0,0.0,12.75,0.0,0,0,0,0.0,12.75,0.0,0,0,0,0.125,12.8,0.0,0,0,0,kReverse,kReverse,-86.94,2.22,2.25,0.03765869,-0.9834595,0.037902832,32.73,0.0,0.0,-8.070038,11.855484,
193.307258,true,true,true,0.125,12.75,0.0,0,0,0,0.125,12.75,0.0,0,0,0,0.125,12.700000000000001,0.0,0,0,0,0.125,12.75,0.0,0,0,0,0.0,12.75,0.0,0,0,0,0.0,12.700000000000001,0.0,0,0,0,0.125,12.8,0.0,0,0,0,kReverse,kReverse,-86.94,2.22,2.25,0.036193848,-0.98309326,0.03704834,32.73,0.0,-1.0,-8.070038,11.855484,
193.327133,true,true,true,0.125,12.75,0.0,0,0,0,0.125,12.75,0.0,0,0,0,0.125,12.700000000000001,0.0,0,0,0,0.125,12.75,0.0,0,0,0,0.0,12.75,0.0,0,0,0,0.0,12.700000000000001,0.0,0,0,0,0.125,12.8,0.0,0,0,0,kReverse,kReverse,-86.94,2.22,2.25,0.038208008,-0.9862671,0.032165527,32.73,0.0,0.0,-8.070038,11.855484,
193.34528,true,true,true,0.125,12.75,0.0,0,0,0,0.125,12.75,0.0,0,0,0,0.125,12.700000000000001,0.0,0,0,0,0.125,12.75,0.0,0,0,0,0.0,12.75,0.0,0,0,0,0.0,12.700000000000001,0.0,0,0,0,0.125,12.8,0.0,0,0,0,kReverse,kReverse,-86.94,2.22,2.25,0.03753662,-0.98132324,0.03491211,32.73,0.0,0.0,-8.070038,11.855484,
193.370497,true,true,true,0.125,12.75,0.0,0,0,0,0.125,12.75,0.0,0,0,0,0.125,12.700000000000001,0.0,0,0,0,0.125,12.75,0.0,0,0,0,0.0,12.75,0.0,0,0,0,0.0,12.700000000000001,0.0,0,0,0,0.125,12.8,0.0,0,0,0,kReverse,kReverse,-86.94,2.22,2.25,0.03778076,-0.9822998,0.035705566,32.73,0.0,0.0,-8.070038,11.855484,
193.393519,true,true,true,0.125,12.75,0.0,0,0,0,0.125,12.75,0.0,0,0,0,0.125,12.700000000000001,0.0,0,0,0,0.125,12.75,0.0,0,0,0,0.0,12.75,0.0,0,0,0,0.0,12.700000000000001,0.0,0,0,0,0.125,12.8,0.0,0,0,0,kReverse,kReverse,-86.94,2.22,2.25,0.040161133,-0.9857178,0.03326416,32.73,0.0,1.0,-8.070038,11.855484,
193.41587,true,true,true,0.125,12.75,0.0,0,0,0,0.125,12.75,0.0,0,0,0,0.125,12.700000000000001,0.0,0,0,0,0.125,12.75,0.0,0,0,0,0.0,12.75,0.0,0,0,0,0.0,12.700000000000001,0.0,0,0,0,0.125,12.8,0.0,0,0,0,kReverse,kReverse,-86.94,2.22,2.25,0.041625977,-0.98291016,0.03881836,32.73,0.0,3.0,-8.070038,11.855484,
193.435848,true,true,true,0.125,12.75,0.0,0,0,0,0.125,12.75,0.0,0,0,0,0.125,12.700000000000001,0.0,0,0,0,0.125,12.75,0.0,0,0,0,0.0,12.75,0.0,0,0,0,0.0,12.700000000000001,0.0,0,0,0,0.125,12.8,0.0,0,0,0,kReverse,kReverse,-86.94,2.22,2.25,0.041625977,-0.98291016,0.03881836,32.73,0.0,3.0,-8.070038,11.855484,
193.457884,true,true,true,0.125,12.75,0.0,0,0,0,0.125,12.75,0.0,0,0,0,0.125,12.700000000000001,0.0,0,0,0,0.125,12.75,0.0,0,0,0,0.0,12.75,0.0,0,0,0,0.0,12.700000000000001,0.0,0,0,0,0.125,12.8,0.0,0,0,0,kReverse,kReverse,-86.94,2.23,2.26,0.037597656,-0.9867554,0.03753662,32.77,0.0,0.0,-8.070038,11.855484,
193.478059,true,true,true,0.125,12.75,0.0,0,0,0,0.125,12.75,0.0,0,0,0,0.125,12.75,0.0,0,0,0,0.125,12.75,0.0,0,0,0,0.0,12.75,0.0,0,0,0,0.0,12.75,0.0,0,0,0,0.125,12.8,0.0,0,0,0,kReverse,kReverse,-86.94,2.22,2.25,0.038146973,-0.9863281,0.036010742,32.77,0.0,0.0,-8.070038,11.855484,
193.498693,true,true,true,0.125,12.75,0.0,0,0,0,0.125,12.75,0.0,0,0,0,0.125,12.75,0.0,0,0,0,0.125,12.75,0.0,0,0,0,0.0,12.75,0.0,0,0,0,0.0,12.75,0.0,0,0,0,0.125,12.8,0.0,0,0,0,kReverse,kReverse,-86.94,2.22,2.25,0.038513184,-0.98205566,0.03253174,32.77,0.0,0.0,-8.070038,11.855484,
193.518027,true,true,true,0.125,12.75,0.0,0,0,0,0.125,12.75,0.0,0,0,0,0.125,12.75,0.0,0,0,0,0.125,12.75,0.0,0,0,0,0.0,12.75,0.0,0,0,0,0.0,12.75,0.0,0,0,0,0.125,12.8,0.0,0,0,0,kReverse,kReverse,-86.94,2.22,2.25,0.0368042,-0.9824829,0.033081055,32.77,0.0,-1.0,-8.070038,11.855484,
193.538834,true,true,true,0.125,12.75,0.0,0,0,0,0.125,12.75,0.0,0,0,0,0.125,12.75,0.0,0,0,0,0.125,12.75,0.0,0,0,0,0.0,12.75,0.0,0,0,0,0.0,12.75,0.0,0,0,0,0.125,12.8,0.0,0,0,0,kReverse,kReverse,-86.94,2.22,2.25,0.038757324,-0.9840088,0.034118652,32.77,0.0,0.0,-8.070038,11.855484,
193.559435,true,true,true,0.125,12.75,0.0,0,0,0,0.125,12.75,0.0,0,0,0,0.125,12.75,0.0,0,0,0,0.125,12.75,0.0,0,0,0,0.0,12.75,0.0,0,0,0,0.0,12.75,0.0,0,0,0,0.125,12.8,0.0,0,0,0,kReverse,kReverse,-86.94,2.22,2.25,0.03717041,-0.98150635,0.037719727,32.77,0.0,0.0,-8.070038,11.855484,
193.579875,true,true,true,0.125,12.75,0.0,0,0,0,0.125,12.75,0.0,0,0,0,0.125,12.75,0.0,0,0,0,0.125,12.75,0.0,0,0,0,0.125,12.75,0.0,0,0,0,0.0,12.75,0.0,0,0,0,0.125,12.8,0.0,0,0,0,kReverse,kReverse,-86.94,2.22,2.25,0.035949707,-0.9824829,0.03753662,32.77,0.0,-2.0,-8.070038,11.855484,
193.60169900000002,true,true,true,0.125,12.75,0.0,0,0,0,0.125,12.75,0.0,0,0,0,0.125,12.75,0.0,0,0,0,0.125,12.75,0.0,0,0,0,0.125,12.75,0.0,0,0,0,0.0,12.75,0.0,0,0,0,0.125,12.8,0.0,0,0,0,kReverse,kReverse,-86.94,2.22,2.25,0.036987305,-0.9838257,0.03930664,32.77,0.0,-1.0,-8.070038,11.855484,
193.623491,true,true,true,0.125,12.75,0.0,0,0,0,0.125,12.75,0.0,0,0,0,0.125,12.75,0.0,0,0,0,0.125,12.75,0.0,0,0,0,0.125,12.75,0.0,0,0,0,0.0,12.75,0.0,0,0,0,0.125,12.8,0.0,0,0,0,kReverse,kReverse,-86.94,2.22,2.25,0.038879395,-0.9854126,0.032836914,32.77,0.0,0.0,-8.070038,11.855484,
193.645317,true,true,true,0.125,12.75,0.0,0,0,0,0.125,12.75,0.0,0,0,0,0.125,12.75,0.0,0,0,0,0.125,12.75,0.0,0,0,0,0.125,12.75,0.0,0,0,0,0.0,12.75,0.0,0,0,0,0.125,12.8,0.0,0,0,0,kReverse,kReverse,-86.94,2.22,2.25,0.03942871,-0.98327637,0.03479004,32.77,0.0,1.0,-8.070038,11.855484,
193.667435,true,true,true,0.125,12.75,0.0,0,0,0,0.125,12.75,0.0,0,0,0,0.125,12.75,0.0,0,0,0,0.125,12.75,0.0,0,0,0,0.125,12.75,0.0,0,0,0,0.0,12.75,0.0,0,0,0,0.125,12.8,0.0,0,0,0,kReverse,kReverse,-86.94,2.22,2.25,0.038391113,-0.9810791,0.03692627,32.77,0.0,0.0,-8.070038,11.855484,
193.69034200000002,true,true,true,0.125,12.75,0.0,0,0,0,0.125,12.75,0.0,0,0,0,0.125,12.75,0.0,0,0,0,0.125,12.75,0.0,0,0,0,0.125,12.75,0.0,0,0,0,0.0,12.75,0.0,0,0,0,0.125,12.8,0.0,0,0,0,kReverse,kReverse,-86.94,2.22,2.25,0.037597656,-0.9835205,0.03137207,32.77,0.0,0.0,-8.070038,11.855484,
193.71035400000002,true,true,true,0.125,12.75,0.0,0,0,0,0.125,12.75,0.0,0,0,0,0.125,12.75,0.0,0,0,0,0.125,12.75,0.0,0,0,0,0.125,12.75,0.0,0,0,0,0.0,12.75,0.0,0,0,0,0.125,12.8,0.0,0,0,0,kReverse,kReverse,-86.94,2.22,2.25,0.036376953,-0.9835205,0.03302002,32.77,0.0,-1.0,-8.070038,11.855484,
193.72496900000002,true,true,true,0.125,12.75,0.0,0,0,0,0.125,12.75,0.0,0,0,0,0.125,12.75,0.0,0,0,0,0.125,12.75,0.0,0,0,0,0.0,12.75,0.0,0,0,0,0.0,12.75,0.0,0,0,0,0.125,12.8,0.0,0,0,0,kReverse,kReverse,-86.94,2.22,2.25,0.0368042,-0.98291016,0.034179688,32.77,0.0,-1.0,-8.070038,11.855484,
193.75070300000002,true,true,true,0.125,12.75,0.0,0,0,0,0.125,12.75,0.0,0,0,0,0.125,12.75,0.0,0,0,0,0.125,12.75,0.0,0,0,0,0.0,12.75,0.0,0,0,0,0.0,12.75,0.0,0,0,0,0.125,12.8,0.0,0,0,0,kReverse,kReverse,-86.94,2.22,2.25,0.03479004,-0.9850464,0.03656006,32.77,0.0,-3.0,-8.070038,11.855484,
193.77216400000003,true,true,true,0.125,12.75,0.0,0,0,0,0.125,12.75,0.0,0,0,0,0.125,12.75,0.0,0,0,0,0.125,12.75,0.0,0,0,0,0.0,12.75,0.0,0,0,0,0.0,12.75,0.0,0,0,0,0.125,12.8,0.0,0,0,0,kReverse,kReverse,-86.94,2.22,2.25,0.03765869,-0.986084,0.03527832,32.77,0.0,0.0,-8.070038,11.855484,
193.79076,true,true,true,0.125,12.75,0.0,0,0,0,0.125,12.75,0.0,0,0,0,0.125,12.700000000000001,0.0,0,0,0,0.125,12.75,0.0,0,0,0,0.0,12.75,0.0,0,0,0,0.0,12.75,0.0,0,0,0,0.125,12.8,0.0,0,0,0,kReverse,kReverse,-86.94,2.22,2.25,0.034973145,-0.9833374,0.03717041,32.77,0.0,-3.0,-8.070038,11.855484,
193.81276300000002,true,true,true,0.125,12.75,0.0,0,0,0,0.125,12.75,0.0,0,0,0,0.125,12.700000000000001,0.0,0,0,0,0.125,12.75,0.0,0,0,0,0.0,12.75,0.0,0,0,0,0.0,12.75,0.0,0,0,0,0.125,12.8,0.0,0,0,0,kReverse,kReverse,-86.94,2.22,2.25,0.03668213,-0.98205566,0.03643799,32.77,0.0,-1.0,-8.070038,11.855484,
193.834573,true,true,true,0.125,12.75,0.0,0,0,0,0.125,12.75,0.0,0,0,0,0.125,12.700000000000001,0.0,0,0,0,0.125,12.75,0.0,0,0,0,0.0,12.75,0.0,0,0,0,0.0,12.75,0.0,0,0,0,0.125,12.8,0.0,0,0,0,kReverse,kReverse,-86.94,2.22,2.25,0.037353516,-0.98461914,0.03302002,32.77,0.0,-1.0,-8.070038,11.855484,
193.858625,true,true,true,0.125,12.75,0.0,0,0,0,0.125,12.75,0.0,0,0,0,0.125,12.700000000000001,0.0,0,0,0,0.125,12.75,0.0,0,0,0,0.0,12.75,0.0,0,0,0,0.0,12.75,0.0,0,0,0,0.125,12.8,0.0,0,0,0,kReverse,kReverse,-86.94,2.22,2.25,0.041381836,-0.9840088,0.03375244,32.77,0.0,3.0,-8.070038,11.855484,
193.879792,true,true,true,0.125,12.75,0.0,0,0,0,0.125,12.75,0.0,0,0,0,0.125,12.700000000000001,0.0,0,0,0,0.125,12.75,0.0,0,0,0,0.0,12.75,0.0,0,0,0,0.0,12.75,0.0,0,0,0,0.125,12.8,0.0,0,0,0,kReverse,kReverse,-86.94,2.22,2.25,0.037597656,-0.9819946,0.042236328,32.77,0.0,0.0,-8.070038,11.855484,
193.900125,true,true,true,0.125,12.75,0.0,0,0,0,0.125,12.75,0.0,0,0,0,0.125,12.700000000000001,0.0,0,0,0,0.125,12.75,0.0,0,0,0,0.0,12.75,0.0,0,0,0,0.0,12.75,0.0,0,0,0,0.125,12.8,0.0,0,0,0,kReverse,kReverse,-86.94,2.22,2.25,0.040527344,-0.98150635,0.036071777,32.77,0.0,2.0,-8.070038,11.855484,
193.920692,true,true,true,0.125,12.75,0.0,0,0,0,0.125,12.75,0.0,0,0,0,0.125,12.700000000000001,0.0,0,0,0,0.125,12.75,0.0,0,0,0,0.0,12.75,0.0,0,0,0,0.0,12.75,0.0,0,0,0,0.125,12.8,0.0,0,0,0,kReverse,kReverse,-86.94,2.23,2.26,0.041748047,-0.98376465,0.036499023,32.77,0.0,3.0,-8.070038,11.855484,
193.941898,true,true,true,0.125,12.75,0.0,0,0,0,0.125,12.75,0.0,0,0,0,0.125,12.700000000000001,0.0,0,0,0,0.125,12.75,0.0,0,0,0,0.0,12.75,0.0,0,0,0,0.0,12.75,0.0,0,0,0,0.125,12.8,0.0,0,0,0,kReverse,kReverse,-86.94,2.23,2.26,0.039733887,-0.9831543,0.036132812,32.76,0.0,1.0,-8.070038,11.855484,
193.97048700000002,true,true,true,0.125,12.75,0.0,0,0,0,0.125,12.75,0.0,0,0,0,0.125,12.700000000000001,0.0,0,0,0,0.125,12.75,0.0,0,0,0,0.0,12.75,0.0,0,0,0,0.0,12.75,0.0,0,0,0,0.125,12.8,0.0,0,0,0,kReverse,kReverse,-86.93,2.23,2.26,0.039245605,-0.9821167,0.027648926,32.76,0.0,0.0,-8.070038,11.855484,
193.997791,true,true,true,0.125,12.75,0.0,0,0,0,0.125,12.75,0.0,0,0,0,0.125,12.700000000000001,0.0,0,0,0,0.125,12.75,0.0,0,0,0,0.0,12.75,0.0,0,0,0,0.0,12.75,0.0,0,0,0,0.125,12.8,0.0,0,0,0,kReverse,kReverse,-86.94,2.23,2.26,0.03692627,-0.9807739,0.036743164,32.76,0.0,-1.0,-8.070038,11.855484,
194.01940900000002,true,true,true,0.125,12.75,0.0,0,0,0,0.125,12.75,0.0,0,0,0,0.125,12.700000000000001,0.0,0,0,0,0.125,12.75,0.0,0,0,0,0.0,12.75,0.0,0,0,0,0.0,12.75,0.0,0,0,0,0.125,12.8,0.0,0,0,0,kReverse,kReverse,-86.94,2.22,2.25,0.03741455,-0.98565674,0.042663574,32.76,0.0,0.0,-8.070038,11.855484,
194.04184600000002,true,true,true,0.125,12.75,0.0,0,0,0,0.125,12.75,0.0,0,0,0,0.125,12.700000000000001,0.0,0,0,0,0.125,12.75,0.0,0,0,0,0.0,12.75,0.0,0,0,0,0.0,12.75,0.0,0,0,0,0.125,12.8,0.0,0,0,0,kReverse,kReverse,-86.94,2.22,2.25,0.038757324,-0.9824829,0.037475586,32.76,0.0,0.0,-8.070038,11.855484,
194.065179,true,true,true,0.125,12.75,0.0,0,0,0,0.125,12.75,0.0,0,0,0,0.125,12.700000000000001,0.0,0,0,0,0.125,12.75,0.0,0,0,0,0.0,12.75,0.0,0,0,0,0.0,12.75,0.0,0,0,0,0.125,12.8,0.0,0,0,0,kReverse,kReverse,-86.94,2.22,2.25,0.038757324,-0.9857788,0.037353516,32.76,0.0,0.0,-8.070038,11.855484,
194.089203,true,true,true,0.125,12.75,0.0,0,0,0,0.125,12.75,0.0,0,0,0,0.125,12.700000000000001,0.0,0,0,0,0.125,12.75,0.0,0,0,0,0.0,12.75,0.0,0,0,0,0.0,12.75,0.0,0,0,0,0.125,12.8,0.0,0,0,0,kReverse,kReverse,-86.94,2.23,2.26,0.039001465,-0.98046875,0.036865234,32.76,0.0,0.0,-8.070038,11.855484,
194.11272100000002,true,true,true,0.125,12.75,0.0,0,0,0,0.125,12.75,0.0,0,0,0,0.125,12.700000000000001,0.0,0,0,0,0.125,12.75,0.0,0,0,0,0.125,12.75,0.0,0,0,0,0.0,12.75,0.0,0,0,0,0.125,12.8,0.0,0,0,0,kReverse,kReverse,-86.93,2.23,2.26,0.03869629,-0.984375,0.03753662,32.76,0.0,0.0,-8.070038,11.855484,
194.139554,true,true,true,0.125,12.75,0.0,0,0,0,0.125,12.75,0.0,0,0,0,0.125,12.700000000000001,0.0,0,0,0,0.125,12.75,0.0,0,0,0,0.125,12.75,0.0,0,0,0,0.0,12.75,0.0,0,0,0,0.125,12.8,0.0,0,0,0,kReverse,kReverse,-86.94,2.23,2.26,0.038513184,-0.98150635,0.03881836,32.76,0.0,0.0,-8.070038,11.855484,
194.16879400000002,true,true,true,0.125,12.75,0.0,0,0,0,0.125,12.75,0.0,0,0,0,0.125,12.700000000000001,0.0,0,0,0,0.125,12.75,0.0,0,0,0,0.0,12.75,0.0,0,0,0,0.0,12.75,0.0,0,0,0,0.125,12.8,0.0,0,0,0,kReverse,kReverse,-86.93,2.23,2.26,0.036865234,-0.9835205,0.033081055,32.76,0.0,-1.0,-8.070038,11.855484,
194.19769200000002,true,true,true,0.125,12.75,0.0,0,0,0,0.125,12.75,0.0,0,0,0,0.125,12.700000000000001,0.0,0,0,0,0.125,12.75,0.0,0,0,0,0.0,12.75,0.0,0,0,0,0.0,12.75,0.0,0,0,0,0.125,12.8,0.0,0,0,0,kReverse,kReverse,-86.93,2.23,2.26,0.04156494,-0.9844971,0.030822754,32.76,0.0,3.0,-8.070038,11.855484,
194.21880800000002,true,true,true,0.125,12.75,0.0,0,0,0,0.125,12.75,0.0,0,0,0,0.125,12.700000000000001,0.0,0,0,0,0.125,12.75,0.0,0,0,0,0.0,12.75,0.0,0,0,0,0.0,12.75,0.0,0,0,0,0.125,12.8,0.0,0,0,0,kReverse,kReverse,-86.93,2.24,2.27,0.036987305,-0.9828491,0.034851074,32.76,0.0,-1.0,-8.070038,11.855484,
194.241611,true,true,true,0.125,12.75,0.0,0,0,0,0.125,12.75,0.0,0,0,0,0.125,12.700000000000001,0.0,0,0,0,0.125,12.75,0.0,0,0,0,0.0,12.75,0.0,0,0,0,0.0,12.75,0.0,0,0,0,0.125,12.8,0.0,0,0,0,kReverse,kReverse,-86.93,2.24,2.27,0.042663574,-0.98101807,0.029174805,32.76,0.0,4.0,-8.070038,11.855484,
194.264255,true,true,true,0.125,12.75,0.0,0,0,0,0.125,12.75,0.0,0,0,0,0.125,12.75,0.0,0,0,0,0.125,12.75,0.0,0,0,0,0.0,12.75,0.0,0,0,0,0.0,12.75,0.0,0,0,0,0.125,12.8,0.0,0,0,0,kReverse,kReverse,-86.93,2.24,2.27,0.04156494,-0.98309326,0.036621094,32.76,0.0,3.0,-8.070038,11.855484,
194.290116,true,true,true,0.125,12.75,0.0,0,0,0,0.125,12.75,0.0,0,0,0,0.125,12.75,0.0,0,0,0,0.125,12.75,0.0,0,0,0,0.0,12.75,0.0,0,0,0,0.0,12.75,0.0,0,0,0,0.125,12.8,0.0,0,0,0,kReverse,kReverse,-86.93,2.24,2.27,0.038269043,-0.98583984,0.039855957,32.76,0.0,0.0,-8.070038,11.855484,
194.31191700000002,true,true,true,0.125,12.75,0.0,0,0,0,0.125,12.75,0.0,0,0,0,0.125,12.75,0.0,0,0,0,0.125,12.75,0.0,0,0,0,0.0,12.75,0.0,0,0,0,0.0,12.75,0.0,0,0,0,0.125,12.8,0.0,0,0,0,kReverse,kReverse,-86.93,2.24,2.27,0.038269043,-0.9819946,0.037719727,32.76,0.0,0.0,-8.070038,11.855484,
194.335465,true,true,true,0.125,12.75,0.0,0,0,0,0.125,12.75,0.0,0,0,0,0.125,12.75,0.0,0,0,0,0.125,12.75,0.0,0,0,0,0.0,12.75,0.0,0,0,0,0.0,12.75,0.0,0,0,0,0.125,12.8,0.0,0,0,0,kReverse,kReverse,-86.93,2.23,2.26,0.036499023,-0.98498535,0.035949707,32.76,0.0,-2.0,-8.070038,11.855484,
194.356483,true,true,true,0.125,12.75,0.0,0,0,0,0.125,12.75,0.0,0,0,0,0.125,12.75,0.0,0,0,0,0.125,12.75,0.0,0,0,0,0.0,12.75,0.0,0,0,0,0.0,12.75,0.0,0,0,0,0.125,12.8,0.0,0,0,0,kReverse,kReverse,-86.93,2.23,2.26,0.03692627,-0.98187256,0.03704834,32.76,0.0,-1.0,-8.070038,11.855484,
194.376722,true,true,true,0.125,12.75,0.0,0,0,0,0.125,12.75,0.0,0,0,0,0.125,12.75,0.0,0,0,0,0.125,12.75,0.0,0,0,0,0.0,12.75,0.0,0,0,0,0.0,12.75,0.0,0,0,0,0.125,12.8,0.0,0,0,0,kReverse,kReverse,-86.93,2.23,2.26,0.035949707,-0.9838867,0.038879395,32.76,0.0,-2.0,-8.070038,11.855484,
194.397736,true,true,true,0.125,12.75,0.0,0,0,0,0.125,12.75,0.0,0,0,0,0.125,12.75,0.0,0,0,0,0.125,12.75,0.0,0,0,0,0.0,12.75,0.0,0,0,0,0.0,12.75,0.0,0,0,0,0.125,12.8,0.0,0,0,0,kReverse,kReverse,-86.93,2.23,2.26,0.03656006,-0.9828491,0.02935791,32.76,0.0,-1.0,-8.070038,11.855484,
194.418328,true,true,true,0.125,12.75,0.0,0,0,0,0.125,12.75,0.0,0,0,0,0.125,12.75,0.0,0,0,0,0.125,12.75,0.0,0,0,0,0.0,12.75,0.0,0,0,0,0.0,12.75,0.0,0,0,0,0.125,12.8,0.0,0,0,0,kReverse,kReverse,-86.93,2.23,2.26,0.03466797,-0.9804077,0.03894043,32.76,0.0,-3.0,-8.070038,11.855484,
194.43989200000001,true,true,true,0.125,12.75,0.0,0,0,0,0.125,12.75,0.0,0,0,0,0.125,12.75,0.0,0,0,0,0.125,12.75,0.0,0,0,0,0.0,12.75,0.0,0,0,0,0.0,12.75,0.0,0,0,0,0.125,12.8,0.0,0,0,0,kReverse,kReverse,-86.93,2.23,2.26,0.036315918,-0.9841919,0.040161133,32.76,0.0,-2.0,-8.070038,11.855484,
194.45806,true,true,true,0.125,12.75,0.0,0,0,0,0.125,12.75,0.0,0,0,0,0.125,12.75,0.0,0,0,0,0.125,12.75,0.0,0,0,0,0.0,12.75,0.0,0,0,0,0.0,12.75,0.0,0,0,0,0.125,12.8,0.0,0,0,0,kReverse,kReverse,-86.93,2.23,2.26,0.041992188,-0.9838257,0.0289917,32.75,0.0,3.0,-8.070038,11.855484,
194.479037,true,true,true,0.125,12.75,0.0,0,0,0,0.125,12.75,0.0,0,0,0,0.125,12.75,0.0,0,0,0,0.125,12.75,0.0,0,0,0,0.0,12.75,0.0,0,0,0,0.0,12.75,0.0,0,0,0,0.125,12.8,0.0,0,0,0,kReverse,kReverse,-86.93,2.23,2.26,0.042053223,-0.98321533,0.030700684,32.75,0.0,3.0,-8.070038,11.855484,
194.50062000000003,true,true,true,0.125,12.75,0.0,0,0,0,0.125,12.75,0.0,0,0,0,0.125,12.75,0.0,0,0,0,0.125,12.75,0.0,0,0,0,0.125,12.75,0.0,0,0,0,0.0,12.75,0.0,0,0,0,0.125,12.8,0.0,0,0,0,kReverse,kReverse,-86.93,2.24,2.27,0.039794922,-0.9819336,0.033203125,32.75,0.0,1.0,-8.070038,11.855484,
194.521339,true,true,true,0.125,12.75,0.0,0,0,0,0.125,12.75,0.0,0,0,0,0.125,12.75,0.0,0,0,0,0.125,12.75,0.0,0,0,0,0.125,12.75,0.0,0,0,0,0.0,12.75,0.0,0,0,0,0.125,12.8,0.0,0,0,0,kReverse,kReverse,-86.93,2.24,2.27,0.039794922,-0.9819336,0.033203125,32.75,0.0,1.0,-8.070038,11.855484,
194.54281,true,true,true,0.125,12.75,0.0,0,0,0,0.125,12.75,0.0,0,0,0,0.125,12.75,0.0,0,0,0,0.125,12.75,0.0,0,0,0,0.0,12.75,0.0,0,0,0,0.0,12.75,0.0,0,0,0,0.125,12.8,0.0,0,0,0,kReverse,kReverse,-86.93,2.24,2.27,0.03942871,-0.986145,0.036621094,32.75,0.0,0.0,-8.070038,11.855484,
194.568353,true,true,true,0.125,12.75,0.0,0,0,0,0.125,12.75,0.0,0,0,0,0.125,12.75,0.0,0,0,0,0.125,12.75,0.0,0,0,0,0.0,12.75,0.0,0,0,0,0.0,12.75,0.0,0,0,0,0.125,12.8,0.0,0,0,0,kReverse,kReverse,-86.93,2.24,2.27,0.039978027,-0.9840698,0.03466797,32.75,0.0,1.0,-8.070038,11.855484,
194.591528,true,true,true,0.125,12.75,0.0,0,0,0,0.125,12.75,0.0,0,0,0,0.125,12.75,0.0,0,0,0,0.125,12.75,0.0,0,0,0,0.0,12.75,0.0,0,0,0,0.0,12.75,0.0,0,0,0,0.125,12.8,0.0,0,0,0,kReverse,kReverse,-86.93,2.24,2.27,0.033996582,-0.9831543,0.03894043,32.75,0.0,-4.0,-8.070038,11.855484,
194.614317,true,true,true,0.125,12.75,0.0,0,0,0,0.125,12.75,0.0,0,0,0,0.125,12.75,0.0,0,0,0,0.125,12.75,0.0,0,0,0,0.0,12.75,0.0,0,0,0,0.0,12.75,0.0,0,0,0,0.125,12.8,0.0,0,0,0,kReverse,kReverse,-86.93,2.23,2.26,0.03466797,-0.98327637,0.041381836,32.75,0.0,-3.0,-8.070038,11.855484,
194.635086,true,true,true,0.125,12.75,0.0,0,0,0,0.125,12.75,0.0,0,0,0,0.125,12.75,0.0,0,0,0,0.125,12.75,0.0,0,0,0,0.0,12.75,0.0,0,0,0,0.0,12.75,0.0,0,0,0,0.125,12.8,0.0,0,0,0,kReverse,kReverse,-86.93,2.23,2.26,0.032714844,-0.98272705,0.03491211,32.75,0.0,-5.0,-8.070038,11.855484,
194.653662,true,true,true,0.125,12.75,0.0,0,0,0,0.125,12.75,0.0,0,0,0,0.125,12.75,0.0,0,0,0,0.125,12.75,0.0,0,0,0,0.0,12.75,0.0,0,0,0,0.0,12.75,0.0,0,0,0,0.125,12.8,0.0,0,0,0,kReverse,kReverse,-86.94,2.22,2.25,0.034362793,-0.9831543,0.03338623,32.75,0.0,-3.0,-8.070038,11.855484,
194.67793400000002,true,true,true,0.125,12.75,0.0,0,0,0,0.125,12.75,0.0,0,0,0,0.125,12.75,0.0,0,0,0,0.125,12.75,0.0,0,0,0,0.125,12.75,0.0,0,0,0,0.0,12.75,0.0,0,0,0,0.125,12.8,0.0,0,0,0,kReverse,kReverse,-86.93,2.23,2.26,0.036865234,-0.9821167,0.032409668,32.75,0.0,-1.0,-8.070038,11.855484,
194.698876,true,true,true,0.125,12.75,0.0,0,0,0,0.125,12.75,0.0,0,0,0,0.125,12.75,0.0,0,0,0,0.125,12.75,0.0,0,0,0,0.125,12.75,0.0,0,0,0,0.0,12.75,0.0,0,0,0,0.125,12.8,0.0,0,0,0,kReverse,kReverse,-86.93,2.23,2.26,0.035949707,-0.9831543,0.033935547,32.75,0.0,-2.0,-8.070038,11.855484,
194.71942500000003,true,true,true,0.125,12.75,0.0,0,0,0,0.125,12.75,0.0,0,0,0,0.125,12.75,0.0,0,0,0,0.125,12.75,0.0,0,0,0,0.0,12.75,0.0,0,0,0,0.0,12.75,0.0,0,0,0,0.125,12.8,0.0,0,0,0,kReverse,kReverse,-86.94,2.23,2.26,0.035949707,-0.982666,0.032226562,32.75,0.0,-2.0,-8.070038,11.855484,
194.740969,true,true,true,0.125,12.75,0.0,0,0,0,0.125,12.75,0.0,0,0,0,0.125,12.700000000000001,0.0,0,0,0,0.125,12.75,0.0,0,0,0,0.0,12.75,0.0,0,0,0,0.0,12.700000000000001,0.0,0,0,0,0.125,12.8,0.0,0,0,0,kReverse,kReverse,-86.94,2.23,2.26,0.040649414,-0.9850464,0.035888672,32.75,0.0,2.0,-8.070038,11.855484,
194.76128500000002,true,true,true,0.125,12.75,0.0,0,0,0,0.125,12.75,0.0,0,0,0,0.125,12.700000000000001,0.0,0,0,0,0.125,12.75,0.0,0,0,0,0.0,12.75,0.0,0,0,0,0.0,12.700000000000001,0.0,0,0,0,0.125,12.8,0.0,0,0,0,kReverse,kReverse,-86.93,2.23,2.26,0.041870117,-0.9827881,0.036743164,32.75,0.0,3.0,-8.070038,11.855484,
194.779965,true,true,true,0.125,12.75,0.0,0,0,0,0.125,12.75,0.0,0,0,0,0.125,12.700000000000001,0.0,0,0,0,0.125,12.75,0.0,0,0,0,0.0,12.75,0.0,0,0,0,0.0,12.700000000000001,0.0,0,0,0,0.125,12.8,0.0,0,0,0,kReverse,kReverse,-86.93,2.23,2.26,0.038330078,-0.98223877,0.03845215,32.75,0.0,0.0,-8.070038,11.855484,
194.80051400000002,true,true,true,0.125,12.75,0.0,0,0,0,0.125,12.75,0.0,0,0,0,0.125,12.700000000000001,0.0,0,0,0,0.125,12.75,0.0,0,0,0,0.0,12.75,0.0,0,0,0,0.0,12.700000000000001,0.0,0,0,0,0.125,12.8,0.0,0,0,0,kReverse,kReverse,-86.94,2.23,2.26,0.035888672,-0.9833374,0.034973145,32.75,0.0,-2.0,-8.070038,11.855484,
194.825914,true,true,true,0.125,12.75,0.0,0,0,0,0.125,12.75,0.0,0,0,0,0.125,12.700000000000001,0.0,0,0,0,0.125,12.75,0.0,0,0,0,0.0,12.75,0.0,0,0,0,0.0,12.700000000000001,0.0,0,0,0,0.125,12.8,0.0,0,0,0,kReverse,kReverse,-86.94,2.23,2.26,0.04095459,-0.9842529,0.033813477,32.75,0.0,2.0,-8.070038,11.855484,
194.849,true,true,true,0.125,12.75,0.0,0,0,0,0.125,12.75,0.0,0,0,0,0.125,12.700000000000001,0.0,0,0,0,0.125,12.75,0.0,0,0,0,0.0,12.75,0.0,0,0,0,0.0,12.700000000000001,0.0,0,0,0,0.125,12.8,0.0,0,0,0,kReverse,kReverse,-86.93,2.23,2.26,0.037475586,-0.97991943,0.04260254,32.75,0.0,0.0,-8.070038,11.855484,
194.87286600000002,true,true,true,0.125,12.75,0.0,0,0,0,0.125,12.75,0.0,0,0,0,0.125,12.700000000000001,0.0,0,0,0,0.125,12.75,0.0,0,0,0,0.125,12.75,0.0,0,0,0,0.0,12.700000000000001,0.0,0,0,0,0.125,12.8,0.0,0,0,0,kReverse,kReverse,-86.93,2.23,2.26,0.037231445,-0.98291016,0.02758789,32.75,0.0,-1.0,-8.070038,11.855484,
194.89569600000002,true,true,true,0.125,12.75,0.0,0,0,0,0.125,12.75,0.0,0,0,0,0.125,12.700000000000001,0.0,0,0,0,0.125,12.75,0.0,0,0,0,0.0,12.75,0.0,0,0,0,0.0,12.700000000000001,0.0,0,0,0,0.125,12.8,0.0,0,0,0,kReverse,kReverse,-86.94,2.23,2.26,0.041625977,-0.98547363,0.036071777,32.75,0.0,3.0,-8.070038,11.855484,
194.917234,true,true,true,0.125,12.75,0.0,0,0,0,0.125,12.75,0.0,0,0,0,0.125,12.75,0.0,0,0,0,0.125,12.75,0.0,0,0,0,0.0,12.75,0.0,0,0,0,0.0,12.75,0.0,0,0,0,0.125,12.8,0.0,0,0,0,kReverse,kReverse,-86.93,2.24,2.27,0.045288086,-0.9859619,0.038391113,32.75,0.0,6.0,-8.070038,11.855484,
194.94072,true,true,true,0.125,12.75,0.0,0,0,0,0.125,12.75,0.0,0,0,0,0.125,12.75,0.0,0,0,0,0.125,12.75,0.0,0,0,0,0.0,12.75,0.0,0,0,0,0.0,12.75,0.0,0,0,0,0.125,12.8,0.0,0,0,0,kReverse,kReverse,-86.93,2.24,2.27,0.040222168,-0.984375,0.035217285,32.75,0.0,1.0,-8.070038,11.855484,
194.961792,true,true,true,0.125,12.75,0.0,0,0,0,0.125,12.75,0.0,0,0,0,0.125,12.75,0.0,0,0,0,0.125,12.75,0.0,0,0,0,0.0,12.75,0.0,0,0,0,0.0,12.75,0.0,0,0,0,0.125,12.8,0.0,0,0,0,kReverse,kReverse,-86.93,2.24,2.27,0.042175293,-0.98083496,0.035339355,32.74,0.0,3.0,-8.070038,11.855484,
194.983391,true,true,true,0.125,12.75,0.0,0,0,0,0.125,12.75,0.0,0,0,0,0.125,12.75,0.0,0,0,0,0.125,12.75,0.0,0,0,0,0.0,12.75,0.0,0,0,0,0.0,12.75,0.0,0,0,0,0.125,12.8,0.0,0,0,0,kReverse,kReverse,-86.92,2.25,2.28,0.04119873,-0.979187,0.030517578,32.74,0.0,2.0,-8.070038,11.855484,
195.009018,true,true,true,0.125,12.75,0.0,0,0,0,0.125,12.75,0.0,0,0,0,0.125,12.75,0.0,0,0,0,0.125,12.75,0.0,0,0,0,0.0,12.75,0.0,0,0,0,0.0,12.75,0.0,0,0,0,0.125,12.8,0.0,0,0,0,kReverse,kReverse,-86.93,2.24,2.27,0.04071045,-0.98187256,0.04107666,32.74,0.0,2.0,-8.070038,11.855484,
195.03406300000003,true,true,true,0.125,12.75,0.0,0,0,0,0.125,12.75,0.0,0,0,0,0.125,12.75,0.0,0,0,0,0.125,12.75,0.0,0,0,0,0.125,12.75,0.0,0,0,0,0.0,12.75,0.0,0,0,0,0.125,12.8,0.0,0,0,0,kReverse,kReverse,-86.93,2.24,2.27,0.03857422,-0.9785156,0.042419434,32.74,0.0,0.0,-8.070038,11.855484,
195.056372,true,true,true,0.125,12.75,0.0,0,0,0,0.125,12.75,0.0,0,0,0,0.125,12.75,0.0,0,0,0,0.125,12.75,0.0,0,0,0,0.0,12.75,0.0,0,0,0,0.0,12.75,0.0,0,0,0,0.125,12.8,0.0,0,0,0,kReverse,kReverse,-86.93,2.23,2.26,0.03515625,-0.9822998,0.034973145,32.74,0.0,-3.0,-8.070038,11.855484,
195.07948000000002,true,true,true,0.125,12.75,0.0,0,0,0,0.125,12.75,0.0,0,0,0,0.125,12.700000000000001,0.0,0,0,0,0.125,12.75,0.0,0,0,0,0.0,12.75,0.0,0,0,0,0.0,12.75,0.0,0,0,0,0.125,12.8,0.0,0,0,0,kReverse,kReverse,-86.94,2.22,2.25,0.033691406,-0.98358154,0.04168701,32.74,0.0,-4.0,-8.070038,11.855484,
195.100258,true,true,true,0.125,12.75,0.0,0,0,0,0.125,12.75,0.0,0,0,0,0.125,12.700000000000001,0.0,0,0,0,0.125,12.75,0.0,0,0,0,0.0,12.75,0.0,0,0,0,0.0,12.75,0.0,0,0,0,0.125,12.8,0.0,0,0,0,kReverse,kReverse,-86.94,2.21,2.24,0.036010742,-0.9829712,0.03125,32.74,0.0,-2.0,-8.070038,11.855484,
195.12222900000003,true,true,true,0.125,12.75,0.0,0,0,0,0.125,12.75,0.0,0,0,0,0.125,12.700000000000001,0.0,0,0,0,0.125,12.75,0.0,0,0,0,0.0,12.75,0.0,0,0,0,0.0,12.75,0.0,0,0,0,0.125,12.8,0.0,0,0,0,kReverse,kReverse,-86.94,2.22,2.25,0.03930664,-0.9885254,0.03277588,32.74,0.0,0.0,-8.070038,11.855484,
195.146728,true,true,true,0.125,12.75,0.0,0,0,0,0.125,12.75,0.0,0,0,0,0.125,12.700000000000001,0.0,0,0,0,0.125,12.75,0.0,0,0,0,0.0,12.75,0.0,0,0,0,0.0,12.75,0.0,0,0,0,0.125,12.8,0.0,0,0,0,kReverse,kReverse,-86.93,2.22,2.25,0.041381836,-0.98583984,0.040283203,32.74,0.0,3.0,-8.070038,11.855484,
195.171071,true,true,true,0.125,12.75,0.0,0,0,0,0.125,12.75,0.0,0,0,0,0.125,12.700000000000001,0.0,0,0,0,0.125,12.75,0.0,0,0,0,0.0,12.75,0.0,0,0,0,0.0,12.75,0.0,0,0,0,0.125,12.8,0.0,0,0,0,kReverse,kReverse,-86.93,2.24,2.27,0.041748047,-0.9797363,0.027160645,32.74,0.0,3.0,-8.070038,11.855484,
195.19090800000004,true,true,true,0.125,12.75,0.0,0,0,0,0.125,12.75,0.0,0,0,0,0.125,12.700000000000001,0.0,0,0,0,0.125,12.75,0.0,0,0,0,0.125,12.75,0.0,0,0,0,0.0,12.75,0.0,0,0,0,0.125,12.8,0.0,0,0,0,kReverse,kReverse,-86.93,2.24,2.27,0.03741455,-0.98236084,0.03186035,32.74,0.0,-1.0,-8.070038,11.855484,
195.214538,true,true,true,0.125,12.75,0.0,0,0,0,0.125,12.75,0.0,0,0,0,0.125,12.700000000000001,0.0,0,0,0,0.125,12.75,0.0,0,0,0,0.0,12.75,0.0,0,0,0,0.0,12.75,0.0,0,0,0,0.125,12.8,0.0,0,0,0,kReverse,kReverse,-86.93,2.24,2.27,0.044128418,-0.98132324,0.040893555,32.74,0.0,5.0,-8.070038,11.855484,
195.237079,true,true,true,0.125,12.75,0.0,0,0,0,0.125,12.75,0.0,0,0,0,0.125,12.700000000000001,0.0,0,0,0,0.125,12.75,0.0,0,0,0,0.0,12.75,0.0,0,0,0,0.0,12.75,0.0,0,0,0,0.125,12.8,0.0,0,0,0,kReverse,kReverse,-86.92,2.24,2.27,0.040649414,-0.9812012,0.03564453,32.74,0.0,2.0,-8.070038,11.855484,
195.271266,true,true,true,0.125,12.75,0.0,0,0,0,0.125,12.75,0.0,0,0,0,0.125,12.700000000000001,0.0,0,0,0,0.125,12.75,0.0,0,0,0,0.0,12.75,0.0,0,0,0,0.0,12.75,0.0,0,0,0,0.125,12.8,0.0,0,0,0,kReverse,kReverse,-86.94,2.23,2.26,0.038269043,-0.9851074,0.035461426,32.74,0.0,0.0,-8.070038,11.855484,
195.29638200000002,true,true,true,0.125,12.75,0.0,0,0,0,0.125,12.75,0.0,0,0,0,0.125,12.700000000000001,0.0,0,0,0,0.125,12.75,0.0,0,0,0,0.0,12.75,0.0,0,0,0,0.0,12.75,0.0,0,0,0,0.125,12.8,0.0,0,0,0,kReverse,kReverse,-86.94,2.23,2.26,0.035949707,-0.98687744,0.041931152,32.74,0.0,-2.0,-8.070038,11.855484,
195.317209,true,true,true,0.125,12.75,0.0,0,0,0,0.125,12.75,0.0,0,0,0,0.125,12.700000000000001,0.0,0,0,0,0.125,12.75,0.0,0,0,0,0.0,12.75,0.0,0,0,0,0.0,12.75,0.0,0,0,0,0.125,12.8,0.0,0,0,0,kReverse,kReverse,-86.94,2.23,2.26,0.032287598,-0.98376465,0.037719727,32.74,0.0,-6.0,-8.070038,11.855484,
195.33776400000002,true,true,true,0.125,12.75,0.0,0,0,0,0.125,12.75,0.0,0,0,0,0.125,12.700000000000001,0.0,0,0,0,0.125,12.75,0.0,0,0,0,0.0,12.75,0.0,0,0,0,0.0,12.75,0.0,0,0,0,0.125,12.8,0.0,0,0,0,kReverse,kReverse,-86.94,2.22,2.25,0.03363037,-0.9824829,0.036743164,32.74,0.0,-4.0,-8.070038,11.855484,
195.35925100000003,true,true,true,0.125,12.75,0.0,0,0,0,0.125,12.75,0.0,0,0,0,0.125,12.700000000000001,0.0,0,0,0,0.125,12.75,0.0,0,0,0,0.125,12.75,0.0,0,0,0,0.0,12.75,0.0,0,0,0,0.125,12.8,0.0,0,0,0,kReverse,kReverse,-86.94,2.22,2.25,0.035583496,-0.9801636,0.033813477,32.74,0.0,-2.0,-8.070038,11.855484,
195.379761,true,true,true,0.125,12.75,0.0,0,0,0,0.125,12.75,0.0,0,0,0,0.125,12.75,0.0,0,0,0,0.125,12.75,0.0,0,0,0,0.125,12.75,0.0,0,0,0,0.0,12.75,0.0,0,0,0,0.125,12.8,0.0,0,0,0,kReverse,kReverse,-86.94,2.22,2.25,0.040649414,-0.9851074,0.053222656,32.74,0.0,2.0,-8.070038,11.855484,
195.397027,true,true,true,0.125,12.75,0.0,0,0,0,0.125,12.75,0.0,0,0,0,0.125,12.75,0.0,0,0,0,0.125,12.75,0.0,0,0,0,0.125,12.75,0.0,0,0,0,0.0,12.75,0.0,0,0,0,0.125,12.8,0.0,0,0,0,kReverse,kReverse,-86.94,2.22,2.25,0.036193848,-0.9830322,0.033813477,32.74,0.0,-2.0,-8.070038,11.855484,
195.418336,true,true,true,0.125,12.75,0.0,0,0,0,0.125,12.75,0.0,0,0,0,0.125,12.75,0.0,0,0,0,0.125,12.75,0.0,0,0,0,0.125,12.75,0.0,0,0,0,0.0,12.75,0.0,0,0,0,0.125,12.8,0.0,0,0,0,kReverse,kReverse,-86.94,2.22,2.25,0.038146973,-0.987854,0.036132812,32.74,0.0,0.0,-8.070038,11.855484,
195.439247,true,true,true,0.125,12.75,0.0,0,0,0,0.125,12.75,0.0,0,0,0,0.125,12.75,0.0,0,0,0,0.125,12.75,0.0,0,0,0,0.125,12.75,0.0,0,0,0,0.0,12.75,0.0,0,0,0,0.125,12.8,0.0,0,0,0,kReverse,kReverse,-86.94,2.24,2.27,0.043395996,-0.9815674,0.016540527,32.74,0.0,4.0,-8.070038,11.855484,
195.460475,true,true,true,0.125,12.75,0.0,0,0,0,0.125,12.75,0.0,0,0,0,0.125,12.75,0.0,0,0,0,0.125,12.75,0.0,0,0,0,0.125,12.75,0.0,0,0,0,0.0,12.75,0.0,0,0,0,0.125,12.8,0.0,0,0,0,kReverse,kReverse,-86.94,2.24,2.27,0.046203613,-0.9765625,0.04095459,32.74,0.0,7.0,-8.070038,11.855484,
195.49055200000004,true,true,true,0.125,12.75,0.0,0,0,0,0.125,12.75,0.0,0,0,0,0.125,12.75,0.0,0,0,0,0.125,12.75,0.0,0,0,0,0.125,12.75,0.0,0,0,0,0.0,12.75,0.0,0,0,0,0.125,12.8,0.0,0,0,0,kReverse,kReverse,-86.92,2.25,2.28,0.038635254,-0.98205566,0.03918457,32.75,0.0,0.0,-8.070038,11.855484,
195.514227,true,true,true,0.125,12.75,0.0,0,0,0,0.125,12.75,0.0,0,0,0,0.125,12.75,0.0,0,0,0,0.125,12.75,0.0,0,0,0,0.0,12.75,0.0,0,0,0,0.0,12.75,0.0,0,0,0,0.125,12.8,0.0,0,0,0,kReverse,kReverse,-86.93,2.24,2.27,0.038513184,-0.9803467,0.024047852,32.75,0.0,0.0,-8.070038,11.855484,
195.535748,true,true,true,0.125,12.75,0.0,0,0,0,0.125,12.75,0.0,0,0,0,0.125,12.75,0.0,0,0,0,0.125,12.75,0.0,0,0,0,0.0,12.75,0.0,0,0,0,0.0,12.75,0.0,0,0,0,0.125,12.8,0.0,0,0,0,kReverse,kReverse,-86.94,2.23,2.26,0.030822754,-0.98651123,0.02508545,32.75,0.0,-7.0,-8.070038,11.855484,
195.55688400000003,true,true,true,0.125,12.75,0.0,0,0,0,0.125,12.75,0.0,0,0,0,0.125,12.700000000000001,0.0,0,0,0,0.125,12.75,0.0,0,0,0,0.0,12.75,0.0,0,0,0,0.0,12.700000000000001,0.0,0,0,0,0.125,12.8,0.0,0,0,0,kReverse,kReverse,-86.94,2.22,2.25,0.039916992,-0.98565674,0.049987793,32.75,0.0,1.0,-8.070038,11.855484,
195.577874,true,true,true,0.125,12.75,0.0,0,0,0,0.125,12.75,0.0,0,0,0,0.125,12.700000000000001,0.0,0,0,0,0.125,12.75,0.0,0,0,0,0.0,12.75,0.0,0,0,0,0.0,12.700000000000001,0.0,0,0,0,0.125,12.8,0.0,0,0,0,kReverse,kReverse,-86.94,2.22,2.25,0.032104492,-0.9859009,0.0345459,32.75,0.0,-6.0,-8.070038,11.855484,
195.598318,true,true,true,0.125,12.75,0.0,0,0,0,0.125,12.75,0.0,0,0,0,0.125,12.700000000000001,0.0,0,0,0,0.125,12.75,0.0,0,0,0,0.0,12.75,0.0,0,0,0,0.0,12.700000000000001,0.0,0,0,0,0.125,12.8,0.0,0,0,0,kReverse,kReverse,-86.94,2.22,2.25,0.03552246,-0.9849243,0.03112793,32.75,0.0,-2.0,-8.070038,11.855484,
195.620435,true,true,true,0.125,12.75,0.0,0,0,0,0.125,12.75,0.0,0,0,0,0.125,12.700000000000001,0.0,0,0,0,0.125,12.75,0.0,0,0,0,0.125,12.75,0.0,0,0,0,0.0,12.700000000000001,0.0,0,0,0,0.125,12.8,0.0,0,0,0,kReverse,kReverse,-86.94,2.22,2.25,0.031677246,-0.98516846,0.039794922,32.75,0.0,-6.0,-8.070038,11.855484,
195.64435,true,true,true,0.125,12.75,0.0,0,0,0,0.125,12.75,0.0,0,0,0,0.125,12.700000000000001,0.0,0,0,0,0.125,12.75,0.0,0,0,0,0.125,12.75,0.0,0,0,0,0.0,12.700000000000001,0.0,0,0,0,0.125,12.8,0.0,0,0,0,kReverse,kReverse,-86.93,2.22,2.25,0.038635254,-0.98132324,0.039245605,32.75,0.0,0.0,-8.070038,11.855484,
195.669618,true,true,true,0.125,12.75,0.0,0,0,0,0.125,12.75,0.0,0,0,0,0.125,12.700000000000001,0.0,0,0,0,0.125,12.75,0.0,0,0,0,0.0,12.75,0.0,0,0,0,0.0,12.700000000000001,0.0,0,0,0,0.125,12.8,0.0,0,0,0,kOff,kReverse,-86.93,2.22,2.25,0.038635254,-0.98132324,0.039245605,32.75,0.0,0.0,-8.070038,11.855484,
195.69496,true,true,true,0.125,12.75,0.0,0,0,0,0.125,12.75,0.0,0,0,0,0.125,12.700000000000001,0.0,0,0,0,0.125,12.75,0.0,0,0,0,0.0,12.75,0.0,0,0,0,0.0,12.700000000000001,0.0,0,0,0,0.125,12.8,0.0,0,0,0,kForward,kReverse,-86.94,2.23,2.26,0.04309082,-0.9956665,0.02960205,32.75,0.0,4.0,-8.070038,11.855484,
195.71600600000002,true,true,true,0.125,12.75,0.0,0,0,0,0.125,12.75,0.0,0,0,0,0.125,12.700000000000001,0.0,0,0,0,0.125,12.75,0.0,0,0,0,0.0,12.75,0.0,0,0,0,0.0,12.75,0.0,0,0,0,0.125,12.8,0.0,0,0,0,kForward,kReverse,-86.94,2.23,2.26,0.04309082,-0.9956665,0.02960205,32.75,0.0,4.0,-8.070038,11.855484,
195.736355,true,true,true,0.125,12.75,0.0,0,0,0,0.125,12.75,0.0,0,0,0,0.125,12.700000000000001,0.0,0,0,0,0.125,12.75,0.0,0,0,0,0.0,12.75,0.0,0,0,0,0.0,12.75,0.0,0,0,0,0.0,12.8,0.0,0,0,0,kForward,kReverse,-86.93,2.24,2.27,0.05053711,-0.9864502,0.07824707,32.75,0.0,12.0,-8.070038,11.855438,
195.756815,true,true,true,0.125,12.75,0.0,0,0,0,0.125,12.75,0.0,0,0,0,0.125,12.700000000000001,0.0,0,0,0,0.125,12.75,0.0,0,0,0,0.0,12.75,0.0,0,0,0,0.0,12.75,0.0,0,0,0,0.0,12.8,0.0,0,0,0,kForward,kReverse,-86.93,2.24,2.27,0.040161133,-0.9817505,0.05218506,32.75,0.0,1.0,-8.070038,11.8554535,
195.77908200000002,true,true,true,0.125,12.75,0.0,0,0,0,0.125,12.75,0.0,0,0,0,0.125,12.700000000000001,0.0,0,0,0,0.125,12.75,0.0,0,0,0,0.0,12.75,0.0,0,0,0,0.0,12.75,0.0,0,0,0,0.125,12.8,0.0,0,0,0,kForward,kReverse,-86.94,2.23,2.26,0.036071777,-0.9050293,0.05291748,32.75,0.0,0.0,-8.070038,11.855484,
195.80053400000003,true,true,true,0.125,12.75,0.0,0,0,0,0.125,12.75,0.0,0,0,0,0.125,12.700000000000001,0.0,0,0,0,0.125,12.75,0.0,0,0,0,0.0,12.75,0.0,0,0,0,0.0,12.75,0.0,0,0,0,0.125,12.8,0.0,0,0,0,kForward,kReverse,-86.94,2.23,2.26,0.023803711,-0.8776245,0.040527344,32.75,0.0,-10.0,-8.070038,11.85553,
195.82312000000002,true,true,true,0.125,12.75,0.0,0,0,0,0.125,12.75,0.0,0,0,0,0.125,12.700000000000001,0.0,0,0,0,0.125,12.75,0.0,0,0,0,0.0,12.75,0.0,0,0,0,0.0,12.75,0.0,0,0,0,0.125,12.8,0.0,0,0,0,kForward,kReverse,-86.94,2.21,2.24,0.057006836,-0.92004395,0.097717285,32.75,0.0,22.0,-8.070007,11.85585,
195.846515,true,true,true,0.125,12.75,0.0,0,0,0,0.125,12.75,0.0,0,0,0,0.125,12.700000000000001,0.0,0,0,0,0.125,12.75,0.0,0,0,0,0.125,12.75,0.0,0,0,0,0.0,12.75,0.0,0,0,0,0.125,12.8,0.0,0,0,0,kForward,kReverse,-86.93,2.21,2.24,0.030639648,-0.9749756,0.035949707,32.75,0.0,-7.0,-8.069977,11.85611,
195.870848,true,true,true,0.125,12.75,0.0,0,0,0,0.125,12.75,0.0,0,0,0,0.125,12.700000000000001,0.0,0,0,0,0.125,12.75,0.0,0,0,0,0.125,12.75,0.0,0,0,0,0.0,12.75,0.0,0,0,0,0.125,12.8,0.0,0,0,0,kForward,kReverse,-86.94,2.2,2.23,0.035827637,-0.9760742,0.019226074,32.75,0.0,-2.0,-8.069931,11.85611,
195.895194,true,true,true,0.125,12.75,0.0,0,0,0,0.125,12.75,0.0,0,0,0,0.125,12.700000000000001,0.0,0,0,0,0.125,12.75,0.0,0,0,0,0.0,12.75,0.0,0,0,0,0.0,12.75,0.0,0,0,0,0.125,12.8,0.0,0,0,0,kForward,kReverse,-86.95,2.19,2.22,0.054138184,-0.979187,0.053100586,32.75,0.0,16.0,-8.069931,11.85611,
195.91365100000002,true,true,true,0.125,12.75,0.0,0,0,0,0.125,12.75,0.0,0,0,0,0.125,12.700000000000001,0.0,0,0,0,0.125,12.75,0.0,0,0,0,0.0,12.75,0.0,0,0,0,0.0,12.75,0.0,0,0,0,0.125,12.8,0.0,0,0,0,kForward,kReverse,-86.94,2.2,2.23,0.045959473,-0.9800415,0.043518066,32.75,0.0,8.0,-8.069931,11.85611,
195.934584,true,true,true,0.125,12.75,0.0,0,0,0,0.125,12.75,0.0,0,0,0,0.125,12.700000000000001,0.0,0,0,0,0.125,12.75,0.0,0,0,0,0.0,12.75,0.0,0,0,0,0.0,12.75,0.0,0,0,0,0.125,12.8,0.0,0,0,0,kForward,kReverse,-86.92,2.22,2.25,0.040893555,-0.97180176,-0.01977539,32.75,0.0,2.0,-8.069931,11.856079,
195.955858,true,true,true,0.125,12.75,0.0,0,0,0,0.125,12.75,0.0,0,0,0,0.125,12.700000000000001,0.0,0,0,0,0.125,12.75,0.0,0,0,0,0.0,12.75,0.0,0,0,0,0.0,12.75,0.0,0,0,0,0.125,12.8,0.0,0,0,0,kForward,kReverse,-86.93,2.22,2.25,0.022644043,-0.99871826,0.02758789,32.75,0.0,-16.0,-8.069931,11.856003,
195.97777000000002,true,true,true,0.125,12.75,0.0,0,0,0,0.125,12.75,0.0,0,0,0,0.125,12.700000000000001,0.0,0,0,0,0.125,12.75,0.0,0,0,0,0.0,12.75,0.0,0,0,0,0.0,12.75,0.0,0,0,0,0.125,12.8,0.0,0,0,0,kForward,kReverse,-86.93,2.22,2.25,0.043151855,-0.9718628,0.0234375,32.75,0.0,5.0,-8.069931,11.855911,
195.998645,true,true,true,0.125,12.75,0.0,0,0,0,0.125,12.75,0.0,0,0,0,0.125,12.700000000000001,0.0,0,0,0,0.125,12.75,0.0,0,0,0,0.0,12.75,0.0,0,0,0,0.0,12.75,0.0,0,0,0,0.125,12.8,0.0,0,0,0,kForward,kReverse,-86.92,2.22,2.25,0.04309082,-0.97198486,0.032104492,32.74,0.0,5.0,-8.069931,11.8559265,
196.02082000000001,true,true,true,0.125,12.75,0.0,0,0,0,0.125,12.75,0.0,0,0,0,0.125,12.700000000000001,0.0,0,0,0,0.125,12.75,0.0,0,0,0,0.0,12.75,0.0,0,0,0,0.0,12.75,0.0,0,0,0,0.125,12.8,0.0,0,0,0,kForward,kReverse,-86.93,2.22,2.25,0.044921875,-0.9779053,0.04888916,32.74,0.0,7.0,-8.069931,11.855957,
196.041755,true,true,true,0.125,12.75,0.0,0,0,0,0.125,12.75,0.0,0,0,0,0.125,12.700000000000001,0.0,0,0,0,0.125,12.75,0.0,0,0,0,0.0,12.75,0.0,0,0,0,0.0,12.75,0.0,0,0,0,0.125,12.8,0.0,0,0,0,kForward,kReverse,-86.92,2.22,2.25,0.036865234,-0.98046875,0.047729492,32.74,0.0,-1.0,-8.069931,11.855957,
196.06486800000002,true,true,true,0.125,12.75,0.0,0,0,0,0.125,12.75,0.0,0,0,0,0.125,12.700000000000001,0.0,0,0,0,0.125,12.75,0.0,0,0,0,0.0,12.75,0.0,0,0,0,0.0,12.75,0.0,0,0,0,0.125,12.8,0.0,0,0,0,kForward,kReverse,-86.94,2.21,2.24,0.041381836,-0.9819336,0.047851562,32.74,0.0,3.0,-8.069931,11.8559265,
196.08828400000002,true,true,true,0.125,12.75,0.0,0,0,0,0.125,12.75,0.0,0,0,0,0.125,12.700000000000001,0.0,0,0,0,0.125,12.75,0.0,0,0,0,0.125,12.75,0.0,0,0,0,0.0,12.75,0.0,0,0,0,0.125,12.8,0.0,0,0,0,kForward,kReverse,-86.94,2.2,2.23,0.03564453,-0.99346924,0.04156494,32.74,0.0,-2.0,-8.069931,11.855896,
196.11690800000002,true,true,true,0.125,12.75,0.0,0,0,0,0.125,12.75,0.0,0,0,0,0.125,12.700000000000001,0.0,0,0,0,0.125,12.75,0.0,0,0,0,0.0,12.75,0.0,0,0,0,0.0,12.75,0.0,0,0,0,0.0,12.8,0.0,0,0,0,kForward,kReverse,-86.93,2.2,2.23,0.03656006,-0.98132324,0.039978027,32.74,0.0,-1.0,-8.069931,11.855896,
196.13796100000002,true,true,true,0.125,12.75,0.0,0,0,0,0.125,12.75,0.0,0,0,0,0.125,12.700000000000001,0.0,0,0,0,0.125,12.75,0.0,0,0,0,0.0,12.75,0.0,0,0,0,0.0,12.75,0.0,0,0,0,0.0,12.8,0.0,0,0,0,kForward,kReverse,-86.94,2.2,2.23,0.036254883,-0.98516846,0.0446167,32.74,0.0,-1.0,-8.069931,11.855896,
196.16179300000002,true,true,true,0.125,12.75,0.0,0,0,0,0.125,12.75,0.0,0,0,0,0.125,12.700000000000001,0.0,0,0,0,0.125,12.75,0.0,0,0,0,0.0,12.75,0.0,0,0,0,0.0,12.75,0.0,0,0,0,0.125,12.8,0.0,0,0,0,kForward,kReverse,-86.94,2.2,2.23,0.043395996,-0.9819946,0.043273926,32.74,0.0,5.0,-8.069931,11.855896,
196.18565800000002,true,true,true,0.125,12.75,0.0,0,0,0,0.125,12.75,0.0,0,0,0,0.125,12.700000000000001,0.0,0,0,0,0.125,12.75,0.0,0,0,0,0.0,12.75,0.0,0,0,0,0.0,12.75,0.0,0,0,0,0.125,12.8,0.0,0,0,0,kForward,kReverse,-86.93,2.21,2.24,0.045776367,-0.9783325,0.02520752,32.74,0.0,7.0,-8.069931,11.855896,
196.211259,true,true,true,0.125,12.75,0.0,0,0,0,0.125,12.75,0.0,0,0,0,0.125,12.700000000000001,0.0,0,0,0,0.125,12.75,0.0,0,0,0,0.0,12.75,0.0,0,0,0,0.0,12.75,0.0,0,0,0,0.125,12.8,0.0,0,0,0,kForward,kReverse,-86.93,2.21,2.24,0.04534912,-0.97802734,0.040222168,32.74,0.0,7.0,-8.069931,11.855896,
196.23515600000002,true,true,true,0.125,12.75,0.0,0,0,0,0.125,12.75,0.0,0,0,0,0.125,12.700000000000001,0.0,0,0,0,0.125,12.75,0.0,0,0,0,0.0,12.75,0.0,0,0,0,0.0,12.75,0.0,0,0,0,0.125,12.8,0.0,0,0,0,kForward,kReverse,-86.93,2.22,2.25,0.041137695,-0.9822998,0.034973145,32.74,0.0,2.0,-8.069931,11.855896,
196.260125,true,true,true,0.125,12.75,0.0,0,0,0,0.125,12.75,0.0,0,0,0,0.125,12.700000000000001,0.0,0,0,0,0.125,12.75,0.0,0,0,0,0.0,12.75,0.0,0,0,0,0.0,12.75,0.0,0,0,0,0.125,12.8,0.0,0,0,0,kForward,kReverse,-86.93,2.22,2.25,0.042175293,-0.98309326,0.033203125,32.74,0.0,3.0,-8.069931,11.855896,
196.28171300000002,true,true,true,0.125,12.75,0.0,0,0,0,0.125,12.75,0.0,0,0,0,0.125,12.700000000000001,0.0,0,0,0,0.125,12.75,0.0,0,0,0,0.125,12.75,0.0,0,0,0,0.0,12.75,0.0,0,0,0,0.125,12.8,0.0,0,0,0,kForward,kReverse,-86.93,2.21,2.24,0.038879395,-0.9847412,0.040649414,32.74,0.0,0.0,-8.069931,11.855896,
196.30405800000003,true,true,true,0.125,12.75,0.0,0,0,0,0.125,12.75,0.0,0,0,0,0.125,12.700000000000001,0.0,0,0,0,0.125,12.75,0.0,0,0,0,0.125,12.75,0.0,0,0,0,0.0,12.75,0.0,0,0,0,0.125,12.8,0.0,0,0,0,kForward,kReverse,-86.93,2.21,2.24,0.03387451,-0.98413086,0.02947998,32.74,0.0,-4.0,-8.069931,11.855896,
196.325474,true,true,true,0.125,12.75,0.0,0,0,0,0.125,12.75,0.0,0,0,0,0.125,12.700000000000001,0.0,0,0,0,0.125,12.75,0.0,0,0,0,0.125,12.75,0.0,0,0,0,0.0,12.75,0.0,0,0,0,0.125,12.8,0.0,0,0,0,kForward,kReverse,-86.93,2.2,2.23,0.034484863,-0.9831543,0.03692627,32.74,0.0,-3.0,-8.069931,11.855896,
196.356896,true,true,true,0.125,12.75,0.0,0,0,0,0.125,12.75,0.0,0,0,0,0.125,12.700000000000001,0.0,0,0,0,0.125,12.75,0.0,0,0,0,0.0,12.75,0.0,0,0,0,0.0,12.75,0.0,0,0,0,0.125,12.8,0.0,0,0,0,kForward,kReverse,-86.93,2.21,2.24,0.03741455,-0.9871826,0.042236328,32.74,0.0,0.0,-8.069931,11.855896,
196.383048,true,true,true,0.125,12.75,0.0,0,0,0,0.125,12.75,0.0,0,0,0,0.125,12.700000000000001,0.0,0,0,0,0.125,12.75,0.0,0,0,0,0.0,12.75,0.0,0,0,0,0.0,12.75,0.0,0,0,0,0.125,12.8,0.0,0,0,0,kForward,kReverse,-86.93,2.21,2.24,0.03668213,-0.98620605,0.03338623,32.74,0.0,-1.0,-8.069931,11.855896,
196.407174,true,true,true,0.125,12.75,0.0,0,0,0,0.125,12.75,0.0,0,0,0,0.125,12.700000000000001,0.0,0,0,0,0.125,12.75,0.0,0,0,0,0.0,12.75,0.0,0,0,0,0.0,12.75,0.0,0,0,0,0.125,12.8,0.0,0,0,0,kForward,kReverse,-86.93,2.21,2.24,0.04473877,-0.98114014,0.03918457,32.74,0.0,6.0,-8.069931,11.855896,
196.42903600000002,true,true,true,0.125,12.75,0.0,0,0,0,0.125,12.75,0.0,0,0,0,0.125,12.700000000000001,0.0,0,0,0,0.125,12.75,0.0,0,0,0,0.0,12.75,0.0,0,0,0,0.0,12.75,0.0,0,0,0,0.125,12.8,0.0,0,0,0,kForward,kReverse,-86.92,2.22,2.25,0.039123535,-0.98065186,0.039916992,32.74,0.0,1.0,-8.069931,11.855896,
196.453185,true,true,true,0.125,12.75,0.0,0,0,0,0.125,12.75,0.0,0,0,0,0.125,12.700000000000001,0.0,0,0,0,0.125,12.75,0.0,0,0,0,0.0,12.75,0.0,0,0,0,0.0,12.75,0.0,0,0,0,0.125,12.8,0.0,0,0,0,kForward,kReverse,-86.92,2.22,2.25,0.039245605,-0.9835205,0.0368042,32.74,0.0,1.0,-8.069931,11.855896,
196.47468600000002,true,true,true,0.125,12.75,0.0,0,0,0,0.125,12.75,0.0,0,0,0,0.125,12.700000000000001,0.0,0,0,0,0.125,12.75,0.0,0,0,0,0.0,12.75,0.0,0,0,0,0.0,12.75,0.0,0,0,0,0.125,12.8,0.0,0,0,0,kForward,kReverse,-86.92,2.22,2.25,0.04083252,-0.9844971,0.036987305,32.74,0.0,2.0,-8.069931,11.855896,
196.496954,true,true,true,0.125,12.75,0.0,0,0,0,0.125,12.75,0.0,0,0,0,0.125,12.700000000000001,0.0,0,0,0,0.125,12.75,0.0,0,0,0,0.0,12.75,0.0,0,0,0,0.0,12.75,0.0,0,0,0,0.125,12.8,0.0,0,0,0,kForward,kReverse,-86.92,2.22,2.25,0.041015625,-0.9846802,0.035095215,32.74,0.0,2.0,-8.069931,11.855896,
196.51968800000003,true,true,true,0.125,12.75,0.0,0,0,0,0.125,12.75,0.0,0,0,0,0.125,12.700000000000001,0.0,0,0,0,0.125,12.75,0.0,0,0,0,0.0,12.75,0.0,0,0,0,0.0,12.75,0.0,0,0,0,0.125,12.8,0.0,0,0,0,kForward,kReverse,-86.92,2.22,2.25,0.03741455,-0.977478,0.04437256,32.74,0.0,0.0,-8.069931,11.855896,
196.539516,true,true,true,0.125,12.75,0.0,0,0,0,0.125,12.75,0.0,0,0,0,0.125,12.700000000000001,0.0,0,0,0,0.125,12.75,0.0,0,0,0,0.0,12.75,0.0,0,0,0,0.0,12.75,0.0,0,0,0,0.125,12.8,0.0,0,0,0,kForward,kReverse,-86.92,2.22,2.25,0.038391113,-0.9875488,0.040527344,32.74,0.0,0.0,-8.069931,11.855896,
196.559772,true,true,true,0.125,12.75,0.0,0,0,0,0.125,12.75,0.0,0,0,0,0.125,12.700000000000001,0.0,0,0,0,0.125,12.75,0.0,0,0,0,0.0,12.75,0.0,0,0,0,0.0,12.75,0.0,0,0,0,0.125,12.8,0.0,0,0,0,kForward,kReverse,-86.92,2.22,2.25,0.03387451,-0.9848633,0.03387451,32.74,0.0,-4.0,-8.069931,11.855896,
196.58180200000004,true,true,true,0.125,12.75,0.0,0,0,0,0.125,12.75,0.0,0,0,0,0.125,12.700000000000001,0.0,0,0,0,0.125,12.75,0.0,0,0,0,0.0,12.75,0.0,0,0,0,0.0,12.75,0.0,0,0,0,0.125,12.8,0.0,0,0,0,kForward,kReverse,-86.92,2.21,2.24,0.03552246,-0.982666,0.03942871,32.74,0.0,-2.0,-8.069931,11.855896,
196.603877,true,true,true,0.125,12.75,0.0,0,0,0,0.125,12.75,0.0,0,0,0,0.125,12.700000000000001,0.0,0,0,0,0.125,12.75,0.0,0,0,0,0.0,12.75,0.0,0,0,0,0.0,12.75,0.0,0,0,0,0.125,12.8,0.0,0,0,0,kForward,kReverse,-86.92,2.21,2.24,0.03491211,-0.9854126,0.035583496,32.74,0.0,-3.0,-8.069931,11.855896,
196.63090400000002,true,true,true,0.125,12.75,0.0,0,0,0,0.125,12.75,0.0,0,0,0,0.125,12.700000000000001,0.0,0,0,0,0.125,12.75,0.0,0,0,0,0.0,12.75,0.0,0,0,0,0.0,12.75,0.0,0,0,0,0.125,12.8,0.0,0,0,0,kForward,kReverse,-86.93,2.21,2.24,0.036743164,-0.98461914,0.03729248,32.74,0.0,-1.0,-8.069931,11.855896,
196.65535500000001,true,true,true,0.125,12.75,0.0,0,0,0,0.125,12.75,0.0,0,0,0,0.125,12.700000000000001,0.0,0,0,0,0.125,12.75,0.0,0,0,0,0.0,12.75,0.0,0,0,0,0.0,12.75,0.0,0,0,0,0.125,12.8,0.0,0,0,0,kForward,kReverse,-86.92,2.22,2.25,0.03668213,-0.98254395,0.032104492,32.74,0.0,-1.0,-8.069931,11.855896,
196.67629,true,true,true,0.125,12.75,0.0,0,0,0,0.125,12.75,0.0,0,0,0,0.125,12.700000000000001,0.0,0,0,0,0.125,12.75,0.0,0,0,0,0.0,12.75,0.0,0,0,0,0.0,12.75,0.0,0,0,0,0.125,12.8,0.0,0,0,0,kForward,kReverse,-86.92,2.22,2.25,0.044128418,-0.98095703,0.035705566,32.74,0.0,6.0,-8.069931,11.855896,
196.696603,true,true,true,0.125,12.75,0.0,0,0,0,0.125,12.75,0.0,0,0,0,0.125,12.700000000000001,0.0,0,0,0,0.125,12.75,0.0,0,0,0,0.0,12.75,0.0,0,0,0,0.0,12.75,0.0,0,0,0,0.125,12.8,0.0,0,0,0,kForward,kReverse,-86.92,2.23,2.26,0.041931152,-0.98236084,0.03363037,32.74,0.0,3.0,-8.069931,11.855896,
196.71655900000002,true,true,true,0.125,12.75,0.0,0,0,0,0.125,12.75,0.0,0,0,0,0.125,12.700000000000001,0.0,0,0,0,0.125,12.75,0.0,0,0,0,0.0,12.75,0.0,0,0,0,0.0,12.75,0.0,0,0,0,0.125,12.8,0.0,0,0,0,kForward,kReverse,-86.92,2.23,2.26,0.03942871,-0.9805908,0.037902832,32.74,0.0,1.0,-8.069931,11.855896,
196.736937,true,true,true,0.125,12.75,0.0,0,0,0,0.125,12.75,0.0,0,0,0,0.125,12.700000000000001,0.0,0,0,0,0.125,12.75,0.0,0,0,0,0.0,12.75,0.0,0,0,0,0.0,12.75,0.0,0,0,0,0.125,12.8,0.0,0,0,0,kForward,kReverse,-86.92,2.23,2.26,0.041259766,-0.98480225,0.03387451,32.74,0.0,2.0,-8.069931,11.855896,
196.758535,true,true,true,0.125,12.75,0.0,0,0,0,0.125,12.75,0.0,0,0,0,0.125,12.700000000000001,0.0,0,0,0,0.125,12.75,0.0,0,0,0,0.0,12.75,0.0,0,0,0,0.0,12.75,0.0,0,0,0,0.125,12.8,0.0,0,0,0,kForward,kReverse,-86.92,2.23,2.26,0.03656006,-0.9821167,0.03955078,32.74,0.0,-1.0,-8.069931,11.855896,
196.78000400000002,true,true,true,0.125,12.75,0.0,0,0,0,0.125,12.75,0.0,0,0,0,0.125,12.700000000000001,0.0,0,0,0,0.125,12.75,0.0,0,0,0,0.0,12.75,0.0,0,0,0,0.0,12.75,0.0,0,0,0,0.125,12.8,0.0,0,0,0,kForward,kReverse,-86.92,2.23,2.26,0.04333496,-0.9824219,0.042114258,32.74,0.0,5.0,-8.069931,11.855896,
196.801173,true,true,true,0.125,12.75,0.0,0,0,0,0.125,12.75,0.0,0,0,0,0.125,12.700000000000001,0.0,0,0,0,0.125,12.75,0.0,0,0,0,0.0,12.75,0.0,0,0,0,0.0,12.75,0.0,0,0,0,0.125,12.8,0.0,0,0,0,kForward,kReverse,-86.92,2.22,2.25,0.0357666,-0.9786377,0.032287598,32.74,0.0,-2.0,-8.069931,11.855896,
196.82068300000003,true,true,true,0.125,12.75,0.0,0,0,0,0.125,12.75,0.0,0,0,0,0.125,12.700000000000001,0.0,0,0,0,0.125,12.75,0.0,0,0,0,0.0,12.75,0.0,0,0,0,0.0,12.75,0.0,0,0,0,0.125,12.8,0.0,0,0,0,kForward,kReverse,-86.92,2.23,2.26,0.04119873,-0.9779053,0.0390625,32.74,0.0,3.0,-8.069931,11.855896,
196.847542,true,true,true,0.125,12.75,0.0,0,0,0,0.125,12.75,0.0,0,0,0,0.125,12.700000000000001,0.0,0,0,0,0.125,12.75,0.0,0,0,0,0.0,12.75,0.0,0,0,0,0.0,12.75,0.0,0,0,0,0.125,12.8,0.0,0,0,0,kForward,kReverse,-86.91,2.23,2.26,0.030273438,-0.9841919,0.027832031,32.74,0.0,-8.0,-8.069931,11.855896,
196.872306,true,true,true,0.125,12.75,0.0,0,0,0,0.125,12.75,0.0,0,0,0,0.125,12.700000000000001,0.0,0,0,0,0.125,12.75,0.0,0,0,0,0.0,12.75,0.0,0,0,0,0.0,12.75,0.0,0,0,0,0.125,12.8,0.0,0,0,0,kForward,kReverse,-86.92,2.22,2.25,0.04156494,-0.9746704,0.03503418,32.74,0.0,3.0,-8.069931,11.855896,
196.89711200000002,true,true,true,0.125,12.75,0.0,0,0,0,0.125,12.75,0.0,0,0,0,0.125,12.700000000000001,0.0,0,0,0,0.125,12.75,0.0,0,0,0,0.0,12.75,0.0,0,0,0,0.0,12.75,0.0,0,0,0,0.125,12.8,0.0,0,0,0,kForward,kReverse,-86.93,2.22,2.25,0.03253174,-0.9866333,0.022827148,32.74,0.0,-5.0,-8.069931,11.855896,
196.920733,true,true,true,0.125,12.75,0.0,0,0,0,0.125,12.75,0.0,0,0,0,0.125,12.700000000000001,0.0,0,0,0,0.125,12.75,0.0,0,0,0,0.0,12.75,0.0,0,0,0,0.0,12.75,0.0,0,0,0,0.125,12.8,0.0,0,0,0,kForward,kReverse,-86.92,2.23,2.26,0.0390625,-0.98321533,0.044067383,32.74,0.0,0.0,-8.069931,11.855896,
196.94440400000002,true,true,true,0.125,12.75,0.0,0,0,0,0.125,12.75,0.0,0,0,0,0.125,12.700000000000001,0.0,0,0,0,0.125,12.75,0.0,0,0,0,0.0,12.75,0.0,0,0,0,0.0,12.75,0.0,0,0,0,0.125,12.8,0.0,0,0,0,kForward,kReverse,-86.92,2.22,2.25,0.031555176,-0.9857788,0.026123047,32.74,0.0,-6.0,-8.069931,11.855896,
196.96761500000002,true,true,true,0.125,12.75,0.0,0,0,0,0.125,12.75,0.0,0,0,0,0.125,12.700000000000001,0.0,0,0,0,0.125,12.75,0.0,0,0,0,0.0,12.75,0.0,0,0,0,0.0,12.75,0.0,0,0,0,0.125,12.8,0.0,0,0,0,kForward,kReverse,-86.92,2.22,2.25,0.047607422,-0.9814453,0.041381836,32.74,0.0,9.0,-8.069931,11.855896,
196.99253300000004,true,true,true,0.125,12.75,0.0,0,0,0,0.125,12.75,0.0,0,0,0,0.125,12.700000000000001,0.0,0,0,0,0.125,12.75,0.0,0,0,0,0.0,12.75,0.0,0,0,0,0.0,12.700000000000001,0.0,0,0,0,0.125,12.8,0.0,0,0,0,kForward,kReverse,-86.92,2.22,2.25,0.03753662,-0.98742676,0.03161621,32.74,0.0,0.0,-8.069931,11.855896,
197.017878,true,true,true,0.125,12.75,0.0,0,0,0,0.125,12.75,0.0,0,0,0,0.125,12.700000000000001,0.0,0,0,0,0.125,12.75,0.0,0,0,0,0.0,12.75,0.0,0,0,0,0.0,12.700000000000001,0.0,0,0,0,0.125,12.8,0.0,0,0,0,kForward,kReverse,-86.92,2.23,2.26,0.039367676,-0.982666,0.054870605,32.75,0.0,1.0,-8.069931,11.855896,
197.03814000000003,true,true,true,0.125,12.75,0.0,0,0,0,0.125,12.75,0.0,0,0,0,0.125,12.700000000000001,0.0,0,0,0,0.125,12.75,0.0,0,0,0,0.0,12.75,0.0,0,0,0,0.0,12.700000000000001,0.0,0,0,0,0.125,12.8,0.0,0,0,0,kForward,kReverse,-86.92,2.22,2.25,0.038330078,-0.9848633,0.02355957,32.75,0.0,0.0,-8.069931,11.855896,
197.059233,true,true,true,0.125,12.75,0.0,0,0,0,0.125,12.75,0.0,0,0,0,0.125,12.700000000000001,0.0,0,0,0,0.125,12.75,0.0,0,0,0,0.0,12.75,0.0,0,0,0,0.0,12.700000000000001,0.0,0,0,0,0.125,12.8,0.0,0,0,0,kForward,kReverse,-86.92,2.22,2.25,0.035949707,-0.98394775,0.04248047,32.75,0.0,-2.0,-8.069931,11.855896,
197.08178700000002,true,true,true,0.125,12.75,0.0,0,0,0,0.125,12.75,0.0,0,0,0,0.125,12.700000000000001,0.0,0,0,0,0.125,12.75,0.0,0,0,0,0.125,12.75,0.0,0,0,0,0.0,12.700000000000001,0.0,0,0,0,0.125,12.8,0.0,0,0,0,kForward,kReverse,-86.93,2.22,2.25,0.038635254,-0.9904175,0.038513184,32.75,0.0,0.0,-8.069931,11.855896,
197.10672,true,true,true,0.125,12.75,0.0,0,0,0,0.125,12.75,0.0,0,0,0,0.125,12.700000000000001,0.0,0,0,0,0.125,12.75,0.0,0,0,0,0.125,12.75,0.0,0,0,0,0.0,12.700000000000001,0.0,0,0,0,0.125,12.8,0.0,0,0,0,kForward,kReverse,-86.92,2.23,2.26,0.042114258,-0.9817505,0.055603027,32.75,0.0,4.0,-8.069931,11.855896,
197.13146000000003,true,true,true,0.125,12.75,0.0,0,0,0,0.125,12.75,0.0,0,0,0,0.125,12.700000000000001,0.0,0,0,0,0.125,12.75,0.0,0,0,0,0.125,12.75,0.0,0,0,0,0.0,12.700000000000001,0.0,0,0,0,0.125,12.8,0.0,0,0,0,kForward,kReverse,-86.91,2.24,2.27,0.034240723,-0.9871826,0.031982422,32.75,0.0,-4.0,-8.069931,11.855896,
197.156242,true,true,true,0.125,12.75,0.0,0,0,0,0.125,12.75,0.0,0,0,0,0.125,12.700000000000001,0.0,0,0,0,0.125,12.75,0.0,0,0,0,0.125,12.75,0.0,0,0,0,0.0,12.75,0.0,0,0,0,0.125,12.8,0.0,0,0,0,kForward,kReverse,-86.91,2.24,2.27,0.045654297,-0.9795532,0.042663574,32.75,0.0,7.0,-8.069931,11.855896,
197.17779700000003,true,true,true,0.125,12.75,0.0,0,0,0,0.125,12.75,0.0,0,0,0,0.125,12.700000000000001,0.0,0,0,0,0.125,12.75,0.0,0,0,0,0.0,12.75,0.0,0,0,0,0.0,12.75,0.0,0,0,0,0.125,12.8,0.0,0,0,0,kForward,kReverse,-86.91,2.24,2.27,0.034240723,-0.98443604,0.04144287,32.75,0.0,-4.0,-8.069931,11.855896,
197.19866700000003,true,true,true,0.125,12.75,0.0,0,0,0,0.125,12.75,0.0,0,0,0,0.125,12.700000000000001,0.0,0,0,0,0.125,12.75,0.0,0,0,0,0.0,12.75,0.0,0,0,0,0.0,12.75,0.0,0,0,0,0.125,12.8,0.0,0,0,0,kForward,kReverse,-86.91,2.24,2.27,0.036987305,-0.9879761,0.035705566,32.75,0.0,-1.0,-8.069931,11.855896,
197.222045,true,true,true,0.125,12.75,0.0,0,0,0,0.125,12.75,0.0,0,0,0,0.125,12.700000000000001,0.0,0,0,0,0.125,12.75,0.0,0,0,0,0.0,12.75,0.0,0,0,0,0.0,12.75,0.0,0,0,0,0.125,12.8,0.0,0,0,0,kForward,kReverse,-86.91,2.24,2.27,0.037109375,-0.984375,0.025268555,32.75,0.0,-1.0,-8.069931,11.855896,
197.248092,true,true,true,0.125,12.75,0.0,0,0,0,0.125,12.75,0.0,0,0,0,0.125,12.700000000000001,0.0,0,0,0,0.125,12.75,0.0,0,0,0,0.0,12.75,0.0,0,0,0,0.0,12.75,0.0,0,0,0,0.125,12.8,0.0,0,0,0,kForward,kReverse,-86.91,2.24,2.27,0.04638672,-0.98913574,0.035583496,32.75,0.0,7.0,-8.069931,11.855896,
197.273853,true,true,true,0.125,12.75,0.0,0,0,0,0.125,12.75,0.0,0,0,0,0.125,12.700000000000001,0.0,0,0,0,0.125,12.75,0.0,0,0,0,0.0,12.75,0.0,0,0,0,0.0,12.75,0.0,0,0,0,0.125,12.8,0.0,0,0,0,kForward,kReverse,-86.9,2.25,2.28,0.037231445,-0.98101807,0.025634766,32.75,0.0,-1.0,-8.069931,11.855896,
197.297494,true,true,true,0.125,12.75,0.0,0,0,0,0.125,12.75,0.0,0,0,0,0.125,12.700000000000001,0.0,0,0,0,0.125,12.75,0.0,0,0,0,0.125,12.75,0.0,0,0,0,0.0,12.75,0.0,0,0,0,0.125,12.8,0.0,0,0,0,kForward,kReverse,-86.91,2.25,2.28,0.045776367,-0.98150635,0.020874023,32.75,0.0,6.0,-8.069931,11.855896,
197.319853,true,true,true,0.125,12.75,0.0,0,0,0,0.125,12.75,0.0,0,0,0,0.125,12.700000000000001,0.0,0,0,0,0.125,12.75,0.0,0,0,0,0.125,12.75,0.0,0,0,0,0.0,12.75,0.0,0,0,0,0.125,12.8,0.0,0,0,0,kForward,kReverse,-86.9,2.26,2.29,0.043823242,-0.9815674,0.04736328,32.75,0.0,5.0,-8.069931,11.855896,
197.33975700000002,true,true,true,0.125,12.75,0.0,0,0,0,0.125,12.75,0.0,0,0,0,0.125,12.700000000000001,0.0,0,0,0,0.125,12.75,0.0,0,0,0,0.125,12.75,0.0,0,0,0,0.0,12.75,0.0,0,0,0,0.125,12.8,0.0,0,0,0,kForward,kReverse,-86.89,2.26,2.29,0.04345703,-0.98358154,0.044677734,32.75,0.0,4.0,-8.069931,11.855896,
197.357418,true,true,true,0.125,12.75,0.0,0,0,0,0.125,12.75,0.0,0,0,0,0.125,12.700000000000001,0.0,0,0,0,0.125,12.75,0.0,0,0,0,0.0,12.75,0.0,0,0,0,0.0,12.75,0.0,0,0,0,0.125,12.8,0.0,0,0,0,kForward,kReverse,-86.89,2.26,2.29,0.03314209,-0.9793701,0.0119018555,32.75,0.0,-5.0,-8.069931,11.855896,
197.378003,true,true,true,0.125,12.75,0.0,0,0,0,0.125,12.75,0.0,0,0,0,0.125,12.700000000000001,0.0,0,0,0,0.125,12.75,0.0,0,0,0,0.0,12.75,0.0,0,0,0,0.0,12.75,0.0,0,0,0,0.125,12.8,0.0,0,0,0,kForward,kReverse,-86.91,2.25,2.28,0.03778076,-0.98809814,0.026672363,32.75,0.0,-1.0,-8.069931,11.85585,
197.39910700000001,true,true,true,0.125,12.75,0.0,0,0,0,0.125,12.75,0.0,0,0,0,0.125,12.700000000000001,0.0,0,0,0,0.125,12.75,0.0,0,0,0,0.0,12.75,0.0,0,0,0,0.0,12.75,0.0,0,0,0,0.125,12.8,0.0,0,0,0,kForward,kReverse,-86.91,2.25,2.28,0.03265381,-0.9828491,0.047912598,32.75,0.0,-5.0,-8.069931,11.85585,
197.421075,true,true,true,0.125,12.75,0.0,0,0,0,0.125,12.75,0.0,0,0,0,0.125,12.700000000000001,0.0,0,0,0,0.125,12.75,0.0,0,0,0,0.0,12.75,0.0,0,0,0,0.0,12.75,0.0,0,0,0,0.125,12.8,0.0,0,0,0,kForward,kReverse,-86.91,2.25,2.28,0.032592773,-0.98309326,0.037109375,32.75,0.0,-6.0,-8.069931,11.85585,
197.443318,true,true,true,0.125,12.75,0.0,0,0,0,0.125,12.75,0.0,0,0,0,0.125,12.700000000000001,0.0,0,0,0,0.125,12.75,0.0,0,0,0,0.0,12.75,0.0,0,0,0,0.0,12.75,0.0,0,0,0,0.125,12.8,0.0,0,0,0,kForward,kReverse,-86.91,2.25,2.28,0.036621094,-0.9836426,0.037841797,32.75,0.0,-2.0,-8.069931,11.85585,
197.465763,true,true,true,0.125,12.75,0.0,0,0,0,0.125,12.75,0.0,0,0,0,0.125,12.700000000000001,0.0,0,0,0,0.125,12.75,0.0,0,0,0,0.0,12.75,0.0,0,0,0,0.0,12.75,0.0,0,0,0,0.125,12.8,0.0,0,0,0,kForward,kReverse,-86.91,2.25,2.28,0.036865234,-0.9824829,0.033813477,32.75,0.0,-1.0,-8.069931,11.85585,
197.49036,true,true,true,0.125,12.75,0.0,0,0,0,0.125,12.75,0.0,0,0,0,0.125,12.700000000000001,0.0,0,0,0,0.125,12.75,0.0,0,0,0,0.0,12.75,0.0,0,0,0,0.0,12.75,0.0,0,0,0,0.125,12.8,0.0,0,0,0,kForward,kReverse,-86.91,2.25,2.28,0.0390625,-0.9812012,0.03942871,32.75,0.0,0.0,-8.069931,11.85585,
197.50748000000002,true,true,true,0.125,12.75,0.0,0,0,0,0.125,12.75,0.0,0,0,0,0.125,12.700000000000001,0.0,0,0,0,0.125,12.75,0.0,0,0,0,0.0,12.75,0.0,0,0,0,0.0,12.75,0.0,0,0,0,0.125,12.8,0.0,0,0,0,kForward,kReverse,-86.91,2.25,2.28,0.036132812,-0.9847412,0.038635254,32.75,0.0,-2.0,-8.069931,11.85585,
197.52954200000002,true,true,true,0.125,12.75,0.0,0,0,0,0.125,12.75,0.0,0,0,0,0.125,12.700000000000001,0.0,0,0,0,0.125,12.75,0.0,0,0,0,0.0,12.75,0.0,0,0,0,0.0,12.75,0.0,0,0,0,0.125,12.8,0.0,0,0,0,kForward,kReverse,-86.91,2.25,2.28,0.036499023,-0.9859619,0.029052734,32.77,0.0,-2.0,-8.069931,11.85585,
197.55290800000003,true,true,true,0.125,12.75,0.0,0,0,0,0.125,12.75,0.0,0,0,0,0.125,12.700000000000001,0.0,0,0,0,0.125,12.75,0.0,0,0,0,0.0,12.75,0.0,0,0,0,0.0,12.75,0.0,0,0,0,0.125,12.8,0.0,0,0,0,kForward,kReverse,-86.92,2.25,2.28,0.041259766,-0.9859619,0.023620605,32.77,0.0,2.0,-8.069931,11.85585,
197.57153,true,true,true,0.125,12.75,0.0,0,0,0,0.125,12.75,0.0,0,0,0,0.125,12.700000000000001,0.0,0,0,0,0.125,12.75,0.0,0,0,0,0.0,12.75,0.0,0,0,0,0.0,12.75,0.0,0,0,0,0.125,12.8,0.0,0,0,0,kForward,kReverse,-86.9,2.26,2.29,0.038513184,-0.9834595,0.040283203,32.77,0.0,0.0,-8.069931,11.85585,
197.59359700000002,true,true,true,0.125,12.75,0.0,0,0,0,0.125,12.75,0.0,0,0,0,0.125,12.700000000000001,0.0,0,0,0,0.125,12.75,0.0,0,0,0,0.0,12.75,0.0,0,0,0,0.0,12.75,0.0,0,0,0,0.125,12.8,0.0,0,0,0,kForward,kReverse,-86.9,2.26,2.29,0.046142578,-0.9844971,0.03894043,32.77,0.0,7.0,-8.069931,11.85585,
