timer,lineLeft,lineCenter,lineRight,driverLeftX,driverLeftY,driverRightX,driverRightY,driverA,driverB,driverX,driverY,operatorLeftX,operatorLeftY,operatorRightX,operatorRightY,operatorA,operatorB,operatorX,operatorY,LeftFrontCurrent,LeftFrontVoltage,LeftFrontValue,LeftFrontPosition,LeftFrontVelocity,LeftFrontFaults,LeftRearCurrent,LeftRearVoltage,LeftRearValue,LeftRearPosition,LeftRearVelocity,LeftRearFaults,RightFrontCurrent,RightFrontVoltage,RightFrontValue,RightFrontPosition,RightFrontVelocity,RightFrontFaults,RightRearCurrent,RightRearVoltage,RightRearValue,RightRearPosition,RightRearVelocity,RightRearFaults,LiftCurrent,LiftVoltage,LiftValue,LiftPosition,LiftVelocity,LiftFaults,RollerCurrent,RollerVoltage,RollerValue,RollerPosition,RollerVelocity,RollerFaults,PushersState,navx_Pitch,navx_Roll,navx_Yaw,navx_XAcc,navx_YAcc,navx_ZAcc,navx_Temp,navx_Bar,navx_Alt,navx_XDis,navx_YDis,
476.175891,true,true,true,0.0,-0.0078125,0.0,-0.0078125,false,false,false,false,0.0,-0.0078125,0.0,-0.0078125,false,false,false,false,0.0,12.55,0.0,5763,0,0,0.125,12.55,0.0,0,0,0,0.0,12.55,0.0,0,0,0,0.0,12.55,0.0,0,0,0,0.0,12.6,0.0,1,0,0,0.0,4.0,0.0,0,0,0,kReverse,0.0,0.0,0.0,0.0,0.0,0.0,0.0,0.0,0.0,0.0,0.0,
476.30345900000003,true,true,true,0.0,-0.0078125,0.0,-0.0078125,false,false,false,false,0.0,-0.0078125,0.0,-0.0078125,false,false,false,false,0.0,12.55,0.0,5763,0,0,0.125,12.6,0.0,0,0,0,0.0,12.55,0.0,0,0,0,0.0,12.55,0.0,0,0,0,0.0,12.65,0.0,1,0,0,0.0,4.0,0.0,0,0,0,kReverse,0.0,0.0,0.0,0.0,0.0,0.0,0.0,0.0,0.0,0.0,0.0,
476.372929,true,true,true,0.0,-0.0078125,0.0,-0.0078125,false,false,false,false,0.0,-0.0078125,0.0,-0.0078125,false,false,false,false,0.0,12.55,0.0,5763,0,0,0.125,12.6,0.0,0,0,0,0.0,12.55,0.0,0,0,0,0.0,12.55,0.0,0,0,0,0.0,12.65,0.0,1,0,0,0.0,4.0,0.0,0,0,0,kReverse,0.0,0.0,0.0,0.0,0.0,0.0,0.0,0.0,0.0,0.0,0.0,
476.448587,true,true,true,0.0,-0.0078125,0.0,-0.0078125,false,false,false,false,0.0,-0.0078125,0.0,-0.0078125,false,false,false,false,0.0,12.55,0.0,5763,0,0,0.125,12.6,0.0,0,0,0,0.0,12.55,0.0,0,0,0,0.0,12.55,0.0,0,0,0,0.0,12.65,0.0,1,0,0,0.0,4.0,0.0,0,0,0,kReverse,0.0,0.0,0.0,0.0,0.0,0.0,0.0,0.0,0.0,0.0,0.0,
476.59445800000003,true,true,true,0.0,-0.46875,0.0,-0.0078125,false,false,false,false,0.0,-0.0078125,0.0,-0.0078125,false,false,false,false,0.0,12.6,0.0,5763,0,0,0.125,12.6,0.0,0,0,0,0.0,12.6,0.0,0,0,0,0.0,12.55,0.0,0,0,0,0.0,12.65,0.0,1,0,0,0.0,4.0,0.0,0,0,0,kReverse,0.0,0.0,0.0,0.0,0.0,0.0,0.0,0.0,0.0,0.0,0.0,
476.68052500000005,true,true,true,0.0,-1.0,0.0,-0.0078125,false,false,false,false,0.0,-0.0078125,0.0,-0.0078125,false,false,false,false,1.5,12.6,0.0,5769,6,0,2.0,12.6,0.0,0,0,0,1.625,12.6,0.0,0,0,0,1.375,12.55,0.0,0,0,0,0.0,12.0,0.0,1,0,0,0.0,4.0,0.0,0,0,0,kReverse,0.0,0.0,0.0,0.0,0.0,0.0,0.0,0.0,0.0,0.0,0.0,
476.76840100000004,true,true,true,0.0,-1.0,0.0,-0.0078125,false,false,false,false,0.0,-0.0078125,0.0,-0.0078125,false,false,false,false,23.0,11.55,0.0,5791,24,0,29.25,11.8,0.0,0,0,0,22.75,11.75,0.0,0,0,0,21.25,11.850000000000001,0.0,0,0,0,0.0,12.0,0.0,1,0,0,0.0,4.0,0.0,0,0,0,kReverse,0.0,0.0,0.0,0.0,0.0,0.0,0.0,0.0,0.0,0.0,0.0,
476.82322000000005,true,true,true,0.0,-1.0,0.0,-0.0078125,false,false,false,false,0.0,-0.0078125,0.0,-0.0078125,false,false,false,false,18.5,11.55,0.0,5832,56,0,24.875,11.8,0.0,0,0,0,18.375,11.75,0.0,0,0,0,17.5,11.850000000000001,0.0,0,0,0,0.0,11.05,0.0,1,0,0,0.0,4.0,0.0,0,0,0,kReverse,0.0,0.0,0.0,0.0,0.0,0.0,0.0,0.0,0.0,0.0,0.0,
477.00164900000004,true,true,true,0.0,-0.328125,0.0,-0.0078125,false,false,false,false,0.0,-0.0078125,0.0,-0.0078125,false,false,false,false,9.25,10.8,0.0,6107,188,0,11.25,11.75,0.0,0,0,0,7.5,11.7,0.0,0,0,0,6.5,11.600000000000001,0.0,0,0,0,0.0,11.8,0.0,1,0,0,0.0,4.0,0.0,0,0,0,kReverse,0.0,0.0,0.0,0.0,0.0,0.0,0.0,0.0,0.0,0.0,0.0,
477.158076,true,true,true,0.0,-0.0078125,0.0,-0.0078125,false,false,false,false,0.0,-0.0078125,0.0,-0.0078125,false,false,false,false,0.0,11.850000000000001,0.0,6422,184,0,0.0,11.75,0.0,0,0,0,0.0,12.5,0.0,139,139,0,0.0,12.5,0.0,0,0,0,0.0,12.6,0.0,1,0,0,0.0,4.0,0.0,0,0,0,kReverse,0.0,0.0,0.0,0.0,0.0,0.0,0.0,0.0,0.0,0.0,0.0,
477.294968,true,true,true,0.0,-0.0078125,0.9921259880065918,-0.0078125,false,false,false,false,0.0,-0.0078125,0.0,-0.0078125,false,false,false,false,0.0,12.5,0.0,6643,184,0,0.125,12.55,0.0,0,0,0,2.125,12.5,0.0,344,168,0,0.0,12.5,0.0,0,0,0,0.0,12.6,0.0,1,0,0,0.0,4.0,0.0,0,0,0,kReverse,0.0,0.0,0.0,0.0,0.0,0.0,0.0,0.0,0.0,0.0,0.0,
477.391747,true,true,true,0.0,-0.0078125,1.0,-0.0078125,false,false,false,false,0.0,-0.0078125,0.0,-0.0078125,false,false,false,false,8.75,10.65,0.0,6826,183,0,14.875,10.7,0.0,0,0,0,36.5,10.350000000000001,0.0,340,-4,0,37.375,10.45,0.0,0,0,0,0.0,10.850000000000001,0.0,1,0,0,0.0,4.0,0.0,0,0,0,kReverse,0.0,0.0,0.0,0.0,0.0,0.0,0.0,0.0,0.0,0.0,0.0,
477.481799,true,true,true,0.0,-0.0078125,1.0,-0.0078125,false,false,false,false,0.0,-0.0078125,0.0,-0.0078125,false,false,false,false,9.375,10.65,0.0,7030,204,0,13.875,10.7,0.0,0,0,0,31.25,10.350000000000001,0.0,295,-51,0,30.375,10.45,0.0,0,0,0,0.0,10.9,0.0,1,0,0,0.0,4.0,0.0,0,0,0,kReverse,0.0,0.0,0.0,0.0,0.0,0.0,0.0,0.0,0.0,0.0,0.0,
477.640054,true,true,true,0.10236220806837082,-1.0,0.0,-0.0078125,false,false,false,false,0.0,-0.0078125,0.0,-0.0078125,false,false,false,false,10.5,10.75,0.0,7374,215,0,15.25,10.8,0.0,0,0,0,19.0,10.65,0.0,81,-143,0,18.875,10.9,0.0,0,0,0,0.0,11.100000000000001,0.0,1,0,0,0.0,4.0,0.0,0,0,0,kReverse,0.0,0.0,0.0,0.0,0.0,0.0,0.0,0.0,0.0,0.0,0.0,
477.84310999999997,true,true,true,0.0,-1.0,0.0,-0.0078125,false,false,false,false,0.0,-0.0078125,0.0,-0.0078125,false,false,false,false,11.375,10.7,0.0,7797,200,0,16.125,10.8,0.0,0,0,0,20.75,10.65,0.0,262,111,0,20.625,10.7,0.0,0,0,0,0.0,10.9,0.0,1,0,0,0.0,4.0,0.0,0,0,0,kReverse,0.0,0.0,0.0,0.0,0.0,0.0,0.0,0.0,0.0,0.0,0.0,
478.048034,true,true,true,0.0,-0.5390625,1.0,-0.0078125,false,false,false,false,0.0,-0.0078125,0.0,-0.0078125,false,false,false,false,12.125,11.3,0.0,8296,243,0,11.75,11.350000000000001,0.0,0,0,0,9.125,11.3,0.0,692,238,0,9.0,11.3,0.0,0,0,0,0.0,11.5,0.0,1,0,0,0.0,4.0,0.0,0,0,0,kReverse,0.0,0.0,0.0,0.0,0.0,0.0,0.0,0.0,0.0,0.0,0.0,
478.178523,true,true,true,0.0,-0.0078125,1.0,-0.0078125,false,false,false,false,0.0,-0.0078125,0.0,-0.0078125,false,false,false,false,30.0,10.55,0.0,8684,335,0,39.75,10.600000000000001,0.0,0,0,0,0.125,10.9,0.0,868,147,0,0.0,10.850000000000001,0.0,0,0,0,0.0,11.0,0.0,1,0,0,0.0,4.0,0.0,0,0,0,kReverse,0.0,0.0,0.0,0.0,0.0,0.0,0.0,0.0,0.0,0.0,0.0,
478.23239300000006,true,true,true,0.0,-0.0078125,0.8188976645469666,-0.0078125,false,false,false,false,0.0,-0.0078125,0.0,-0.0078125,false,false,false,false,13.125,10.55,0.0,8831,363,0,23.625,10.600000000000001,0.0,0,0,0,30.75,10.9,0.0,887,78,0,27.625,10.850000000000001,0.0,0,0,0,0.0,11.0,0.0,1,0,0,0.0,4.0,0.0,0,0,0,kReverse,0.0,0.0,0.0,0.0,0.0,0.0,0.0,0.0,0.0,0.0,0.0,
478.283956,true,true,true,0.0,-0.0078125,0.7007874250411987,-0.0078125,false,false,false,false,0.0,-0.0078125,0.0,-0.0078125,false,false,false,false,0.0,10.55,0.0,9028,344,0,1.75,10.600000000000001,0.0,0,0,0,32.875,10.9,0.0,882,14,0,32.75,10.9,0.0,0,0,0,0.0,11.2,0.0,1,0,0,0.0,4.0,0.0,0,0,0,kReverse,0.0,0.0,0.0,0.0,0.0,0.0,0.0,0.0,0.0,0.0,0.0,
478.367923,true,true,true,0.0,-0.0078125,0.18110236525535583,-0.0078125,false,false,false,false,0.0,-0.0078125,0.0,-0.0078125,false,false,false,false,0.0,11.15,0.0,9263,298,0,0.625,11.15,0.0,0,0,0,18.0,10.850000000000001,0.0,864,-22,0,15.875,10.9,0.0,0,0,0,0.0,11.2,0.0,1,0,0,0.0,4.0,0.0,0,0,0,kReverse,0.0,0.0,0.0,0.0,0.0,0.0,0.0,0.0,0.0,0.0,0.0,
478.45691700000003,true,true,true,0.0,-0.0078125,0.06299212574958801,-0.0078125,false,false,false,false,0.0,-0.0078125,0.0,-0.0078125,false,false,false,false,0.0,11.15,0.0,9465,256,0,0.0,12.4,0.0,0,0,0,0.875,12.4,0.0,833,-31,0,1.125,12.35,0.0,0,0,0,0.0,12.450000000000001,0.0,1,0,0,0.0,4.0,0.0,0,0,0,kReverse,0.0,0.0,0.0,0.0,0.0,0.0,0.0,0.0,0.0,0.0,0.0,
478.607961,true,true,true,0.0,-0.0078125,-0.984375,-0.0078125,false,false,false,false,0.0,-0.0078125,0.0,-0.0078125,false,false,false,false,0.0,12.4,0.0,9755,164,0,0.25,12.4,0.0,0,0,0,1.875,12.3,0.0,830,2,0,0.0,12.4,0.0,0,0,0,0.0,12.5,0.0,1,0,0,0.0,4.0,0.0,0,0,0,kReverse,0.0,0.0,0.0,0.0,0.0,0.0,0.0,0.0,0.0,0.0,0.0,
478.732052,true,true,true,0.0,-0.0078125,-1.0,-0.0078125,false,false,false,false,0.0,-0.0078125,0.0,-0.0078125,false,false,false,false,23.75,12.15,0.0,9876,93,0,25.75,12.35,0.0,0,0,0,20.5,12.3,0.0,966,107,0,18.875,12.4,0.0,0,0,0,0.0,12.5,0.0,1,0,0,0.0,4.0,0.0,0,0,0,kReverse,0.0,0.0,0.0,0.0,0.0,0.0,0.0,0.0,0.0,0.0,0.0,
478.95932400000004,true,true,true,0.0,-0.578125,0.0,-0.0078125,false,false,false,false,0.0,-0.0078125,0.0,-0.0078125,false,false,false,false,10.625,10.95,0.0,9669,-174,0,14.625,11.05,0.0,0,0,0,11.25,11.05,0.0,1376,187,0,11.125,11.0,0.0,0,0,0,0.0,11.2,0.0,1,0,0,0.0,4.0,0.0,0,0,0,kReverse,0.0,0.0,0.0,0.0,0.0,0.0,0.0,0.0,0.0,0.0,0.0,
479.148969,true,true,true,0.0,-0.8359375,0.0,-0.0078125,false,false,false,false,0.0,-0.0078125,0.0,-0.0078125,false,false,false,false,10.25,11.5,0.0,9425,-91,0,11.375,11.55,0.0,0,0,0,6.5,11.600000000000001,0.0,1604,108,0,4.25,11.55,0.0,0,0,0,0.0,11.7,0.0,1,0,0,0.0,4.0,0.0,0,0,0,kReverse,0.0,0.0,0.0,0.0,0.0,0.0,0.0,0.0,0.0,0.0,0.0,
479.278735,true,true,true,0.0,-0.3515625,0.21259842813014984,-0.0078125,false,false,false,false,0.0,-0.0078125,0.0,-0.0078125,false,false,false,false,9.125,11.3,0.0,9422,6,0,12.5,11.4,0.0,0,0,0,10.75,11.3,0.0,1766,136,0,9.375,11.3,0.0,0,0,0,0.0,11.5,0.0,1,0,0,0.0,4.0,0.0,0,0,0,kReverse,0.0,0.0,0.0,0.0,0.0,0.0,0.0,0.0,0.0,0.0,0.0,
479.382987,true,true,true,0.0,-0.3203125,0.5511810779571533,-0.0078125,false,false,false,false,0.0,-0.0078125,0.0,-0.0078125,false,false,false,false,0.625,11.3,0.0,9473,51,0,2.375,11.4,0.0,0,0,0,1.25,11.3,0.0,1893,101,0,0.0,11.3,0.0,0,0,0,0.0,11.5,0.0,1,0,0,0.0,4.0,0.0,0,0,0,kReverse,0.0,0.0,0.0,0.0,0.0,0.0,0.0,0.0,0.0,0.0,0.0,
479.501985,true,true,true,0.0,-0.3203125,0.6141732335090637,-0.0078125,false,false,false,false,0.0,-0.0078125,0.0,-0.0078125,false,false,false,false,8.75,11.8,0.0,9612,124,0,12.25,11.8,0.0,0,0,0,2.625,11.850000000000001,0.0,1963,59,0,2.25,11.9,0.0,0,0,0,0.0,12.0,0.0,1,0,0,0.0,4.0,0.0,0,0,0,kReverse,0.0,0.0,0.0,0.0,0.0,0.0,0.0,0.0,0.0,0.0,0.0,
479.68460100000004,true,true,true,0.0,-0.3203125,0.0,-0.0078125,false,false,false,false,0.0,-0.0078125,0.0,-0.0078125,false,false,false,false,9.0,11.65,0.0,9987,222,0,12.75,11.7,0.0,0,0,0,2.75,11.75,0.0,1967,0,0,1.875,11.7,0.0,0,0,0,0.0,11.850000000000001,0.0,1,0,0,0.0,4.0,0.0,0,0,0,kReverse,0.0,0.0,0.0,0.0,0.0,0.0,0.0,0.0,0.0,0.0,0.0,
479.78382400000004,true,true,true,0.0,-0.3203125,0.0,-0.0078125,false,false,false,false,0.0,-0.0078125,0.0,-0.0078125,false,false,false,false,0.0,12.25,0.0,10195,208,0,0.375,12.3,0.0,0,0,0,1.75,12.3,0.0,2005,38,0,1.625,12.25,0.0,0,0,0,0.0,12.35,0.0,1,0,0,0.0,4.0,0.0,0,0,0,kReverse,0.0,0.0,0.0,0.0,0.0,0.0,0.0,0.0,0.0,0.0,0.0,
479.842042,true,true,true,0.0,-0.390625,0.0,-0.0078125,false,false,false,false,0.0,-0.0078125,0.0,-0.0078125,false,false,false,false,0.0,12.25,0.0,10297,179,0,0.375,12.3,0.0,0,0,0,1.875,12.3,0.0,2035,50,0,1.625,12.25,0.0,0,0,0,0.0,12.35,0.0,1,0,0,0.0,4.0,0.0,0,0,0,kReverse,0.0,0.0,0.0,0.0,0.0,0.0,0.0,0.0,0.0,0.0,0.0,
479.91859500000004,true,true,true,0.0,-0.6328125,0.0,-0.0078125,false,false,false,false,0.0,-0.0078125,0.0,-0.0078125,false,false,false,false,0.0,12.35,0.0,10411,146,0,0.375,12.35,0.0,0,0,0,1.5,12.35,0.0,2089,66,0,2.875,12.3,0.0,0,0,0,0.0,12.4,0.0,1,0,0,0.0,4.0,0.0,0,0,0,kReverse,0.0,0.0,0.0,0.0,0.0,0.0,0.0,0.0,0.0,0.0,0.0,
480.123281,true,true,true,0.0,-0.6875,0.0,-0.0078125,false,false,false,false,0.0,-0.0078125,0.0,-0.0078125,false,false,false,false,3.0,12.0,0.0,10639,112,0,4.75,12.0,0.0,0,0,0,5.375,12.0,0.0,2339,112,0,3.375,12.0,0.0,0,0,0,0.0,12.1,0.0,1,0,0,0.0,4.0,0.0,0,0,0,kReverse,0.0,0.0,0.0,0.0,0.0,0.0,0.0,0.0,0.0,0.0,0.0,
480.264499,true,true,true,0.0,-0.6875,-0.1328125,-0.0078125,false,false,false,false,0.0,-0.0078125,0.0,-0.0078125,false,false,false,false,4.875,11.75,0.0,10823,136,0,7.125,11.850000000000001,0.0,0,0,0,6.625,11.75,0.0,2546,151,0,4.625,11.75,0.0,0,0,0,0.0,11.9,0.0,1,0,0,0.0,4.0,0.0,0,0,0,kReverse,0.0,0.0,0.0,0.0,0.0,0.0,0.0,0.0,0.0,0.0,0.0,
480.362862,true,true,true,0.0,-0.6875,-0.9765625,-0.0078125,false,false,false,false,0.0,-0.0078125,0.0,-0.0078125,false,false,false,false,3.5,11.75,0.0,10977,154,0,5.75,11.850000000000001,0.0,0,0,0,6.625,11.75,0.0,2677,162,0,4.5,11.75,0.0,0,0,0,0.0,12.05,0.0,1,0,0,0.0,4.0,0.0,0,0,0,kReverse,0.0,0.0,0.0,0.0,0.0,0.0,0.0,0.0,0.0,0.0,0.0,
480.42256,true,true,true,0.0,-0.6875,-1.0,-0.0078125,false,false,false,false,0.0,-0.0078125,0.0,-0.0078125,false,false,false,false,1.0,11.75,0.0,11062,149,0,2.25,11.850000000000001,0.0,0,0,0,41.125,11.850000000000001,0.0,2870,227,0,33.375,11.850000000000001,0.0,0,0,0,0.0,12.05,0.0,1,0,0,0.0,4.0,0.0,0,0,0,kReverse,0.0,0.0,0.0,0.0,0.0,0.0,0.0,0.0,0.0,0.0,0.0,
480.53532800000005,true,true,true,0.0,-0.6875,-0.1484375,-0.0078125,false,false,false,false,0.0,-0.0078125,0.0,-0.0078125,false,false,false,false,2.75,11.75,0.0,11185,99,0,4.375,10.7,0.0,0,0,0,33.5,10.45,0.0,3258,332,0,34.0,10.45,0.0,0,0,0,0.0,10.8,0.0,1,0,0,0.0,4.0,0.0,0,0,0,kReverse,0.0,0.0,0.0,0.0,0.0,0.0,0.0,0.0,0.0,0.0,0.0,
480.645095,true,true,true,0.0,-0.6875,0.0,-0.0078125,false,false,false,false,0.0,-0.0078125,0.0,-0.0078125,false,false,false,false,0.0,10.7,0.0,11244,59,0,0.125,10.7,0.0,0,0,0,22.625,10.45,0.0,3543,355,0,19.5,10.45,0.0,0,0,0,0.0,10.8,0.0,1,0,0,0.0,4.0,0.0,0,0,0,kReverse,0.0,0.0,0.0,0.0,0.0,0.0,0.0,0.0,0.0,0.0,0.0,
480.71538400000003,true,true,true,0.0,-0.6875,0.0,-0.0078125,false,false,false,false,0.0,-0.0078125,0.0,-0.0078125,false,false,false,false,5.375,11.850000000000001,0.0,11267,42,0,8.125,11.9,0.0,0,0,0,1.0,12.0,0.0,3767,295,0,3.375,11.9,0.0,0,0,0,0.0,12.05,0.0,1,0,0,0.0,4.0,0.0,0,0,0,kReverse,0.0,0.0,0.0,0.0,0.0,0.0,0.0,0.0,0.0,0.0,0.0,
480.88208900000006,true,true,true,0.0,-0.6875,0.5354330539703369,-0.0078125,false,false,false,false,0.0,-0.0078125,0.0,-0.0078125,false,false,false,false,6.875,11.95,0.0,11409,91,0,12.5,11.9,0.0,0,0,0,1.375,12.0,0.0,4188,211,0,0.75,12.0,0.0,0,0,0,0.0,12.1,0.0,1,0,0,0.0,4.0,0.0,0,0,0,kReverse,0.0,0.0,0.0,0.0,0.0,0.0,0.0,0.0,0.0,0.0,0.0,
480.99588,true,true,true,0.0,-0.6875,0.5669291615486145,-0.0078125,false,false,false,false,0.0,-0.0078125,0.0,-0.0078125,false,false,false,false,22.25,11.95,0.0,11603,194,0,28.5,11.9,0.0,0,0,0,0.0,12.0,0.0,4312,124,0,0.0,12.0,0.0,0,0,0,0.0,11.350000000000001,0.0,1,0,0,0.0,4.0,0.0,0,0,0,kReverse,0.0,0.0,0.0,0.0,0.0,0.0,0.0,0.0,0.0,0.0,0.0,
481.136858,true,true,true,0.0,-0.0078125,0.0,-0.0078125,false,false,false,false,0.0,-0.0078125,0.0,-0.0078125,false,false,false,false,20.75,11.0,0.0,11963,219,0,32.125,11.100000000000001,0.0,0,0,0,0.0,11.3,0.0,4355,7,0,0.0,11.3,0.0,0,0,0,0.0,11.350000000000001,0.0,1,0,0,0.0,4.0,0.0,0,0,0,kReverse,0.0,0.0,0.0,0.0,0.0,0.0,0.0,0.0,0.0,0.0,0.0,
481.31646900000004,true,true,true,0.0,-0.0078125,0.17322835326194763,-0.0078125,false,false,false,false,0.0,-0.0078125,0.0,-0.0078125,false,false,false,false,0.0,12.3,0.0,12223,145,0,0.125,12.35,0.0,0,0,0,0.0,12.3,0.0,4353,0,0,0.0,12.3,0.0,0,0,0,0.0,12.450000000000001,0.0,1,0,0,0.0,4.0,0.0,0,0,0,kReverse,0.0,0.0,0.0,0.0,0.0,0.0,0.0,0.0,0.0,0.0,0.0,
481.48608300000006,true,true,true,0.0,-0.0078125,0.7795275449752808,-0.0078125,false,false,false,false,0.0,-0.0078125,0.0,-0.0078125,false,false,false,false,0.0,12.4,0.0,12382,73,0,1.0,12.4,0.0,0,0,0,6.75,11.850000000000001,0.0,4352,-1,0,4.25,11.8,0.0,0,0,0,0.0,12.1,0.0,1,0,0,0.0,4.0,0.0,0,0,0,kReverse,0.0,0.0,0.0,0.0,0.0,0.0,0.0,0.0,0.0,0.0,0.0,
481.680017,true,true,true,0.0,-0.0078125,0.0,-0.0078125,false,false,false,false,0.0,-0.0078125,0.0,-0.0078125,false,false,false,false,16.125,10.65,0.0,12500,62,0,18.125,10.8,0.0,0,0,0,14.25,10.8,0.0,4234,-75,0,14.625,10.8,0.0,0,0,0,0.0,10.9,0.0,1,0,0,0.0,4.0,0.0,0,0,0,kReverse,0.0,0.0,0.0,0.0,0.0,0.0,0.0,0.0,0.0,0.0,0.0,
481.815934,true,true,true,0.0,-0.0078125,0.3937007784843445,-0.0078125,false,false,false,false,0.0,-0.0078125,0.0,-0.0078125,false,false,false,false,0.0,10.65,0.0,12584,68,0,0.125,12.4,0.0,0,0,0,0.0,12.4,0.0,4215,-19,0,0.0,12.4,0.0,0,0,0,0.0,12.450000000000001,0.0,1,0,0,0.0,4.0,0.0,0,0,0,kReverse,0.0,0.0,0.0,0.0,0.0,0.0,0.0,0.0,0.0,0.0,0.0,
481.926271,true,true,true,0.0,-0.0078125,0.0,-0.0078125,false,false,false,false,0.0,-0.0078125,0.0,-0.0078125,false,false,false,false,15.5,12.4,0.0,12663,66,0,20.25,12.4,0.0,0,0,0,17.0,12.4,0.0,4167,-48,0,18.75,12.4,0.0,0,0,0,0.0,12.450000000000001,0.0,1,0,0,0.0,4.0,0.0,0,0,0,kReverse,0.0,0.0,0.0,0.0,0.0,0.0,0.0,0.0,0.0,0.0,0.0,
482.03943200000003,true,true,true,0.0,-0.0078125,0.0,-0.0078125,false,false,false,false,0.0,-0.0078125,0.0,-0.0078125,false,false,false,false,0.0,12.35,0.0,12727,50,0,0.125,12.35,0.0,0,0,0,0.0,12.35,0.0,4159,-1,0,0.0,12.35,0.0,0,0,0,0.0,12.4,0.0,1,0,0,0.0,4.0,0.0,0,0,0,kReverse,0.0,0.0,0.0,0.0,0.0,0.0,0.0,0.0,0.0,0.0,0.0,
482.125873,true,true,true,0.0,-0.0078125,-0.2109375,-0.0078125,false,false,false,false,0.0,-0.0078125,0.0,-0.0078125,false,false,false,false,0.0,12.35,0.0,12752,33,0,0.125,12.35,0.0,0,0,0,0.0,12.35,0.0,4159,0,0,0.0,12.4,0.0,0,0,0,0.0,12.5,0.0,1,0,0,0.0,4.0,0.0,0,0,0,kReverse,0.0,0.0,0.0,0.0,0.0,0.0,0.0,0.0,0.0,0.0,0.0,
482.215039,true,true,true,0.0,-0.0078125,-0.8984375,-0.0078125,false,false,false,false,0.0,-0.0078125,0.0,-0.0078125,false,false,false,false,0.0,12.4,0.0,12757,9,0,0.125,12.450000000000001,0.0,0,0,0,0.0,12.4,0.0,4159,0,0,0.0,12.4,0.0,0,0,0,0.0,12.5,0.0,1,0,0,0.0,4.0,0.0,0,0,0,kReverse,0.0,0.0,0.0,0.0,0.0,0.0,0.0,0.0,0.0,0.0,0.0,
482.282304,true,true,true,0.0,-0.0078125,0.0,-0.0078125,false,false,false,false,0.0,-0.0078125,0.0,-0.0078125,false,false,false,false,16.75,12.4,0.0,12739,-18,0,16.75,12.450000000000001,0.0,0,0,0,16.375,12.4,0.0,4177,18,0,12.375,12.4,0.0,0,0,0,0.0,12.5,0.0,1,0,0,0.0,4.0,0.0,0,0,0,kReverse,0.0,0.0,0.0,0.0,0.0,0.0,0.0,0.0,0.0,0.0,0.0,
482.478916,true,true,true,0.0,-0.0078125,0.0,-0.0078125,false,false,false,false,0.0,-0.0078125,0.0,-0.0078125,false,false,false,false,0.0,12.35,0.0,12678,-27,0,0.5,12.35,0.0,0,0,0,0.875,12.35,0.0,4190,2,0,0.0,12.35,0.0,0,0,0,0.0,12.450000000000001,0.0,1,0,0,0.0,4.0,0.0,0,0,0,kReverse,0.0,0.0,0.0,0.0,0.0,0.0,0.0,0.0,0.0,0.0,0.0,
482.599937,true,true,true,0.0,-0.0078125,0.0,-0.0078125,false,false,false,false,0.0,-0.0078125,0.0,-0.0078125,false,false,false,false,0.0,12.35,0.0,12679,2,0,0.125,12.35,0.0,0,0,0,0.0,12.35,0.0,4190,0,0,0.0,12.35,0.0,0,0,0,0.0,12.55,0.0,1,0,0,0.0,4.0,0.0,0,0,0,kReverse,0.0,0.0,0.0,0.0,0.0,0.0,0.0,0.0,0.0,0.0,0.0,
482.713093,true,true,true,0.0,-0.0078125,0.0,-0.0078125,false,false,false,false,0.0,-0.0078125,0.0,-0.0078125,false,false,false,false,0.0,12.450000000000001,0.0,12679,0,0,0.125,12.450000000000001,0.0,0,0,0,0.0,12.450000000000001,0.0,4190,0,0,0.0,12.450000000000001,0.0,0,0,0,0.0,12.55,0.0,1,0,0,0.0,4.0,0.0,0,0,0,kReverse,0.0,0.0,0.0,0.0,0.0,0.0,0.0,0.0,0.0,0.0,0.0,
482.765157,true,true,true,0.0,-0.0078125,0.0,-0.0078125,false,false,false,false,0.0,-0.0078125,0.0,-0.0078125,false,false,false,false,0.0,12.450000000000001,0.0,12679,0,0,0.125,12.450000000000001,0.0,0,0,0,0.0,12.450000000000001,0.0,4190,0,0,0.0,12.450000000000001,0.0,0,0,0,0.0,12.55,0.0,1,0,0,0.0,4.0,0.0,0,0,0,kReverse,0.0,0.0,0.0,0.0,0.0,0.0,0.0,0.0,0.0,0.0,0.0,
482.81483199999997,true,true,true,0.0,-0.109375,0.0,-0.0078125,false,false,false,false,0.0,-0.0078125,0.0,-0.0078125,false,false,false,false,0.0,12.450000000000001,0.0,12679,0,0,0.125,12.5,0.0,0,0,0,0.0,12.450000000000001,0.0,4190,0,0,0.0,12.450000000000001,0.0,0,0,0,0.0,12.55,0.0,1,0,0,0.0,4.0,0.0,0,0,0,kReverse,0.0,0.0,0.0,0.0,0.0,0.0,0.0,0.0,0.0,0.0,0.0,
482.918159,true,true,true,0.0,-0.21875,0.0,-0.0078125,false,false,false,false,0.0,-0.0078125,0.0,-0.0078125,false,false,false,false,0.0,12.450000000000001,0.0,12697,18,0,0.375,12.5,0.0,0,0,0,0.125,12.450000000000001,0.0,4190,0,0,0.0,12.450000000000001,0.0,0,0,0,0.0,12.55,0.0,1,0,0,0.0,4.0,0.0,0,0,0,kReverse,0.0,0.0,0.0,0.0,0.0,0.0,0.0,0.0,0.0,0.0,0.0,
483.009493,true,true,true,0.0,-0.2265625,0.0,-0.0078125,false,false,false,false,0.0,-0.0078125,0.0,-0.0078125,false,false,false,false,0.625,12.450000000000001,0.0,12713,20,0,1.25,12.450000000000001,0.0,0,0,0,0.625,12.450000000000001,0.0,4191,1,0,0.0,12.450000000000001,0.0,0,0,0,0.0,12.55,0.0,1,0,0,0.0,4.0,0.0,0,0,0,kReverse,0.0,0.0,0.0,0.0,0.0,0.0,0.0,0.0,0.0,0.0,0.0,
483.06676300000004,true,true,true,0.0,-0.2265625,0.0,-0.0078125,false,false,false,false,0.0,-0.0078125,0.0,-0.0078125,false,false,false,false,1.375,12.450000000000001,0.0,12724,19,0,1.5,12.450000000000001,0.0,0,0,0,1.125,12.450000000000001,0.0,4194,4,0,1.0,12.450000000000001,0.0,0,0,0,0.0,12.55,0.0,1,0,0,0.0,4.0,0.0,0,0,0,kReverse,0.0,0.0,0.0,0.0,0.0,0.0,0.0,0.0,0.0,0.0,0.0,
483.21150800000004,true,true,true,0.0,-0.2265625,0.0,-0.0078125,false,false,false,false,0.0,-0.0078125,0.0,-0.0078125,false,false,false,false,1.125,12.35,0.0,12752,20,0,1.5,12.35,0.0,0,0,0,1.125,12.35,0.0,4218,17,0,0.5,12.35,0.0,0,0,0,0.0,12.450000000000001,0.0,1,0,0,0.0,4.0,0.0,0,0,0,kReverse,0.0,0.0,0.0,0.0,0.0,0.0,0.0,0.0,0.0,0.0,0.0,
483.41712800000005,true,true,true,0.0,-0.2265625,0.0,-0.0078125,false,false,false,false,0.0,-0.0078125,0.0,-0.0078125,false,false,false,false,1.125,12.4,0.0,12810,28,0,1.5,12.4,0.0,0,0,0,1.0,12.4,0.0,4265,26,0,0.0,12.35,0.0,0,0,0,0.0,12.450000000000001,0.0,1,0,0,0.0,4.0,0.0,0,0,0,kReverse,0.0,0.0,0.0,0.0,0.0,0.0,0.0,0.0,0.0,0.0,0.0,
483.58936200000005,true,true,true,0.0,-0.2265625,0.0,-0.0078125,false,false,false,false,0.0,-0.0078125,0.0,-0.0078125,false,false,false,false,0.625,12.35,0.0,12858,31,0,1.375,12.4,0.0,0,0,0,1.0,12.35,0.0,4309,23,0,0.0,12.4,0.0,0,0,0,0.0,12.450000000000001,0.0,1,0,0,0.0,4.0,0.0,0,0,0,kReverse,0.0,0.0,0.0,0.0,0.0,0.0,0.0,0.0,0.0,0.0,0.0,
483.80102400000004,true,true,true,0.0,-0.1640625,0.0,-0.0078125,false,false,false,false,0.0,-0.0078125,0.0,-0.0078125,false,false,false,false,0.625,12.4,0.0,12928,32,0,1.125,12.4,0.0,0,0,0,0.5,12.4,0.0,4370,26,0,0.0,12.4,0.0,0,0,0,0.0,12.5,0.0,1,0,0,0.0,4.0,0.0,0,0,0,kReverse,0.0,0.0,0.0,0.0,0.0,0.0,0.0,0.0,0.0,0.0,0.0,
483.962667,true,true,true,0.0,-0.15625,0.0,-0.0078125,false,false,false,false,0.0,-0.0078125,0.0,-0.0078125,false,false,false,false,0.0,12.450000000000001,0.0,12973,27,0,0.75,12.450000000000001,0.0,0,0,0,0.125,12.450000000000001,0.0,4395,20,0,0.0,12.450000000000001,0.0,0,0,0,0.0,12.55,0.0,1,0,0,0.0,4.0,0.0,0,0,0,kReverse,0.0,0.0,0.0,0.0,0.0,0.0,0.0,0.0,0.0,0.0,0.0,
484.050322,true,true,true,0.0,-0.15625,0.0,-0.0078125,false,false,false,false,0.0,-0.0078125,0.0,-0.0078125,false,false,false,false,0.0,12.450000000000001,0.0,12989,21,0,0.75,12.450000000000001,0.0,0,0,0,0.125,12.450000000000001,0.0,4405,17,0,0.0,12.450000000000001,0.0,0,0,0,0.0,12.55,0.0,1,0,0,0.0,4.0,0.0,0,0,0,kReverse,0.0,0.0,0.0,0.0,0.0,0.0,0.0,0.0,0.0,0.0,0.0,
484.101814,true,true,true,0.0,-0.15625,0.0,-0.0078125,false,false,false,false,0.0,-0.0078125,0.0,-0.0078125,false,false,false,false,0.0,12.450000000000001,0.0,12998,16,0,0.875,12.450000000000001,0.0,0,0,0,0.375,12.450000000000001,0.0,4413,15,0,0.0,12.450000000000001,0.0,0,0,0,0.0,12.55,0.0,1,0,0,0.0,4.0,0.0,0,0,0,kReverse,0.0,0.0,0.0,0.0,0.0,0.0,0.0,0.0,0.0,0.0,0.0,
484.19728200000003,true,true,true,0.0,-0.15625,0.0,-0.0078125,false,false,false,false,0.0,-0.0078125,0.0,-0.0078125,false,false,false,false,0.0,12.450000000000001,0.0,13010,12,0,0.875,12.450000000000001,0.0,0,0,0,0.375,12.450000000000001,0.0,4424,11,0,0.0,12.450000000000001,0.0,0,0,0,0.0,12.55,0.0,1,0,0,0.0,4.0,0.0,0,0,0,kReverse,0.0,0.0,0.0,0.0,0.0,0.0,0.0,0.0,0.0,0.0,0.0,
484.25830600000006,true,true,true,0.0,-0.15625,0.0,-0.0078125,false,false,false,false,0.0,-0.0078125,0.0,-0.0078125,false,false,false,false,0.0,12.450000000000001,0.0,13017,12,0,0.875,12.450000000000001,0.0,0,0,0,0.375,12.450000000000001,0.0,4429,9,0,0.0,12.450000000000001,0.0,0,0,0,0.0,12.55,0.0,1,0,0,0.0,4.0,0.0,0,0,0,kReverse,0.0,0.0,0.0,0.0,0.0,0.0,0.0,0.0,0.0,0.0,0.0,
484.367794,true,true,true,0.0,-0.15625,0.0,-0.0078125,false,false,false,false,0.0,-0.0078125,0.0,-0.0078125,false,false,false,false,0.0,12.450000000000001,0.0,13026,9,0,1.0,12.450000000000001,0.0,0,0,0,0.375,12.450000000000001,0.0,4438,7,0,0.0,12.450000000000001,0.0,0,0,0,0.0,12.55,0.0,1,0,0,0.0,4.0,0.0,0,0,0,kReverse,0.0,0.0,0.0,0.0,0.0,0.0,0.0,0.0,0.0,0.0,0.0,
484.56617800000004,true,true,true,0.0,-0.4765625,0.0,-0.0078125,false,false,false,false,0.0,-0.0078125,0.0,-0.0078125,false,false,false,false,0.0,12.450000000000001,0.0,13039,7,0,1.0,12.450000000000001,0.0,0,0,0,2.0,12.450000000000001,0.0,4450,7,0,1.0,12.450000000000001,0.0,0,0,0,0.0,12.55,0.0,1,0,0,0.0,4.0,0.0,0,0,0,kReverse,0.0,0.0,0.0,0.0,0.0,0.0,0.0,0.0,0.0,0.0,0.0,
484.72489300000007,true,true,true,0.0,-0.0234375,0.0,-0.0078125,false,false,false,false,0.0,-0.0078125,0.0,-0.0078125,false,false,false,false,4.375,12.0,0.0,13066,21,0,6.375,12.0,0.0,0,0,0,3.0,12.0,0.0,4526,34,0,1.625,12.0,0.0,0,0,0,0.0,12.1,0.0,1,0,0,0.0,4.0,0.0,0,0,0,kReverse,0.0,0.0,0.0,0.0,0.0,0.0,0.0,0.0,0.0,0.0,0.0,
484.88385700000003,true,true,true,0.0,-0.078125,0.0,-0.0078125,false,false,false,false,0.0,-0.0078125,0.0,-0.0078125,false,false,false,false,0.0,12.55,0.0,13092,11,0,0.25,12.55,0.0,0,0,0,0.0,12.55,0.0,4563,32,0,0.0,12.55,0.0,0,0,0,0.0,12.6,0.0,1,0,0,0.0,4.0,0.0,0,0,0,kReverse,0.0,0.0,0.0,0.0,0.0,0.0,0.0,0.0,0.0,0.0,0.0,
485.037366,true,true,true,0.0,-0.59375,0.0,-0.0078125,false,false,false,false,0.0,-0.0078125,0.0,-0.0078125,false,false,false,false,3.125,12.55,0.0,13120,21,0,1.25,12.55,0.0,0,0,0,3.625,12.55,0.0,4592,21,0,3.125,12.55,0.0,0,0,0,0.0,12.6,0.0,1,0,0,0.0,4.0,0.0,0,0,0,kReverse,0.0,0.0,0.0,0.0,0.0,0.0,0.0,0.0,0.0,0.0,0.0,
485.183944,true,true,true,0.0,-0.1875,-0.7265625,-0.0078125,false,false,false,false,0.0,-0.0078125,0.0,-0.0078125,false,false,false,false,7.125,11.7,0.0,13171,40,0,10.0,11.75,0.0,0,0,0,7.75,11.75,0.0,4671,55,0,6.875,11.7,0.0,0,0,0,0.0,11.850000000000001,0.0,1,0,0,0.0,4.0,0.0,0,0,0,kReverse,0.0,0.0,0.0,0.0,0.0,0.0,0.0,0.0,0.0,0.0,0.0,
485.272428,true,true,true,0.0,-0.0078125,0.0,-0.0078125,false,false,false,false,0.0,-0.0078125,0.0,-0.0078125,false,false,false,false,7.875,11.7,0.0,13183,22,0,10.375,11.75,0.0,0,0,0,27.125,11.75,0.0,4794,123,0,30.25,11.7,0.0,0,0,0,0.0,11.850000000000001,0.0,1,0,0,0.0,4.0,0.0,0,0,0,kReverse,0.0,0.0,0.0,0.0,0.0,0.0,0.0,0.0,0.0,0.0,0.0,
485.320729,true,true,true,0.0,-0.0078125,0.0,-0.0078125,false,false,false,false,0.0,-0.0078125,0.0,-0.0078125,false,false,false,false,2.75,11.7,0.0,13187,2,0,7.25,11.75,0.0,0,0,0,8.5,11.75,0.0,4811,101,0,10.75,11.7,0.0,0,0,0,0.0,11.850000000000001,0.0,1,0,0,0.0,4.0,0.0,0,0,0,kReverse,0.0,0.0,0.0,0.0,0.0,0.0,0.0,0.0,0.0,0.0,0.0,
485.402368,true,true,true,0.0,-0.0078125,0.0,-0.0078125,false,false,false,false,0.0,-0.0078125,0.0,-0.0078125,false,false,false,false,0.0,12.4,0.0,13198,13,0,0.125,12.450000000000001,0.0,0,0,0,0.0,12.4,0.0,4890,82,0,0.0,12.4,0.0,0,0,0,0.0,12.5,0.0,1,0,0,0.0,4.0,0.0,0,0,0,kReverse,0.0,0.0,0.0,0.0,0.0,0.0,0.0,0.0,0.0,0.0,0.0,
485.556689,true,true,true,0.0,-0.0078125,-0.984375,-0.0078125,false,false,false,false,0.0,-0.0078125,0.0,-0.0078125,false,false,false,false,5.125,12.5,0.0,13212,14,0,6.5,12.5,0.0,0,0,0,8.75,12.5,0.0,4962,34,0,5.75,12.5,0.0,0,0,0,0.0,12.55,0.0,1,0,0,0.0,4.0,0.0,0,0,0,kReverse,0.0,0.0,0.0,0.0,0.0,0.0,0.0,0.0,0.0,0.0,0.0,
485.75988800000005,true,true,true,0.0,-0.0078125,0.0,-0.0078125,false,false,false,false,0.0,-0.0078125,0.0,-0.0078125,false,false,false,false,12.125,10.3,0.0,13128,-76,0,18.375,10.5,0.0,0,0,0,16.5,10.5,0.0,5165,123,0,12.0,10.350000000000001,0.0,0,0,0,0.0,10.600000000000001,0.0,1,0,0,0.0,4.0,0.0,0,0,0,kReverse,0.0,0.0,0.0,0.0,0.0,0.0,0.0,0.0,0.0,0.0,0.0,
485.839422,true,true,true,0.0,-0.0078125,0.0,-0.0078125,false,false,false,false,0.0,-0.0078125,0.0,-0.0078125,false,false,false,false,0.0,12.4,0.0,13048,-101,0,0.125,12.4,0.0,0,0,0,0.0,12.4,0.0,5215,78,0,0.0,12.4,0.0,0,0,0,0.0,12.450000000000001,0.0,1,0,0,0.0,4.0,0.0,0,0,0,kReverse,0.0,0.0,0.0,0.0,0.0,0.0,0.0,0.0,0.0,0.0,0.0,
485.922614,true,true,true,0.0,-0.0078125,0.21259842813014984,-0.0078125,false,false,false,false,0.0,-0.0078125,0.0,-0.0078125,false,false,false,false,0.0,12.4,0.0,13027,-40,0,0.125,12.4,0.0,0,0,0,0.0,12.4,0.0,5258,43,0,0.0,12.4,0.0,0,0,0,0.0,12.450000000000001,0.0,1,0,0,0.0,4.0,0.0,0,0,0,kReverse,0.0,0.0,0.0,0.0,0.0,0.0,0.0,0.0,0.0,0.0,0.0,
486.138847,true,true,true,0.0,-0.0078125,0.0,-0.0078125,false,false,false,false,0.0,-0.0078125,0.0,-0.0078125,false,false,false,false,0.0,12.5,0.0,13027,0,0,0.125,12.5,0.0,0,0,0,0.0,12.5,0.0,5259,0,0,0.0,12.450000000000001,0.0,0,0,0,0.0,12.55,0.0,1,0,0,0.0,4.0,0.0,0,0,0,kReverse,0.0,0.0,0.0,0.0,0.0,0.0,0.0,0.0,0.0,0.0,0.0,
486.260712,true,true,true,0.0,-0.0078125,0.30708661675453186,-0.0078125,false,false,false,false,0.0,-0.0078125,0.0,-0.0078125,false,false,false,false,0.0,12.5,0.0,13027,0,0,0.25,12.5,0.0,0,0,0,0.0,12.450000000000001,0.0,5259,0,0,0.0,12.450000000000001,0.0,0,0,0,0.0,12.55,0.0,1,0,0,0.0,4.0,0.0,0,0,0,kReverse,0.0,0.0,0.0,0.0,0.0,0.0,0.0,0.0,0.0,0.0,0.0,
486.467401,true,true,true,0.0,-0.0078125,0.5118110179901123,-0.0078125,false,false,false,false,0.0,-0.0078125,0.0,-0.0078125,false,false,false,false,0.0,12.450000000000001,0.0,13027,0,0,0.375,12.5,0.0,0,0,0,0.5,12.450000000000001,0.0,5259,0,0,0.0,12.5,0.0,0,0,0,0.0,12.6,0.0,1,0,0,0.0,4.0,0.0,0,0,0,kReverse,0.0,0.0,0.0,0.0,0.0,0.0,0.0,0.0,0.0,0.0,0.0,
486.576407,true,true,true,0.0,-0.0078125,0.4330708682537079,-0.0078125,false,false,false,false,0.0,-0.0078125,0.0,-0.0078125,false,false,false,false,6.25,12.450000000000001,0.0,13031,4,0,9.625,12.5,0.0,0,0,0,8.375,12.450000000000001,0.0,5232,-27,0,7.375,12.5,0.0,0,0,0,0.0,12.6,0.0,1,0,0,0.0,4.0,0.0,0,0,0,kReverse,0.0,0.0,0.0,0.0,0.0,0.0,0.0,0.0,0.0,0.0,0.0,
486.647188,true,true,true,0.0,-0.0078125,0.4015747904777527,-0.0078125,false,false,false,false,0.0,-0.0078125,0.0,-0.0078125,false,false,false,false,3.625,11.95,0.0,13044,16,0,5.875,12.0,0.0,0,0,0,5.375,11.95,0.0,5213,-27,0,4.375,12.0,0.0,0,0,0,0.0,12.1,0.0,1,0,0,0.0,4.0,0.0,0,0,0,kReverse,0.0,0.0,0.0,0.0,0.0,0.0,0.0,0.0,0.0,0.0,0.0,
486.718167,true,true,true,0.0,-0.0078125,0.4015747904777527,-0.0078125,false,false,false,false,0.0,-0.0078125,0.0,-0.0078125,false,false,false,false,2.625,11.95,0.0,13066,26,0,4.625,12.0,0.0,0,0,0,4.0,11.95,0.0,5186,-34,0,3.375,12.0,0.0,0,0,0,0.0,12.1,0.0,1,0,0,0.0,4.0,0.0,0,0,0,kReverse,0.0,0.0,0.0,0.0,0.0,0.0,0.0,0.0,0.0,0.0,0.0,
486.860519,true,true,true,0.0,-0.0078125,0.5433070659637451,-0.0078125,false,false,false,false,0.0,-0.0078125,0.0,-0.0078125,false,false,false,false,2.625,12.1,0.0,13122,43,0,4.25,12.1,0.0,0,0,0,4.375,12.1,0.0,5146,-28,0,3.5,12.05,0.0,0,0,0,0.0,12.200000000000001,0.0,1,0,0,0.0,4.0,0.0,0,0,0,kReverse,0.0,0.0,0.0,0.0,0.0,0.0,0.0,0.0,0.0,0.0,0.0,
487.00225900000004,true,true,true,0.0,-0.0078125,0.4330708682537079,-0.0078125,false,false,false,false,0.0,-0.0078125,0.0,-0.0078125,false,false,false,false,5.0,11.75,0.0,13203,61,0,7.25,11.8,0.0,0,0,0,6.5,11.75,0.0,5069,-51,0,5.875,11.75,0.0,0,0,0,0.0,11.9,0.0,1,0,0,0.0,4.0,0.0,0,0,0,kReverse,0.0,0.0,0.0,0.0,0.0,0.0,0.0,0.0,0.0,0.0,0.0,
487.13763300000005,true,true,true,0.0,-0.0078125,0.0,-0.0078125,false,false,false,false,0.0,-0.0078125,0.0,-0.0078125,false,false,false,false,2.625,12.1,0.0,13303,84,0,4.375,12.05,0.0,0,0,0,4.625,12.1,0.0,5008,-51,0,3.875,12.05,0.0,0,0,0,0.0,12.200000000000001,0.0,1,0,0,0.0,4.0,0.0,0,0,0,kReverse,0.0,0.0,0.0,0.0,0.0,0.0,0.0,0.0,0.0,0.0,0.0,
487.218362,true,true,true,0.0,-0.0078125,0.0,-0.0078125,false,false,false,false,0.0,-0.0078125,0.0,-0.0078125,false,false,false,false,0.0,12.1,0.0,13375,68,0,0.125,12.05,0.0,0,0,0,0.0,12.1,0.0,5004,-4,0,0.0,12.05,0.0,0,0,0,0.0,12.55,0.0,1,0,0,0.0,4.0,0.0,0,0,0,kReverse,0.0,0.0,0.0,0.0,0.0,0.0,0.0,0.0,0.0,0.0,0.0,
487.34148700000003,true,true,true,0.0,-0.0078125,0.0,-0.0078125,false,false,false,false,0.0,-0.0078125,0.0,-0.0078125,false,false,false,false,0.0,12.5,0.0,13431,34,0,0.125,12.5,0.0,0,0,0,0.0,12.5,0.0,5004,0,0,0.0,12.450000000000001,0.0,0,0,0,0.0,12.55,0.0,1,0,0,0.0,4.0,0.0,0,0,0,kReverse,0.0,0.0,0.0,0.0,0.0,0.0,0.0,0.0,0.0,0.0,0.0,
487.44376300000005,true,true,true,0.0,-0.0078125,0.0,-0.0078125,false,false,false,false,0.0,-0.0078125,0.0,-0.0078125,false,false,false,false,0.0,12.5,0.0,13436,10,0,0.125,12.55,0.0,0,0,0,0.0,12.55,0.0,5004,0,0,0.0,12.5,0.0,0,0,0,0.0,12.6,0.0,1,0,0,0.0,4.0,0.0,0,0,0,kReverse,0.0,0.0,0.0,0.0,0.0,0.0,0.0,0.0,0.0,0.0,0.0,
487.538381,true,true,true,0.0,-0.0078125,-0.03125,-0.0078125,false,false,false,false,0.0,-0.0078125,0.0,-0.0078125,false,false,false,false,0.0,12.5,0.0,13436,0,0,0.125,12.55,0.0,0,0,0,0.0,12.55,0.0,5004,0,0,0.0,12.5,0.0,0,0,0,0.0,12.6,0.0,1,0,0,0.0,4.0,0.0,0,0,0,kReverse,0.0,0.0,0.0,0.0,0.0,0.0,0.0,0.0,0.0,0.0,0.0,
487.602707,true,true,true,0.0,-0.0078125,-0.1484375,-0.0078125,false,false,false,false,0.0,-0.0078125,0.0,-0.0078125,false,false,false,false,0.0,12.55,0.0,13435,-1,0,0.125,12.55,0.0,0,0,0,0.0,12.55,0.0,5004,0,0,0.0,12.55,0.0,0,0,0,0.0,12.6,0.0,1,0,0,0.0,4.0,0.0,0,0,0,kReverse,0.0,0.0,0.0,0.0,0.0,0.0,0.0,0.0,0.0,0.0,0.0,
487.693387,true,true,true,0.0,-0.0078125,-0.296875,-0.0078125,false,false,false,false,0.0,-0.0078125,0.0,-0.0078125,false,false,false,false,0.0,12.55,0.0,13435,-1,0,0.125,12.55,0.0,0,0,0,0.125,12.55,0.0,5004,0,0,0.0,12.55,0.0,0,0,0,0.0,12.6,0.0,1,0,0,0.0,4.0,0.0,0,0,0,kReverse,0.0,0.0,0.0,0.0,0.0,0.0,0.0,0.0,0.0,0.0,0.0,
487.792549,true,true,true,0.0,-0.0078125,0.0,-0.0078125,false,false,false,false,0.0,-0.0078125,0.0,-0.0078125,false,false,false,false,1.5,12.4,0.0,13429,-6,0,1.25,12.4,0.0,0,0,0,1.125,12.35,0.0,5006,2,0,0.875,12.35,0.0,0,0,0,0.0,12.450000000000001,0.0,1,0,0,0.0,4.0,0.0,0,0,0,kReverse,0.0,0.0,0.0,0.0,0.0,0.0,0.0,0.0,0.0,0.0,0.0,
487.861775,true,true,true,0.0,-0.0078125,0.0,-0.0078125,false,false,false,false,0.0,-0.0078125,0.0,-0.0078125,false,false,false,false,0.0,12.4,0.0,13429,-2,0,0.125,12.4,0.0,0,0,0,0.0,12.35,0.0,5006,2,0,0.0,12.35,0.0,0,0,0,0.0,12.450000000000001,0.0,1,0,0,0.0,4.0,0.0,0,0,0,kReverse,0.0,0.0,0.0,0.0,0.0,0.0,0.0,0.0,0.0,0.0,0.0,
487.91983799999997,true,true,true,0.0,-0.0078125,0.0,-0.0078125,false,false,false,false,0.0,-0.0078125,0.0,-0.0078125,false,false,false,false,0.0,12.55,0.0,13430,3,0,0.125,12.55,0.0,0,0,0,0.0,12.55,0.0,5006,0,0,0.0,12.55,0.0,0,0,0,0.0,12.6,0.0,1,0,0,0.0,4.0,0.0,0,0,0,kReverse,0.0,0.0,0.0,0.0,0.0,0.0,0.0,0.0,0.0,0.0,0.0,
487.976675,true,true,true,0.0,-0.0078125,0.0,-0.0078125,false,false,false,false,0.0,-0.0078125,0.0,-0.0078125,false,false,false,false,0.0,12.55,0.0,13432,3,0,0.125,12.55,0.0,0,0,0,0.0,12.55,0.0,5006,0,0,0.0,12.55,0.0,0,0,0,0.0,12.6,0.0,1,0,0,0.0,4.0,0.0,0,0,0,kReverse,0.0,0.0,0.0,0.0,0.0,0.0,0.0,0.0,0.0,0.0,0.0,
488.079906,true,true,true,0.0,-0.0078125,0.0,-0.0078125,false,false,false,false,0.0,-0.0078125,0.0,-0.0078125,false,false,false,false,0.0,12.55,0.0,13432,0,0,0.125,12.55,0.0,0,0,0,0.0,12.55,0.0,5006,0,0,0.0,12.55,0.0,0,0,0,0.0,12.6,0.0,1,0,0,0.0,4.0,0.0,0,0,0,kReverse,0.0,0.0,0.0,0.0,0.0,0.0,0.0,0.0,0.0,0.0,0.0,
488.141124,true,true,true,0.0,-0.234375,0.0,-0.0078125,false,false,false,false,0.0,-0.0078125,0.0,-0.0078125,false,false,false,false,0.0,12.55,0.0,13432,0,0,0.125,12.55,0.0,0,0,0,0.0,12.55,0.0,5006,0,0,0.0,12.55,0.0,0,0,0,0.0,12.6,0.0,1,0,0,0.0,4.0,0.0,0,0,0,kReverse,0.0,0.0,0.0,0.0,0.0,0.0,0.0,0.0,0.0,0.0,0.0,
488.315628,true,true,true,0.0,-0.53125,0.0,-0.0078125,false,false,false,false,0.0,-0.0078125,0.0,-0.0078125,false,false,false,false,0.0,12.5,0.0,13449,13,0,0.875,12.5,0.0,0,0,0,0.5,12.5,0.0,5006,0,0,0.0,12.5,0.0,0,0,0,0.0,12.6,0.0,1,0,0,0.0,4.0,0.0,0,0,0,kReverse,0.0,0.0,0.0,0.0,0.0,0.0,0.0,0.0,0.0,0.0,0.0,
488.401392,true,true,true,0.0,-0.5390625,0.0,-0.0078125,false,false,false,false,0.0,-0.0078125,0.0,-0.0078125,false,false,false,false,4.75,11.9,0.0,13466,17,0,7.25,12.05,0.0,0,0,0,5.125,12.0,0.0,5016,10,0,4.125,12.0,0.0,0,0,0,0.0,12.1,0.0,1,0,0,0.0,4.0,0.0,0,0,0,kReverse,0.0,0.0,0.0,0.0,0.0,0.0,0.0,0.0,0.0,0.0,0.0,
488.508441,true,true,true,0.0,-0.5390625,0.0,-0.0078125,false,false,false,false,0.0,-0.0078125,0.0,-0.0078125,false,false,false,false,5.375,11.9,0.0,13496,30,0,8.0,12.05,0.0,0,0,0,6.375,12.0,0.0,5054,38,0,4.875,12.0,0.0,0,0,0,0.0,12.1,0.0,1,0,0,0.0,4.0,0.0,0,0,0,kReverse,0.0,0.0,0.0,0.0,0.0,0.0,0.0,0.0,0.0,0.0,0.0,
488.580555,true,true,true,0.0,-0.5390625,0.0,-0.0078125,false,false,false,false,0.0,-0.0078125,0.0,-0.0078125,false,false,false,false,4.0,11.9,0.0,13535,47,0,6.0,12.0,0.0,0,0,0,4.875,12.0,0.0,5083,29,0,3.625,11.95,0.0,0,0,0,0.0,12.1,0.0,1,0,0,0.0,4.0,0.0,0,0,0,kReverse,0.0,0.0,0.0,0.0,0.0,0.0,0.0,0.0,0.0,0.0,0.0,
488.740927,true,true,true,0.0,-0.5390625,0.0,-0.0078125,false,false,false,false,0.0,-0.0078125,0.0,-0.0078125,false,false,false,false,2.875,12.1,0.0,13652,77,0,4.375,12.1,0.0,0,0,0,4.0,12.1,0.0,5193,92,0,2.625,12.05,0.0,0,0,0,0.0,12.200000000000001,0.0,1,0,0,0.0,4.0,0.0,0,0,0,kReverse,0.0,0.0,0.0,0.0,0.0,0.0,0.0,0.0,0.0,0.0,0.0,
488.82734500000004,true,true,true,0.0,-0.5390625,0.0,-0.0078125,false,false,false,false,0.0,-0.0078125,0.0,-0.0078125,false,false,false,false,3.0,12.1,0.0,13728,93,0,3.875,12.1,0.0,0,0,0,3.625,12.1,0.0,5322,129,0,2.75,12.05,0.0,0,0,0,0.0,12.200000000000001,0.0,1,0,0,0.0,4.0,0.0,0,0,0,kReverse,0.0,0.0,0.0,0.0,0.0,0.0,0.0,0.0,0.0,0.0,0.0,
488.919307,true,true,true,0.0,-0.5390625,0.0,-0.0078125,false,false,false,false,0.0,-0.0078125,0.0,-0.0078125,false,false,false,false,5.25,12.15,0.0,13832,104,0,7.125,12.200000000000001,0.0,0,0,0,6.75,12.15,0.0,5373,79,0,5.75,12.1,0.0,0,0,0,0.0,12.25,0.0,1,0,0,0.0,4.0,0.0,0,0,0,kReverse,0.0,0.0,0.0,0.0,0.0,0.0,0.0,0.0,0.0,0.0,0.0,
489.026423,true,true,true,0.0,-0.5390625,0.0,-0.0078125,false,false,false,false,0.0,-0.0078125,0.0,-0.0078125,false,false,false,false,11.375,11.350000000000001,0.0,13910,78,0,13.375,11.45,0.0,0,0,0,9.625,11.5,0.0,5373,0,0,9.75,11.55,0.0,0,0,0,0.0,11.600000000000001,0.0,1,0,0,0.0,4.0,0.0,0,0,0,kReverse,0.0,0.0,0.0,0.0,0.0,0.0,0.0,0.0,0.0,0.0,0.0,
489.13921500000004,true,true,true,0.0,-0.3828125,0.0,-0.0078125,false,false,false,false,0.0,-0.0078125,0.0,-0.0078125,false,false,false,false,9.5,11.350000000000001,0.0,13963,41,0,11.75,11.45,0.0,0,0,0,9.625,11.5,0.0,5373,0,0,9.375,11.55,0.0,0,0,0,0.0,11.600000000000001,0.0,1,0,0,0.0,4.0,0.0,0,0,0,kReverse,0.0,0.0,0.0,0.0,0.0,0.0,0.0,0.0,0.0,0.0,0.0,
489.219256,true,true,true,0.0,-0.0078125,0.0,-0.0078125,false,false,false,false,0.0,-0.0078125,0.0,-0.0078125,false,false,false,false,7.125,11.600000000000001,0.0,13973,16,0,9.125,11.7,0.0,0,0,0,4.5,11.7,0.0,5377,4,0,4.5,11.7,0.0,0,0,0,0.0,11.8,0.0,1,0,0,0.0,4.0,0.0,0,0,0,kReverse,0.0,0.0,0.0,0.0,0.0,0.0,0.0,0.0,0.0,0.0,0.0,
489.306697,true,true,true,0.0,-0.0078125,0.0,-0.0078125,false,false,false,false,0.0,-0.0078125,0.0,-0.0078125,false,false,false,false,0.0,11.600000000000001,0.0,13969,-3,0,0.125,11.7,0.0,0,0,0,0.0,11.7,0.0,5377,2,0,0.0,11.7,0.0,0,0,0,0.0,11.8,0.0,1,0,0,0.0,4.0,0.0,0,0,0,kReverse,0.0,0.0,0.0,0.0,0.0,0.0,0.0,0.0,0.0,0.0,0.0,
489.39584,true,true,true,0.0,0.0,0.0,-0.0078125,false,false,false,false,0.0,-0.0078125,0.0,-0.0078125,false,false,false,false,0.0,12.450000000000001,0.0,13953,-16,0,0.125,12.450000000000001,0.0,0,0,0,0.0,12.450000000000001,0.0,5367,-10,0,0.0,12.450000000000001,0.0,0,0,0,0.0,12.55,0.0,1,0,0,0.0,4.0,0.0,0,0,0,kReverse,0.0,0.0,0.0,0.0,0.0,0.0,0.0,0.0,0.0,0.0,0.0,
489.61454399999997,true,true,true,0.0,0.6220472455024719,0.0,-0.0078125,false,false,false,false,0.0,-0.0078125,0.0,-0.0078125,false,false,false,false,0.0,12.5,0.0,13939,-2,0,0.125,12.5,0.0,0,0,0,0.875,12.5,0.0,5364,0,0,0.0,12.5,0.0,0,0,0,0.0,12.6,0.0,1,0,0,0.0,4.0,0.0,0,0,0,kReverse,0.0,0.0,0.0,0.0,0.0,0.0,0.0,0.0,0.0,0.0,0.0,
489.814337,true,true,true,0.0,0.4566929042339325,0.0,-0.0078125,false,false,false,false,0.0,-0.0078125,0.0,-0.0078125,false,false,false,false,5.375,11.850000000000001,0.0,13881,-43,0,8.25,11.7,0.0,0,0,0,7.875,11.65,0.0,5237,-79,0,6.625,11.65,0.0,0,0,0,0.0,11.850000000000001,0.0,1,0,0,0.0,4.0,0.0,0,0,0,kReverse,0.0,0.0,0.0,0.0,0.0,0.0,0.0,0.0,0.0,0.0,0.0,
489.960093,true,true,true,0.0,0.3937007784843445,0.0,-0.0078125,false,false,false,false,0.0,-0.0078125,0.0,-0.0078125,false,false,false,false,2.0,11.7,0.0,13758,-84,0,2.25,12.25,0.0,0,0,0,2.625,12.25,0.0,5138,-51,0,1.875,12.25,0.0,0,0,0,0.0,12.35,0.0,1,0,0,0.0,4.0,0.0,0,0,0,kReverse,0.0,0.0,0.0,0.0,0.0,0.0,0.0,0.0,0.0,0.0,0.0,
490.191418,true,true,true,0.0,0.3858267664909363,0.0,-0.0078125,false,false,false,false,0.0,-0.0078125,0.0,-0.0078125,false,false,false,false,0.0,12.35,0.0,13528,-111,0,1.25,12.35,0.0,0,0,0,1.375,12.35,0.0,5138,0,0,0.875,12.35,0.0,0,0,0,0.0,12.450000000000001,0.0,1,0,0,0.0,4.0,0.0,0,0,0,kReverse,0.0,0.0,0.0,0.0,0.0,0.0,0.0,0.0,0.0,0.0,0.0,
490.35273700000005,true,true,true,0.0,0.3858267664909363,0.0,-0.0078125,false,false,false,false,0.0,-0.0078125,0.0,-0.0078125,false,false,false,false,0.0,12.4,0.0,13345,-115,0,0.875,12.4,0.0,0,0,0,0.875,12.4,0.0,5138,0,0,0.0,12.4,0.0,0,0,0,0.0,12.450000000000001,0.0,1,0,0,0.0,4.0,0.0,0,0,0,kReverse,0.0,0.0,0.0,0.0,0.0,0.0,0.0,0.0,0.0,0.0,0.0,
490.474794,true,true,true,0.0,0.3779527544975281,0.0,-0.0078125,false,false,false,false,0.0,-0.0078125,0.0,-0.0078125,false,false,false,false,0.0,12.4,0.0,13208,-114,0,0.875,12.4,0.0,0,0,0,0.875,12.4,0.0,5138,0,0,0.0,12.4,0.0,0,0,0,0.0,12.5,0.0,1,0,0,0.0,4.0,0.0,0,0,0,kReverse,0.0,0.0,0.0,0.0,0.0,0.0,0.0,0.0,0.0,0.0,0.0,
490.55071100000004,true,true,true,0.0,0.3779527544975281,0.0,-0.0078125,false,false,false,false,0.0,-0.0078125,0.0,-0.0078125,false,false,false,false,0.0,12.4,0.0,13117,-114,0,0.75,12.4,0.0,0,0,0,0.625,12.4,0.0,5138,0,0,0.0,12.4,0.0,0,0,0,0.0,12.5,0.0,1,0,0,0.0,4.0,0.0,0,0,0,kReverse,0.0,0.0,0.0,0.0,0.0,0.0,0.0,0.0,0.0,0.0,0.0,
490.638953,true,true,true,0.0,0.3779527544975281,0.0,-0.0078125,false,false,false,false,0.0,-0.0078125,0.0,-0.0078125,false,false,false,false,0.0,12.4,0.0,13003,-114,0,0.75,12.4,0.0,0,0,0,0.875,12.4,0.0,5138,0,0,0.0,12.4,0.0,0,0,0,0.0,12.5,0.0,1,0,0,0.0,4.0,0.0,0,0,0,kReverse,0.0,0.0,0.0,0.0,0.0,0.0,0.0,0.0,0.0,0.0,0.0,
490.688532,true,true,true,0.0,0.3779527544975281,0.0,-0.0078125,false,false,false,false,0.0,-0.0078125,0.0,-0.0078125,false,false,false,false,0.0,12.4,0.0,12958,-113,0,0.75,12.4,0.0,0,0,0,0.875,12.4,0.0,5138,0,0,0.0,12.4,0.0,0,0,0,0.0,12.5,0.0,1,0,0,0.0,4.0,0.0,0,0,0,kReverse,0.0,0.0,0.0,0.0,0.0,0.0,0.0,0.0,0.0,0.0,0.0,
490.79760500000003,true,true,true,0.0,0.3779527544975281,0.0,-0.0078125,false,false,false,false,0.0,-0.0078125,0.0,-0.0078125,false,false,false,false,0.0,12.4,0.0,12819,-116,0,0.75,12.450000000000001,0.0,0,0,0,0.625,12.4,0.0,5138,0,0,0.0,12.4,0.0,0,0,0,0.0,12.55,0.0,1,0,0,0.0,4.0,0.0,0,0,0,kReverse,0.0,0.0,0.0,0.0,0.0,0.0,0.0,0.0,0.0,0.0,0.0,
490.881932,true,true,true,0.0,0.4409448802471161,0.0,-0.0078125,false,false,false,false,0.0,-0.0078125,0.0,-0.0078125,false,false,false,false,0.0,12.4,0.0,12727,-116,0,0.75,12.450000000000001,0.0,0,0,0,0.875,12.4,0.0,5138,0,0,0.0,12.4,0.0,0,0,0,0.0,12.55,0.0,1,0,0,0.0,4.0,0.0,0,0,0,kReverse,0.0,0.0,0.0,0.0,0.0,0.0,0.0,0.0,0.0,0.0,0.0,
490.94061999999997,true,true,true,0.0,0.9212598204612732,0.0,-0.0078125,false,false,false,false,0.0,-0.0078125,0.0,-0.0078125,false,false,false,false,0.0,12.4,0.0,12679,-117,0,1.625,12.35,0.0,0,0,0,1.5,12.35,0.0,5138,0,0,0.875,12.35,0.0,0,0,0,0.0,12.450000000000001,0.0,1,0,0,0.0,4.0,0.0,0,0,0,kReverse,0.0,0.0,0.0,0.0,0.0,0.0,0.0,0.0,0.0,0.0,0.0,
491.116027,true,true,true,0.0,1.0,0.0,-0.0078125,false,false,false,false,0.0,-0.0078125,0.0,-0.0078125,false,false,false,false,6.125,11.75,0.0,12392,-155,0,7.875,11.8,0.0,0,0,0,8.875,11.75,0.0,5138,0,0,7.625,11.75,0.0,0,0,0,0.0,11.9,0.0,1,0,0,0.0,4.0,0.0,0,0,0,kReverse,0.0,0.0,0.0,0.0,0.0,0.0,0.0,0.0,0.0,0.0,0.0,
491.283034,true,true,true,0.0,1.0,0.0,-0.0078125,false,false,false,false,0.0,-0.0078125,0.0,-0.0078125,false,false,false,false,7.5,11.350000000000001,0.0,12052,-231,0,10.875,11.4,0.0,0,0,0,10.875,11.45,0.0,5138,0,0,8.5,11.45,0.0,0,0,0,0.0,11.600000000000001,0.0,1,0,0,0.0,4.0,0.0,0,0,0,kReverse,0.0,0.0,0.0,0.0,0.0,0.0,0.0,0.0,0.0,0.0,0.0,
491.372222,true,true,true,0.0,1.0,0.0,-0.0078125,false,false,false,false,0.0,-0.0078125,0.0,-0.0078125,false,false,false,false,6.125,11.350000000000001,0.0,11839,-263,0,9.0,11.4,0.0,0,0,0,9.0,11.45,0.0,5138,0,0,6.75,11.45,0.0,0,0,0,0.0,11.600000000000001,0.0,1,0,0,0.0,4.0,0.0,0,0,0,kReverse,0.0,0.0,0.0,0.0,0.0,0.0,0.0,0.0,0.0,0.0,0.0,
491.46584500000006,true,true,true,0.0,1.0,0.0,-0.0078125,false,false,false,false,0.0,-0.0078125,0.0,-0.0078125,false,false,false,false,4.75,11.7,0.0,11554,-285,0,7.75,11.75,0.0,0,0,0,7.5,11.7,0.0,5138,0,0,5.125,11.75,0.0,0,0,0,0.0,11.850000000000001,0.0,1,0,0,0.0,4.0,0.0,0,0,0,kReverse,0.0,0.0,0.0,0.0,0.0,0.0,0.0,0.0,0.0,0.0,0.0,
491.548903,true,true,true,0.0,1.0,0.20472441613674164,-0.0078125,false,false,false,false,0.0,-0.0078125,0.0,-0.0078125,false,false,false,false,5.0,11.7,0.0,11316,-297,0,7.0,11.75,0.0,0,0,0,7.75,11.7,0.0,5138,0,0,4.75,11.75,0.0,0,0,0,0.0,11.850000000000001,0.0,1,0,0,0.0,4.0,0.0,0,0,0,kReverse,0.0,0.0,0.0,0.0,0.0,0.0,0.0,0.0,0.0,0.0,0.0,
491.63731700000005,true,true,true,0.0,0.4094488322734833,0.3385826647281647,-0.0078125,false,false,false,false,0.0,-0.0078125,0.0,-0.0078125,false,false,false,false,0.0,11.8,0.0,11079,-297,0,0.875,11.8,0.0,0,0,0,12.5,11.8,0.0,5138,0,0,9.75,11.75,0.0,0,0,0,0.0,11.9,0.0,1,0,0,0.0,4.0,0.0,0,0,0,kReverse,0.0,0.0,0.0,0.0,0.0,0.0,0.0,0.0,0.0,0.0,0.0,
491.720555,true,true,true,0.0,-0.0078125,1.0,-0.0078125,false,false,false,false,0.0,-0.0078125,0.0,-0.0078125,false,false,false,false,0.0,11.8,0.0,10821,-258,0,0.375,11.8,0.0,0,0,0,0.625,11.8,0.0,5138,0,0,0.0,11.75,0.0,0,0,0,0.0,11.9,0.0,1,0,0,0.0,4.0,0.0,0,0,0,kReverse,0.0,0.0,0.0,0.0,0.0,0.0,0.0,0.0,0.0,0.0,0.0,
491.79105400000003,true,true,true,0.0,-0.0078125,1.0,-0.0078125,false,false,false,false,0.0,-0.0078125,0.0,-0.0078125,false,false,false,false,36.5,11.600000000000001,0.0,10709,-206,0,45.625,11.9,0.0,0,0,0,3.0,11.9,0.0,5138,0,0,1.375,12.05,0.0,0,0,0,0.0,12.15,0.0,1,0,0,0.0,4.0,0.0,0,0,0,kReverse,0.0,0.0,0.0,0.0,0.0,0.0,0.0,0.0,0.0,0.0,0.0,
491.876017,true,true,true,0.0,-0.0078125,1.0,-0.0078125,false,false,false,false,0.0,-0.0078125,0.0,-0.0078125,false,false,false,false,29.25,11.600000000000001,0.0,10623,-118,0,36.375,11.9,0.0,0,0,0,7.25,11.9,0.0,5138,0,0,4.875,12.05,0.0,0,0,0,0.0,11.0,0.0,1,0,0,0.0,4.0,0.0,0,0,0,kReverse,0.0,0.0,0.0,0.0,0.0,0.0,0.0,0.0,0.0,0.0,0.0,
491.965642,true,true,true,0.0,-0.0078125,0.0,-0.0078125,false,false,false,false,0.0,-0.0078125,0.0,-0.0078125,false,false,false,false,21.875,10.55,0.0,10588,-35,0,28.75,10.850000000000001,0.0,0,0,0,11.875,10.850000000000001,0.0,5138,0,0,8.5,10.9,0.0,0,0,0,0.0,11.0,0.0,1,0,0,0.0,4.0,0.0,0,0,0,kReverse,0.0,0.0,0.0,0.0,0.0,0.0,0.0,0.0,0.0,0.0,0.0,
492.05841399999997,true,true,true,0.0,-0.0078125,-0.71875,-0.0078125,false,false,false,false,0.0,-0.0078125,0.0,-0.0078125,false,false,false,false,0.0,12.4,0.0,10596,8,0,0.125,12.4,0.0,0,0,0,0.125,12.4,0.0,5138,0,0,0.0,12.4,0.0,0,0,0,0.0,12.450000000000001,0.0,1,0,0,0.0,4.0,0.0,0,0,0,kReverse,0.0,0.0,0.0,0.0,0.0,0.0,0.0,0.0,0.0,0.0,0.0,
492.214019,true,true,true,0.0,-0.0078125,-0.7578125,-0.0078125,false,false,false,false,0.0,-0.0078125,0.0,-0.0078125,false,false,false,false,0.0,12.4,0.0,10593,-3,0,0.125,12.35,0.0,0,0,0,2.0,12.35,0.0,5138,0,0,0.0,12.4,0.0,0,0,0,0.0,12.450000000000001,0.0,1,0,0,0.0,4.0,0.0,0,0,0,kReverse,0.0,0.0,0.0,0.0,0.0,0.0,0.0,0.0,0.0,0.0,0.0,
492.33761100000004,true,true,true,0.0,-0.0078125,0.0,-0.0078125,false,false,false,false,0.0,-0.0078125,0.0,-0.0078125,false,false,false,false,19.25,12.1,0.0,10555,-36,0,26.125,12.35,0.0,0,0,0,12.375,12.35,0.0,5138,0,0,13.375,12.4,0.0,0,0,0,0.0,12.450000000000001,0.0,1,0,0,0.0,4.0,0.0,0,0,0,kReverse,0.0,0.0,0.0,0.0,0.0,0.0,0.0,0.0,0.0,0.0,0.0,
492.447456,true,true,true,0.0,-0.0078125,0.0,-0.0078125,false,false,false,false,0.0,-0.0078125,0.0,-0.0078125,false,false,false,false,0.0,12.35,0.0,10491,-64,0,0.125,12.3,0.0,0,0,0,0.0,12.25,0.0,5138,0,0,0.0,12.200000000000001,0.0,0,0,0,0.0,12.35,0.0,1,0,0,0.0,4.0,0.0,0,0,0,kReverse,0.0,0.0,0.0,0.0,0.0,0.0,0.0,0.0,0.0,0.0,0.0,
492.57711,true,true,true,0.0,-0.0078125,-1.0,-0.0078125,false,false,false,false,0.0,-0.0078125,0.0,-0.0078125,false,false,false,false,5.0,12.450000000000001,0.0,10413,-53,0,0.125,12.450000000000001,0.0,0,0,0,1.375,12.450000000000001,0.0,5138,0,0,5.875,12.450000000000001,0.0,0,0,0,0.0,12.55,0.0,1,0,0,0.0,4.0,0.0,0,0,0,kReverse,0.0,0.0,0.0,0.0,0.0,0.0,0.0,0.0,0.0,0.0,0.0,
492.749518,true,true,true,0.0,-0.0078125,0.0,-0.0078125,false,false,false,false,0.0,-0.0078125,0.0,-0.0078125,false,false,false,false,17.375,10.4,0.0,10309,-74,0,21.375,10.5,0.0,0,0,0,14.75,10.65,0.0,5138,0,0,16.375,10.5,0.0,0,0,0,0.0,10.7,0.0,1,0,0,0.0,4.0,0.0,0,0,0,kReverse,0.0,0.0,0.0,0.0,0.0,0.0,0.0,0.0,0.0,0.0,0.0,
492.874006,true,true,true,0.0,-0.0078125,0.0,-0.0078125,false,false,false,false,0.0,-0.0078125,0.0,-0.0078125,false,false,false,false,0.0,12.4,0.0,10188,-99,0,0.125,12.4,0.0,0,0,0,0.0,12.4,0.0,5138,0,0,0.0,12.4,0.0,0,0,0,0.0,12.450000000000001,0.0,1,0,0,0.0,4.0,0.0,0,0,0,kReverse,0.0,0.0,0.0,0.0,0.0,0.0,0.0,0.0,0.0,0.0,0.0,
492.92724,true,true,true,0.0,-0.0078125,0.14173229038715363,-0.0078125,false,false,false,false,0.0,-0.0078125,0.0,-0.0078125,false,false,false,false,0.0,12.4,0.0,10131,-93,0,0.125,12.4,0.0,0,0,0,0.0,12.4,0.0,5138,0,0,0.0,12.4,0.0,0,0,0,0.0,12.450000000000001,0.0,1,0,0,0.0,4.0,0.0,0,0,0,kReverse,0.0,0.0,0.0,0.0,0.0,0.0,0.0,0.0,0.0,0.0,0.0,
493.017399,true,true,true,0.0,-0.0078125,1.0,-0.0078125,false,false,false,false,0.0,-0.0078125,0.0,-0.0078125,false,false,false,false,0.0,12.4,0.0,10066,-84,0,0.75,12.3,0.0,0,0,0,10.875,12.25,0.0,5138,0,0,6.875,12.35,0.0,0,0,0,0.0,12.450000000000001,0.0,1,0,0,0.0,4.0,0.0,0,0,0,kReverse,0.0,0.0,0.0,0.0,0.0,0.0,0.0,0.0,0.0,0.0,0.0,
493.181799,true,true,true,0.0,-0.0078125,0.0,-0.0078125,false,false,false,false,0.0,-0.0078125,0.0,-0.0078125,false,false,false,false,14.875,10.8,0.0,10033,10,0,24.125,10.7,0.0,0,0,0,14.75,10.7,0.0,5138,0,0,15.375,10.65,0.0,0,0,0,0.0,10.9,0.0,1,0,0,0.0,4.0,0.0,0,0,0,kReverse,0.0,0.0,0.0,0.0,0.0,0.0,0.0,0.0,0.0,0.0,0.0,
493.299941,true,true,true,0.0,-0.0078125,0.0,-0.0078125,false,false,false,false,0.0,-0.0078125,0.0,-0.0078125,false,false,false,false,0.0,10.8,0.0,10091,48,0,0.25,10.7,0.0,0,0,0,0.0,10.7,0.0,5138,0,0,0.0,10.65,0.0,0,0,0,0.0,10.9,0.0,1,0,0,0.0,4.0,0.0,0,0,0,kReverse,0.0,0.0,0.0,0.0,0.0,0.0,0.0,0.0,0.0,0.0,0.0,
493.40092000000004,true,true,true,0.0,-0.0078125,0.0,-0.0078125,false,false,false,false,0.0,-0.0078125,0.0,-0.0078125,false,false,false,false,0.0,12.4,0.0,10146,55,0,0.125,12.4,0.0,0,0,0,0.0,12.4,0.0,5138,0,0,0.0,12.4,0.0,0,0,0,0.0,12.5,0.0,1,0,0,0.0,4.0,0.0,0,0,0,kReverse,0.0,0.0,0.0,0.0,0.0,0.0,0.0,0.0,0.0,0.0,0.0,
493.461221,true,true,true,0.0,-0.0078125,0.0,-0.0078125,false,false,false,false,0.0,-0.0078125,0.0,-0.0078125,false,false,false,false,0.0,12.4,0.0,10166,41,0,0.125,12.4,0.0,0,0,0,0.0,12.4,0.0,5138,0,0,0.0,12.4,0.0,0,0,0,0.0,12.5,0.0,1,0,0,0.0,4.0,0.0,0,0,0,kReverse,0.0,0.0,0.0,0.0,0.0,0.0,0.0,0.0,0.0,0.0,0.0,
493.558967,true,true,true,0.0,-0.140625,0.0,-0.0078125,false,false,false,false,0.0,-0.0078125,0.0,-0.0078125,false,false,false,false,0.0,12.450000000000001,0.0,10180,14,0,0.25,12.450000000000001,0.0,0,0,0,0.0,12.450000000000001,0.0,5138,0,0,0.0,12.450000000000001,0.0,0,0,0,0.0,12.55,0.0,1,0,0,0.0,4.0,0.0,0,0,0,kReverse,0.0,0.0,0.0,0.0,0.0,0.0,0.0,0.0,0.0,0.0,0.0,
493.704875,true,true,true,0.0,-0.375,0.0,-0.0078125,false,false,false,false,0.0,-0.0078125,0.0,-0.0078125,false,false,false,false,0.0,12.4,0.0,10188,6,0,0.625,12.450000000000001,0.0,0,0,0,0.125,12.450000000000001,0.0,5138,0,0,0.0,12.4,0.0,0,0,0,0.0,12.5,0.0,1,0,0,0.0,4.0,0.0,0,0,0,kReverse,0.0,0.0,0.0,0.0,0.0,0.0,0.0,0.0,0.0,0.0,0.0,
493.798827,true,true,true,0.0,-0.3828125,-0.3203125,-0.0078125,false,false,false,false,0.0,-0.0078125,0.0,-0.0078125,false,false,false,false,3.0,12.4,0.0,10201,13,0,4.375,12.450000000000001,0.0,0,0,0,3.125,12.450000000000001,0.0,5138,0,0,2.125,12.4,0.0,0,0,0,0.0,12.200000000000001,0.0,1,0,0,0.0,4.0,0.0,0,0,0,kReverse,0.0,0.0,0.0,0.0,0.0,0.0,0.0,0.0,0.0,0.0,0.0,
493.897831,true,true,true,0.0,-0.390625,-0.2109375,-0.0078125,false,false,false,false,0.0,-0.0078125,0.0,-0.0078125,false,false,false,false,0.0,12.05,0.0,10212,11,0,0.25,12.05,0.0,0,0,0,11.125,12.05,0.0,5138,0,0,10.5,12.1,0.0,0,0,0,0.0,12.200000000000001,0.0,1,0,0,0.0,4.0,0.0,0,0,0,kReverse,0.0,0.0,0.0,0.0,0.0,0.0,0.0,0.0,0.0,0.0,0.0,
494.02016000000003,true,true,true,0.0,-0.390625,0.0,-0.0078125,false,false,false,false,0.0,-0.0078125,0.0,-0.0078125,false,false,false,false,0.625,12.0,0.0,10233,19,0,0.625,12.0,0.0,0,0,0,7.875,11.95,0.0,5138,0,0,5.25,12.0,0.0,0,0,0,0.0,12.1,0.0,1,0,0,0.0,4.0,0.0,0,0,0,kReverse,0.0,0.0,0.0,0.0,0.0,0.0,0.0,0.0,0.0,0.0,0.0,
494.17879700000003,true,true,true,0.0,-0.390625,0.0,-0.0078125,false,false,false,false,0.0,-0.0078125,0.0,-0.0078125,false,false,false,false,2.375,12.25,0.0,10303,49,0,2.5,12.3,0.0,0,0,0,1.125,12.25,0.0,5138,0,0,0.0,12.25,0.0,0,0,0,0.0,12.4,0.0,1,0,0,0.0,4.0,0.0,0,0,0,kReverse,0.0,0.0,0.0,0.0,0.0,0.0,0.0,0.0,0.0,0.0,0.0,
494.369846,true,true,true,0.0,-0.390625,0.023622047156095505,-0.0078125,false,false,false,false,0.0,-0.0078125,0.0,-0.0078125,false,false,false,false,0.625,12.35,0.0,10419,68,0,2.0,12.35,0.0,0,0,0,1.0,12.35,0.0,5138,0,0,0.0,12.35,0.0,0,0,0,0.0,12.4,0.0,1,0,0,0.0,4.0,0.0,0,0,0,kReverse,0.0,0.0,0.0,0.0,0.0,0.0,0.0,0.0,0.0,0.0,0.0,
494.487949,true,true,true,0.0,-0.390625,0.22834645211696625,-0.0078125,false,false,false,false,0.0,-0.0078125,0.0,-0.0078125,false,false,false,false,1.75,12.3,0.0,10512,79,0,3.5,12.35,0.0,0,0,0,0.5,12.35,0.0,5138,0,0,0.0,12.35,0.0,0,0,0,0.0,12.450000000000001,0.0,1,0,0,0.0,4.0,0.0,0,0,0,kReverse,0.0,0.0,0.0,0.0,0.0,0.0,0.0,0.0,0.0,0.0,0.0,
494.621435,true,true,true,0.0,-0.390625,0.0,-0.0078125,false,false,false,false,0.0,-0.0078125,0.0,-0.0078125,false,false,false,false,4.0,12.200000000000001,0.0,10650,102,0,5.375,12.25,0.0,0,0,0,0.125,12.25,0.0,5138,0,0,0.0,12.25,0.0,0,0,0,0.0,12.35,0.0,1,0,0,0.0,4.0,0.0,0,0,0,kReverse,0.0,0.0,0.0,0.0,0.0,0.0,0.0,0.0,0.0,0.0,0.0,
494.798506,true,true,true,0.0,-0.390625,0.0,-0.0078125,false,false,false,false,0.0,-0.0078125,0.0,-0.0078125,false,false,false,false,0.0,12.35,0.0,10863,122,0,1.375,12.4,0.0,0,0,0,0.875,12.4,0.0,5138,0,0,0.0,12.35,0.0,0,0,0,0.0,12.450000000000001,0.0,1,0,0,0.0,4.0,0.0,0,0,0,kReverse,0.0,0.0,0.0,0.0,0.0,0.0,0.0,0.0,0.0,0.0,0.0,
494.887263,true,true,true,0.0,-0.390625,0.0,-0.0078125,false,false,false,false,0.0,-0.0078125,0.0,-0.0078125,false,false,false,false,0.0,12.35,0.0,10957,118,0,1.625,12.4,0.0,0,0,0,0.625,12.4,0.0,5138,0,0,0.0,12.35,0.0,0,0,0,0.0,12.450000000000001,0.0,1,0,0,0.0,4.0,0.0,0,0,0,kReverse,0.0,0.0,0.0,0.0,0.0,0.0,0.0,0.0,0.0,0.0,0.0,
495.01612200000005,true,true,true,0.0,-0.390625,0.0,-0.0078125,false,false,false,false,0.0,-0.0078125,0.0,-0.0078125,false,false,false,false,0.0,12.4,0.0,11097,117,0,1.625,12.4,0.0,0,0,0,0.625,12.4,0.0,5138,0,0,0.0,12.35,0.0,0,0,0,0.0,12.450000000000001,0.0,1,0,0,0.0,4.0,0.0,0,0,0,kReverse,0.0,0.0,0.0,0.0,0.0,0.0,0.0,0.0,0.0,0.0,0.0,
495.124414,true,true,true,0.0,0.0,0.0,0.0,false,false,false,false,0.0,-0.0078125,0.0,-0.0078125,false,false,false,false,0.0,12.4,0.0,11239,119,0,0.625,12.4,0.0,0,0,0,0.25,12.4,0.0,5138,0,0,0.0,12.4,0.0,0,0,0,0.0,12.450000000000001,0.0,1,0,0,0.0,4.0,0.0,0,0,0,kReverse,0.0,0.0,0.0,0.0,0.0,0.0,0.0,0.0,0.0,0.0,0.0,
495.328504,true,true,true,0.0,-0.390625,-0.2109375,-0.0078125,false,false,false,false,0.0,-0.0078125,0.0,-0.0078125,false,false,false,false,0.0,12.55,0.0,11434,92,0,0.25,12.55,0.0,0,0,0,0.375,12.55,0.0,5138,0,0,0.0,12.55,0.0,0,0,0,0.0,12.6,0.0,1,0,0,0.0,4.0,0.0,0,0,0,kReverse,0.0,0.0,0.0,0.0,0.0,0.0,0.0,0.0,0.0,0.0,0.0,
495.447408,true,true,true,0.0,-0.390625,0.0,-0.0078125,false,false,false,false,0.0,-0.0078125,0.0,-0.0078125,false,false,false,false,0.0,12.25,0.0,11553,82,0,0.375,12.25,0.0,0,0,0,3.5,12.200000000000001,0.0,5138,0,0,2.875,12.15,0.0,0,0,0,0.0,12.35,0.0,1,0,0,0.0,4.0,0.0,0,0,0,kReverse,0.0,0.0,0.0,0.0,0.0,0.0,0.0,0.0,0.0,0.0,0.0,
495.54956599999997,true,true,true,0.0,-0.390625,0.0,-0.0078125,false,false,false,false,0.0,-0.0078125,0.0,-0.0078125,false,false,false,false,0.0,12.25,0.0,11621,84,0,1.625,12.25,0.0,0,0,0,1.0,12.200000000000001,0.0,5138,0,0,0.0,12.15,0.0,0,0,0,0.0,12.35,0.0,1,0,0,0.0,4.0,0.0,0,0,0,kReverse,0.0,0.0,0.0,0.0,0.0,0.0,0.0,0.0,0.0,0.0,0.0,
495.623974,true,true,true,0.0,-0.390625,0.0,-0.0078125,false,false,false,false,0.0,-0.0078125,0.0,-0.0078125,false,false,false,false,1.125,12.35,0.0,11697,94,0,2.125,12.35,0.0,0,0,0,1.0,12.4,0.0,5138,0,0,0.0,12.35,0.0,0,0,0,0.0,12.450000000000001,0.0,1,0,0,0.0,4.0,0.0,0,0,0,kReverse,0.0,0.0,0.0,0.0,0.0,0.0,0.0,0.0,0.0,0.0,0.0,
495.837551,true,true,true,0.0,-0.390625,-0.328125,-0.0078125,false,false,false,false,0.0,-0.0078125,0.0,-0.0078125,false,false,false,false,0.0,12.4,0.0,11921,103,0,0.875,12.4,0.0,0,0,0,4.875,12.4,0.0,5138,0,0,4.125,12.35,0.0,0,0,0,0.0,12.450000000000001,0.0,1,0,0,0.0,4.0,0.0,0,0,0,kReverse,0.0,0.0,0.0,0.0,0.0,0.0,0.0,0.0,0.0,0.0,0.0,
496.06804600000004,true,true,true,0.0,-0.296875,0.0,-0.0078125,false,false,false,false,0.0,-0.0078125,0.0,-0.0078125,false,false,false,false,0.0,12.15,0.0,12113,90,0,0.125,12.15,0.0,0,0,0,5.5,12.1,0.0,5138,0,0,4.5,12.05,0.0,0,0,0,0.0,12.200000000000001,0.0,1,0,0,0.0,4.0,0.0,0,0,0,kReverse,0.0,0.0,0.0,0.0,0.0,0.0,0.0,0.0,0.0,0.0,0.0,
496.20404500000006,true,true,true,0.0,-0.296875,0.0,-0.0078125,false,false,false,false,0.0,-0.0078125,0.0,-0.0078125,false,false,false,false,0.0,12.15,0.0,12255,103,0,0.375,12.15,0.0,0,0,0,0.0,12.1,0.0,5138,0,0,0.0,12.5,0.0,0,0,0,0.0,12.6,0.0,1,0,0,0.0,4.0,0.0,0,0,0,kReverse,0.0,0.0,0.0,0.0,0.0,0.0,0.0,0.0,0.0,0.0,0.0,
496.339872,true,true,true,0.0,-0.296875,0.5590550899505615,-0.0078125,false,false,false,false,0.0,-0.0078125,0.0,-0.0078125,false,false,false,false,2.875,12.5,0.0,12411,112,0,0.375,12.55,0.0,0,0,0,1.0,12.5,0.0,5138,0,0,0.0,12.5,0.0,0,0,0,0.0,12.6,0.0,1,0,0,0.0,4.0,0.0,0,0,0,kReverse,0.0,0.0,0.0,0.0,0.0,0.0,0.0,0.0,0.0,0.0,0.0,
496.482586,true,true,true,0.0,-0.296875,0.0,-0.0078125,false,false,false,false,0.0,-0.0078125,0.0,-0.0078125,false,false,false,false,9.375,12.0,0.0,12601,141,0,13.5,12.05,0.0,0,0,0,2.125,12.05,0.0,5138,0,0,1.75,12.05,0.0,0,0,0,0.0,12.15,0.0,1,0,0,0.0,4.0,0.0,0,0,0,kReverse,0.0,0.0,0.0,0.0,0.0,0.0,0.0,0.0,0.0,0.0,0.0,
496.686946,true,true,true,0.0,-0.296875,0.0,-0.0078125,false,false,false,false,0.0,-0.0078125,0.0,-0.0078125,false,false,false,false,0.0,12.4,0.0,12851,115,0,0.375,12.450000000000001,0.0,0,0,0,0.5,12.450000000000001,0.0,5138,0,0,0.0,12.450000000000001,0.0,0,0,0,0.0,12.55,0.0,1,0,0,0.0,4.0,0.0,0,0,0,kReverse,0.0,0.0,0.0,0.0,0.0,0.0,0.0,0.0,0.0,0.0,0.0,
496.82698100000005,true,true,true,0.0,-0.2265625,0.0,-0.0078125,false,false,false,false,0.0,-0.0078125,0.0,-0.0078125,false,false,false,false,0.0,12.450000000000001,0.0,12975,85,0,1.0,12.450000000000001,0.0,0,0,0,0.375,12.450000000000001,0.0,5138,0,0,0.0,12.450000000000001,0.0,0,0,0,0.0,12.55,0.0,1,0,0,0.0,4.0,0.0,0,0,0,kReverse,0.0,0.0,0.0,0.0,0.0,0.0,0.0,0.0,0.0,0.0,0.0,
496.90362100000004,true,true,true,0.0,-0.2265625,0.0,-0.0078125,false,false,false,false,0.0,-0.0078125,0.0,-0.0078125,false,false,false,false,0.0,12.5,0.0,13038,79,0,0.375,12.5,0.0,0,0,0,0.125,12.5,0.0,5138,0,0,0.0,12.450000000000001,0.0,0,0,0,0.0,12.6,0.0,1,0,0,0.0,4.0,0.0,0,0,0,kReverse,0.0,0.0,0.0,0.0,0.0,0.0,0.0,0.0,0.0,0.0,0.0,
497.031935,true,true,true,0.0,-0.328125,0.0,-0.0078125,false,false,false,false,0.0,-0.0078125,0.0,-0.0078125,false,false,false,false,0.0,12.5,0.0,13126,73,0,0.625,12.55,0.0,0,0,0,0.125,12.5,0.0,5138,0,0,0.0,12.5,0.0,0,0,0,0.0,12.6,0.0,1,0,0,0.0,4.0,0.0,0,0,0,kReverse,0.0,0.0,0.0,0.0,0.0,0.0,0.0,0.0,0.0,0.0,0.0,
497.195737,true,true,true,0.0,-0.484375,0.0,-0.0078125,false,false,false,false,0.0,-0.0078125,0.0,-0.0078125,false,false,false,false,1.75,12.4,0.0,13264,79,0,1.875,12.4,0.0,0,0,0,1.125,12.4,0.0,5138,0,0,1.5,12.4,0.0,0,0,0,0.0,12.5,0.0,1,0,0,0.0,4.0,0.0,0,0,0,kReverse,0.0,0.0,0.0,0.0,0.0,0.0,0.0,0.0,0.0,0.0,0.0,
