timer,lineLeft,lineCenter,lineRight,driverLeftX,driverLeftY,driverRightX,driverRightY,driverA,driverB,driverX,driverY,operatorLeftX,operatorLeftY,operatorRightX,operatorRightY,operatorA,operatorB,operatorX,operatorY,LeftFrontCurrent,LeftFrontVoltage,LeftFrontValue,LeftFrontPosition,LeftFrontVelocity,LeftFrontFaults,LeftRearCurrent,LeftRearVoltage,LeftRearValue,LeftRearPosition,LeftRearVelocity,LeftRearFaults,RightFrontCurrent,RightFrontVoltage,RightFrontValue,RightFrontPosition,RightFrontVelocity,RightFrontFaults,RightRearCurrent,RightRearVoltage,RightRearValue,RightRearPosition,RightRearVelocity,RightRearFaults,LiftCurrent,LiftVoltage,LiftValue,LiftPosition,LiftVelocity,LiftFaults,RollerCurrent,RollerVoltage,RollerValue,RollerPosition,RollerVelocity,RollerFaults,PushersState,navx_Pitch,navx_Roll,navx_Yaw,navx_XAcc,navx_YAcc,navx_ZAcc,navx_Temp,navx_Bar,navx_Alt,navx_XDis,navx_YDis,
82.022023,true,true,true,0.0,-0.0078125,0.0,-0.0078125,false,false,false,false,0.0,-0.0078125,0.0,-0.0078125,false,false,false,false,0.0,12.8,0.0,5617,0,0,0.125,12.8,0.0,0,0,0,0.0,12.8,0.0,0,0,0,0.0,12.8,0.0,0,0,0,0.0,12.85,0.0,2,0,0,0.0,4.0,0.0,0,0,0,kReverse,0.0,0.0,0.0,0.0,0.0,0.0,0.0,0.0,0.0,0.0,0.0,
82.13758200000001,true,true,true,0.0,-0.0078125,0.0,-0.0078125,false,false,false,false,0.0,-0.0078125,0.0,-0.0078125,false,false,false,false,0.0,12.8,0.0,5617,0,0,0.125,12.8,0.0,0,0,0,0.0,12.8,0.0,0,0,0,0.0,12.8,0.0,0,0,0,0.0,12.9,0.0,2,0,0,0.0,4.0,0.0,0,0,0,kReverse,0.0,0.0,0.0,0.0,0.0,0.0,0.0,0.0,0.0,0.0,0.0,
82.27722100000001,true,true,true,0.0,-0.0078125,0.0,-0.0078125,false,false,false,false,0.0,-0.0078125,0.0,-0.0078125,false,false,false,false,0.0,12.8,0.0,5617,0,0,0.125,12.8,0.0,0,0,0,0.0,12.8,0.0,0,0,0,0.0,12.8,0.0,0,0,0,0.0,12.9,0.0,2,0,0,0.0,4.0,0.0,0,0,0,kReverse,0.0,0.0,0.0,0.0,0.0,0.0,0.0,0.0,0.0,0.0,0.0,
82.38932700000001,true,true,true,0.0,-0.0078125,0.0,-0.0078125,false,false,false,false,0.0,-0.0078125,0.0,-0.0078125,false,false,false,false,0.0,12.8,0.0,5617,0,0,0.125,12.8,0.0,0,0,0,0.0,12.8,0.0,0,0,0,0.0,12.8,0.0,0,0,0,0.0,12.9,0.0,2,0,0,0.0,4.0,0.0,0,0,0,kReverse,0.0,0.0,0.0,0.0,0.0,0.0,0.0,0.0,0.0,0.0,0.0,
82.543422,true,true,true,0.0,-0.0078125,0.0,-0.0078125,false,false,false,false,0.0,-0.0078125,0.0,-0.0078125,false,false,false,false,0.0,12.8,0.0,5617,0,0,0.125,12.8,0.0,0,0,0,0.0,12.8,0.0,0,0,0,0.0,12.8,0.0,0,0,0,0.0,12.9,0.0,2,0,0,0.0,4.0,0.0,0,0,0,kReverse,0.0,0.0,0.0,0.0,0.0,0.0,0.0,0.0,0.0,0.0,0.0,
82.699228,true,true,true,0.0,-0.0078125,0.0,-0.0078125,false,false,false,false,0.0,-0.0078125,0.0,-0.0078125,false,false,false,false,0.0,12.8,0.0,5617,0,0,0.125,12.8,0.0,0,0,0,0.0,12.8,0.0,0,0,0,0.0,12.8,0.0,0,0,0,0.0,12.9,0.0,2,0,0,0.0,4.0,0.0,0,0,0,kReverse,0.0,0.0,0.0,0.0,0.0,0.0,0.0,0.0,0.0,0.0,0.0,
82.802621,true,true,true,0.0,-0.0078125,0.0,-0.0078125,false,false,false,false,0.0,-0.0078125,0.0,-0.0078125,false,false,false,false,0.0,12.8,0.0,5617,0,0,0.125,12.8,0.0,0,0,0,0.0,12.8,0.0,0,0,0,0.0,12.8,0.0,0,0,0,0.0,12.9,0.0,2,0,0,0.0,4.0,0.0,0,0,0,kReverse,0.0,0.0,0.0,0.0,0.0,0.0,0.0,0.0,0.0,0.0,0.0,
82.837504,true,true,true,0.0,-0.0078125,0.0,-0.0078125,false,false,false,false,0.0,-0.0078125,0.0,-0.0078125,false,false,false,false,0.0,12.8,0.0,5617,0,0,0.125,12.8,0.0,0,0,0,0.0,12.8,0.0,0,0,0,0.0,12.8,0.0,0,0,0,0.0,12.9,0.0,2,0,0,0.0,4.0,0.0,0,0,0,kReverse,0.0,0.0,0.0,0.0,0.0,0.0,0.0,0.0,0.0,0.0,0.0,
82.883392,true,true,true,0.0,-0.0078125,0.0,-0.0078125,false,false,false,false,0.0,-0.0078125,0.0,-0.0078125,false,false,false,false,0.0,12.8,0.0,5617,0,0,0.125,12.8,0.0,0,0,0,0.0,12.8,0.0,0,0,0,0.0,12.8,0.0,0,0,0,0.0,12.9,0.0,2,0,0,0.0,4.0,0.0,0,0,0,kReverse,0.0,0.0,0.0,0.0,0.0,0.0,0.0,0.0,0.0,0.0,0.0,
82.96831700000001,true,true,true,0.0,-0.0078125,0.0,-0.0078125,false,false,false,false,0.0,-0.0078125,0.0,-0.0078125,false,false,false,false,0.0,12.8,0.0,5617,0,0,0.125,12.8,0.0,0,0,0,0.0,12.8,0.0,0,0,0,0.0,12.8,0.0,0,0,0,0.0,12.9,0.0,2,0,0,0.0,4.0,0.0,0,0,0,kReverse,0.0,0.0,0.0,0.0,0.0,0.0,0.0,0.0,0.0,0.0,0.0,
83.153448,true,true,true,0.0,-0.9609375,0.0,-0.0078125,false,false,false,false,0.0,-0.0078125,0.0,-0.0078125,false,false,false,false,0.0,12.8,0.0,5617,0,0,0.125,12.8,0.0,0,0,0,6.625,12.8,0.0,0,0,0,7.125,12.8,0.0,0,0,0,0.0,12.9,0.0,2,0,0,0.0,4.0,0.0,0,0,0,kReverse,0.0,0.0,0.0,0.0,0.0,0.0,0.0,0.0,0.0,0.0,0.0,
83.322747,true,true,true,0.0,-1.0,0.0,-0.0078125,false,false,false,false,0.0,-0.0078125,0.0,-0.0078125,false,false,false,false,28.75,10.45,0.0,5711,60,0,33.875,10.5,0.0,0,0,0,25.0,10.55,0.0,0,0,0,24.75,10.55,0.0,0,0,0,0.0,10.8,0.0,2,0,0,0.0,4.0,0.0,0,0,0,kReverse,0.0,0.0,0.0,0.0,0.0,0.0,0.0,0.0,0.0,0.0,0.0,
83.494358,true,true,true,0.0,-0.9375,0.0,-0.0078125,false,false,false,false,0.0,-0.0078125,0.0,-0.0078125,false,false,false,false,31.5,9.0,0.0,5722,2,0,36.625,9.4,0.0,0,0,0,29.0,9.25,0.0,0,0,0,28.75,9.4,0.0,0,0,0,0.0,9.55,0.0,2,0,0,0.0,4.0,0.0,0,0,0,kReverse,0.0,0.0,0.0,0.0,0.0,0.0,0.0,0.0,0.0,0.0,0.0,
83.611456,true,true,true,0.0,-0.9375,0.0,-0.0078125,false,false,false,false,0.0,-0.0078125,0.0,-0.0078125,false,false,false,false,35.5,9.15,0.0,5724,0,0,40.25,9.2,0.0,0,0,0,29.0,9.15,0.0,0,0,0,27.0,9.2,0.0,0,0,0,0.0,9.600000000000001,0.0,2,0,0,0.0,4.0,0.0,0,0,0,kReverse,0.0,0.0,0.0,0.0,0.0,0.0,0.0,0.0,0.0,0.0,0.0,
83.78615,true,true,true,0.0,-0.5703125,0.0,-0.0078125,false,false,false,false,0.0,-0.0078125,0.0,-0.0078125,false,false,false,false,30.25,9.3,0.0,5724,0,0,30.75,9.45,0.0,0,0,0,21.125,9.5,0.0,0,0,0,16.625,9.4,0.0,0,0,0,0.0,9.7,0.0,2,0,0,0.0,4.0,0.0,0,0,0,kReverse,0.0,0.0,0.0,0.0,0.0,0.0,0.0,0.0,0.0,0.0,0.0,
83.95408900000001,true,true,true,0.0,-0.0078125,0.0,-0.0078125,false,false,false,false,0.0,-0.0078125,0.0,-0.0078125,false,false,false,false,11.375,11.100000000000001,0.0,5723,0,0,14.75,11.100000000000001,0.0,0,0,0,8.75,11.05,0.0,0,0,0,11.375,11.15,0.0,0,0,0,0.0,11.350000000000001,0.0,2,0,0,0.0,4.0,0.0,0,0,0,kReverse,0.0,0.0,0.0,0.0,0.0,0.0,0.0,0.0,0.0,0.0,0.0,
84.07106900000001,true,true,true,0.0,0.0,0.0,-0.0078125,false,false,false,false,0.0,-0.0078125,0.0,-0.0078125,false,false,false,false,0.0,12.55,0.0,5649,-67,0,0.125,12.55,0.0,0,0,0,0.0,12.55,0.0,0,0,0,0.0,12.55,0.0,0,0,0,0.0,12.6,0.0,2,0,0,0.0,4.0,0.0,0,0,0,kReverse,0.0,0.0,0.0,0.0,0.0,0.0,0.0,0.0,0.0,0.0,0.0,
84.15505999999999,true,true,true,0.0,0.8110235929489136,0.0,-0.0078125,false,false,false,false,0.0,-0.0078125,0.0,-0.0078125,false,false,false,false,0.0,12.55,0.0,5645,-10,0,0.125,12.55,0.0,0,0,0,1.125,12.55,0.0,0,0,0,0.0,12.55,0.0,0,0,0,0.0,12.6,0.0,2,0,0,0.0,4.0,0.0,0,0,0,kReverse,0.0,0.0,0.0,0.0,0.0,0.0,0.0,0.0,0.0,0.0,0.0,
84.200788,true,true,true,0.0,1.0,0.0,-0.0078125,false,false,false,false,0.0,-0.0078125,0.0,-0.0078125,false,false,false,false,5.5,11.55,0.0,5596,-53,0,6.5,11.55,0.0,0,0,0,8.25,11.600000000000001,0.0,0,0,0,5.0,11.600000000000001,0.0,0,0,0,0.0,11.7,0.0,2,0,0,0.0,4.0,0.0,0,0,0,kReverse,0.0,0.0,0.0,0.0,0.0,0.0,0.0,0.0,0.0,0.0,0.0,
84.28945900000001,true,true,true,0.0,0.748031497001648,0.0,-0.0078125,false,false,false,false,0.0,-0.0078125,0.0,-0.0078125,false,false,false,false,10.125,11.55,0.0,5503,-126,0,13.75,11.55,0.0,0,0,0,12.375,11.600000000000001,0.0,0,0,0,9.625,11.600000000000001,0.0,0,0,0,0.0,11.7,0.0,2,0,0,0.0,4.0,0.0,0,0,0,kReverse,0.0,0.0,0.0,0.0,0.0,0.0,0.0,0.0,0.0,0.0,0.0,
84.434933,true,true,true,0.0,-0.0078125,0.0,-0.0078125,false,false,false,false,0.0,-0.0078125,0.0,-0.0078125,false,false,false,false,5.625,11.5,0.0,5322,-133,0,6.0,11.5,0.0,0,0,0,5.375,11.45,0.0,0,0,0,2.25,11.5,0.0,0,0,0,0.0,11.600000000000001,0.0,2,0,0,0.0,4.0,0.0,0,0,0,kReverse,0.0,0.0,0.0,0.0,0.0,0.0,0.0,0.0,0.0,0.0,0.0,
84.56971800000001,true,true,true,0.0,-0.0078125,0.0,-0.0078125,false,false,false,false,0.0,-0.0078125,0.0,-0.0078125,false,false,false,false,0.0,12.6,0.0,5140,-123,0,0.125,12.6,0.0,0,0,0,0.0,12.6,0.0,0,0,0,0.0,12.55,0.0,0,0,0,0.0,12.65,0.0,2,0,0,0.0,4.0,0.0,0,0,0,kReverse,0.0,0.0,0.0,0.0,0.0,0.0,0.0,0.0,0.0,0.0,0.0,
84.728975,true,true,true,0.0,0.36220473051071167,0.0,-0.0078125,false,false,false,false,0.0,-0.0078125,0.0,-0.0078125,false,false,false,false,0.0,12.6,0.0,4930,-118,0,0.125,12.65,0.0,0,0,0,0.0,12.6,0.0,0,0,0,0.0,12.6,0.0,0,0,0,0.0,12.700000000000001,0.0,2,0,0,0.0,4.0,0.0,0,0,0,kReverse,0.0,0.0,0.0,0.0,0.0,0.0,0.0,0.0,0.0,0.0,0.0,
84.843956,true,true,true,0.0,-0.0078125,0.0,-0.0078125,false,false,false,false,0.0,-0.0078125,0.0,-0.0078125,false,false,false,false,0.0,12.65,0.0,4782,-105,0,0.0,12.65,0.0,0,0,0,0.0,12.65,0.0,0,0,0,0.0,12.65,0.0,0,0,0,0.0,12.75,0.0,2,0,0,0.0,4.0,0.0,0,0,0,kReverse,0.0,0.0,0.0,0.0,0.0,0.0,0.0,0.0,0.0,0.0,0.0,
85.01792300000001,true,true,true,0.0,-0.0078125,0.05511811003088951,-0.0078125,false,false,false,false,0.0,-0.0078125,0.0,-0.0078125,false,false,false,false,0.0,12.65,0.0,4642,-96,0,0.125,12.65,0.0,0,0,0,0.0,12.65,0.0,0,0,0,0.0,12.65,0.0,0,0,0,0.0,12.75,0.0,2,0,0,0.0,4.0,0.0,0,0,0,kReverse,0.0,0.0,0.0,0.0,0.0,0.0,0.0,0.0,0.0,0.0,0.0,
85.182784,true,true,true,0.0,-0.0078125,0.11811023950576782,-0.0078125,false,false,false,false,0.0,-0.0078125,0.0,-0.0078125,false,false,false,false,0.0,12.65,0.0,4493,-79,0,0.125,12.700000000000001,0.0,0,0,0,0.0,12.65,0.0,0,0,0,0.0,12.65,0.0,0,0,0,0.0,12.75,0.0,2,0,0,0.0,4.0,0.0,0,0,0,kReverse,0.0,0.0,0.0,0.0,0.0,0.0,0.0,0.0,0.0,0.0,0.0,
85.29126000000001,true,true,true,0.0,-0.0078125,0.0,-0.0078125,false,false,false,false,0.0,-0.0078125,0.0,-0.0078125,false,false,false,false,8.5,12.65,0.0,4482,-11,0,11.375,12.700000000000001,0.0,0,0,0,2.375,12.65,0.0,0,0,0,1.375,12.65,0.0,0,0,0,0.0,12.75,0.0,2,0,0,0.0,4.0,0.0,0,0,0,kReverse,0.0,0.0,0.0,0.0,0.0,0.0,0.0,0.0,0.0,0.0,0.0,
85.35392300000001,true,true,true,0.0,-0.0078125,0.0,-0.0078125,false,false,false,false,0.0,-0.0078125,0.0,-0.0078125,false,false,false,false,0.875,12.55,0.0,4463,-19,0,2.375,12.55,0.0,0,0,0,0.5,12.55,0.0,0,0,0,0.0,12.55,0.0,0,0,0,0.0,12.6,0.0,2,0,0,0.0,4.0,0.0,0,0,0,kReverse,0.0,0.0,0.0,0.0,0.0,0.0,0.0,0.0,0.0,0.0,0.0,
85.39301300000001,true,true,true,0.0,-0.0078125,0.0,-0.0078125,false,false,false,false,0.0,-0.0078125,0.0,-0.0078125,false,false,false,false,0.0,12.55,0.0,4440,-42,0,0.125,12.55,0.0,0,0,0,0.0,12.55,0.0,0,0,0,0.0,12.55,0.0,0,0,0,0.0,12.6,0.0,2,0,0,0.0,4.0,0.0,0,0,0,kReverse,0.0,0.0,0.0,0.0,0.0,0.0,0.0,0.0,0.0,0.0,0.0,
85.451676,true,true,true,0.0,-0.0078125,0.0,-0.0078125,false,false,false,false,0.0,-0.0078125,0.0,-0.0078125,false,false,false,false,0.0,12.55,0.0,4425,-38,0,0.125,12.55,0.0,0,0,0,0.0,12.55,0.0,0,0,0,0.0,12.55,0.0,0,0,0,0.0,12.6,0.0,2,0,0,0.0,4.0,0.0,0,0,0,kReverse,0.0,0.0,0.0,0.0,0.0,0.0,0.0,0.0,0.0,0.0,0.0,
85.558485,true,true,true,0.0,-0.0078125,0.0,-0.0078125,false,false,false,false,0.0,-0.0078125,0.0,-0.0078125,false,false,false,false,0.0,12.65,0.0,4412,-12,0,0.125,12.65,0.0,0,0,0,0.0,12.65,0.0,0,0,0,0.0,12.65,0.0,0,0,0,0.0,12.75,0.0,2,0,0,0.0,4.0,0.0,0,0,0,kReverse,0.0,0.0,0.0,0.0,0.0,0.0,0.0,0.0,0.0,0.0,0.0,
85.71100200000001,true,true,true,0.0,-0.0078125,0.0,-0.0078125,false,false,false,false,0.0,-0.0078125,0.0,-0.0078125,false,false,false,false,0.0,12.65,0.0,4410,0,0,0.125,12.700000000000001,0.0,0,0,0,0.0,12.700000000000001,0.0,0,0,0,0.0,12.65,0.0,0,0,0,0.0,12.75,0.0,2,0,0,0.0,4.0,0.0,0,0,0,kReverse,0.0,0.0,0.0,0.0,0.0,0.0,0.0,0.0,0.0,0.0,0.0,
85.808292,true,true,true,0.0,-0.0078125,0.0,-0.0078125,false,false,false,false,0.0,-0.0078125,0.0,-0.0078125,false,false,false,false,0.0,12.700000000000001,0.0,4410,0,0,0.125,12.700000000000001,0.0,0,0,0,0.0,12.700000000000001,0.0,0,0,0,0.0,12.700000000000001,0.0,0,0,0,0.0,12.8,0.0,2,0,0,0.0,4.0,0.0,0,0,0,kReverse,0.0,0.0,0.0,0.0,0.0,0.0,0.0,0.0,0.0,0.0,0.0,
85.91656900000001,true,true,true,0.0,-0.0078125,0.0,-0.0078125,false,false,false,false,0.0,-0.0078125,0.0,-0.0078125,false,false,false,false,0.0,12.700000000000001,0.0,4410,0,0,0.125,12.700000000000001,0.0,0,0,0,0.0,12.700000000000001,0.0,0,0,0,0.0,12.700000000000001,0.0,0,0,0,0.0,12.8,0.0,2,0,0,0.0,4.0,0.0,0,0,0,kReverse,0.0,0.0,0.0,0.0,0.0,0.0,0.0,0.0,0.0,0.0,0.0,
85.966576,true,true,true,0.0,-0.0078125,0.0,-0.0078125,false,false,false,false,0.0,-0.0078125,0.0,-0.0078125,false,false,false,false,0.0,12.700000000000001,0.0,4410,0,0,0.125,12.75,0.0,0,0,0,0.0,12.700000000000001,0.0,0,0,0,0.0,12.700000000000001,0.0,0,0,0,0.0,12.8,0.0,2,0,0,0.0,4.0,0.0,0,0,0,kReverse,0.0,0.0,0.0,0.0,0.0,0.0,0.0,0.0,0.0,0.0,0.0,
86.073292,true,true,true,0.0,-0.2578125,0.0,-0.0078125,false,false,false,false,0.0,-0.0078125,0.0,-0.0078125,false,false,false,false,0.0,12.700000000000001,0.0,4410,0,0,0.125,12.75,0.0,0,0,0,0.0,12.700000000000001,0.0,0,0,0,0.0,12.700000000000001,0.0,0,0,0,0.0,12.8,0.0,2,0,0,0.0,4.0,0.0,0,0,0,kReverse,0.0,0.0,0.0,0.0,0.0,0.0,0.0,0.0,0.0,0.0,0.0,
86.159259,true,true,true,0.11811023950576782,-0.9765625,0.0,-0.0078125,false,false,false,false,0.0,-0.0078125,0.0,-0.0078125,false,false,false,false,0.0,12.700000000000001,0.0,4410,0,0,0.125,12.75,0.0,0,0,0,1.625,12.700000000000001,0.0,0,0,0,0.0,12.700000000000001,0.0,0,0,0,0.0,12.8,0.0,2,0,0,0.0,4.0,0.0,0,0,0,kReverse,0.0,0.0,0.0,0.0,0.0,0.0,0.0,0.0,0.0,0.0,0.0,
86.204321,true,true,true,0.19685038924217224,-1.0,0.0,-0.0078125,false,false,false,false,0.0,-0.0078125,0.0,-0.0078125,false,false,false,false,13.5,12.700000000000001,0.0,4438,28,0,14.125,12.75,0.0,0,0,0,14.75,12.700000000000001,0.0,0,0,0,10.0,12.700000000000001,0.0,0,0,0,0.0,12.8,0.0,2,0,0,0.0,4.0,0.0,0,0,0,kReverse,0.0,0.0,0.0,0.0,0.0,0.0,0.0,0.0,0.0,0.0,0.0,
86.272293,true,true,true,0.16535432636737823,-0.6328125,0.0,-0.0078125,false,false,false,false,0.0,-0.0078125,0.0,-0.0078125,false,false,false,false,21.125,12.700000000000001,0.0,4494,84,0,24.75,10.5,0.0,0,0,0,18.875,12.700000000000001,0.0,0,0,0,15.75,10.45,0.0,0,0,0,0.0,10.75,0.0,2,0,0,0.0,4.0,0.0,0,0,0,kReverse,0.0,0.0,0.0,0.0,0.0,0.0,0.0,0.0,0.0,0.0,0.0,
86.352698,true,true,true,0.0,-0.0078125,0.0,-0.0078125,false,false,false,false,0.0,-0.0078125,0.0,-0.0078125,false,false,false,false,14.5,10.45,0.0,4614,120,0,21.625,10.5,0.0,0,0,0,14.625,10.55,0.0,0,0,0,13.875,10.45,0.0,0,0,0,0.0,10.75,0.0,2,0,0,0.0,4.0,0.0,0,0,0,kReverse,0.0,0.0,0.0,0.0,0.0,0.0,0.0,0.0,0.0,0.0,0.0,
86.429899,true,true,true,0.0,-0.0078125,0.0,-0.0078125,false,false,false,false,0.0,-0.0078125,0.0,-0.0078125,false,false,false,false,0.125,10.45,0.0,4672,109,0,2.0,10.5,0.0,0,0,0,0.0,10.55,0.0,0,0,0,1.25,10.45,0.0,0,0,0,0.0,12.65,0.0,2,0,0,0.0,4.0,0.0,0,0,0,kReverse,0.0,0.0,0.0,0.0,0.0,0.0,0.0,0.0,0.0,0.0,0.0,
86.47805199999999,true,true,true,0.0,-0.0078125,0.0,-0.0078125,false,false,false,false,0.0,-0.0078125,0.0,-0.0078125,false,false,false,false,0.0,12.6,0.0,4727,113,0,0.125,12.6,0.0,0,0,0,0.0,12.6,0.0,0,0,0,0.0,12.55,0.0,0,0,0,0.0,12.65,0.0,2,0,0,0.0,4.0,0.0,0,0,0,kReverse,0.0,0.0,0.0,0.0,0.0,0.0,0.0,0.0,0.0,0.0,0.0,
86.54966900000001,true,true,true,0.0,-0.0078125,0.0,-0.0078125,false,false,false,false,0.0,-0.0078125,0.0,-0.0078125,false,false,false,false,0.0,12.6,0.0,4846,150,0,0.125,12.6,0.0,0,0,0,0.0,12.6,0.0,0,0,0,0.0,12.55,0.0,0,0,0,0.0,12.65,0.0,2,0,0,0.0,4.0,0.0,0,0,0,kReverse,0.0,0.0,0.0,0.0,0.0,0.0,0.0,0.0,0.0,0.0,0.0,
86.666779,true,true,true,0.0,-0.0078125,0.0,-0.0078125,false,false,false,false,0.0,-0.0078125,0.0,-0.0078125,false,false,false,false,0.0,12.65,0.0,4992,118,0,0.125,12.65,0.0,0,0,0,0.0,12.65,0.0,0,0,0,0.0,12.65,0.0,0,0,0,0.0,12.75,0.0,2,0,0,0.0,4.0,0.0,0,0,0,kReverse,0.0,0.0,0.0,0.0,0.0,0.0,0.0,0.0,0.0,0.0,0.0,
86.797383,true,true,true,0.08661417663097382,-0.2265625,0.0,-0.0078125,false,false,false,false,0.0,-0.0078125,0.0,-0.0078125,false,false,false,false,0.0,12.65,0.0,5142,106,0,0.125,12.700000000000001,0.0,0,0,0,0.0,12.65,0.0,0,0,0,0.0,12.65,0.0,0,0,0,0.0,12.75,0.0,2,0,0,0.0,4.0,0.0,0,0,0,kReverse,0.0,0.0,0.0,0.0,0.0,0.0,0.0,0.0,0.0,0.0,0.0,
86.96911600000001,true,true,true,0.6692913174629211,-0.6015625,0.0,-0.0078125,false,false,false,false,0.0,-0.0078125,0.0,-0.0078125,false,false,false,false,0.0,12.700000000000001,0.0,5264,69,0,0.25,12.700000000000001,0.0,0,0,0,5.75,12.700000000000001,0.0,0,0,0,5.375,12.700000000000001,0.0,0,0,0,0.0,12.8,0.0,2,0,0,0.0,4.0,0.0,0,0,0,kReverse,0.0,0.0,0.0,0.0,0.0,0.0,0.0,0.0,0.0,0.0,0.0,
87.13515600000001,true,true,true,0.0,-0.0078125,0.0,-0.0078125,false,false,false,false,0.0,-0.0078125,0.0,-0.0078125,false,false,false,false,19.25,10.55,0.0,5425,112,0,21.0,10.7,0.0,0,0,0,14.5,10.600000000000001,0.0,0,0,0,13.25,10.600000000000001,0.0,0,0,0,0.0,10.8,0.0,2,0,0,0.0,4.0,0.0,0,0,0,kReverse,0.0,0.0,0.0,0.0,0.0,0.0,0.0,0.0,0.0,0.0,0.0,
87.24319200000001,true,true,true,0.0,-0.0078125,0.0,-0.0078125,false,false,false,false,0.0,-0.0078125,0.0,-0.0078125,false,false,false,false,0.0,12.6,0.0,5471,29,0,0.125,12.6,0.0,0,0,0,0.0,12.6,0.0,0,0,0,0.0,12.6,0.0,0,0,0,0.0,12.65,0.0,2,0,0,0.0,4.0,0.0,0,0,0,kReverse,0.0,0.0,0.0,0.0,0.0,0.0,0.0,0.0,0.0,0.0,0.0,
87.35072699999999,true,true,true,0.0,1.0,0.0,-0.0078125,false,false,false,false,0.0,-0.0078125,0.0,-0.0078125,false,false,false,false,0.0,12.6,0.0,5438,-33,0,0.125,12.6,0.0,0,0,0,0.0,12.6,0.0,0,0,0,0.0,12.6,0.0,0,0,0,0.0,12.65,0.0,2,0,0,0.0,4.0,0.0,0,0,0,kReverse,0.0,0.0,0.0,0.0,0.0,0.0,0.0,0.0,0.0,0.0,0.0,
87.394398,true,true,true,0.0,1.0,0.0,-0.0078125,false,false,false,false,0.0,-0.0078125,0.0,-0.0078125,false,false,false,false,5.625,12.6,0.0,5393,-81,0,5.75,12.6,0.0,0,0,0,9.75,11.4,0.0,0,0,0,5.75,11.4,0.0,0,0,0,0.0,11.600000000000001,0.0,2,0,0,0.0,4.0,0.0,0,0,0,kReverse,0.0,0.0,0.0,0.0,0.0,0.0,0.0,0.0,0.0,0.0,0.0,
87.46813800000001,true,true,true,0.0,1.0,0.0,-0.0078125,false,false,false,false,0.0,-0.0078125,0.0,-0.0078125,false,false,false,false,10.25,11.55,0.0,5183,-210,0,15.25,11.5,0.0,0,0,0,14.625,11.4,0.0,0,0,0,11.625,11.4,0.0,0,0,0,0.0,11.600000000000001,0.0,2,0,0,0.0,4.0,0.0,0,0,0,kReverse,0.0,0.0,0.0,0.0,0.0,0.0,0.0,0.0,0.0,0.0,0.0,
87.611905,true,true,true,0.0,1.0,0.0,-0.0078125,false,false,false,false,0.0,-0.0078125,0.0,-0.0078125,false,false,false,false,8.625,11.0,0.0,4932,-213,0,12.0,11.2,0.0,0,0,0,11.375,11.2,0.0,0,0,0,8.375,11.100000000000001,0.0,0,0,0,0.0,11.3,0.0,2,0,0,0.0,4.0,0.0,0,0,0,kReverse,0.0,0.0,0.0,0.0,0.0,0.0,0.0,0.0,0.0,0.0,0.0,
87.744489,true,true,true,0.0,1.0,0.0,-0.0078125,false,false,false,false,0.0,-0.0078125,0.0,-0.0078125,false,false,false,false,5.5,11.600000000000001,0.0,4563,-269,0,9.25,11.600000000000001,0.0,0,0,0,8.625,11.600000000000001,0.0,0,0,0,5.625,11.600000000000001,0.0,0,0,0,0.0,11.75,0.0,2,0,0,0.0,4.0,0.0,0,0,0,kReverse,0.0,0.0,0.0,0.0,0.0,0.0,0.0,0.0,0.0,0.0,0.0,
87.892767,true,true,true,0.0,-0.046875,0.0,-0.0078125,false,false,false,false,0.0,-0.0078125,0.0,-0.0078125,false,false,false,false,5.0,11.850000000000001,0.0,4152,-301,0,4.375,11.850000000000001,0.0,0,0,0,4.5,11.850000000000001,0.0,0,0,0,4.75,11.850000000000001,0.0,0,0,0,0.0,12.0,0.0,2,0,0,0.0,4.0,0.0,0,0,0,kReverse,0.0,0.0,0.0,0.0,0.0,0.0,0.0,0.0,0.0,0.0,0.0,
88.02676600000001,true,true,true,0.0,-0.046875,0.0,-0.0078125,false,false,false,false,0.0,-0.0078125,0.0,-0.0078125,false,false,false,false,0.0,11.850000000000001,0.0,3782,-253,0,0.125,11.850000000000001,0.0,0,0,0,0.0,12.6,0.0,0,0,0,0.0,12.6,0.0,0,0,0,0.0,12.700000000000001,0.0,2,0,0,0.0,4.0,0.0,0,0,0,kReverse,0.0,0.0,0.0,0.0,0.0,0.0,0.0,0.0,0.0,0.0,0.0,
88.186841,true,true,true,0.0,-0.046875,0.0,-0.0078125,false,false,false,false,0.0,-0.0078125,0.0,-0.0078125,false,false,false,false,0.0,12.6,0.0,3361,-257,0,0.125,12.65,0.0,0,0,0,0.0,12.65,0.0,0,0,0,0.0,12.65,0.0,0,0,0,0.0,12.75,0.0,2,0,0,0.0,4.0,0.0,0,0,0,kReverse,0.0,0.0,0.0,0.0,0.0,0.0,0.0,0.0,0.0,0.0,0.0,
88.34064,true,true,true,0.0,-0.046875,0.0,-0.0078125,false,false,false,false,0.0,-0.0078125,0.0,-0.0078125,false,false,false,false,0.0,12.65,0.0,2961,-245,0,0.125,12.65,0.0,0,0,0,0.0,12.65,0.0,0,0,0,0.0,12.65,0.0,0,0,0,0.0,12.75,0.0,2,0,0,0.0,4.0,0.0,0,0,0,kReverse,0.0,0.0,0.0,0.0,0.0,0.0,0.0,0.0,0.0,0.0,0.0,
88.489735,true,true,true,0.0,-0.046875,0.0,-0.0078125,false,false,false,false,0.0,-0.0078125,0.0,-0.0078125,false,false,false,false,0.0,12.65,0.0,2637,-229,0,0.125,12.65,0.0,0,0,0,0.0,12.65,0.0,0,0,0,0.0,12.65,0.0,0,0,0,0.0,12.75,0.0,2,0,0,0.0,4.0,0.0,0,0,0,kReverse,0.0,0.0,0.0,0.0,0.0,0.0,0.0,0.0,0.0,0.0,0.0,
88.62491800000001,true,true,true,0.0,-0.046875,0.0,-0.0078125,false,false,false,false,0.0,-0.0078125,0.0,-0.0078125,false,false,false,false,0.0,12.65,0.0,2337,-213,0,0.125,12.700000000000001,0.0,0,0,0,0.0,12.65,0.0,0,0,0,0.0,12.65,0.0,0,0,0,0.0,12.75,0.0,2,0,0,0.0,4.0,0.0,0,0,0,kReverse,0.0,0.0,0.0,0.0,0.0,0.0,0.0,0.0,0.0,0.0,0.0,
88.77697900000001,true,true,true,0.0,-0.046875,0.0,-0.0078125,false,false,false,false,0.0,-0.0078125,0.0,-0.0078125,false,false,false,false,0.0,12.700000000000001,0.0,2062,-192,0,0.125,12.700000000000001,0.0,0,0,0,0.0,12.700000000000001,0.0,0,0,0,0.0,12.65,0.0,0,0,0,0.0,12.75,0.0,2,0,0,0.0,4.0,0.0,0,0,0,kReverse,0.0,0.0,0.0,0.0,0.0,0.0,0.0,0.0,0.0,0.0,0.0,
88.92766999999999,true,true,true,0.9291338324546814,-0.5703125,0.0,-0.0078125,false,false,false,false,0.0,-0.0078125,0.0,-0.0078125,false,false,false,false,0.0,12.700000000000001,0.0,1796,-158,0,0.125,12.700000000000001,0.0,0,0,0,1.75,12.700000000000001,0.0,0,0,0,1.0,12.700000000000001,0.0,0,0,0,0.0,12.8,0.0,2,0,0,0.0,4.0,0.0,0,0,0,kReverse,0.0,0.0,0.0,0.0,0.0,0.0,0.0,0.0,0.0,0.0,0.0,
89.100626,true,true,true,1.0,-1.0,0.0,-0.0078125,false,false,false,false,0.0,-0.0078125,0.0,-0.0078125,false,false,false,false,5.625,12.0,0.0,1682,-40,0,5.5,12.0,0.0,0,0,0,6.625,12.0,0.0,0,0,0,9.125,11.95,0.0,0,0,0,0.0,12.15,0.0,2,0,0,0.0,4.0,0.0,0,0,0,kReverse,0.0,0.0,0.0,0.0,0.0,0.0,0.0,0.0,0.0,0.0,0.0,
89.267668,true,true,true,0.5590550899505615,-0.421875,0.0,-0.0078125,false,false,false,false,0.0,-0.0078125,0.0,-0.0078125,false,false,false,false,16.5,9.8,0.0,1683,3,0,15.75,9.95,0.0,0,0,0,11.375,9.850000000000001,0.0,0,0,0,10.25,9.850000000000001,0.0,0,0,0,0.0,10.15,0.0,2,0,0,0.0,4.0,0.0,0,0,0,kReverse,0.0,0.0,0.0,0.0,0.0,0.0,0.0,0.0,0.0,0.0,0.0,
89.44241000000001,true,true,true,0.0,-0.0078125,0.0,-0.0078125,false,false,false,false,0.0,-0.0078125,0.0,-0.0078125,false,false,false,false,0.0,12.35,0.0,1690,4,0,0.375,12.4,0.0,0,0,0,0.125,12.4,0.0,0,0,0,0.0,12.6,0.0,0,0,0,0.0,12.700000000000001,0.0,2,0,0,0.0,4.0,0.0,0,0,0,kReverse,0.0,0.0,0.0,0.0,0.0,0.0,0.0,0.0,0.0,0.0,0.0,
89.612844,true,true,true,0.14960630238056183,-0.1484375,0.0,-0.0078125,false,false,false,false,0.0,-0.0078125,0.0,-0.0078125,false,false,false,false,0.0,12.6,0.0,1832,113,0,0.125,12.65,0.0,0,0,0,0.0,12.6,0.0,0,0,0,0.0,12.6,0.0,0,0,0,0.0,12.75,0.0,2,0,0,0.0,4.0,0.0,0,0,0,kReverse,0.0,0.0,0.0,0.0,0.0,0.0,0.0,0.0,0.0,0.0,0.0,
89.76343700000001,true,true,true,1.0,-0.8828125,0.0,-0.0078125,false,false,false,false,0.0,-0.0078125,0.0,-0.0078125,false,false,false,false,1.75,12.65,0.0,2015,109,0,0.125,12.65,0.0,0,0,0,0.0,12.65,0.0,0,0,0,3.0,12.65,0.0,0,0,0,0.0,12.75,0.0,2,0,0,0.0,4.0,0.0,0,0,0,kReverse,0.0,0.0,0.0,0.0,0.0,0.0,0.0,0.0,0.0,0.0,0.0,
89.91751400000001,true,true,true,1.0,-0.78125,0.0,-0.0078125,false,false,false,false,0.0,-0.0078125,0.0,-0.0078125,false,false,false,false,9.875,11.7,0.0,2247,162,0,12.625,11.75,0.0,0,0,0,10.375,11.7,0.0,0,0,0,7.125,11.7,0.0,0,0,0,0.0,11.850000000000001,0.0,2,0,0,0.0,4.0,0.0,0,0,0,kReverse,0.0,0.0,0.0,0.0,0.0,0.0,0.0,0.0,0.0,0.0,0.0,
90.03443000000001,true,true,true,0.0,-0.0078125,0.0,-0.0078125,false,false,false,false,0.0,-0.0078125,0.0,-0.0078125,false,false,false,false,5.25,11.75,0.0,2465,186,0,7.0,11.75,0.0,0,0,0,4.375,11.7,0.0,0,0,0,3.875,11.7,0.0,0,0,0,0.0,11.850000000000001,0.0,2,0,0,0.0,4.0,0.0,0,0,0,kReverse,0.0,0.0,0.0,0.0,0.0,0.0,0.0,0.0,0.0,0.0,0.0,
90.210277,true,true,true,0.0,-0.0078125,0.0,-0.0078125,false,false,false,false,0.0,-0.0078125,0.0,-0.0078125,false,false,false,false,0.0,12.6,0.0,2757,147,0,0.125,12.65,0.0,0,0,0,0.0,12.6,0.0,0,0,0,0.0,12.6,0.0,0,0,0,0.0,12.700000000000001,0.0,2,0,0,0.0,4.0,0.0,0,0,0,kReverse,0.0,0.0,0.0,0.0,0.0,0.0,0.0,0.0,0.0,0.0,0.0,
90.331803,true,true,true,0.0,-0.0078125,1.0,0.25196850299835205,false,false,false,false,0.0,-0.0078125,0.0,-0.0078125,false,false,false,false,5.125,12.65,0.0,2998,177,0,5.0,12.65,0.0,0,0,0,9.875,12.65,0.0,0,0,0,5.25,12.65,0.0,0,0,0,0.0,12.75,0.0,2,0,0,0.0,4.0,0.0,0,0,0,kReverse,0.0,0.0,0.0,0.0,0.0,0.0,0.0,0.0,0.0,0.0,0.0,
90.453,true,true,true,0.0,-0.0078125,0.0,-0.0078125,false,false,false,false,0.0,-0.0078125,0.0,-0.0078125,false,false,false,false,7.375,10.2,0.0,3251,199,0,12.875,10.3,0.0,0,0,0,20.125,10.05,0.0,0,0,0,26.125,10.3,0.0,0,0,0,0.0,10.45,0.0,2,0,0,0.0,4.0,0.0,0,0,0,kReverse,0.0,0.0,0.0,0.0,0.0,0.0,0.0,0.0,0.0,0.0,0.0,
90.616082,true,true,true,0.0,-0.0078125,0.0,-0.0078125,false,false,false,false,0.0,-0.0078125,0.0,-0.0078125,false,false,false,false,0.0,12.6,0.0,3447,134,0,0.125,12.6,0.0,0,0,0,0.0,12.6,0.0,0,0,0,0.0,12.6,0.0,0,0,0,0.0,12.65,0.0,2,0,0,0.0,4.0,0.0,0,0,0,kReverse,0.0,0.0,0.0,0.0,0.0,0.0,0.0,0.0,0.0,0.0,0.0,
90.741584,true,true,true,0.0,-0.0078125,0.0,-0.0078125,false,false,false,false,0.0,-0.0078125,0.0,-0.0078125,false,false,false,false,0.0,12.6,0.0,3521,36,0,0.125,12.6,0.0,0,0,0,0.0,12.65,0.0,0,0,0,0.0,12.65,0.0,0,0,0,0.0,12.75,0.0,2,0,0,0.0,4.0,0.0,0,0,0,kReverse,0.0,0.0,0.0,0.0,0.0,0.0,0.0,0.0,0.0,0.0,0.0,
90.88650100000001,true,true,true,0.4015747904777527,-1.0,0.0,-0.0078125,false,false,false,false,0.0,-0.0078125,0.0,-0.0078125,false,false,false,false,0.0,12.65,0.0,3567,32,0,0.125,12.65,0.0,0,0,0,4.625,12.65,0.0,0,0,0,4.0,12.65,0.0,0,0,0,0.0,11.600000000000001,0.0,2,0,0,0.0,4.0,0.0,0,0,0,kReverse,0.0,0.0,0.0,0.0,0.0,0.0,0.0,0.0,0.0,0.0,0.0,
91.015587,true,true,true,0.29921260476112366,-1.0,0.0,-0.0078125,false,false,false,false,0.0,-0.0078125,0.0,-0.0078125,false,false,false,false,14.5,11.3,0.0,3671,102,0,17.75,11.45,0.0,0,0,0,12.875,11.4,0.0,0,0,0,8.875,11.4,0.0,0,0,0,0.0,11.600000000000001,0.0,2,0,0,0.0,4.0,0.0,0,0,0,kReverse,0.0,0.0,0.0,0.0,0.0,0.0,0.0,0.0,0.0,0.0,0.0,
91.15718000000001,true,true,true,0.0,-0.0078125,0.0,-0.0078125,false,false,false,false,0.0,-0.0078125,0.0,-0.0078125,false,false,false,false,14.75,10.65,0.0,3877,155,0,17.25,10.7,0.0,0,0,0,12.0,10.75,0.0,0,0,0,5.875,10.7,0.0,0,0,0,0.0,10.9,0.0,2,0,0,0.0,4.0,0.0,0,0,0,kReverse,0.0,0.0,0.0,0.0,0.0,0.0,0.0,0.0,0.0,0.0,0.0,
91.313129,true,true,true,0.0,-0.0078125,0.0,-0.0078125,false,false,false,false,0.0,-0.0078125,0.0,-0.0078125,false,false,false,false,0.0,12.55,0.0,4151,168,0,0.125,12.6,0.0,0,0,0,0.0,12.6,0.0,0,0,0,0.0,12.55,0.0,0,0,0,0.0,12.65,0.0,2,0,0,0.0,4.0,0.0,0,0,0,kReverse,0.0,0.0,0.0,0.0,0.0,0.0,0.0,0.0,0.0,0.0,0.0,
91.481142,true,true,true,-0.75,0.031496062874794006,0.0,-0.0078125,false,false,false,false,0.0,-0.0078125,0.0,-0.0078125,false,false,false,false,0.0,12.65,0.0,4458,162,0,0.125,12.65,0.0,0,0,0,0.0,12.65,0.0,0,0,0,0.0,12.6,0.0,0,0,0,0.0,12.700000000000001,0.0,2,0,0,0.0,4.0,0.0,0,0,0,kReverse,0.0,0.0,0.0,0.0,0.0,0.0,0.0,0.0,0.0,0.0,0.0,
91.615003,true,true,true,0.0,0.031496062874794006,0.0,-0.0078125,false,false,false,false,0.0,-0.0078125,0.0,-0.0078125,false,false,false,false,0.0,12.65,0.0,4666,145,0,0.125,12.65,0.0,0,0,0,0.0,12.65,0.0,0,0,0,0.0,12.65,0.0,0,0,0,0.0,12.75,0.0,2,0,0,0.0,4.0,0.0,0,0,0,kReverse,0.0,0.0,0.0,0.0,0.0,0.0,0.0,0.0,0.0,0.0,0.0,
91.75908600000001,true,true,true,0.0,0.031496062874794006,0.0,-0.0078125,false,false,false,false,0.0,-0.0078125,0.0,-0.0078125,false,false,false,false,0.0,12.65,0.0,4846,124,0,0.125,12.700000000000001,0.0,0,0,0,0.0,12.65,0.0,0,0,0,0.0,12.65,0.0,0,0,0,0.0,12.75,0.0,2,0,0,0.0,4.0,0.0,0,0,0,kReverse,0.0,0.0,0.0,0.0,0.0,0.0,0.0,0.0,0.0,0.0,0.0,
91.92396400000001,true,true,true,-0.8125,0.031496062874794006,0.0,-0.0078125,false,false,false,false,0.0,-0.0078125,0.0,-0.0078125,false,false,false,false,0.0,12.65,0.0,5021,107,0,0.125,12.700000000000001,0.0,0,0,0,0.0,12.700000000000001,0.0,0,0,0,0.0,12.65,0.0,0,0,0,0.0,12.75,0.0,2,0,0,0.0,4.0,0.0,0,0,0,kReverse,0.0,0.0,0.0,0.0,0.0,0.0,0.0,0.0,0.0,0.0,0.0,
92.03573700000001,true,true,true,-1.0,0.4566929042339325,0.0,-0.0078125,false,false,false,false,0.0,-0.0078125,0.0,-0.0078125,false,false,false,false,0.0,12.65,0.0,5113,92,0,1.5,12.55,0.0,0,0,0,0.5,12.55,0.0,0,0,0,2.125,12.55,0.0,0,0,0,0.0,12.65,0.0,2,0,0,0.0,4.0,0.0,0,0,0,kReverse,0.0,0.0,0.0,0.0,0.0,0.0,0.0,0.0,0.0,0.0,0.0,
92.191912,true,true,true,0.015748031437397003,-0.0078125,0.0,-0.0078125,false,false,false,false,0.0,-0.0078125,0.0,-0.0078125,false,false,false,false,4.625,12.5,0.0,5127,0,0,5.25,12.05,0.0,0,0,0,4.875,12.05,0.0,0,0,0,5.0,12.1,0.0,0,0,0,0.0,12.200000000000001,0.0,2,0,0,0.0,4.0,0.0,0,0,0,kReverse,0.0,0.0,0.0,0.0,0.0,0.0,0.0,0.0,0.0,0.0,0.0,
92.37591400000001,true,true,true,-0.1953125,-0.0078125,0.0,-0.0078125,false,false,false,false,0.0,-0.0078125,0.0,-0.0078125,false,false,false,false,0.0,12.65,0.0,5124,-4,0,0.125,12.700000000000001,0.0,0,0,0,0.0,12.65,0.0,0,0,0,0.0,12.65,0.0,0,0,0,0.0,12.75,0.0,2,0,0,0.0,4.0,0.0,0,0,0,kReverse,0.0,0.0,0.0,0.0,0.0,0.0,0.0,0.0,0.0,0.0,0.0,
92.50466,true,true,true,-1.0,0.17322835326194763,0.0,-0.0078125,false,false,false,false,0.0,-0.0078125,0.0,-0.0078125,false,false,false,false,0.0,12.65,0.0,5121,-1,0,0.125,12.700000000000001,0.0,0,0,0,0.0,12.65,0.0,0,0,0,0.0,12.65,0.0,0,0,0,0.0,12.75,0.0,2,0,0,0.0,4.0,0.0,0,0,0,kReverse,0.0,0.0,0.0,0.0,0.0,0.0,0.0,0.0,0.0,0.0,0.0,
92.67691400000001,true,true,true,-1.0,0.18110236525535583,0.0,-0.0078125,false,false,false,false,0.0,-0.0078125,0.0,-0.0078125,false,false,false,false,0.0,12.65,0.0,5119,-2,0,0.5,12.6,0.0,0,0,0,0.625,12.6,0.0,0,0,0,0.0,12.6,0.0,0,0,0,0.0,12.700000000000001,0.0,2,0,0,0.0,4.0,0.0,0,0,0,kReverse,0.0,0.0,0.0,0.0,0.0,0.0,0.0,0.0,0.0,0.0,0.0,
92.82897200000001,true,true,true,-0.0234375,-0.0078125,-0.6796875,0.29133859276771545,false,false,false,false,0.0,-0.0078125,0.0,-0.0078125,false,false,false,false,0.0,12.6,0.0,5115,-1,0,0.5,12.6,0.0,0,0,0,4.0,12.25,0.0,0,0,0,3.5,12.25,0.0,0,0,0,0.0,12.4,0.0,2,0,0,0.0,4.0,0.0,0,0,0,kReverse,0.0,0.0,0.0,0.0,0.0,0.0,0.0,0.0,0.0,0.0,0.0,
92.965439,true,true,true,-0.0234375,-0.0078125,-1.0,-0.0078125,false,false,false,false,0.0,-0.0078125,0.0,-0.0078125,false,false,false,false,8.25,12.200000000000001,0.0,5026,-72,0,9.75,12.25,0.0,0,0,0,15.25,12.25,0.0,0,0,0,10.875,12.25,0.0,0,0,0,0.0,10.65,0.0,2,0,0,0.0,4.0,0.0,0,0,0,kReverse,0.0,0.0,0.0,0.0,0.0,0.0,0.0,0.0,0.0,0.0,0.0,
93.12441199999999,true,true,true,-0.0234375,-0.0078125,-0.703125,-0.0078125,false,false,false,false,0.0,-0.0078125,0.0,-0.0078125,false,false,false,false,10.875,10.350000000000001,0.0,4817,-145,0,16.875,10.45,0.0,0,0,0,19.0,10.45,0.0,0,0,0,14.75,10.45,0.0,0,0,0,0.0,10.65,0.0,2,0,0,0.0,4.0,0.0,0,0,0,kReverse,0.0,0.0,0.0,0.0,0.0,0.0,0.0,0.0,0.0,0.0,0.0,
93.21123399999999,true,true,true,-0.0234375,-0.0078125,-1.0,-0.0078125,false,false,false,false,0.0,-0.0078125,0.0,-0.0078125,false,false,false,false,0.0,12.200000000000001,0.0,4707,-143,0,1.875,12.200000000000001,0.0,0,0,0,3.625,12.200000000000001,0.0,0,0,0,1.0,12.200000000000001,0.0,0,0,0,0.0,12.25,0.0,2,0,0,0.0,4.0,0.0,0,0,0,kReverse,0.0,0.0,0.0,0.0,0.0,0.0,0.0,0.0,0.0,0.0,0.0,
93.319421,true,true,true,-0.0234375,-0.0078125,0.0,-0.0078125,false,false,false,false,0.0,-0.0078125,0.0,-0.0078125,false,false,false,false,10.375,10.850000000000001,0.0,4514,-166,0,16.375,10.95,0.0,0,0,0,11.75,10.95,0.0,0,0,0,9.875,10.9,0.0,0,0,0,0.0,11.100000000000001,0.0,2,0,0,0.0,4.0,0.0,0,0,0,kReverse,0.0,0.0,0.0,0.0,0.0,0.0,0.0,0.0,0.0,0.0,0.0,
93.485701,true,true,true,-0.0234375,-0.0078125,0.0,-0.0078125,false,false,false,false,0.0,-0.0078125,0.0,-0.0078125,false,false,false,false,0.0,12.6,0.0,4367,-86,0,0.125,12.6,0.0,0,0,0,0.0,12.6,0.0,0,0,0,0.0,12.6,0.0,0,0,0,0.0,12.700000000000001,0.0,2,0,0,0.0,4.0,0.0,0,0,0,kReverse,0.0,0.0,0.0,0.0,0.0,0.0,0.0,0.0,0.0,0.0,0.0,
93.665558,true,true,true,-0.0234375,-0.0078125,1.0,-0.0078125,false,false,false,false,0.0,-0.0078125,0.0,-0.0078125,false,false,false,false,2.875,12.65,0.0,4298,-16,0,0.125,12.65,0.0,0,0,0,9.375,12.65,0.0,0,0,0,5.625,12.65,0.0,0,0,0,0.0,12.75,0.0,2,0,0,0.0,4.0,0.0,0,0,0,kReverse,0.0,0.0,0.0,0.0,0.0,0.0,0.0,0.0,0.0,0.0,0.0,
93.83105400000001,true,true,true,-0.0234375,-0.0078125,-0.0390625,-0.0078125,false,false,false,false,0.0,-0.0078125,0.0,-0.0078125,false,false,false,false,18.625,10.3,0.0,4441,105,0,23.0,10.5,0.0,0,0,0,18.5,10.55,0.0,0,0,0,15.875,10.5,0.0,0,0,0,0.0,10.7,0.0,2,0,0,0.0,4.0,0.0,0,0,0,kReverse,0.0,0.0,0.0,0.0,0.0,0.0,0.0,0.0,0.0,0.0,0.0,
93.91569100000001,true,true,true,-0.0234375,-0.0078125,-0.0390625,-0.0078125,false,false,false,false,0.0,-0.0078125,0.0,-0.0078125,false,false,false,false,0.0,10.3,0.0,4522,108,0,0.125,10.5,0.0,0,0,0,0.0,10.55,0.0,0,0,0,0.0,10.5,0.0,0,0,0,0.0,10.7,0.0,2,0,0,0.0,4.0,0.0,0,0,0,kReverse,0.0,0.0,0.0,0.0,0.0,0.0,0.0,0.0,0.0,0.0,0.0,
94.014977,true,true,true,-0.0234375,-0.0078125,-0.0390625,-0.0078125,false,false,false,false,0.0,-0.0078125,0.0,-0.0078125,false,false,false,false,0.0,12.6,0.0,4617,95,0,0.125,12.6,0.0,0,0,0,0.0,12.6,0.0,0,0,0,0.0,12.6,0.0,0,0,0,0.0,12.65,0.0,2,0,0,0.0,4.0,0.0,0,0,0,kReverse,0.0,0.0,0.0,0.0,0.0,0.0,0.0,0.0,0.0,0.0,0.0,
94.05278,true,true,true,-0.0234375,-0.0078125,-0.0390625,-0.0078125,false,false,false,false,0.0,-0.0078125,0.0,-0.0078125,false,false,false,false,0.0,12.6,0.0,4638,79,0,0.125,12.6,0.0,0,0,0,0.0,12.6,0.0,0,0,0,0.0,12.6,0.0,0,0,0,0.0,12.65,0.0,2,0,0,0.0,4.0,0.0,0,0,0,kReverse,0.0,0.0,0.0,0.0,0.0,0.0,0.0,0.0,0.0,0.0,0.0,
94.112706,true,true,true,-0.0234375,-0.0078125,-0.0390625,-0.0078125,false,false,false,false,0.0,-0.0078125,0.0,-0.0078125,false,false,false,false,0.0,12.6,0.0,4642,25,0,0.125,12.65,0.0,0,0,0,0.0,12.65,0.0,0,0,0,0.0,12.6,0.0,0,0,0,0.0,12.700000000000001,0.0,2,0,0,0.0,4.0,0.0,0,0,0,kReverse,0.0,0.0,0.0,0.0,0.0,0.0,0.0,0.0,0.0,0.0,0.0,
94.221383,true,true,true,-0.0234375,-0.0078125,-0.0390625,-0.0078125,false,false,false,false,0.0,-0.0078125,0.0,-0.0078125,false,false,false,false,0.0,12.65,0.0,4642,0,0,0.125,12.65,0.0,0,0,0,0.0,12.65,0.0,0,0,0,0.0,12.6,0.0,0,0,0,0.0,12.700000000000001,0.0,2,0,0,0.0,4.0,0.0,0,0,0,kReverse,0.0,0.0,0.0,0.0,0.0,0.0,0.0,0.0,0.0,0.0,0.0,
94.385543,true,true,true,-1.0,-0.2734375,-0.0390625,-0.0078125,false,false,false,false,0.0,-0.0078125,0.0,-0.0078125,false,false,false,false,0.0,12.65,0.0,4642,0,0,0.125,12.65,0.0,0,0,0,0.5,12.65,0.0,0,0,0,0.0,12.65,0.0,0,0,0,0.0,12.75,0.0,2,0,0,0.0,4.0,0.0,0,0,0,kReverse,0.0,0.0,0.0,0.0,0.0,0.0,0.0,0.0,0.0,0.0,0.0,
94.561261,true,true,true,0.023622047156095505,-0.0078125,-0.0390625,-0.0078125,false,false,false,false,0.0,-0.0078125,0.0,-0.0078125,false,false,false,false,0.25,12.5,0.0,4650,7,0,1.625,12.55,0.0,0,0,0,0.875,12.5,0.0,0,0,0,0.25,12.5,0.0,0,0,0,0.0,12.6,0.0,2,0,0,0.0,4.0,0.0,0,0,0,kReverse,0.0,0.0,0.0,0.0,0.0,0.0,0.0,0.0,0.0,0.0,0.0,
94.732392,true,true,true,0.023622047156095505,0.8818897604942322,-0.0390625,-0.0078125,false,false,false,false,0.0,-0.0078125,0.0,-0.0078125,false,false,false,false,0.0,12.65,0.0,4656,4,0,4.25,12.65,0.0,0,0,0,1.5,12.65,0.0,0,0,0,0.0,12.65,0.0,0,0,0,0.0,12.75,0.0,2,0,0,0.0,4.0,0.0,0,0,0,kReverse,0.0,0.0,0.0,0.0,0.0,0.0,0.0,0.0,0.0,0.0,0.0,
94.844194,true,true,true,0.023622047156095505,1.0,-0.0390625,-0.0078125,false,false,false,false,0.0,-0.0078125,0.0,-0.0078125,false,false,false,false,16.5,11.0,0.0,4607,-50,0,19.625,11.15,0.0,0,0,0,17.0,11.2,0.0,0,0,0,15.0,11.25,0.0,0,0,0,0.0,11.4,0.0,2,0,0,0.0,4.0,0.0,0,0,0,kReverse,0.0,0.0,0.0,0.0,0.0,0.0,0.0,0.0,0.0,0.0,0.0,
95.020672,true,true,true,0.023622047156095505,1.0,-0.0390625,-0.0078125,false,false,false,false,0.0,-0.0078125,0.0,-0.0078125,false,false,false,false,11.625,10.45,0.0,4333,-182,0,15.75,10.55,0.0,0,0,0,12.75,10.5,0.0,0,0,0,9.5,10.65,0.0,0,0,0,0.0,10.8,0.0,2,0,0,0.0,4.0,0.0,0,0,0,kReverse,0.0,0.0,0.0,0.0,0.0,0.0,0.0,0.0,0.0,0.0,0.0,
95.147906,true,true,true,0.023622047156095505,1.0,-0.0390625,-0.0078125,false,false,false,false,0.0,-0.0078125,0.0,-0.0078125,false,false,false,false,8.25,11.15,0.0,4041,-244,0,11.75,11.350000000000001,0.0,0,0,0,9.5,11.3,0.0,0,0,0,6.5,11.3,0.0,0,0,0,0.0,11.45,0.0,2,0,0,0.0,4.0,0.0,0,0,0,kReverse,0.0,0.0,0.0,0.0,0.0,0.0,0.0,0.0,0.0,0.0,0.0,
95.333344,true,true,true,0.023622047156095505,-0.03125,-0.0390625,-0.0078125,false,false,false,false,0.0,-0.0078125,0.0,-0.0078125,false,false,false,false,3.0,11.600000000000001,0.0,3470,-301,0,8.625,11.600000000000001,0.0,0,0,0,4.625,11.65,0.0,0,0,0,1.75,11.65,0.0,0,0,0,0.0,11.75,0.0,2,0,0,0.0,4.0,0.0,0,0,0,kReverse,0.0,0.0,0.0,0.0,0.0,0.0,0.0,0.0,0.0,0.0,0.0,
95.511966,true,true,true,0.023622047156095505,-0.03125,-0.0390625,-0.0078125,false,false,false,false,0.0,-0.0078125,0.0,-0.0078125,false,false,false,false,0.0,12.55,0.0,3017,-251,0,0.125,12.55,0.0,0,0,0,0.625,12.55,0.0,0,0,0,0.0,12.55,0.0,0,0,0,0.0,12.6,0.0,2,0,0,0.0,4.0,0.0,0,0,0,kReverse,0.0,0.0,0.0,0.0,0.0,0.0,0.0,0.0,0.0,0.0,0.0,
95.67424100000001,true,true,true,0.023622047156095505,-0.03125,-0.0390625,-0.0078125,false,false,false,false,0.0,-0.0078125,0.0,-0.0078125,false,false,false,false,0.0,12.6,0.0,2662,-210,0,0.125,12.6,0.0,0,0,0,0.375,12.55,0.0,0,0,0,0.0,12.55,0.0,0,0,0,0.0,12.700000000000001,0.0,2,0,0,0.0,4.0,0.0,0,0,0,kReverse,0.0,0.0,0.0,0.0,0.0,0.0,0.0,0.0,0.0,0.0,0.0,
95.817955,true,true,true,0.023622047156095505,-0.03125,-0.0390625,-0.0078125,false,false,false,false,0.0,-0.0078125,0.0,-0.0078125,false,false,false,false,0.0,12.6,0.0,2478,-145,0,0.125,12.65,0.0,0,0,0,0.125,12.6,0.0,0,0,0,0.0,12.6,0.0,0,0,0,0.0,12.700000000000001,0.0,2,0,0,0.0,4.0,0.0,0,0,0,kReverse,0.0,0.0,0.0,0.0,0.0,0.0,0.0,0.0,0.0,0.0,0.0,
95.92399,true,true,true,-0.1171875,-1.0,-0.0390625,-0.0078125,false,false,false,false,0.0,-0.0078125,0.0,-0.0078125,false,false,false,false,4.0,12.65,0.0,2356,-98,0,0.125,12.65,0.0,0,0,0,3.0,12.65,0.0,0,0,0,8.25,12.65,0.0,0,0,0,0.0,12.75,0.0,2,0,0,0.0,4.0,0.0,0,0,0,kReverse,0.0,0.0,0.0,0.0,0.0,0.0,0.0,0.0,0.0,0.0,0.0,
96.050848,true,true,true,-0.015625,-1.0,-0.0390625,-0.0078125,false,false,false,false,0.0,-0.0078125,0.0,-0.0078125,false,false,false,false,20.75,10.05,0.0,2406,52,0,24.5,10.2,0.0,0,0,0,24.375,10.05,0.0,0,0,0,21.625,10.15,0.0,0,0,0,0.0,10.4,0.0,2,0,0,0.0,4.0,0.0,0,0,0,kReverse,0.0,0.0,0.0,0.0,0.0,0.0,0.0,0.0,0.0,0.0,0.0,
96.142194,true,true,true,-0.015625,-1.0,-0.0390625,-0.0078125,false,false,false,false,0.0,-0.0078125,0.0,-0.0078125,false,false,false,false,16.75,10.05,0.0,2490,84,0,20.625,10.2,0.0,0,0,0,20.0,10.05,0.0,0,0,0,16.0,10.15,0.0,0,0,0,0.0,10.4,0.0,2,0,0,0.0,4.0,0.0,0,0,0,kReverse,0.0,0.0,0.0,0.0,0.0,0.0,0.0,0.0,0.0,0.0,0.0,
96.26556,true,true,true,-0.015625,-1.0,-0.0390625,-0.0078125,false,false,false,false,0.0,-0.0078125,0.0,-0.0078125,false,false,false,false,10.0,10.850000000000001,0.0,2690,177,0,13.375,10.95,0.0,0,0,0,13.375,10.850000000000001,0.0,0,0,0,10.125,10.9,0.0,0,0,0,0.0,11.100000000000001,0.0,2,0,0,0.0,4.0,0.0,0,0,0,kReverse,0.0,0.0,0.0,0.0,0.0,0.0,0.0,0.0,0.0,0.0,0.0,
96.325041,true,true,true,-0.0859375,-0.1953125,-0.0390625,-0.0078125,false,false,false,false,0.0,-0.0078125,0.0,-0.0078125,false,false,false,false,8.25,10.850000000000001,0.0,2826,214,0,11.25,10.95,0.0,0,0,0,11.875,10.850000000000001,0.0,0,0,0,8.25,10.9,0.0,0,0,0,0.0,11.100000000000001,0.0,2,0,0,0.0,4.0,0.0,0,0,0,kReverse,0.0,0.0,0.0,0.0,0.0,0.0,0.0,0.0,0.0,0.0,0.0,
96.369075,true,true,true,0.0,0.007874015718698502,-0.0390625,-0.0078125,false,false,false,false,0.0,-0.0078125,0.0,-0.0078125,false,false,false,false,2.75,12.55,0.0,2908,215,0,5.25,12.55,0.0,0,0,0,4.75,12.5,0.0,0,0,0,1.75,12.5,0.0,0,0,0,0.0,12.55,0.0,2,0,0,0.0,4.0,0.0,0,0,0,kReverse,0.0,0.0,0.0,0.0,0.0,0.0,0.0,0.0,0.0,0.0,0.0,
96.46644599999999,true,true,true,0.0,0.007874015718698502,1.0,0.3937007784843445,false,false,false,false,0.0,-0.0078125,0.0,-0.0078125,false,false,false,false,0.0,12.55,0.0,3091,185,0,0.125,12.55,0.0,0,0,0,10.75,12.5,0.0,0,0,0,5.75,12.5,0.0,0,0,0,0.0,12.55,0.0,2,0,0,0.0,4.0,0.0,0,0,0,kReverse,0.0,0.0,0.0,0.0,0.0,0.0,0.0,0.0,0.0,0.0,0.0,
96.550916,true,true,true,0.0,0.007874015718698502,1.0,0.4015747904777527,false,false,false,false,0.0,-0.0078125,0.0,-0.0078125,false,false,false,false,5.25,10.5,0.0,3264,218,0,7.625,10.5,0.0,0,0,0,35.125,10.45,0.0,0,0,0,35.75,10.2,0.0,0,0,0,0.0,10.600000000000001,0.0,2,0,0,0.0,4.0,0.0,0,0,0,kReverse,0.0,0.0,0.0,0.0,0.0,0.0,0.0,0.0,0.0,0.0,0.0,
96.595193,true,true,true,0.0,0.007874015718698502,1.0,0.4803149700164795,false,false,false,false,0.0,-0.0078125,0.0,-0.0078125,false,false,false,false,7.75,10.5,0.0,3350,216,0,10.625,10.5,0.0,0,0,0,33.375,10.45,0.0,0,0,0,36.75,10.2,0.0,0,0,0,0.0,10.600000000000001,0.0,2,0,0,0.0,4.0,0.0,0,0,0,kReverse,0.0,0.0,0.0,0.0,0.0,0.0,0.0,0.0,0.0,0.0,0.0,
96.688232,true,true,true,0.0,0.007874015718698502,0.0,-0.0078125,false,false,false,false,0.0,-0.0078125,0.0,-0.0078125,false,false,false,false,3.5,10.7,0.0,3629,232,0,6.125,10.7,0.0,0,0,0,19.625,10.7,0.0,0,0,0,13.25,10.55,0.0,0,0,0,0.0,10.850000000000001,0.0,2,0,0,0.0,4.0,0.0,0,0,0,kReverse,0.0,0.0,0.0,0.0,0.0,0.0,0.0,0.0,0.0,0.0,0.0,
96.827675,true,true,true,0.0,0.007874015718698502,0.0,-0.0078125,false,false,false,false,0.0,-0.0078125,0.0,-0.0078125,false,false,false,false,0.0,10.7,0.0,3803,136,0,0.125,10.7,0.0,0,0,0,0.0,12.6,0.0,0,0,0,0.0,12.6,0.0,0,0,0,0.0,12.65,0.0,2,0,0,0.0,4.0,0.0,0,0,0,kReverse,0.0,0.0,0.0,0.0,0.0,0.0,0.0,0.0,0.0,0.0,0.0,
96.94688900000001,true,true,true,0.0,0.007874015718698502,0.0,-0.0078125,false,false,false,false,0.0,-0.0078125,0.0,-0.0078125,false,false,false,false,0.0,12.6,0.0,3898,74,0,0.125,12.6,0.0,0,0,0,0.0,12.6,0.0,0,0,0,0.0,12.6,0.0,0,0,0,0.0,12.65,0.0,2,0,0,0.0,4.0,0.0,0,0,0,kReverse,0.0,0.0,0.0,0.0,0.0,0.0,0.0,0.0,0.0,0.0,0.0,
97.058159,true,true,true,0.0,0.007874015718698502,0.0,-0.0078125,false,false,false,false,0.0,-0.0078125,0.0,-0.0078125,false,false,false,false,0.0,12.6,0.0,3911,13,0,0.125,12.65,0.0,0,0,0,0.0,12.6,0.0,0,0,0,0.0,12.6,0.0,0,0,0,0.0,12.700000000000001,0.0,2,0,0,0.0,4.0,0.0,0,0,0,kReverse,0.0,0.0,0.0,0.0,0.0,0.0,0.0,0.0,0.0,0.0,0.0,
97.105496,true,true,true,0.0,-0.0625,0.0,-0.0078125,false,false,false,false,0.0,-0.0078125,0.0,-0.0078125,false,false,false,false,0.0,12.6,0.0,3918,8,0,0.125,12.65,0.0,0,0,0,0.0,12.6,0.0,0,0,0,0.0,12.6,0.0,0,0,0,0.0,12.700000000000001,0.0,2,0,0,0.0,4.0,0.0,0,0,0,kReverse,0.0,0.0,0.0,0.0,0.0,0.0,0.0,0.0,0.0,0.0,0.0,
97.149524,true,true,true,0.0,-0.7421875,0.0,-0.0078125,false,false,false,false,0.0,-0.0078125,0.0,-0.0078125,false,false,false,false,0.0,12.6,0.0,3922,11,0,0.125,12.65,0.0,0,0,0,0.0,12.6,0.0,0,0,0,0.0,12.6,0.0,0,0,0,0.0,12.75,0.0,2,0,0,0.0,4.0,0.0,0,0,0,kReverse,0.0,0.0,0.0,0.0,0.0,0.0,0.0,0.0,0.0,0.0,0.0,
97.31512000000001,true,true,true,0.0,-1.0,0.0,-0.0078125,false,false,false,false,0.0,-0.0078125,0.0,-0.0078125,false,false,false,false,2.25,12.6,0.0,3987,52,0,3.375,12.200000000000001,0.0,0,0,0,4.875,12.200000000000001,0.0,0,0,0,1.875,12.200000000000001,0.0,0,0,0,0.0,12.35,0.0,2,0,0,0.0,4.0,0.0,0,0,0,kReverse,0.0,0.0,0.0,0.0,0.0,0.0,0.0,0.0,0.0,0.0,0.0,
97.465198,true,true,true,0.0,-1.0,0.0,-0.0078125,false,false,false,false,0.0,-0.0078125,0.0,-0.0078125,false,false,false,false,16.25,12.1,0.0,4132,121,0,19.75,12.200000000000001,0.0,0,0,0,16.375,10.8,0.0,0,0,0,13.125,10.850000000000001,0.0,0,0,0,0.0,11.0,0.0,2,0,0,0.0,4.0,0.0,0,0,0,kReverse,0.0,0.0,0.0,0.0,0.0,0.0,0.0,0.0,0.0,0.0,0.0,
97.594734,true,true,true,0.0,-0.0078125,0.0,-0.0078125,false,false,false,false,0.0,-0.0078125,0.0,-0.0078125,false,false,false,false,11.375,10.75,0.0,4364,198,0,13.625,10.850000000000001,0.0,0,0,0,8.75,10.8,0.0,0,0,0,4.25,10.850000000000001,0.0,0,0,0,0.0,12.6,0.0,2,0,0,0.0,4.0,0.0,0,0,0,kReverse,0.0,0.0,0.0,0.0,0.0,0.0,0.0,0.0,0.0,0.0,0.0,
97.81679700000001,true,true,true,0.0,-0.0078125,0.7244094610214233,-0.0078125,false,false,false,false,0.0,-0.0078125,0.0,-0.0078125,false,false,false,false,0.0,12.6,0.0,4785,195,0,0.125,12.6,0.0,0,0,0,0.0,12.6,0.0,0,0,0,0.0,12.6,0.0,0,0,0,0.0,12.700000000000001,0.0,2,0,0,0.0,4.0,0.0,0,0,0,kReverse,0.0,0.0,0.0,0.0,0.0,0.0,0.0,0.0,0.0,0.0,0.0,
97.95846300000001,true,true,true,0.0,-0.0078125,1.0,-0.0078125,false,false,false,false,0.0,-0.0078125,0.0,-0.0078125,false,false,false,false,0.625,12.4,0.0,5025,141,0,0.0,12.450000000000001,0.0,0,0,0,14.625,12.450000000000001,0.0,0,0,0,10.0,12.450000000000001,0.0,0,0,0,0.0,12.55,0.0,2,0,0,0.0,4.0,0.0,0,0,0,kReverse,0.0,0.0,0.0,0.0,0.0,0.0,0.0,0.0,0.0,0.0,0.0,
98.090716,true,true,true,0.0,-0.0078125,0.0,-0.0078125,false,false,false,false,0.0,-0.0078125,0.0,-0.0078125,false,false,false,false,10.875,12.4,0.0,5273,171,0,17.25,12.450000000000001,0.0,0,0,0,25.375,12.450000000000001,0.0,0,0,0,17.125,11.600000000000001,0.0,0,0,0,0.0,11.850000000000001,0.0,2,0,0,0.0,4.0,0.0,0,0,0,kReverse,0.0,0.0,0.0,0.0,0.0,0.0,0.0,0.0,0.0,0.0,0.0,
98.239982,true,true,true,0.0,-0.0078125,0.0,-0.0078125,false,false,false,false,0.0,-0.0078125,0.0,-0.0078125,false,false,false,false,0.0,11.850000000000001,0.0,5382,81,0,0.125,11.8,0.0,0,0,0,0.0,11.8,0.0,0,0,0,0.0,11.600000000000001,0.0,0,0,0,0.0,11.850000000000001,0.0,2,0,0,0.0,4.0,0.0,0,0,0,kReverse,0.0,0.0,0.0,0.0,0.0,0.0,0.0,0.0,0.0,0.0,0.0,
98.35858,true,true,true,0.0,-0.0078125,0.0,-0.0078125,false,false,false,false,0.0,-0.0078125,0.0,-0.0078125,false,false,false,false,0.0,12.6,0.0,5470,66,0,0.125,12.6,0.0,0,0,0,0.0,12.6,0.0,0,0,0,0.0,12.6,0.0,0,0,0,0.0,12.65,0.0,2,0,0,0.0,4.0,0.0,0,0,0,kReverse,0.0,0.0,0.0,0.0,0.0,0.0,0.0,0.0,0.0,0.0,0.0,
98.504434,true,true,true,0.0,-0.0078125,0.0,-0.0078125,false,false,false,false,0.0,-0.0078125,0.0,-0.0078125,false,false,false,false,0.0,12.65,0.0,5485,10,0,0.125,12.65,0.0,0,0,0,0.0,12.65,0.0,0,0,0,0.0,12.65,0.0,0,0,0,0.0,12.75,0.0,2,0,0,0.0,4.0,0.0,0,0,0,kReverse,0.0,0.0,0.0,0.0,0.0,0.0,0.0,0.0,0.0,0.0,0.0,
98.584411,true,true,true,0.0,-0.6796875,0.0,-0.0078125,false,false,false,false,0.0,-0.0078125,0.0,-0.0078125,false,false,false,false,0.0,12.65,0.0,5489,4,0,0.125,12.65,0.0,0,0,0,0.0,12.65,0.0,0,0,0,0.0,12.65,0.0,0,0,0,0.0,12.75,0.0,2,0,0,0.0,4.0,0.0,0,0,0,kReverse,0.0,0.0,0.0,0.0,0.0,0.0,0.0,0.0,0.0,0.0,0.0,
98.651752,true,true,true,0.0,-1.0,0.0,-0.0078125,false,false,false,false,0.0,-0.0078125,0.0,-0.0078125,false,false,false,false,7.125,12.15,0.0,5514,27,0,7.625,12.3,0.0,0,0,0,8.0,12.3,0.0,0,0,0,7.5,12.25,0.0,0,0,0,0.0,12.4,0.0,2,0,0,0.0,4.0,0.0,0,0,0,kReverse,0.0,0.0,0.0,0.0,0.0,0.0,0.0,0.0,0.0,0.0,0.0,
98.732114,true,true,true,0.0,-1.0,0.0,-0.0078125,false,false,false,false,0.0,-0.0078125,0.0,-0.0078125,false,false,false,false,20.375,12.15,0.0,5558,59,0,23.25,12.3,0.0,0,0,0,20.0,12.3,0.0,0,0,0,16.0,12.25,0.0,0,0,0,0.0,12.4,0.0,2,0,0,0.0,4.0,0.0,0,0,0,kReverse,0.0,0.0,0.0,0.0,0.0,0.0,0.0,0.0,0.0,0.0,0.0,
98.841129,true,true,true,0.0,-1.0,0.0,-0.0078125,false,false,false,false,0.0,-0.0078125,0.0,-0.0078125,false,false,false,false,16.0,10.350000000000001,0.0,5712,132,0,20.125,10.45,0.0,0,0,0,15.375,10.5,0.0,0,0,0,12.375,10.4,0.0,0,0,0,0.0,10.7,0.0,2,0,0,0.0,4.0,0.0,0,0,0,kReverse,0.0,0.0,0.0,0.0,0.0,0.0,0.0,0.0,0.0,0.0,0.0,
98.989882,true,true,true,0.0,-1.0,0.0,-0.0078125,false,false,false,false,0.0,-0.0078125,0.0,-0.0078125,false,false,false,false,10.125,11.15,0.0,6019,230,0,16.875,11.25,0.0,0,0,0,13.375,11.2,0.0,0,0,0,10.125,11.3,0.0,0,0,0,0.0,11.4,0.0,2,0,0,0.0,4.0,0.0,0,0,0,kReverse,0.0,0.0,0.0,0.0,0.0,0.0,0.0,0.0,0.0,0.0,0.0,
99.143721,true,true,true,0.0,-1.0,0.0,-0.0078125,false,false,false,false,0.0,-0.0078125,0.0,-0.0078125,false,false,false,false,30.625,9.15,0.0,6056,-8,0,38.5,9.15,0.0,0,0,0,28.875,9.15,0.0,0,0,0,29.125,9.05,0.0,0,0,0,0.0,9.45,0.0,2,0,0,0.0,4.0,0.0,0,0,0,kReverse,0.0,0.0,0.0,0.0,0.0,0.0,0.0,0.0,0.0,0.0,0.0,
99.232285,true,true,true,0.0,-1.0,0.0,-0.0078125,false,false,false,false,0.0,-0.0078125,0.0,-0.0078125,false,false,false,false,28.625,9.15,0.0,6062,6,0,34.75,9.7,0.0,0,0,0,24.75,9.75,0.0,0,0,0,26.125,9.8,0.0,0,0,0,0.0,10.05,0.0,2,0,0,0.0,4.0,0.0,0,0,0,kReverse,0.0,0.0,0.0,0.0,0.0,0.0,0.0,0.0,0.0,0.0,0.0,
99.36502100000001,true,true,true,0.0,-1.0,0.0,-0.0078125,false,false,false,false,0.0,-0.0078125,0.0,-0.0078125,false,false,false,false,29.125,9.7,0.0,6096,23,0,36.375,9.7,0.0,0,0,0,27.0,9.75,0.0,0,0,0,28.125,9.8,0.0,0,0,0,0.0,10.05,0.0,2,0,0,0.0,4.0,0.0,0,0,0,kReverse,0.0,0.0,0.0,0.0,0.0,0.0,0.0,0.0,0.0,0.0,0.0,
99.519378,true,true,true,0.0,-1.0,0.0,-0.0078125,false,false,false,false,0.0,-0.0078125,0.0,-0.0078125,false,false,false,false,33.25,9.15,0.0,6100,2,0,38.875,9.4,0.0,0,0,0,29.75,9.25,0.0,0,0,0,25.75,9.45,0.0,0,0,0,0.0,9.600000000000001,0.0,2,0,0,0.0,4.0,0.0,0,0,0,kReverse,0.0,0.0,0.0,0.0,0.0,0.0,0.0,0.0,0.0,0.0,0.0,
99.61099,true,true,true,0.0,-1.0,0.0,-0.0078125,false,false,false,false,0.0,-0.0078125,0.0,-0.0078125,false,false,false,false,29.125,9.350000000000001,0.0,6107,7,0,39.25,9.600000000000001,0.0,0,0,0,28.375,9.45,0.0,0,0,0,26.25,9.600000000000001,0.0,0,0,0,0.0,9.8,0.0,2,0,0,0.0,4.0,0.0,0,0,0,kReverse,0.0,0.0,0.0,0.0,0.0,0.0,0.0,0.0,0.0,0.0,0.0,
99.713729,true,true,true,0.0,-1.0,0.0,-0.0078125,false,false,false,false,0.0,-0.0078125,0.0,-0.0078125,true,false,false,false,31.125,9.350000000000001,0.0,6108,1,0,41.75,9.600000000000001,0.0,0,0,0,29.125,9.45,0.0,0,0,0,23.125,9.600000000000001,0.0,0,0,0,0.0,9.8,0.0,2,0,0,0.0,4.0,0.0,0,0,0,kForward,0.0,0.0,0.0,0.0,0.0,0.0,0.0,0.0,0.0,0.0,0.0,
99.760475,true,true,true,0.0,-1.0,0.0,-0.0078125,false,false,false,false,0.0,-0.0078125,0.0,-0.0078125,true,false,false,false,29.125,9.5,0.0,6111,3,0,37.125,9.5,0.0,0,0,0,25.875,9.55,0.0,0,0,0,24.25,9.600000000000001,0.0,0,0,0,0.0,9.8,0.0,2,0,0,0.0,4.0,0.0,0,0,0,kForward,0.0,0.0,0.0,0.0,0.0,0.0,0.0,0.0,0.0,0.0,0.0,
99.808863,true,true,true,0.0,-1.0,0.0,-0.0078125,false,false,false,false,0.0,-0.0078125,0.0,-0.0078125,true,false,false,false,31.625,9.5,0.0,6113,5,0,40.125,9.5,0.0,0,0,0,27.25,9.55,0.0,0,0,0,28.75,9.600000000000001,0.0,0,0,0,0.0,9.8,0.0,2,0,0,0.0,4.0,0.0,0,0,0,kForward,0.0,0.0,0.0,0.0,0.0,0.0,0.0,0.0,0.0,0.0,0.0,
99.92387000000001,true,true,true,0.0,-1.0,0.0,-0.0078125,false,false,false,false,0.0,-0.0078125,0.0,-0.0078125,true,false,false,false,34.125,8.95,0.0,6113,0,0,45.25,9.15,0.0,0,0,0,28.25,9.2,0.0,0,0,0,27.875,9.100000000000001,0.0,0,0,0,0.0,9.4,0.0,2,0,0,0.0,4.0,0.0,0,0,0,kForward,0.0,0.0,0.0,0.0,0.0,0.0,0.0,0.0,0.0,0.0,0.0,
100.011522,true,true,true,0.0,-1.0,0.0,-0.0078125,false,false,false,false,0.0,-0.0078125,0.0,-0.0078125,true,false,false,false,32.625,8.95,0.0,6113,0,0,42.375,9.15,0.0,0,0,0,28.875,9.2,0.0,0,0,0,26.75,9.100000000000001,0.0,0,0,0,0.0,9.4,0.0,2,0,0,0.0,4.0,0.0,0,0,0,kForward,0.0,0.0,0.0,0.0,0.0,0.0,0.0,0.0,0.0,0.0,0.0,
100.10761600000001,true,true,true,0.0,-1.0,0.0,-0.0078125,false,false,false,false,0.0,-0.0078125,0.0,-0.0078125,true,false,false,false,31.25,8.95,0.0,6114,1,0,40.875,9.25,0.0,0,0,0,29.375,9.25,0.0,0,0,0,26.875,9.2,0.0,0,0,0,0.0,9.55,0.0,2,0,0,0.0,4.0,0.0,0,0,0,kForward,0.0,0.0,0.0,0.0,0.0,0.0,0.0,0.0,0.0,0.0,0.0,
100.183534,true,true,true,0.0,-0.296875,0.0,-0.0078125,false,false,false,false,0.0,-0.0078125,0.0,-0.0078125,true,false,false,false,28.875,8.95,0.0,6116,2,0,35.75,9.25,0.0,0,0,0,28.5,9.25,0.0,0,0,0,29.875,9.2,0.0,0,0,0,0.0,9.55,0.0,2,0,0,0.0,4.0,0.0,0,0,0,kForward,0.0,0.0,0.0,0.0,0.0,0.0,0.0,0.0,0.0,0.0,0.0,
100.28811900000001,true,true,true,0.0,1.0,0.0,-0.0078125,false,false,false,false,0.0,-0.0078125,0.0,-0.0078125,true,false,false,false,16.375,10.2,0.0,6116,0,0,20.375,10.3,0.0,0,0,0,15.0,10.2,0.0,0,0,0,16.5,10.15,0.0,0,0,0,0.0,10.4,0.0,2,0,0,0.0,4.0,0.0,0,0,0,kForward,0.0,0.0,0.0,0.0,0.0,0.0,0.0,0.0,0.0,0.0,0.0,
100.424209,true,true,true,0.0,1.0,0.0,-0.0078125,false,false,false,false,0.0,-0.0078125,0.0,-0.0078125,true,false,false,false,11.375,10.5,0.0,5945,-131,0,14.875,10.55,0.0,0,0,0,13.375,10.55,0.0,0,0,0,10.875,10.5,0.0,0,0,0,0.0,10.7,0.0,2,0,0,0.0,4.0,0.0,0,0,0,kForward,0.0,0.0,0.0,0.0,0.0,0.0,0.0,0.0,0.0,0.0,0.0,
100.537834,true,true,true,0.0,1.0,0.0,-0.0078125,false,false,false,false,0.0,-0.0078125,0.0,-0.0078125,true,false,false,false,11.625,10.7,0.0,5784,-161,0,14.625,10.7,0.0,0,0,0,13.375,10.7,0.0,0,0,0,11.25,10.7,0.0,0,0,0,0.0,10.850000000000001,0.0,2,0,0,0.0,4.0,0.0,0,0,0,kForward,0.0,0.0,0.0,0.0,0.0,0.0,0.0,0.0,0.0,0.0,0.0,
100.688906,true,true,true,-0.0703125,1.0,0.0,-0.0078125,false,false,false,false,0.0,-0.0078125,0.0,-0.0078125,true,false,false,false,6.75,11.15,0.0,5425,-238,0,10.375,11.15,0.0,0,0,0,9.625,11.15,0.0,0,0,0,6.875,11.15,0.0,0,0,0,0.0,11.350000000000001,0.0,2,0,0,0.0,4.0,0.0,0,0,0,kForward,0.0,0.0,0.0,0.0,0.0,0.0,0.0,0.0,0.0,0.0,0.0,
100.80447,true,true,true,-0.015625,-0.0078125,0.0,-0.0078125,false,false,false,false,0.0,-0.0078125,0.0,-0.0078125,true,false,false,false,5.0,11.15,0.0,5109,-266,0,8.5,11.15,0.0,0,0,0,7.875,11.15,0.0,0,0,0,5.25,11.15,0.0,0,0,0,0.0,11.350000000000001,0.0,2,0,0,0.0,4.0,0.0,0,0,0,kForward,0.0,0.0,0.0,0.0,0.0,0.0,0.0,0.0,0.0,0.0,0.0,
100.88580900000001,true,true,true,0.0,-0.0078125,0.0,-0.0078125,false,false,false,false,0.0,-0.0078125,0.0,-0.0078125,true,false,false,false,0.0,12.1,0.0,4919,-245,0,0.125,12.1,0.0,0,0,0,0.0,12.1,0.0,0,0,0,0.0,12.05,0.0,0,0,0,0.0,12.15,0.0,2,0,0,0.0,4.0,0.0,0,0,0,kForward,0.0,0.0,0.0,0.0,0.0,0.0,0.0,0.0,0.0,0.0,0.0,
100.97722200000001,true,true,true,0.0,-0.0078125,0.0,-0.0078125,false,false,false,false,0.0,-0.0078125,0.0,-0.0078125,true,false,false,false,0.0,12.1,0.0,4728,-232,0,0.125,12.1,0.0,0,0,0,0.0,12.1,0.0,0,0,0,0.0,12.05,0.0,0,0,0,0.0,12.15,0.0,2,0,0,0.0,4.0,0.0,0,0,0,kForward,0.0,0.0,0.0,0.0,0.0,0.0,0.0,0.0,0.0,0.0,0.0,
101.095947,true,true,true,0.0,-0.0078125,0.0,-0.0078125,false,false,false,false,0.0,-0.0078125,0.0,-0.0078125,true,false,false,false,0.0,12.25,0.0,4331,-247,0,0.125,12.25,0.0,0,0,0,0.0,12.25,0.0,0,0,0,0.0,12.25,0.0,0,0,0,0.0,12.35,0.0,2,0,0,0.0,4.0,0.0,0,0,0,kForward,0.0,0.0,0.0,0.0,0.0,0.0,0.0,0.0,0.0,0.0,0.0,
101.28921700000001,true,true,true,0.0,-0.0078125,0.0,-0.0078125,false,false,false,false,0.0,-0.0078125,0.0,-0.0078125,true,false,false,false,0.0,12.25,0.0,3973,-219,0,0.125,12.25,0.0,0,0,0,0.0,12.25,0.0,0,0,0,0.0,12.25,0.0,0,0,0,0.0,12.35,0.0,2,0,0,0.0,4.0,0.0,0,0,0,kForward,0.0,0.0,0.0,0.0,0.0,0.0,0.0,0.0,0.0,0.0,0.0,
101.447255,true,true,true,0.0,-0.0078125,0.4251968562602997,-0.0078125,false,false,false,false,0.0,-0.0078125,0.0,-0.0078125,false,false,false,false,0.0,12.25,0.0,3651,-197,0,0.125,12.25,0.0,0,0,0,0.0,12.25,0.0,0,0,0,0.0,12.25,0.0,0,0,0,0.0,12.25,0.0,2,0,0,0.0,4.0,0.0,0,0,0,kReverse,0.0,0.0,0.0,0.0,0.0,0.0,0.0,0.0,0.0,0.0,0.0,
101.599148,true,true,true,0.0,-0.0078125,1.0,-0.0078125,false,false,false,false,0.0,-0.0078125,0.0,-0.0078125,false,false,false,false,5.75,12.200000000000001,0.0,3477,-90,0,2.75,12.200000000000001,0.0,0,0,0,1.0,12.200000000000001,0.0,0,0,0,4.875,12.200000000000001,0.0,0,0,0,0.0,12.25,0.0,2,0,0,0.0,4.0,0.0,0,0,0,kReverse,0.0,0.0,0.0,0.0,0.0,0.0,0.0,0.0,0.0,0.0,0.0,
101.746339,true,true,true,0.0,-0.0078125,1.0,-0.0078125,false,false,false,false,0.0,-0.0078125,0.0,-0.0078125,false,false,false,false,25.0,9.65,0.0,3448,-5,0,30.875,9.850000000000001,0.0,0,0,0,14.75,10.15,0.0,0,0,0,12.25,10.2,0.0,0,0,0,0.0,10.3,0.0,2,0,0,0.0,4.0,0.0,0,0,0,kReverse,0.0,0.0,0.0,0.0,0.0,0.0,0.0,0.0,0.0,0.0,0.0,
101.894268,true,true,true,0.0,-0.0078125,1.0,-0.0078125,false,false,false,false,0.0,-0.0078125,0.0,-0.0078125,false,false,false,false,18.5,10.15,0.0,3591,116,0,21.75,10.350000000000001,0.0,0,0,0,14.5,10.3,0.0,0,0,0,11.875,10.350000000000001,0.0,0,0,0,0.0,10.5,0.0,2,0,0,0.0,4.0,0.0,0,0,0,kReverse,0.0,0.0,0.0,0.0,0.0,0.0,0.0,0.0,0.0,0.0,0.0,
102.02683400000001,true,true,true,0.0,-0.0078125,1.0,0.31496062874794006,false,false,false,false,0.0,-0.0078125,0.0,-0.0078125,false,false,false,false,14.375,10.5,0.0,3802,166,0,17.0,10.55,0.0,0,0,0,12.75,10.55,0.0,0,0,0,10.0,10.600000000000001,0.0,0,0,0,0.0,10.8,0.0,2,0,0,0.0,4.0,0.0,0,0,0,kReverse,0.0,0.0,0.0,0.0,0.0,0.0,0.0,0.0,0.0,0.0,0.0,
102.14806200000001,true,true,true,0.0,-0.0078125,0.0,-0.015625,false,false,false,false,0.0,-0.0078125,0.0,-0.0078125,false,false,false,false,11.875,10.8,0.0,4041,201,0,11.0,10.9,0.0,0,0,0,7.75,10.850000000000001,0.0,0,0,0,6.375,10.850000000000001,0.0,0,0,0,0.0,11.05,0.0,2,0,0,0.0,4.0,0.0,0,0,0,kReverse,0.0,0.0,0.0,0.0,0.0,0.0,0.0,0.0,0.0,0.0,0.0,
102.28449400000001,true,true,true,0.0,-0.0078125,0.0,-0.015625,false,false,false,false,0.0,-0.0078125,0.0,-0.0078125,false,false,false,false,0.0,12.200000000000001,0.0,4262,143,0,0.125,12.25,0.0,0,0,0,0.0,12.200000000000001,0.0,0,0,0,0.0,12.200000000000001,0.0,0,0,0,0.0,12.3,0.0,2,0,0,0.0,4.0,0.0,0,0,0,kReverse,0.0,0.0,0.0,0.0,0.0,0.0,0.0,0.0,0.0,0.0,0.0,
102.38383,true,true,true,0.0,-0.0078125,0.0,-0.015625,false,false,false,false,0.0,-0.0078125,0.0,-0.0078125,false,false,false,false,0.0,12.200000000000001,0.0,4371,109,0,0.125,12.25,0.0,0,0,0,0.0,12.200000000000001,0.0,0,0,0,0.0,12.200000000000001,0.0,0,0,0,0.0,12.3,0.0,2,0,0,0.0,4.0,0.0,0,0,0,kReverse,0.0,0.0,0.0,0.0,0.0,0.0,0.0,0.0,0.0,0.0,0.0,
102.43544,true,true,true,0.0,-0.0078125,0.0,-0.015625,false,false,false,false,0.0,-0.0078125,0.0,-0.0078125,false,false,false,false,0.0,12.200000000000001,0.0,4392,73,0,0.125,12.25,0.0,0,0,0,0.0,12.25,0.0,0,0,0,0.0,12.25,0.0,0,0,0,0.0,12.35,0.0,2,0,0,0.0,4.0,0.0,0,0,0,kReverse,0.0,0.0,0.0,0.0,0.0,0.0,0.0,0.0,0.0,0.0,0.0,
102.476689,true,true,true,0.0,-0.0078125,0.0,-0.015625,false,false,false,false,0.0,-0.0078125,0.0,-0.0078125,false,false,false,false,0.0,12.25,0.0,4403,45,0,0.125,12.25,0.0,0,0,0,0.0,12.25,0.0,0,0,0,0.0,12.25,0.0,0,0,0,0.0,12.35,0.0,2,0,0,0.0,4.0,0.0,0,0,0,kReverse,0.0,0.0,0.0,0.0,0.0,0.0,0.0,0.0,0.0,0.0,0.0,
102.54496100000001,true,true,true,0.0,-0.0078125,0.0,-0.015625,false,false,false,false,0.0,-0.0078125,0.0,-0.0078125,false,false,false,false,0.0,12.25,0.0,4403,4,0,0.125,12.25,0.0,0,0,0,0.0,12.25,0.0,0,0,0,0.0,12.25,0.0,0,0,0,0.0,12.35,0.0,2,0,0,0.0,4.0,0.0,0,0,0,kReverse,0.0,0.0,0.0,0.0,0.0,0.0,0.0,0.0,0.0,0.0,0.0,
102.63464900000001,true,true,true,0.0,-0.0078125,0.0,-0.015625,false,false,false,false,0.0,-0.0078125,0.0,-0.0078125,false,false,false,false,0.0,12.25,0.0,4403,0,0,0.125,12.25,0.0,0,0,0,0.0,12.25,0.0,0,0,0,0.0,12.25,0.0,0,0,0,0.0,12.35,0.0,2,0,0,0.0,4.0,0.0,0,0,0,kReverse,0.0,0.0,0.0,0.0,0.0,0.0,0.0,0.0,0.0,0.0,0.0,
102.69131700000001,true,true,true,0.0,-0.0078125,0.0,-0.015625,false,false,false,false,0.0,-0.0078125,0.0,-0.0078125,false,false,false,false,0.0,12.25,0.0,4403,0,0,0.125,12.25,0.0,0,0,0,0.0,12.25,0.0,0,0,0,0.0,12.25,0.0,0,0,0,0.0,12.35,0.0,2,0,0,0.0,4.0,0.0,0,0,0,kReverse,0.0,0.0,0.0,0.0,0.0,0.0,0.0,0.0,0.0,0.0,0.0,
102.73727500000001,true,true,true,0.0,-0.0078125,0.0,-0.015625,false,false,false,false,0.0,-0.0078125,0.0,-0.0078125,false,false,false,false,0.0,12.25,0.0,4403,0,0,0.125,12.25,0.0,0,0,0,0.0,12.25,0.0,0,0,0,0.0,12.25,0.0,0,0,0,0.0,12.35,0.0,2,0,0,0.0,4.0,0.0,0,0,0,kReverse,0.0,0.0,0.0,0.0,0.0,0.0,0.0,0.0,0.0,0.0,0.0,
102.859083,true,true,true,0.0,-0.0078125,0.0,-0.015625,false,false,false,false,0.0,-0.0078125,0.0,-0.0078125,false,false,false,false,0.0,12.25,0.0,4403,0,0,0.125,12.3,0.0,0,0,0,0.0,12.25,0.0,0,0,0,0.0,12.25,0.0,0,0,0,0.0,12.35,0.0,2,0,0,0.0,4.0,0.0,0,0,0,kReverse,0.0,0.0,0.0,0.0,0.0,0.0,0.0,0.0,0.0,0.0,0.0,
102.972128,true,true,true,0.7086614370346069,-0.984375,0.0,-0.015625,false,false,false,false,0.0,-0.0078125,0.0,-0.0078125,false,false,false,false,6.125,12.25,0.0,4403,0,0,0.125,12.3,0.0,0,0,0,8.625,12.3,0.0,0,0,0,5.25,12.25,0.0,0,0,0,0.0,12.35,0.0,2,0,0,0.0,4.0,0.0,0,0,0,kReverse,0.0,0.0,0.0,0.0,0.0,0.0,0.0,0.0,0.0,0.0,0.0,
103.150115,true,true,true,0.7401574850082397,-0.984375,0.0,-0.015625,false,false,false,false,0.0,-0.0078125,0.0,-0.0078125,false,false,false,false,17.625,10.15,0.0,4530,107,0,21.5,10.25,0.0,0,0,0,16.75,10.3,0.0,0,0,0,14.625,10.3,0.0,0,0,0,0.0,10.5,0.0,2,0,0,0.0,4.0,0.0,0,0,0,kReverse,0.0,0.0,0.0,0.0,0.0,0.0,0.0,0.0,0.0,0.0,0.0,
103.287592,true,true,true,0.748031497001648,-0.984375,0.0,-0.015625,false,false,false,false,0.0,-0.0078125,0.0,-0.0078125,false,false,false,false,11.875,10.600000000000001,0.0,4746,164,0,14.0,10.7,0.0,0,0,0,11.25,10.600000000000001,0.0,0,0,0,8.375,10.65,0.0,0,0,0,0.0,10.850000000000001,0.0,2,0,0,0.0,4.0,0.0,0,0,0,kReverse,0.0,0.0,0.0,0.0,0.0,0.0,0.0,0.0,0.0,0.0,0.0,
103.41320900000001,true,true,true,0.748031497001648,-0.984375,0.0,-0.015625,false,false,false,false,0.0,-0.0078125,0.0,-0.0078125,false,false,false,false,8.125,11.15,0.0,5019,231,0,11.125,11.2,0.0,0,0,0,9.375,11.2,0.0,0,0,0,6.125,11.2,0.0,0,0,0,0.0,11.350000000000001,0.0,2,0,0,0.0,4.0,0.0,0,0,0,kReverse,0.0,0.0,0.0,0.0,0.0,0.0,0.0,0.0,0.0,0.0,0.0,
