timer,lineLeft,lineCenter,lineRight,driverLeftX,driverLeftY,driverRightX,driverRightY,driverA,driverB,driverX,driverY,operatorLeftX,operatorLeftY,operatorRightX,operatorRightY,operatorA,operatorB,operatorX,operatorY,LeftFrontCurrent,LeftFrontVoltage,LeftFrontValue,LeftFrontPosition,LeftFrontVelocity,LeftFrontFaults,LeftRearCurrent,LeftRearVoltage,LeftRearValue,LeftRearPosition,LeftRearVelocity,LeftRearFaults,RightFrontCurrent,RightFrontVoltage,RightFrontValue,RightFrontPosition,RightFrontVelocity,RightFrontFaults,RightRearCurrent,RightRearVoltage,RightRearValue,RightRearPosition,RightRearVelocity,RightRearFaults,LiftCurrent,LiftVoltage,LiftValue,LiftPosition,LiftVelocity,LiftFaults,RollerCurrent,RollerVoltage,RollerValue,RollerPosition,RollerVelocity,RollerFaults,PushersState,navx_Pitch,navx_Roll,navx_Yaw,navx_XAcc,navx_YAcc,navx_ZAcc,navx_Temp,navx_Bar,navx_Alt,navx_XDis,navx_YDis,
31.955161000000004,true,true,true,0.0,-0.0078125,0.0,-0.0078125,false,false,false,false,0.0,0.0,0.0,0.0,false,false,false,false,0.0,12.450000000000001,0.0,0,0,0,0.125,12.450000000000001,0.0,0,0,0,0.0,12.450000000000001,0.0,0,0,0,0.0,12.450000000000001,0.0,0,0,0,0.0,12.55,0.0,-2,0,0,0.0,4.0,0.0,0,0,0,kReverse,0.0,0.0,0.0,0.0,0.0,0.0,0.0,0.0,0.0,0.0,0.0,
32.075039000000004,true,true,true,0.0,-0.0078125,0.0,-0.0078125,false,false,false,false,0.0,0.0,0.0,0.0,false,false,false,false,0.0,12.450000000000001,0.0,0,0,0,0.125,12.450000000000001,0.0,0,0,0,0.0,12.450000000000001,0.0,0,0,0,0.0,12.450000000000001,0.0,0,0,0,0.0,12.55,0.0,-2,0,0,0.0,4.0,0.0,0,0,0,kReverse,0.0,0.0,0.0,0.0,0.0,0.0,0.0,0.0,0.0,0.0,0.0,
32.160668,true,true,true,0.0,-0.0078125,0.0,-0.0078125,false,false,false,false,0.0,0.0,0.0,0.0,false,false,false,false,0.0,12.450000000000001,0.0,0,0,0,0.125,12.450000000000001,0.0,0,0,0,0.0,12.450000000000001,0.0,0,0,0,0.0,12.450000000000001,0.0,0,0,0,0.0,12.55,0.0,-2,0,0,0.0,4.0,0.0,0,0,0,kReverse,0.0,0.0,0.0,0.0,0.0,0.0,0.0,0.0,0.0,0.0,0.0,
32.231574,true,true,true,0.0,-0.0078125,0.0,-0.0078125,false,false,false,false,0.0,0.0,0.0,0.0,false,false,false,false,0.0,12.450000000000001,0.0,0,0,0,0.125,12.450000000000001,0.0,0,0,0,0.0,12.450000000000001,0.0,0,0,0,0.0,12.450000000000001,0.0,0,0,0,0.0,12.55,0.0,-2,0,0,0.0,4.0,0.0,0,0,0,kReverse,0.0,0.0,0.0,0.0,0.0,0.0,0.0,0.0,0.0,0.0,0.0,
32.311255,true,true,true,0.0,-0.0078125,0.0,-0.0078125,false,false,false,false,0.0,0.0,0.0,0.0,false,false,false,false,0.0,12.450000000000001,0.0,0,0,0,0.125,12.450000000000001,0.0,0,0,0,0.0,12.450000000000001,0.0,0,0,0,0.0,12.450000000000001,0.0,0,0,0,0.0,12.55,0.0,-2,0,0,0.0,4.0,0.0,0,0,0,kReverse,0.0,0.0,0.0,0.0,0.0,0.0,0.0,0.0,0.0,0.0,0.0,
32.37997,true,true,true,0.0,-0.0078125,0.0,-0.0078125,false,false,false,false,0.0,0.0,0.0,0.0,false,false,false,false,0.0,12.450000000000001,0.0,0,0,0,0.125,12.450000000000001,0.0,0,0,0,0.0,12.450000000000001,0.0,0,0,0,0.0,12.450000000000001,0.0,0,0,0,0.0,12.55,0.0,-2,0,0,0.0,4.0,0.0,0,0,0,kReverse,0.0,0.0,0.0,0.0,0.0,0.0,0.0,0.0,0.0,0.0,0.0,
32.443767,true,true,true,0.0,-0.0078125,0.0,-0.0078125,false,false,false,false,0.0,0.0,0.0,0.0,false,false,false,false,0.0,12.450000000000001,0.0,0,0,0,0.125,12.450000000000001,0.0,0,0,0,0.0,12.450000000000001,0.0,0,0,0,0.0,12.450000000000001,0.0,0,0,0,0.0,12.55,0.0,-2,0,0,0.0,4.0,0.0,0,0,0,kReverse,0.0,0.0,0.0,0.0,0.0,0.0,0.0,0.0,0.0,0.0,0.0,
32.516298,true,true,true,0.0,-0.0078125,0.0,-0.0078125,false,false,false,false,0.0,0.0,0.0,0.0,false,false,false,false,0.0,12.450000000000001,0.0,0,0,0,0.125,12.450000000000001,0.0,0,0,0,0.0,12.450000000000001,0.0,0,0,0,0.0,12.450000000000001,0.0,0,0,0,0.0,12.55,0.0,-2,0,0,0.0,4.0,0.0,0,0,0,kReverse,0.0,0.0,0.0,0.0,0.0,0.0,0.0,0.0,0.0,0.0,0.0,
32.590565,true,true,true,0.0,-0.0078125,0.0,-0.0078125,false,false,false,false,0.0,0.0,0.0,0.0,false,false,false,false,0.0,12.450000000000001,0.0,0,0,0,0.125,12.450000000000001,0.0,0,0,0,0.0,12.450000000000001,0.0,0,0,0,0.0,12.450000000000001,0.0,0,0,0,0.0,12.55,0.0,-2,0,0,0.0,4.0,0.0,0,0,0,kReverse,0.0,0.0,0.0,0.0,0.0,0.0,0.0,0.0,0.0,0.0,0.0,
32.680636,true,true,true,0.0,-0.0078125,0.0,-0.0078125,false,false,false,false,0.0,0.0,0.0,0.0,false,false,false,false,0.0,12.450000000000001,0.0,0,0,0,0.125,12.450000000000001,0.0,0,0,0,0.0,12.450000000000001,0.0,0,0,0,0.0,12.450000000000001,0.0,0,0,0,0.0,12.5,0.0,-2,0,0,0.0,4.0,0.0,0,0,0,kReverse,0.0,0.0,0.0,0.0,0.0,0.0,0.0,0.0,0.0,0.0,0.0,
32.760658,true,true,true,0.0,-0.0078125,0.0,-0.0078125,false,false,false,false,0.0,0.0,0.0,0.0,false,false,false,false,0.0,12.450000000000001,0.0,0,0,0,0.125,12.450000000000001,0.0,0,0,0,0.0,12.450000000000001,0.0,0,0,0,0.0,12.450000000000001,0.0,0,0,0,0.0,12.5,0.0,-2,0,0,0.0,4.0,0.0,0,0,0,kReverse,0.0,0.0,0.0,0.0,0.0,0.0,0.0,0.0,0.0,0.0,0.0,
32.836199,true,true,true,0.0,-0.0078125,0.0,-0.0078125,false,false,false,false,0.0,0.0,0.0,0.0,false,false,false,false,0.0,12.450000000000001,0.0,0,0,0,0.125,12.450000000000001,0.0,0,0,0,0.0,12.450000000000001,0.0,0,0,0,0.0,12.4,0.0,0,0,0,0.0,12.5,0.0,-2,0,0,0.0,4.0,0.0,0,0,0,kReverse,0.0,0.0,0.0,0.0,0.0,0.0,0.0,0.0,0.0,0.0,0.0,
32.897448,true,true,true,0.0,-0.0078125,0.0,-0.0078125,false,false,false,false,0.0,0.0,0.0,0.0,false,false,false,false,0.0,12.450000000000001,0.0,0,0,0,0.125,12.450000000000001,0.0,0,0,0,0.0,12.450000000000001,0.0,0,0,0,0.0,12.4,0.0,0,0,0,0.0,12.5,0.0,-2,0,0,0.0,4.0,0.0,0,0,0,kReverse,0.0,0.0,0.0,0.0,0.0,0.0,0.0,0.0,0.0,0.0,0.0,
32.96600599999999,true,true,true,0.0,-0.0078125,0.0,-0.0078125,false,false,false,false,0.0,0.0,0.0,0.0,false,false,false,false,0.0,12.450000000000001,0.0,0,0,0,0.125,12.450000000000001,0.0,0,0,0,0.0,12.4,0.0,0,0,0,0.0,12.4,0.0,0,0,0,0.0,12.5,0.0,-2,0,0,0.0,4.0,0.0,0,0,0,kReverse,0.0,0.0,0.0,0.0,0.0,0.0,0.0,0.0,0.0,0.0,0.0,
33.030708,true,true,true,0.0,-0.0078125,0.0,-0.0078125,false,false,false,false,0.0,0.0,0.0,0.0,false,false,false,false,0.0,12.4,0.0,0,0,0,0.125,12.450000000000001,0.0,0,0,0,0.0,12.4,0.0,0,0,0,0.0,12.4,0.0,0,0,0,0.0,12.5,0.0,-2,0,0,0.0,4.0,0.0,0,0,0,kReverse,0.0,0.0,0.0,0.0,0.0,0.0,0.0,0.0,0.0,0.0,0.0,
33.100759,true,true,true,0.0,-0.0078125,0.0,-0.0078125,false,false,false,false,0.0,0.0,0.0,0.0,false,false,false,false,0.0,12.4,0.0,0,0,0,0.125,12.450000000000001,0.0,0,0,0,0.0,12.4,0.0,0,0,0,0.0,12.4,0.0,0,0,0,0.0,12.5,0.0,-2,0,0,0.0,4.0,0.0,0,0,0,kReverse,0.0,0.0,0.0,0.0,0.0,0.0,0.0,0.0,0.0,0.0,0.0,
33.16705399999999,true,true,true,0.0,-0.0078125,0.0,-0.0078125,false,false,false,false,0.0,0.0,0.0,0.0,false,false,false,false,0.0,12.4,0.0,0,0,0,0.125,12.450000000000001,0.0,0,0,0,0.0,12.4,0.0,0,0,0,0.0,12.4,0.0,0,0,0,0.0,12.5,0.0,-2,0,0,0.0,4.0,0.0,0,0,0,kReverse,0.0,0.0,0.0,0.0,0.0,0.0,0.0,0.0,0.0,0.0,0.0,
33.236125,true,true,true,0.0,-0.0078125,0.0,-0.0078125,false,false,false,false,0.0,0.0,0.0,0.0,false,false,false,false,0.0,12.4,0.0,0,0,0,0.125,12.450000000000001,0.0,0,0,0,0.0,12.4,0.0,0,0,0,0.0,12.4,0.0,0,0,0,0.0,12.5,0.0,-2,0,0,0.0,4.0,0.0,0,0,0,kReverse,0.0,0.0,0.0,0.0,0.0,0.0,0.0,0.0,0.0,0.0,0.0,
33.343062999999994,true,true,true,0.0,-0.0078125,0.0,-0.0078125,false,false,false,false,0.0,0.0,0.0,0.0,false,false,false,false,0.0,12.4,0.0,0,0,0,0.125,12.450000000000001,0.0,0,0,0,0.0,12.4,0.0,0,0,0,0.0,12.4,0.0,0,0,0,0.0,12.5,0.0,-2,0,0,0.0,4.0,0.0,0,0,0,kReverse,0.0,0.0,0.0,0.0,0.0,0.0,0.0,0.0,0.0,0.0,0.0,
33.41788,true,true,true,0.0,-0.0078125,0.0,-0.0078125,false,false,false,false,0.0,0.0,0.0,0.0,false,false,false,false,0.0,12.4,0.0,0,0,0,0.125,12.450000000000001,0.0,0,0,0,0.0,12.4,0.0,0,0,0,0.0,12.4,0.0,0,0,0,0.0,12.5,0.0,-2,0,0,0.0,4.0,0.0,0,0,0,kReverse,0.0,0.0,0.0,0.0,0.0,0.0,0.0,0.0,0.0,0.0,0.0,
33.532844999999995,true,true,true,0.0,-0.0078125,0.0,-0.0078125,false,false,false,false,0.0,0.0,0.0,0.0,false,false,false,false,0.0,12.4,0.0,0,0,0,0.125,12.4,0.0,0,0,0,0.0,12.4,0.0,0,0,0,0.0,12.4,0.0,0,0,0,0.0,12.450000000000001,0.0,-2,0,0,0.0,4.0,0.0,0,0,0,kReverse,0.0,0.0,0.0,0.0,0.0,0.0,0.0,0.0,0.0,0.0,0.0,
33.603625,true,true,true,0.0,-0.0078125,0.0,-0.0078125,false,false,false,false,0.0,0.0,0.0,0.0,false,false,false,false,0.0,12.4,0.0,0,0,0,0.125,12.4,0.0,0,0,0,0.0,12.4,0.0,0,0,0,0.0,12.4,0.0,0,0,0,0.0,12.450000000000001,0.0,-2,0,0,0.0,4.0,0.0,0,0,0,kReverse,0.0,0.0,0.0,0.0,0.0,0.0,0.0,0.0,0.0,0.0,0.0,
33.66193799999999,true,true,true,0.0,-0.0078125,0.0,-0.0078125,false,false,false,false,0.0,0.0,0.0,0.0,false,false,false,false,0.0,12.4,0.0,0,0,0,0.125,12.4,0.0,0,0,0,0.0,12.4,0.0,0,0,0,0.0,12.4,0.0,0,0,0,0.0,12.450000000000001,0.0,-2,0,0,0.0,4.0,0.0,0,0,0,kReverse,0.0,0.0,0.0,0.0,0.0,0.0,0.0,0.0,0.0,0.0,0.0,
33.736968,true,true,true,0.0,-0.0078125,0.0,-0.0078125,false,false,false,false,0.0,0.0,0.0,0.0,false,false,false,false,0.0,12.4,0.0,0,0,0,0.125,12.4,0.0,0,0,0,0.0,12.4,0.0,0,0,0,0.0,12.4,0.0,0,0,0,0.0,12.450000000000001,0.0,-2,0,0,0.0,4.0,0.0,0,0,0,kReverse,0.0,0.0,0.0,0.0,0.0,0.0,0.0,0.0,0.0,0.0,0.0,
33.79968399999999,true,true,true,0.0,-0.0078125,0.0,-0.0078125,false,false,false,false,0.0,0.0,0.0,0.0,false,false,false,false,0.0,12.4,0.0,0,0,0,0.125,12.4,0.0,0,0,0,0.0,12.4,0.0,0,0,0,0.0,12.4,0.0,0,0,0,0.0,12.450000000000001,0.0,-2,0,0,0.0,4.0,0.0,0,0,0,kReverse,0.0,0.0,0.0,0.0,0.0,0.0,0.0,0.0,0.0,0.0,0.0,
33.85995,true,true,true,0.0,-0.0078125,0.0,-0.0078125,false,false,false,false,0.0,0.0,0.0,0.0,false,false,false,false,0.0,12.4,0.0,0,0,0,0.125,12.4,0.0,0,0,0,0.0,12.4,0.0,0,0,0,0.0,12.4,0.0,0,0,0,0.0,12.450000000000001,0.0,-2,0,0,0.0,4.0,0.0,0,0,0,kReverse,0.0,0.0,0.0,0.0,0.0,0.0,0.0,0.0,0.0,0.0,0.0,
33.916049,true,true,true,0.0,-0.0078125,0.0,-0.0078125,false,false,false,false,0.0,0.0,0.0,0.0,false,false,false,false,0.0,12.4,0.0,0,0,0,0.125,12.4,0.0,0,0,0,0.0,12.4,0.0,0,0,0,0.0,12.4,0.0,0,0,0,0.0,12.450000000000001,0.0,-2,0,0,0.0,4.0,0.0,0,0,0,kReverse,0.0,0.0,0.0,0.0,0.0,0.0,0.0,0.0,0.0,0.0,0.0,
33.983369999999994,true,true,true,0.0,-0.0078125,0.0,-0.0078125,false,false,false,false,0.0,0.0,0.0,0.0,false,false,false,false,0.0,12.4,0.0,0,0,0,0.125,12.4,0.0,0,0,0,0.0,12.4,0.0,0,0,0,0.0,12.4,0.0,0,0,0,0.0,12.450000000000001,0.0,-2,0,0,0.0,4.0,0.0,0,0,0,kReverse,0.0,0.0,0.0,0.0,0.0,0.0,0.0,0.0,0.0,0.0,0.0,
34.038653,true,true,true,0.0,-0.03125,0.0,-0.0078125,false,false,false,false,0.0,0.0,0.0,0.0,false,false,false,false,0.0,12.4,0.0,0,0,0,0.125,12.4,0.0,0,0,0,0.0,12.4,0.0,0,0,0,0.0,12.4,0.0,0,0,0,0.0,12.450000000000001,0.0,-2,0,0,0.0,4.0,0.0,0,0,0,kReverse,0.0,0.0,0.0,0.0,0.0,0.0,0.0,0.0,0.0,0.0,0.0,
34.108487999999994,true,true,true,0.0,-0.1484375,0.0,-0.0078125,false,false,false,false,0.0,0.0,0.0,0.0,false,false,false,false,0.0,12.4,0.0,0,0,0,0.125,12.4,0.0,0,0,0,0.0,12.4,0.0,0,0,0,0.0,12.4,0.0,0,0,0,0.0,12.450000000000001,0.0,-2,0,0,0.0,4.0,0.0,0,0,0,kReverse,0.0,0.0,0.0,0.0,0.0,0.0,0.0,0.0,0.0,0.0,0.0,
34.174466,true,true,true,0.0,-0.21875,0.0,-0.0078125,false,false,false,false,0.0,0.0,0.0,0.0,false,false,false,false,0.0,12.4,0.0,0,0,0,0.125,12.4,0.0,0,0,0,0.0,12.4,0.0,0,0,0,0.0,12.4,0.0,0,0,0,0.0,12.450000000000001,0.0,-2,0,0,0.0,4.0,0.0,0,0,0,kReverse,0.0,0.0,0.0,0.0,0.0,0.0,0.0,0.0,0.0,0.0,0.0,
34.237981999999995,true,true,true,0.0,-0.28125,0.0,-0.0078125,false,false,false,false,0.0,0.0,0.0,0.0,false,false,false,false,0.0,12.4,0.0,0,0,0,0.125,12.4,0.0,0,0,0,0.0,12.4,0.0,0,0,0,0.0,12.4,0.0,0,0,0,0.0,12.450000000000001,0.0,-2,0,0,0.0,4.0,0.0,0,0,0,kReverse,0.0,0.0,0.0,0.0,0.0,0.0,0.0,0.0,0.0,0.0,0.0,
34.298973999999994,true,true,true,0.0,-0.3984375,0.0,-0.0078125,false,false,false,false,0.0,0.0,0.0,0.0,false,false,false,false,0.0,12.4,0.0,0,0,0,0.125,12.4,0.0,0,0,0,0.0,12.4,0.0,0,0,0,0.0,12.4,0.0,0,0,0,0.0,12.450000000000001,0.0,-2,0,0,0.0,4.0,0.0,0,0,0,kReverse,0.0,0.0,0.0,0.0,0.0,0.0,0.0,0.0,0.0,0.0,0.0,
34.358534,true,true,true,0.0,-0.765625,0.0,-0.0078125,false,false,false,false,0.0,0.0,0.0,0.0,false,false,false,false,0.0,12.4,0.0,0,0,0,0.125,12.4,0.0,0,0,0,0.0,12.4,0.0,0,0,0,0.0,12.4,0.0,0,0,0,0.0,12.450000000000001,0.0,-2,0,0,0.0,4.0,0.0,0,0,0,kReverse,0.0,0.0,0.0,0.0,0.0,0.0,0.0,0.0,0.0,0.0,0.0,
34.422393,true,true,true,0.0,-1.0,0.0,-0.0078125,false,false,false,false,0.0,0.0,0.0,0.0,false,false,false,false,0.0,12.4,0.0,0,0,0,0.125,12.4,0.0,0,0,0,0.0,12.4,0.0,0,0,0,0.0,12.4,0.0,0,0,0,0.0,12.450000000000001,0.0,-2,0,0,0.0,4.0,0.0,0,0,0,kReverse,0.0,0.0,0.0,0.0,0.0,0.0,0.0,0.0,0.0,0.0,0.0,
34.478699999999996,true,true,true,0.0,-1.0,0.0,-0.0078125,false,false,false,false,0.0,0.0,0.0,0.0,false,false,false,false,0.0,12.4,0.0,0,0,0,0.125,12.4,0.0,0,0,0,0.0,12.4,0.0,0,0,0,0.0,12.4,0.0,0,0,0,0.0,12.450000000000001,0.0,-2,0,0,0.0,4.0,0.0,0,0,0,kReverse,0.0,0.0,0.0,0.0,0.0,0.0,0.0,0.0,0.0,0.0,0.0,
34.540386999999996,true,true,true,0.0,-1.0,0.0,-0.0078125,false,false,false,false,0.0,0.0,0.0,0.0,false,false,false,false,0.0,12.4,0.0,0,0,0,0.125,12.4,0.0,0,0,0,0.0,12.4,0.0,0,0,0,0.0,12.4,0.0,0,0,0,0.0,12.450000000000001,0.0,-2,0,0,0.0,4.0,0.0,0,0,0,kReverse,0.0,0.0,0.0,0.0,0.0,0.0,0.0,0.0,0.0,0.0,0.0,
34.598763,true,true,true,0.0,-1.0,0.0,-0.0078125,false,false,false,false,0.0,0.0,0.0,0.0,false,false,false,false,0.0,12.4,0.0,0,0,0,0.125,12.4,0.0,0,0,0,0.0,12.4,0.0,0,0,0,0.0,12.4,0.0,0,0,0,0.0,12.450000000000001,0.0,-2,0,0,0.0,4.0,0.0,0,0,0,kReverse,0.0,0.0,0.0,0.0,0.0,0.0,0.0,0.0,0.0,0.0,0.0,
34.658913,true,true,true,0.0,-1.0,0.0,-0.0078125,false,false,false,false,0.0,0.0,0.0,0.0,false,false,false,false,0.0,12.4,0.0,0,0,0,0.125,12.4,0.0,0,0,0,0.0,12.4,0.0,0,0,0,0.0,12.4,0.0,0,0,0,0.0,12.450000000000001,0.0,-2,0,0,0.0,4.0,0.0,0,0,0,kReverse,0.0,0.0,0.0,0.0,0.0,0.0,0.0,0.0,0.0,0.0,0.0,
34.731049999999996,true,true,true,0.015748031437397003,-1.0,0.0,-0.0078125,false,false,false,false,0.0,0.0,0.0,0.0,false,false,false,false,0.0,12.4,0.0,0,0,0,0.125,12.4,0.0,0,0,0,0.0,12.4,0.0,0,0,0,0.0,12.4,0.0,0,0,0,0.0,12.450000000000001,0.0,-2,0,0,0.0,4.0,0.0,0,0,0,kReverse,0.0,0.0,0.0,0.0,0.0,0.0,0.0,0.0,0.0,0.0,0.0,
34.788964,true,true,true,0.031496062874794006,-1.0,0.0,-0.0078125,false,false,false,false,0.0,0.0,0.0,0.0,false,false,false,false,0.0,12.4,0.0,0,0,0,0.125,12.4,0.0,0,0,0,0.0,12.4,0.0,0,0,0,0.0,12.4,0.0,0,0,0,0.0,12.450000000000001,0.0,-2,0,0,0.0,4.0,0.0,0,0,0,kReverse,0.0,0.0,0.0,0.0,0.0,0.0,0.0,0.0,0.0,0.0,0.0,
34.838339,true,true,true,0.20472441613674164,-1.0,0.0,-0.0078125,false,false,false,false,0.0,0.0,0.0,0.0,false,false,false,false,0.0,12.4,0.0,0,0,0,0.125,12.4,0.0,0,0,0,0.0,12.4,0.0,0,0,0,0.0,12.4,0.0,0,0,0,0.0,12.450000000000001,0.0,-2,0,0,0.0,4.0,0.0,0,0,0,kReverse,0.0,0.0,0.0,0.0,0.0,0.0,0.0,0.0,0.0,0.0,0.0,
34.900475,true,true,true,0.27559053897857666,-1.0,0.0,-0.0078125,false,false,false,false,0.0,0.0,0.0,0.0,false,false,false,false,0.0,12.4,0.0,0,0,0,0.125,12.4,0.0,0,0,0,0.0,12.4,0.0,0,0,0,0.0,12.35,0.0,0,0,0,0.0,12.450000000000001,0.0,-2,0,0,0.0,4.0,0.0,0,0,0,kReverse,0.0,0.0,0.0,0.0,0.0,0.0,0.0,0.0,0.0,0.0,0.0,
34.960712,true,true,true,0.27559053897857666,-1.0,0.0,-0.0078125,false,false,false,false,0.0,0.0,0.0,0.0,false,false,false,false,0.0,12.4,0.0,0,0,0,0.125,12.4,0.0,0,0,0,0.0,12.4,0.0,0,0,0,0.0,12.35,0.0,0,0,0,0.0,12.450000000000001,0.0,-2,0,0,0.0,4.0,0.0,0,0,0,kReverse,0.0,0.0,0.0,0.0,0.0,0.0,0.0,0.0,0.0,0.0,0.0,
35.017182,true,true,true,0.30708661675453186,-1.0,0.0,-0.0078125,false,false,false,false,0.0,0.0,0.0,0.0,false,false,false,false,0.0,12.4,0.0,0,0,0,0.125,12.4,0.0,0,0,0,0.0,12.4,0.0,0,0,0,0.0,12.35,0.0,0,0,0,0.0,12.450000000000001,0.0,-2,0,0,0.0,4.0,0.0,0,0,0,kReverse,0.0,0.0,0.0,0.0,0.0,0.0,0.0,0.0,0.0,0.0,0.0,
35.078312999999994,true,true,true,0.30708661675453186,-1.0,0.0,-0.0078125,false,false,false,false,0.0,0.0,0.0,0.0,false,false,false,false,0.0,12.35,0.0,0,0,0,0.125,12.4,0.0,0,0,0,0.0,12.4,0.0,0,0,0,0.0,12.35,0.0,0,0,0,0.0,12.450000000000001,0.0,-2,0,0,0.0,4.0,0.0,0,0,0,kReverse,0.0,0.0,0.0,0.0,0.0,0.0,0.0,0.0,0.0,0.0,0.0,
35.144057999999994,true,true,true,0.30708661675453186,-1.0,0.0,-0.0078125,false,false,false,false,0.0,0.0,0.0,0.0,false,false,false,false,0.0,12.35,0.0,0,0,0,0.125,12.4,0.0,0,0,0,0.0,12.4,0.0,0,0,0,0.0,12.35,0.0,0,0,0,0.0,12.450000000000001,0.0,-2,0,0,0.0,4.0,0.0,0,0,0,kReverse,0.0,0.0,0.0,0.0,0.0,0.0,0.0,0.0,0.0,0.0,0.0,
35.205572000000004,true,true,true,0.30708661675453186,-1.0,0.0,-0.0078125,false,false,false,false,0.0,0.0,0.0,0.0,false,false,false,false,0.0,12.35,0.0,0,0,0,0.125,12.4,0.0,0,0,0,0.0,12.4,0.0,0,0,0,0.0,12.35,0.0,0,0,0,0.0,12.450000000000001,0.0,-2,0,0,0.0,4.0,0.0,0,0,0,kReverse,0.0,0.0,0.0,0.0,0.0,0.0,0.0,0.0,0.0,0.0,0.0,
35.258695,true,true,true,0.30708661675453186,-1.0,0.0,-0.0078125,false,false,false,false,0.0,0.0,0.0,0.0,false,false,false,false,0.0,12.35,0.0,0,0,0,0.125,12.4,0.0,0,0,0,0.0,12.4,0.0,0,0,0,0.0,12.35,0.0,0,0,0,0.0,12.450000000000001,0.0,-2,0,0,0.0,4.0,0.0,0,0,0,kReverse,0.0,0.0,0.0,0.0,0.0,0.0,0.0,0.0,0.0,0.0,0.0,
35.318723999999996,true,true,true,0.24409449100494385,-0.921875,0.0,-0.0078125,false,false,false,false,0.0,0.0,0.0,0.0,false,false,false,false,0.0,12.35,0.0,0,0,0,0.125,12.4,0.0,0,0,0,0.0,12.4,0.0,0,0,0,0.0,12.35,0.0,0,0,0,0.0,12.450000000000001,0.0,-2,0,0,0.0,4.0,0.0,0,0,0,kReverse,0.0,0.0,0.0,0.0,0.0,0.0,0.0,0.0,0.0,0.0,0.0,
35.379751,true,true,true,0.007874015718698502,-0.125,0.0,-0.0078125,false,false,false,false,0.0,0.0,0.0,0.0,false,false,false,false,0.0,12.35,0.0,0,0,0,0.125,12.4,0.0,0,0,0,0.0,12.35,0.0,0,0,0,0.0,12.35,0.0,0,0,0,0.0,12.450000000000001,0.0,-2,0,0,0.0,4.0,0.0,0,0,0,kReverse,0.0,0.0,0.0,0.0,0.0,0.0,0.0,0.0,0.0,0.0,0.0,
35.438070999999994,true,true,true,0.0,-0.0078125,0.0,-0.0078125,false,false,false,false,0.0,0.0,0.0,0.0,false,false,false,false,0.0,12.35,0.0,0,0,0,0.125,12.4,0.0,0,0,0,0.0,12.35,0.0,0,0,0,0.0,12.35,0.0,0,0,0,0.0,12.450000000000001,0.0,-2,0,0,0.0,4.0,0.0,0,0,0,kReverse,0.0,0.0,0.0,0.0,0.0,0.0,0.0,0.0,0.0,0.0,0.0,
35.49679999999999,true,true,true,0.0,-0.0078125,0.0,-0.0078125,false,false,false,false,0.0,0.0,0.0,0.0,false,false,false,false,0.0,12.35,0.0,0,0,0,0.125,12.4,0.0,0,0,0,0.0,12.35,0.0,0,0,0,0.0,12.35,0.0,0,0,0,0.0,12.450000000000001,0.0,-2,0,0,0.0,4.0,0.0,0,0,0,kReverse,0.0,0.0,0.0,0.0,0.0,0.0,0.0,0.0,0.0,0.0,0.0,
35.560658,true,true,true,0.0,-0.0078125,0.0,-0.0078125,false,false,false,false,0.0,0.0,0.0,0.0,false,false,false,false,0.0,12.35,0.0,0,0,0,0.125,12.4,0.0,0,0,0,0.0,12.35,0.0,0,0,0,0.0,12.35,0.0,0,0,0,0.0,12.450000000000001,0.0,-2,0,0,0.0,4.0,0.0,0,0,0,kReverse,0.0,0.0,0.0,0.0,0.0,0.0,0.0,0.0,0.0,0.0,0.0,
35.620802,true,true,true,0.0,-0.0078125,0.0,-0.0078125,false,false,false,false,0.0,0.0,0.0,0.0,false,false,false,false,0.0,12.35,0.0,0,0,0,0.125,12.4,0.0,0,0,0,0.0,12.35,0.0,0,0,0,0.0,12.35,0.0,0,0,0,0.0,12.450000000000001,0.0,-2,0,0,0.0,4.0,0.0,0,0,0,kReverse,0.0,0.0,0.0,0.0,0.0,0.0,0.0,0.0,0.0,0.0,0.0,
35.678663,true,true,true,0.0,-0.0078125,0.0,-0.0078125,false,false,false,false,0.0,0.0,0.0,0.0,false,false,false,false,0.0,12.35,0.0,0,0,0,0.125,12.4,0.0,0,0,0,0.0,12.35,0.0,0,0,0,0.0,12.35,0.0,0,0,0,0.0,12.450000000000001,0.0,-2,0,0,0.0,4.0,0.0,0,0,0,kReverse,0.0,0.0,0.0,0.0,0.0,0.0,0.0,0.0,0.0,0.0,0.0,
35.73839,true,true,true,0.0,-0.0078125,0.0,-0.0078125,false,false,false,false,0.0,0.0,0.0,0.0,false,false,false,false,0.0,12.35,0.0,0,0,0,0.125,12.4,0.0,0,0,0,0.0,12.35,0.0,0,0,0,0.0,12.35,0.0,0,0,0,0.0,12.450000000000001,0.0,-2,0,0,0.0,4.0,0.0,0,0,0,kReverse,0.0,0.0,0.0,0.0,0.0,0.0,0.0,0.0,0.0,0.0,0.0,
35.798077,true,true,true,0.0,-0.0078125,0.0,-0.0078125,false,false,false,false,0.0,0.0,0.0,0.0,false,false,false,false,0.0,12.35,0.0,0,0,0,0.125,12.4,0.0,0,0,0,0.0,12.35,0.0,0,0,0,0.0,12.35,0.0,0,0,0,0.0,12.450000000000001,0.0,-2,0,0,0.0,4.0,0.0,0,0,0,kReverse,0.0,0.0,0.0,0.0,0.0,0.0,0.0,0.0,0.0,0.0,0.0,
35.85697999999999,true,true,true,0.0,0.21259842813014984,0.0,-0.0078125,false,false,false,false,0.0,0.0,0.0,0.0,false,false,false,false,0.0,12.35,0.0,0,0,0,0.125,12.35,0.0,0,0,0,0.0,12.35,0.0,0,0,0,0.0,12.35,0.0,0,0,0,0.0,12.450000000000001,0.0,-2,0,0,0.0,4.0,0.0,0,0,0,kReverse,0.0,0.0,0.0,0.0,0.0,0.0,0.0,0.0,0.0,0.0,0.0,
35.91299,true,true,true,0.0,0.8031495809555054,0.0,-0.0078125,false,false,false,false,0.0,0.0,0.0,0.0,false,false,false,false,0.0,12.35,0.0,0,0,0,0.125,12.35,0.0,0,0,0,0.0,12.35,0.0,0,0,0,0.0,12.35,0.0,0,0,0,0.0,12.450000000000001,0.0,-2,0,0,0.0,4.0,0.0,0,0,0,kReverse,0.0,0.0,0.0,0.0,0.0,0.0,0.0,0.0,0.0,0.0,0.0,
35.96512,true,true,true,0.14173229038715363,1.0,0.0,-0.0078125,false,false,false,false,0.0,0.0,0.0,0.0,false,false,false,false,0.0,12.35,0.0,0,0,0,0.125,12.35,0.0,0,0,0,0.0,12.35,0.0,0,0,0,0.0,12.35,0.0,0,0,0,0.0,12.450000000000001,0.0,-2,0,0,0.0,4.0,0.0,0,0,0,kReverse,0.0,0.0,0.0,0.0,0.0,0.0,0.0,0.0,0.0,0.0,0.0,
36.026857,true,true,true,0.23622047901153564,1.0,0.0,-0.0078125,false,false,false,false,0.0,0.0,0.0,0.0,false,false,false,false,0.0,12.35,0.0,0,0,0,0.125,12.35,0.0,0,0,0,0.0,12.35,0.0,0,0,0,0.0,12.35,0.0,0,0,0,0.0,12.450000000000001,0.0,-2,0,0,0.0,4.0,0.0,0,0,0,kReverse,0.0,0.0,0.0,0.0,0.0,0.0,0.0,0.0,0.0,0.0,0.0,
36.080327999999994,true,true,true,0.23622047901153564,1.0,0.0,-0.0078125,false,false,false,false,0.0,0.0,0.0,0.0,false,false,false,false,0.0,12.35,0.0,0,0,0,0.125,12.35,0.0,0,0,0,0.0,12.35,0.0,0,0,0,0.0,12.35,0.0,0,0,0,0.0,12.450000000000001,0.0,-2,0,0,0.0,4.0,0.0,0,0,0,kReverse,0.0,0.0,0.0,0.0,0.0,0.0,0.0,0.0,0.0,0.0,0.0,
36.138836,true,true,true,0.23622047901153564,1.0,0.0,-0.0078125,false,false,false,false,0.0,0.0,0.0,0.0,false,false,false,false,0.0,12.35,0.0,0,0,0,0.125,12.35,0.0,0,0,0,0.0,12.35,0.0,0,0,0,0.0,12.35,0.0,0,0,0,0.0,12.450000000000001,0.0,-2,0,0,0.0,4.0,0.0,0,0,0,kReverse,0.0,0.0,0.0,0.0,0.0,0.0,0.0,0.0,0.0,0.0,0.0,
36.208093999999996,true,true,true,0.23622047901153564,1.0,0.0,-0.0078125,false,false,false,false,0.0,0.0,0.0,0.0,false,false,false,false,0.0,12.35,0.0,0,0,0,0.125,12.35,0.0,0,0,0,0.0,12.35,0.0,0,0,0,0.0,12.35,0.0,0,0,0,0.0,12.450000000000001,0.0,-2,0,0,0.0,4.0,0.0,0,0,0,kReverse,0.0,0.0,0.0,0.0,0.0,0.0,0.0,0.0,0.0,0.0,0.0,
36.26440399999999,true,true,true,0.17322835326194763,1.0,0.0,-0.0078125,false,false,false,false,0.0,0.0,0.0,0.0,false,false,false,false,0.0,12.35,0.0,0,0,0,0.125,12.35,0.0,0,0,0,0.0,12.35,0.0,0,0,0,0.0,12.35,0.0,0,0,0,0.0,12.450000000000001,0.0,-2,0,0,0.0,4.0,0.0,0,0,0,kReverse,0.0,0.0,0.0,0.0,0.0,0.0,0.0,0.0,0.0,0.0,0.0,
36.319386,true,true,true,0.0,0.5039370059967041,0.0,-0.0078125,false,false,false,false,0.0,0.0,0.0,0.0,false,false,false,false,0.0,12.35,0.0,0,0,0,0.125,12.35,0.0,0,0,0,0.0,12.35,0.0,0,0,0,0.0,12.35,0.0,0,0,0,0.0,12.450000000000001,0.0,-2,0,0,0.0,4.0,0.0,0,0,0,kReverse,0.0,0.0,0.0,0.0,0.0,0.0,0.0,0.0,0.0,0.0,0.0,
36.378392999999996,true,true,true,0.0,-0.0078125,0.0,-0.0078125,false,false,false,false,0.0,0.0,0.0,0.0,false,false,false,false,0.0,12.35,0.0,0,0,0,0.125,12.35,0.0,0,0,0,0.0,12.35,0.0,0,0,0,0.0,12.35,0.0,0,0,0,0.0,12.4,0.0,-2,0,0,0.0,4.0,0.0,0,0,0,kReverse,0.0,0.0,0.0,0.0,0.0,0.0,0.0,0.0,0.0,0.0,0.0,
36.439406,true,true,true,0.0,-0.0078125,0.0,-0.0078125,false,false,false,false,0.0,0.0,0.0,0.0,false,false,false,false,0.0,12.35,0.0,0,0,0,0.125,12.35,0.0,0,0,0,0.0,12.35,0.0,0,0,0,0.0,12.35,0.0,0,0,0,0.0,12.4,0.0,-2,0,0,0.0,4.0,0.0,0,0,0,kReverse,0.0,0.0,0.0,0.0,0.0,0.0,0.0,0.0,0.0,0.0,0.0,
36.488521999999996,true,true,true,0.0,-0.0078125,0.0,-0.0078125,false,false,false,false,0.0,0.0,0.0,0.0,false,false,false,false,0.0,12.35,0.0,0,0,0,0.125,12.35,0.0,0,0,0,0.0,12.35,0.0,0,0,0,0.0,12.35,0.0,0,0,0,0.0,12.4,0.0,-2,0,0,0.0,4.0,0.0,0,0,0,kReverse,0.0,0.0,0.0,0.0,0.0,0.0,0.0,0.0,0.0,0.0,0.0,
36.538239,true,true,true,0.0,-0.0078125,0.0,-0.0078125,false,false,false,false,0.0,0.0,0.0,0.0,false,false,false,false,0.0,12.35,0.0,0,0,0,0.125,12.35,0.0,0,0,0,0.0,12.35,0.0,0,0,0,0.0,12.35,0.0,0,0,0,0.0,12.4,0.0,-2,0,0,0.0,4.0,0.0,0,0,0,kReverse,0.0,0.0,0.0,0.0,0.0,0.0,0.0,0.0,0.0,0.0,0.0,
36.59628299999999,true,true,true,0.0,-0.0078125,0.0,-0.0078125,false,false,false,false,0.0,0.0,0.0,0.0,false,false,false,false,0.0,12.35,0.0,0,0,0,0.125,12.35,0.0,0,0,0,0.0,12.35,0.0,0,0,0,0.0,12.35,0.0,0,0,0,0.0,12.4,0.0,-2,0,0,0.0,4.0,0.0,0,0,0,kReverse,0.0,0.0,0.0,0.0,0.0,0.0,0.0,0.0,0.0,0.0,0.0,
36.651889,true,true,true,0.0,-0.0078125,0.0,-0.0078125,false,false,false,false,0.0,0.0,0.0,0.0,false,false,false,false,0.0,12.35,0.0,0,0,0,0.125,12.35,0.0,0,0,0,0.0,12.35,0.0,0,0,0,0.0,12.35,0.0,0,0,0,0.0,12.4,0.0,-2,0,0,0.0,4.0,0.0,0,0,0,kReverse,0.0,0.0,0.0,0.0,0.0,0.0,0.0,0.0,0.0,0.0,0.0,
36.702019,true,true,true,0.0,-0.0078125,0.0,-0.0078125,false,false,false,false,0.0,0.0,0.0,0.0,false,false,false,false,0.0,12.35,0.0,0,0,0,0.125,12.35,0.0,0,0,0,0.0,12.35,0.0,0,0,0,0.0,12.35,0.0,0,0,0,0.0,12.4,0.0,-2,0,0,0.0,4.0,0.0,0,0,0,kReverse,0.0,0.0,0.0,0.0,0.0,0.0,0.0,0.0,0.0,0.0,0.0,
36.759924999999996,true,true,true,0.0,-0.0078125,0.0,-0.0078125,false,false,false,false,0.0,0.0,0.0,0.0,false,false,false,false,0.0,12.35,0.0,0,0,0,0.125,12.35,0.0,0,0,0,0.0,12.35,0.0,0,0,0,0.0,12.35,0.0,0,0,0,0.0,12.4,0.0,-2,0,0,0.0,4.0,0.0,0,0,0,kReverse,0.0,0.0,0.0,0.0,0.0,0.0,0.0,0.0,0.0,0.0,0.0,
36.820094,true,true,true,0.0,-0.0078125,0.0,-0.0078125,false,false,false,false,0.0,0.0,0.0,0.0,false,false,false,false,0.0,12.35,0.0,0,0,0,0.125,12.35,0.0,0,0,0,0.0,12.35,0.0,0,0,0,0.0,12.35,0.0,0,0,0,0.0,12.4,0.0,-2,0,0,0.0,4.0,0.0,0,0,0,kReverse,0.0,0.0,0.0,0.0,0.0,0.0,0.0,0.0,0.0,0.0,0.0,
36.8782,true,true,true,0.0,-0.0078125,0.0,-0.0078125,false,false,false,false,0.0,0.0,0.0,0.0,false,false,false,false,0.0,12.35,0.0,0,0,0,0.125,12.35,0.0,0,0,0,0.0,12.35,0.0,0,0,0,0.0,12.35,0.0,0,0,0,0.0,12.4,0.0,-2,0,0,0.0,4.0,0.0,0,0,0,kReverse,0.0,0.0,0.0,0.0,0.0,0.0,0.0,0.0,0.0,0.0,0.0,
36.936246,true,true,true,0.0,-0.046875,0.0,-0.0078125,false,false,false,false,0.0,0.0,0.0,0.0,false,false,false,false,0.0,12.35,0.0,0,0,0,0.125,12.35,0.0,0,0,0,0.0,12.35,0.0,0,0,0,0.0,12.35,0.0,0,0,0,0.0,12.4,0.0,-2,0,0,0.0,4.0,0.0,0,0,0,kReverse,0.0,0.0,0.0,0.0,0.0,0.0,0.0,0.0,0.0,0.0,0.0,
36.994867,true,true,true,0.0,-0.5625,0.0,-0.0078125,false,false,false,false,0.0,0.0,0.0,0.0,false,false,false,false,0.0,12.35,0.0,0,0,0,0.125,12.35,0.0,0,0,0,0.0,12.35,0.0,0,0,0,0.0,12.35,0.0,0,0,0,0.0,12.4,0.0,-2,0,0,0.0,4.0,0.0,0,0,0,kReverse,0.0,0.0,0.0,0.0,0.0,0.0,0.0,0.0,0.0,0.0,0.0,
37.050818,true,true,true,0.20472441613674164,-0.953125,0.0,-0.0078125,false,false,false,false,0.0,0.0,0.0,0.0,false,false,false,false,0.0,12.35,0.0,0,0,0,0.125,12.35,0.0,0,0,0,0.0,12.35,0.0,0,0,0,0.0,12.35,0.0,0,0,0,0.0,12.4,0.0,-2,0,0,0.0,4.0,0.0,0,0,0,kReverse,0.0,0.0,0.0,0.0,0.0,0.0,0.0,0.0,0.0,0.0,0.0,
37.107521999999996,true,true,true,0.22834645211696625,-1.0,0.0,-0.0078125,false,false,false,false,0.0,0.0,0.0,0.0,false,false,false,false,0.0,12.35,0.0,0,0,0,0.125,12.35,0.0,0,0,0,0.0,12.35,0.0,0,0,0,0.0,12.35,0.0,0,0,0,0.0,12.4,0.0,-2,0,0,0.0,4.0,0.0,0,0,0,kReverse,0.0,0.0,0.0,0.0,0.0,0.0,0.0,0.0,0.0,0.0,0.0,
37.159808,true,true,true,0.22834645211696625,-1.0,0.0,-0.0078125,false,false,false,false,0.0,0.0,0.0,0.0,false,false,false,false,0.0,12.35,0.0,0,0,0,0.125,12.35,0.0,0,0,0,0.0,12.35,0.0,0,0,0,0.0,12.35,0.0,0,0,0,0.0,12.4,0.0,-2,0,0,0.0,4.0,0.0,0,0,0,kReverse,0.0,0.0,0.0,0.0,0.0,0.0,0.0,0.0,0.0,0.0,0.0,
37.221903,true,true,true,0.22834645211696625,-1.0,0.0,-0.0078125,false,false,false,false,0.0,0.0,0.0,0.0,false,false,false,false,0.0,12.35,0.0,0,0,0,0.125,12.35,0.0,0,0,0,0.0,12.35,0.0,0,0,0,0.0,12.35,0.0,0,0,0,0.0,12.4,0.0,-2,0,0,0.0,4.0,0.0,0,0,0,kReverse,0.0,0.0,0.0,0.0,0.0,0.0,0.0,0.0,0.0,0.0,0.0,
37.280601,true,true,true,0.23622047901153564,-1.0,0.0,-0.0078125,false,false,false,false,0.0,0.0,0.0,0.0,false,false,false,false,0.0,12.35,0.0,0,0,0,0.125,12.35,0.0,0,0,0,0.0,12.35,0.0,0,0,0,0.0,12.35,0.0,0,0,0,0.0,12.4,0.0,-2,0,0,0.0,4.0,0.0,0,0,0,kReverse,0.0,0.0,0.0,0.0,0.0,0.0,0.0,0.0,0.0,0.0,0.0,
37.339841,true,true,true,0.24409449100494385,-1.0,0.0,-0.0078125,false,false,false,false,0.0,0.0,0.0,0.0,false,false,false,false,0.0,12.35,0.0,0,0,0,0.125,12.35,0.0,0,0,0,0.0,12.35,0.0,0,0,0,0.0,12.35,0.0,0,0,0,0.0,12.4,0.0,-2,0,0,0.0,4.0,0.0,0,0,0,kReverse,0.0,0.0,0.0,0.0,0.0,0.0,0.0,0.0,0.0,0.0,0.0,
37.395908,true,true,true,0.24409449100494385,-1.0,0.0,-0.0078125,false,false,false,false,0.0,0.0,0.0,0.0,false,false,false,false,0.0,12.35,0.0,0,0,0,0.125,12.35,0.0,0,0,0,0.0,12.35,0.0,0,0,0,0.0,12.35,0.0,0,0,0,0.0,12.4,0.0,-2,0,0,0.0,4.0,0.0,0,0,0,kReverse,0.0,0.0,0.0,0.0,0.0,0.0,0.0,0.0,0.0,0.0,0.0,
37.446064,true,true,true,0.24409449100494385,-1.0,0.0,-0.0078125,false,false,false,false,0.0,0.0,0.0,0.0,false,false,false,false,0.0,12.35,0.0,0,0,0,0.125,12.35,0.0,0,0,0,0.0,12.35,0.0,0,0,0,0.0,12.35,0.0,0,0,0,0.0,12.4,0.0,-2,0,0,0.0,4.0,0.0,0,0,0,kReverse,0.0,0.0,0.0,0.0,0.0,0.0,0.0,0.0,0.0,0.0,0.0,
37.499002999999995,true,true,true,0.24409449100494385,-1.0,0.0,-0.0078125,false,false,false,false,0.0,0.0,0.0,0.0,false,false,false,false,0.0,12.35,0.0,0,0,0,0.125,12.35,0.0,0,0,0,0.0,12.35,0.0,0,0,0,0.0,12.35,0.0,0,0,0,0.0,12.4,0.0,-2,0,0,0.0,4.0,0.0,0,0,0,kReverse,0.0,0.0,0.0,0.0,0.0,0.0,0.0,0.0,0.0,0.0,0.0,
37.554445,true,true,true,0.24409449100494385,-1.0,0.0,-0.0078125,false,false,false,false,0.0,0.0,0.0,0.0,false,false,false,false,0.0,12.35,0.0,0,0,0,0.125,12.35,0.0,0,0,0,0.0,12.35,0.0,0,0,0,0.0,12.35,0.0,0,0,0,0.0,12.4,0.0,-2,0,0,0.0,4.0,0.0,0,0,0,kReverse,0.0,0.0,0.0,0.0,0.0,0.0,0.0,0.0,0.0,0.0,0.0,
37.600818999999994,true,true,true,0.24409449100494385,-1.0,0.0,-0.0078125,false,false,false,false,0.0,0.0,0.0,0.0,false,false,false,false,0.0,12.35,0.0,0,0,0,0.125,12.35,0.0,0,0,0,0.0,12.35,0.0,0,0,0,0.0,12.35,0.0,0,0,0,0.0,12.4,0.0,-2,0,0,0.0,4.0,0.0,0,0,0,kReverse,0.0,0.0,0.0,0.0,0.0,0.0,0.0,0.0,0.0,0.0,0.0,
37.657888,true,true,true,0.24409449100494385,-1.0,0.0,-0.0078125,false,false,false,false,0.0,0.0,0.0,0.0,false,false,false,false,0.0,12.35,0.0,0,0,0,0.125,12.35,0.0,0,0,0,0.0,12.35,0.0,0,0,0,0.0,12.35,0.0,0,0,0,0.0,12.4,0.0,-2,0,0,0.0,4.0,0.0,0,0,0,kReverse,0.0,0.0,0.0,0.0,0.0,0.0,0.0,0.0,0.0,0.0,0.0,
37.715652999999996,true,true,true,0.24409449100494385,-0.8671875,0.0,-0.0078125,false,false,false,false,0.0,0.0,0.0,0.0,false,false,false,false,0.0,12.35,0.0,0,0,0,0.125,12.35,0.0,0,0,0,0.0,12.35,0.0,0,0,0,0.0,12.35,0.0,0,0,0,0.0,12.4,0.0,-2,0,0,0.0,4.0,0.0,0,0,0,kReverse,0.0,0.0,0.0,0.0,0.0,0.0,0.0,0.0,0.0,0.0,0.0,
37.77021499999999,true,true,true,0.11023622006177902,-0.4453125,0.0,-0.0078125,false,false,false,false,0.0,0.0,0.0,0.0,false,false,false,false,0.0,12.35,0.0,0,0,0,0.125,12.35,0.0,0,0,0,0.0,12.35,0.0,0,0,0,0.0,12.35,0.0,0,0,0,0.0,12.4,0.0,-2,0,0,0.0,4.0,0.0,0,0,0,kReverse,0.0,0.0,0.0,0.0,0.0,0.0,0.0,0.0,0.0,0.0,0.0,
37.819725999999996,true,true,true,0.0,-0.0078125,0.0,-0.0078125,false,false,false,false,0.0,0.0,0.0,0.0,false,false,false,false,0.0,12.35,0.0,0,0,0,0.125,12.35,0.0,0,0,0,0.0,12.35,0.0,0,0,0,0.0,12.35,0.0,0,0,0,0.0,12.4,0.0,-2,0,0,0.0,4.0,0.0,0,0,0,kReverse,0.0,0.0,0.0,0.0,0.0,0.0,0.0,0.0,0.0,0.0,0.0,
37.87738099999999,true,true,true,0.0,-0.0078125,0.0,-0.0078125,false,false,false,false,0.0,0.0,0.0,0.0,false,false,false,false,0.0,12.35,0.0,0,0,0,0.125,12.35,0.0,0,0,0,0.0,12.35,0.0,0,0,0,0.0,12.35,0.0,0,0,0,0.0,12.4,0.0,-2,0,0,0.0,4.0,0.0,0,0,0,kReverse,0.0,0.0,0.0,0.0,0.0,0.0,0.0,0.0,0.0,0.0,0.0,
37.93122399999999,true,true,true,0.0,-0.0078125,0.0,-0.0078125,false,false,false,false,0.0,0.0,0.0,0.0,false,false,false,false,0.0,12.35,0.0,0,0,0,0.125,12.35,0.0,0,0,0,0.0,12.35,0.0,0,0,0,0.0,12.35,0.0,0,0,0,0.0,12.4,0.0,-2,0,0,0.0,4.0,0.0,0,0,0,kReverse,0.0,0.0,0.0,0.0,0.0,0.0,0.0,0.0,0.0,0.0,0.0,
37.997941,true,true,true,0.0,-0.0078125,0.0,-0.0078125,false,false,false,false,0.0,0.0,0.0,0.0,false,false,false,false,0.0,12.35,0.0,0,0,0,0.125,12.35,0.0,0,0,0,0.0,12.35,0.0,0,0,0,0.0,12.35,0.0,0,0,0,0.0,12.4,0.0,-2,0,0,0.0,4.0,0.0,0,0,0,kReverse,0.0,0.0,0.0,0.0,0.0,0.0,0.0,0.0,0.0,0.0,0.0,
38.065543999999996,true,true,true,0.0,-0.0078125,0.0,-0.0078125,false,false,false,false,0.0,0.0,0.0,0.0,false,false,false,false,0.0,12.35,0.0,0,0,0,0.125,12.35,0.0,0,0,0,0.0,12.35,0.0,0,0,0,0.0,12.35,0.0,0,0,0,0.0,12.4,0.0,-2,0,0,0.0,4.0,0.0,0,0,0,kReverse,0.0,0.0,0.0,0.0,0.0,0.0,0.0,0.0,0.0,0.0,0.0,
38.134488999999995,true,true,true,0.0,-0.0078125,0.0,-0.0078125,false,false,false,false,0.0,0.0,0.0,0.0,false,false,false,false,0.0,12.35,0.0,0,0,0,0.125,12.35,0.0,0,0,0,0.0,12.35,0.0,0,0,0,0.0,12.35,0.0,0,0,0,0.0,12.4,0.0,-2,0,0,0.0,4.0,0.0,0,0,0,kReverse,0.0,0.0,0.0,0.0,0.0,0.0,0.0,0.0,0.0,0.0,0.0,
38.197244999999995,true,true,true,0.0,-0.0078125,0.0,-0.0078125,false,false,false,false,0.0,0.0,0.0,0.0,false,false,false,false,0.0,12.35,0.0,0,0,0,0.125,12.35,0.0,0,0,0,0.0,12.35,0.0,0,0,0,0.0,12.35,0.0,0,0,0,0.0,12.4,0.0,-2,0,0,0.0,4.0,0.0,0,0,0,kReverse,0.0,0.0,0.0,0.0,0.0,0.0,0.0,0.0,0.0,0.0,0.0,
38.26257799999999,true,true,true,0.0,-0.0078125,0.0,-0.0078125,false,false,false,false,0.0,0.0,0.0,0.0,false,false,false,false,0.0,12.35,0.0,0,0,0,0.125,12.35,0.0,0,0,0,0.0,12.35,0.0,0,0,0,0.0,12.35,0.0,0,0,0,0.0,12.4,0.0,-2,0,0,0.0,4.0,0.0,0,0,0,kReverse,0.0,0.0,0.0,0.0,0.0,0.0,0.0,0.0,0.0,0.0,0.0,
38.325500999999996,true,true,true,0.0,-0.0078125,0.0,-0.0078125,false,false,false,false,0.0,0.0,0.0,0.0,false,false,false,false,0.0,12.35,0.0,0,0,0,0.125,12.35,0.0,0,0,0,0.0,12.35,0.0,0,0,0,0.0,12.35,0.0,0,0,0,0.0,12.4,0.0,-2,0,0,0.0,4.0,0.0,0,0,0,kReverse,0.0,0.0,0.0,0.0,0.0,0.0,0.0,0.0,0.0,0.0,0.0,
38.380888999999996,true,true,true,0.0,-0.0078125,0.0,-0.3046875,false,false,false,false,0.0,0.0,0.0,0.0,false,false,false,false,0.0,12.35,0.0,0,0,0,0.125,12.35,0.0,0,0,0,0.0,12.35,0.0,0,0,0,0.0,12.35,0.0,0,0,0,0.0,12.4,0.0,-2,0,0,0.0,4.0,0.0,0,0,0,kReverse,0.0,0.0,0.0,0.0,0.0,0.0,0.0,0.0,0.0,0.0,0.0,
38.440189,true,true,true,0.0,-0.0078125,0.0,-1.0,false,false,false,false,0.0,0.0,0.0,0.0,false,false,false,false,0.0,12.35,0.0,0,0,0,0.125,12.35,0.0,0,0,0,0.0,12.35,0.0,0,0,0,0.0,12.35,0.0,0,0,0,0.0,12.4,0.0,-2,0,0,0.0,4.0,0.0,0,0,0,kReverse,0.0,0.0,0.0,0.0,0.0,0.0,0.0,0.0,0.0,0.0,0.0,
38.499362999999995,true,true,true,0.0,-0.0078125,0.0,-1.0,false,false,false,false,0.0,0.0,0.0,0.0,false,false,false,false,0.0,12.35,0.0,0,0,0,0.125,12.35,0.0,0,0,0,0.0,12.35,0.0,0,0,0,0.0,12.35,0.0,0,0,0,0.0,12.4,0.0,-2,0,0,0.0,4.0,0.0,0,0,0,kReverse,0.0,0.0,0.0,0.0,0.0,0.0,0.0,0.0,0.0,0.0,0.0,
38.559926999999995,true,true,true,0.0,-0.0078125,0.0,-1.0,false,false,false,false,0.0,0.0,0.0,0.0,false,false,false,false,0.0,12.35,0.0,0,0,0,0.125,12.35,0.0,0,0,0,0.0,12.35,0.0,0,0,0,0.0,12.35,0.0,0,0,0,0.0,12.4,0.0,-2,0,0,0.0,4.0,0.0,0,0,0,kReverse,0.0,0.0,0.0,0.0,0.0,0.0,0.0,0.0,0.0,0.0,0.0,
38.62058,true,true,true,0.0,-0.0078125,0.0,-1.0,false,false,false,false,0.0,0.0,0.0,0.0,false,false,false,false,0.0,12.35,0.0,0,0,0,0.125,12.35,0.0,0,0,0,0.0,12.35,0.0,0,0,0,0.0,12.35,0.0,0,0,0,0.0,12.4,0.0,-2,0,0,0.0,4.0,0.0,0,0,0,kReverse,0.0,0.0,0.0,0.0,0.0,0.0,0.0,0.0,0.0,0.0,0.0,
38.700793,true,true,true,0.0,-0.0078125,0.0,-1.0,false,false,false,false,0.0,0.0,0.0,0.0,false,false,false,false,0.0,12.35,0.0,0,0,0,0.125,12.35,0.0,0,0,0,0.0,12.35,0.0,0,0,0,0.0,12.35,0.0,0,0,0,0.0,12.4,0.0,-2,0,0,0.0,4.0,0.0,0,0,0,kReverse,0.0,0.0,0.0,0.0,0.0,0.0,0.0,0.0,0.0,0.0,0.0,
38.75983599999999,true,true,true,0.0,-0.0078125,0.0,-1.0,false,false,false,false,0.0,0.0,0.0,0.0,false,false,false,false,0.0,12.35,0.0,0,0,0,0.125,12.35,0.0,0,0,0,0.0,12.35,0.0,0,0,0,0.0,12.35,0.0,0,0,0,0.0,12.4,0.0,-2,0,0,0.0,4.0,0.0,0,0,0,kReverse,0.0,0.0,0.0,0.0,0.0,0.0,0.0,0.0,0.0,0.0,0.0,
38.818572999999994,true,true,true,0.0,-0.0078125,0.0,-0.2109375,false,false,false,false,0.0,0.0,0.0,0.0,false,false,false,false,0.0,12.35,0.0,0,0,0,0.125,12.35,0.0,0,0,0,0.0,12.35,0.0,0,0,0,0.0,12.35,0.0,0,0,0,0.0,12.4,0.0,-2,0,0,0.0,4.0,0.0,0,0,0,kReverse,0.0,0.0,0.0,0.0,0.0,0.0,0.0,0.0,0.0,0.0,0.0,
38.876315999999996,true,true,true,0.0,-0.0078125,0.0,-0.0078125,false,false,false,false,0.0,0.0,0.0,0.0,false,false,false,false,0.0,12.35,0.0,0,0,0,0.125,12.35,0.0,0,0,0,0.0,12.35,0.0,0,0,0,0.0,12.35,0.0,0,0,0,0.0,12.4,0.0,-2,0,0,0.0,4.0,0.0,0,0,0,kReverse,0.0,0.0,0.0,0.0,0.0,0.0,0.0,0.0,0.0,0.0,0.0,
38.934962999999996,true,true,true,0.0,-0.0078125,0.0,-0.0078125,false,false,false,false,0.0,0.0,0.0,0.0,false,false,false,false,0.0,12.35,0.0,0,0,0,0.125,12.35,0.0,0,0,0,0.0,12.35,0.0,0,0,0,0.0,12.35,0.0,0,0,0,0.0,12.4,0.0,-2,0,0,0.0,4.0,0.0,0,0,0,kReverse,0.0,0.0,0.0,0.0,0.0,0.0,0.0,0.0,0.0,0.0,0.0,
38.99116899999999,true,true,true,0.0,-0.0078125,0.0,-0.0078125,false,false,false,false,0.0,0.0,0.0,0.0,false,false,false,false,0.0,12.35,0.0,0,0,0,0.125,12.35,0.0,0,0,0,0.0,12.35,0.0,0,0,0,0.0,12.35,0.0,0,0,0,0.0,12.4,0.0,-2,0,0,0.0,4.0,0.0,0,0,0,kReverse,0.0,0.0,0.0,0.0,0.0,0.0,0.0,0.0,0.0,0.0,0.0,
39.042139,true,true,true,0.0,-0.0078125,0.0,0.12598425149917603,false,false,false,false,0.0,0.0,0.0,0.0,false,false,false,false,0.0,12.35,0.0,0,0,0,0.125,12.35,0.0,0,0,0,0.0,12.35,0.0,0,0,0,0.0,12.35,0.0,0,0,0,0.0,12.4,0.0,-2,0,0,0.0,4.0,0.0,0,0,0,kReverse,0.0,0.0,0.0,0.0,0.0,0.0,0.0,0.0,0.0,0.0,0.0,
39.103396000000004,true,true,true,0.0,-0.0078125,-0.2421875,1.0,false,false,false,false,0.0,0.0,0.0,0.0,false,false,false,false,0.0,12.35,0.0,0,0,0,0.125,12.35,0.0,0,0,0,0.0,12.35,0.0,0,0,0,0.0,12.3,0.0,0,0,0,0.0,12.4,0.0,-2,0,0,0.0,4.0,0.0,0,0,0,kReverse,0.0,0.0,0.0,0.0,0.0,0.0,0.0,0.0,0.0,0.0,0.0,
39.163019999999996,true,true,true,0.0,-0.0078125,-0.3203125,1.0,false,false,false,false,0.0,0.0,0.0,0.0,false,false,false,false,0.0,12.35,0.0,0,0,0,0.125,12.35,0.0,0,0,0,0.0,12.35,0.0,0,0,0,0.0,12.3,0.0,0,0,0,0.0,12.4,0.0,-2,0,0,0.0,4.0,0.0,0,0,0,kReverse,0.0,0.0,0.0,0.0,0.0,0.0,0.0,0.0,0.0,0.0,0.0,
39.220924,true,true,true,0.0,-0.0078125,-0.078125,0.8818897604942322,false,false,false,false,0.0,0.0,0.0,0.0,false,false,false,false,0.0,12.35,0.0,0,0,0,0.125,12.35,0.0,0,0,0,0.0,12.35,0.0,0,0,0,0.0,12.35,0.0,0,0,0,0.0,12.4,0.0,-2,0,0,0.0,4.0,0.0,0,0,0,kReverse,0.0,0.0,0.0,0.0,0.0,0.0,0.0,0.0,0.0,0.0,0.0,
39.28291899999999,true,true,true,0.0,-0.0078125,0.0,0.07086614519357681,false,false,false,false,0.0,0.0,0.0,0.0,false,false,false,false,0.0,12.35,0.0,0,0,0,0.125,12.35,0.0,0,0,0,0.0,12.35,0.0,0,0,0,0.0,12.35,0.0,0,0,0,0.0,12.4,0.0,-2,0,0,0.0,4.0,0.0,0,0,0,kReverse,0.0,0.0,0.0,0.0,0.0,0.0,0.0,0.0,0.0,0.0,0.0,
39.342425,true,true,true,0.0,-0.0078125,0.0,-0.0078125,false,false,false,false,0.0,0.0,0.0,0.0,false,false,false,false,0.0,12.35,0.0,0,0,0,0.125,12.35,0.0,0,0,0,0.0,12.35,0.0,0,0,0,0.0,12.35,0.0,0,0,0,0.0,12.4,0.0,-2,0,0,0.0,4.0,0.0,0,0,0,kReverse,0.0,0.0,0.0,0.0,0.0,0.0,0.0,0.0,0.0,0.0,0.0,
39.400166999999996,true,true,true,0.0,-0.0078125,0.0,-0.1484375,false,false,false,false,0.0,0.0,0.0,0.0,false,false,false,false,0.0,12.3,0.0,0,0,0,0.125,12.35,0.0,0,0,0,0.0,12.35,0.0,0,0,0,0.0,12.35,0.0,0,0,0,0.0,12.4,0.0,-2,0,0,0.0,4.0,0.0,0,0,0,kReverse,0.0,0.0,0.0,0.0,0.0,0.0,0.0,0.0,0.0,0.0,0.0,
39.45925799999999,true,true,true,0.0,-0.0078125,0.0,-0.9765625,false,false,false,false,0.0,0.0,0.0,0.0,false,false,false,false,0.0,12.3,0.0,0,0,0,0.125,12.35,0.0,0,0,0,0.0,12.35,0.0,0,0,0,0.0,12.35,0.0,0,0,0,0.0,12.4,0.0,-2,0,0,0.0,4.0,0.0,0,0,0,kReverse,0.0,0.0,0.0,0.0,0.0,0.0,0.0,0.0,0.0,0.0,0.0,
39.519093999999996,true,true,true,0.0,-0.0078125,0.0,-1.0,false,false,false,false,0.0,0.0,0.0,0.0,false,false,false,false,0.0,12.3,0.0,0,0,0,0.125,12.35,0.0,0,0,0,0.0,12.35,0.0,0,0,0,0.0,12.35,0.0,0,0,0,0.0,12.4,0.0,-2,0,0,0.0,4.0,0.0,0,0,0,kReverse,0.0,0.0,0.0,0.0,0.0,0.0,0.0,0.0,0.0,0.0,0.0,
39.57794199999999,true,true,true,0.0,-0.0078125,0.0,-1.0,false,false,false,false,0.0,0.0,0.0,0.0,false,false,false,false,0.0,12.3,0.0,0,0,0,0.125,12.35,0.0,0,0,0,0.0,12.35,0.0,0,0,0,0.0,12.3,0.0,0,0,0,0.0,12.4,0.0,-2,0,0,0.0,4.0,0.0,0,0,0,kReverse,0.0,0.0,0.0,0.0,0.0,0.0,0.0,0.0,0.0,0.0,0.0,
39.639324,true,true,true,0.0,-0.0078125,0.0,-0.296875,false,false,false,false,0.0,0.0,0.0,0.0,false,false,false,false,0.0,12.3,0.0,0,0,0,0.125,12.35,0.0,0,0,0,0.0,12.35,0.0,0,0,0,0.0,12.3,0.0,0,0,0,0.0,12.4,0.0,-2,0,0,0.0,4.0,0.0,0,0,0,kReverse,0.0,0.0,0.0,0.0,0.0,0.0,0.0,0.0,0.0,0.0,0.0,
39.698149,true,true,true,0.0,-0.0078125,0.0,-0.0078125,false,false,false,false,0.0,0.0,0.0,0.0,false,false,false,false,0.0,12.35,0.0,0,0,0,0.125,12.35,0.0,0,0,0,0.0,12.35,0.0,0,0,0,0.0,12.3,0.0,0,0,0,0.0,12.4,0.0,-2,0,0,0.0,4.0,0.0,0,0,0,kReverse,0.0,0.0,0.0,0.0,0.0,0.0,0.0,0.0,0.0,0.0,0.0,
39.757897,true,true,true,0.0,-0.671875,0.0,-0.0078125,false,false,false,false,0.0,0.0,0.0,0.0,false,false,false,false,0.0,12.35,0.0,0,0,0,0.125,12.35,0.0,0,0,0,0.0,12.35,0.0,0,0,0,0.0,12.3,0.0,0,0,0,0.0,12.4,0.0,-2,0,0,0.0,4.0,0.0,0,0,0,kReverse,0.0,0.0,0.0,0.0,0.0,0.0,0.0,0.0,0.0,0.0,0.0,
39.817623999999995,true,true,true,0.11811023950576782,-1.0,0.0,-0.0078125,false,false,false,false,0.0,0.0,0.0,0.0,false,false,false,false,0.0,12.35,0.0,0,0,0,0.125,12.35,0.0,0,0,0,0.0,12.35,0.0,0,0,0,0.0,12.3,0.0,0,0,0,0.0,12.4,0.0,-2,0,0,0.0,4.0,0.0,0,0,0,kReverse,0.0,0.0,0.0,0.0,0.0,0.0,0.0,0.0,0.0,0.0,0.0,
39.876462999999994,true,true,true,0.11811023950576782,-1.0,0.0,-0.0078125,false,false,false,false,0.0,0.0,0.0,0.0,false,false,false,false,0.0,12.3,0.0,0,0,0,0.125,12.35,0.0,0,0,0,0.0,12.35,0.0,0,0,0,0.0,12.3,0.0,0,0,0,0.0,12.4,0.0,-2,0,0,0.0,4.0,0.0,0,0,0,kReverse,0.0,0.0,0.0,0.0,0.0,0.0,0.0,0.0,0.0,0.0,0.0,
39.934532999999995,true,true,true,0.11811023950576782,-0.8125,0.0,-0.0078125,false,false,false,false,0.0,0.0,0.0,0.0,false,false,false,false,0.0,12.3,0.0,0,0,0,0.125,12.35,0.0,0,0,0,0.0,12.35,0.0,0,0,0,0.0,12.3,0.0,0,0,0,0.0,12.4,0.0,-2,0,0,0.0,4.0,0.0,0,0,0,kReverse,0.0,0.0,0.0,0.0,0.0,0.0,0.0,0.0,0.0,0.0,0.0,
39.979645,true,true,true,0.031496062874794006,-0.171875,0.0,-0.0078125,false,false,false,false,0.0,0.0,0.0,0.0,false,false,false,false,0.0,12.3,0.0,0,0,0,0.125,12.35,0.0,0,0,0,0.0,12.35,0.0,0,0,0,0.0,12.3,0.0,0,0,0,0.0,12.4,0.0,-2,0,0,0.0,4.0,0.0,0,0,0,kReverse,0.0,0.0,0.0,0.0,0.0,0.0,0.0,0.0,0.0,0.0,0.0,
40.039570999999995,true,true,true,0.0,0.15748031437397003,0.0,-0.0078125,false,false,false,false,0.0,0.0,0.0,0.0,false,false,false,false,0.0,12.3,0.0,0,0,0,0.125,12.35,0.0,0,0,0,0.0,12.3,0.0,0,0,0,0.0,12.3,0.0,0,0,0,0.0,12.4,0.0,-2,0,0,0.0,4.0,0.0,0,0,0,kReverse,0.0,0.0,0.0,0.0,0.0,0.0,0.0,0.0,0.0,0.0,0.0,
40.104853999999996,true,true,true,0.0,0.9921259880065918,0.0,-0.0078125,false,false,false,false,0.0,0.0,0.0,0.0,false,false,false,false,0.0,12.3,0.0,0,0,0,0.125,12.35,0.0,0,0,0,0.0,12.3,0.0,0,0,0,0.0,12.3,0.0,0,0,0,0.0,12.4,0.0,-2,0,0,0.0,4.0,0.0,0,0,0,kReverse,0.0,0.0,0.0,0.0,0.0,0.0,0.0,0.0,0.0,0.0,0.0,
40.158915,true,true,true,0.0,1.0,0.0,-0.0078125,false,false,false,false,0.0,0.0,0.0,0.0,false,false,false,false,0.0,12.3,0.0,0,0,0,0.125,12.35,0.0,0,0,0,0.0,12.3,0.0,0,0,0,0.0,12.3,0.0,0,0,0,0.0,12.4,0.0,-2,0,0,0.0,4.0,0.0,0,0,0,kReverse,0.0,0.0,0.0,0.0,0.0,0.0,0.0,0.0,0.0,0.0,0.0,
40.21520699999999,true,true,true,0.0,1.0,0.0,-0.0078125,false,false,false,false,0.0,0.0,0.0,0.0,false,false,false,false,0.0,12.3,0.0,0,0,0,0.125,12.35,0.0,0,0,0,0.0,12.35,0.0,0,0,0,0.0,12.3,0.0,0,0,0,0.0,12.4,0.0,-2,0,0,0.0,4.0,0.0,0,0,0,kReverse,0.0,0.0,0.0,0.0,0.0,0.0,0.0,0.0,0.0,0.0,0.0,
40.265941,true,true,true,0.0,0.8267716765403748,0.0,-0.0078125,false,false,false,false,0.0,0.0,0.0,0.0,false,false,false,false,0.0,12.3,0.0,0,0,0,0.125,12.35,0.0,0,0,0,0.0,12.35,0.0,0,0,0,0.0,12.3,0.0,0,0,0,0.0,12.4,0.0,-2,0,0,0.0,4.0,0.0,0,0,0,kReverse,0.0,0.0,0.0,0.0,0.0,0.0,0.0,0.0,0.0,0.0,0.0,
40.32915799999999,true,true,true,0.0,-0.03125,0.0,-0.0078125,false,false,false,false,0.0,0.0,0.0,0.0,false,false,false,false,0.0,12.3,0.0,0,0,0,0.125,12.35,0.0,0,0,0,0.0,12.35,0.0,0,0,0,0.0,12.3,0.0,0,0,0,0.0,12.4,0.0,-2,0,0,0.0,4.0,0.0,0,0,0,kReverse,0.0,0.0,0.0,0.0,0.0,0.0,0.0,0.0,0.0,0.0,0.0,
40.388089,true,true,true,0.0,-0.953125,0.0,-0.0078125,false,false,false,false,0.0,0.0,0.0,0.0,false,false,false,false,0.0,12.3,0.0,0,0,0,0.125,12.35,0.0,0,0,0,0.0,12.35,0.0,0,0,0,0.0,12.3,0.0,0,0,0,0.0,12.4,0.0,-2,0,0,0.0,4.0,0.0,0,0,0,kReverse,0.0,0.0,0.0,0.0,0.0,0.0,0.0,0.0,0.0,0.0,0.0,
40.474549999999994,true,true,true,0.0,-1.0,0.0,-0.0078125,false,false,false,false,0.0,0.0,0.0,0.0,false,false,false,false,0.0,12.3,0.0,0,0,0,0.125,12.35,0.0,0,0,0,0.0,12.35,0.0,0,0,0,0.0,12.3,0.0,0,0,0,0.0,12.4,0.0,-2,0,0,0.0,4.0,0.0,0,0,0,kReverse,0.0,0.0,0.0,0.0,0.0,0.0,0.0,0.0,0.0,0.0,0.0,
40.529307,true,true,true,0.0,-0.7578125,0.0,-0.0078125,false,false,false,false,0.0,0.0,0.0,0.0,false,false,false,false,0.0,12.3,0.0,0,0,0,0.125,12.35,0.0,0,0,0,0.0,12.3,0.0,0,0,0,0.0,12.3,0.0,0,0,0,0.0,12.4,0.0,-2,0,0,0.0,4.0,0.0,0,0,0,kReverse,0.0,0.0,0.0,0.0,0.0,0.0,0.0,0.0,0.0,0.0,0.0,
40.580248,true,true,true,0.09448818862438202,-0.015625,0.0,-0.0078125,false,false,false,false,0.0,0.0,0.0,0.0,false,false,false,false,0.0,12.3,0.0,0,0,0,0.125,12.35,0.0,0,0,0,0.0,12.3,0.0,0,0,0,0.0,12.3,0.0,0,0,0,0.0,12.4,0.0,-2,0,0,0.0,4.0,0.0,0,0,0,kReverse,0.0,0.0,0.0,0.0,0.0,0.0,0.0,0.0,0.0,0.0,0.0,
40.637893,true,true,true,0.31496062874794006,0.4251968562602997,0.0,-0.0078125,false,false,false,false,0.0,0.0,0.0,0.0,false,false,false,false,0.0,12.3,0.0,0,0,0,0.125,12.35,0.0,0,0,0,0.0,12.3,0.0,0,0,0,0.0,12.3,0.0,0,0,0,0.0,12.4,0.0,-2,0,0,0.0,4.0,0.0,0,0,0,kReverse,0.0,0.0,0.0,0.0,0.0,0.0,0.0,0.0,0.0,0.0,0.0,
40.699642,true,true,true,0.6692913174629211,1.0,0.0,-0.0078125,false,false,false,false,0.0,0.0,0.0,0.0,false,false,false,false,0.0,12.3,0.0,0,0,0,0.125,12.35,0.0,0,0,0,0.0,12.3,0.0,0,0,0,0.0,12.3,0.0,0,0,0,0.0,12.4,0.0,-2,0,0,0.0,4.0,0.0,0,0,0,kReverse,0.0,0.0,0.0,0.0,0.0,0.0,0.0,0.0,0.0,0.0,0.0,
40.75788,true,true,true,0.6692913174629211,1.0,0.0,-0.0078125,false,false,false,false,0.0,0.0,0.0,0.0,false,false,false,false,0.0,12.3,0.0,0,0,0,0.125,12.35,0.0,0,0,0,0.0,12.3,0.0,0,0,0,0.0,12.3,0.0,0,0,0,0.0,12.4,0.0,-2,0,0,0.0,4.0,0.0,0,0,0,kReverse,0.0,0.0,0.0,0.0,0.0,0.0,0.0,0.0,0.0,0.0,0.0,
40.817594,true,true,true,0.6929134130477905,1.0,0.0,-0.0078125,false,false,false,false,0.0,0.0,0.0,0.0,false,false,false,false,0.0,12.3,0.0,0,0,0,0.125,12.35,0.0,0,0,0,0.0,12.3,0.0,0,0,0,0.0,12.3,0.0,0,0,0,0.0,12.4,0.0,-2,0,0,0.0,4.0,0.0,0,0,0,kReverse,0.0,0.0,0.0,0.0,0.0,0.0,0.0,0.0,0.0,0.0,0.0,
40.873456999999995,true,true,true,0.30708661675453186,0.3937007784843445,0.0,-0.0078125,false,false,false,false,0.0,0.0,0.0,0.0,false,false,false,false,0.0,12.3,0.0,0,0,0,0.125,12.35,0.0,0,0,0,0.0,12.3,0.0,0,0,0,0.0,12.3,0.0,0,0,0,0.0,12.4,0.0,-2,0,0,0.0,4.0,0.0,0,0,0,kReverse,0.0,0.0,0.0,0.0,0.0,0.0,0.0,0.0,0.0,0.0,0.0,
40.929528,true,true,true,0.0,-0.4375,0.0,-0.0078125,false,false,false,false,0.0,0.0,0.0,0.0,false,false,false,false,0.0,12.3,0.0,0,0,0,0.125,12.35,0.0,0,0,0,0.0,12.3,0.0,0,0,0,0.0,12.3,0.0,0,0,0,0.0,12.4,0.0,-2,0,0,0.0,4.0,0.0,0,0,0,kReverse,0.0,0.0,0.0,0.0,0.0,0.0,0.0,0.0,0.0,0.0,0.0,
40.98443,true,true,true,0.0,-1.0,0.0,-0.0078125,false,false,false,false,0.0,0.0,0.0,0.0,false,false,false,false,0.0,12.3,0.0,0,0,0,0.125,12.35,0.0,0,0,0,0.0,12.3,0.0,0,0,0,0.0,12.3,0.0,0,0,0,0.0,12.4,0.0,-2,0,0,0.0,4.0,0.0,0,0,0,kReverse,0.0,0.0,0.0,0.0,0.0,0.0,0.0,0.0,0.0,0.0,0.0,
41.044675,true,true,true,0.0,-1.0,0.0,-0.0078125,false,false,false,false,0.0,0.0,0.0,0.0,false,false,false,false,0.0,12.3,0.0,0,0,0,0.125,12.35,0.0,0,0,0,0.0,12.3,0.0,0,0,0,0.0,12.3,0.0,0,0,0,0.0,12.4,0.0,-2,0,0,0.0,4.0,0.0,0,0,0,kReverse,0.0,0.0,0.0,0.0,0.0,0.0,0.0,0.0,0.0,0.0,0.0,
41.109266,true,true,true,0.0,-1.0,0.0,-0.0078125,false,false,false,false,0.0,0.0,0.0,0.0,false,false,false,false,0.0,12.3,0.0,0,0,0,0.125,12.35,0.0,0,0,0,0.0,12.3,0.0,0,0,0,0.0,12.3,0.0,0,0,0,0.0,12.4,0.0,-2,0,0,0.0,4.0,0.0,0,0,0,kReverse,0.0,0.0,0.0,0.0,0.0,0.0,0.0,0.0,0.0,0.0,0.0,
41.178915,true,true,true,0.0,-0.0078125,0.0,-0.0078125,false,false,false,false,0.0,0.0,0.0,0.0,false,false,false,false,0.0,12.3,0.0,0,0,0,0.125,12.35,0.0,0,0,0,0.0,12.3,0.0,0,0,0,0.0,12.3,0.0,0,0,0,0.0,12.4,0.0,-2,0,0,0.0,4.0,0.0,0,0,0,kReverse,0.0,0.0,0.0,0.0,0.0,0.0,0.0,0.0,0.0,0.0,0.0,
41.23952499999999,true,true,true,0.0,-0.0078125,0.0,-0.0078125,false,false,false,false,0.0,0.0,0.0,0.0,false,false,false,false,0.0,12.3,0.0,0,0,0,0.125,12.35,0.0,0,0,0,0.0,12.3,0.0,0,0,0,0.0,12.3,0.0,0,0,0,0.0,12.4,0.0,-2,0,0,0.0,4.0,0.0,0,0,0,kReverse,0.0,0.0,0.0,0.0,0.0,0.0,0.0,0.0,0.0,0.0,0.0,
41.299727,true,true,true,0.0,-0.0078125,0.0,-0.0078125,false,false,false,false,0.0,0.0,0.0,0.0,false,false,false,false,0.0,12.3,0.0,0,0,0,0.125,12.35,0.0,0,0,0,0.0,12.3,0.0,0,0,0,0.0,12.3,0.0,0,0,0,0.0,12.4,0.0,-2,0,0,0.0,4.0,0.0,0,0,0,kReverse,0.0,0.0,0.0,0.0,0.0,0.0,0.0,0.0,0.0,0.0,0.0,
41.36757,true,true,true,0.0,-0.0078125,0.0,-0.0078125,false,false,false,false,0.0,0.0,0.0,0.0,false,false,false,false,0.0,12.3,0.0,0,0,0,0.125,12.35,0.0,0,0,0,0.0,12.3,0.0,0,0,0,0.0,12.3,0.0,0,0,0,0.0,12.4,0.0,-2,0,0,0.0,4.0,0.0,0,0,0,kReverse,0.0,0.0,0.0,0.0,0.0,0.0,0.0,0.0,0.0,0.0,0.0,
41.420399999999994,true,true,true,0.0,-0.0078125,0.0,-0.0078125,false,false,false,false,0.0,0.0,0.0,0.0,false,false,false,false,0.0,12.3,0.0,0,0,0,0.125,12.35,0.0,0,0,0,0.0,12.3,0.0,0,0,0,0.0,12.3,0.0,0,0,0,0.0,12.4,0.0,-2,0,0,0.0,4.0,0.0,0,0,0,kReverse,0.0,0.0,0.0,0.0,0.0,0.0,0.0,0.0,0.0,0.0,0.0,
41.478776999999994,true,true,true,0.0,-0.0078125,0.0,-0.0078125,false,false,false,false,0.0,0.0,0.0,0.0,false,false,false,false,0.0,12.3,0.0,0,0,0,0.125,12.35,0.0,0,0,0,0.0,12.3,0.0,0,0,0,0.0,12.3,0.0,0,0,0,0.0,12.4,0.0,-2,0,0,0.0,4.0,0.0,0,0,0,kReverse,0.0,0.0,0.0,0.0,0.0,0.0,0.0,0.0,0.0,0.0,0.0,
41.535712999999994,true,true,true,0.0,-0.0078125,0.0,-0.0078125,false,false,false,false,0.0,0.0,0.0,0.0,false,false,false,false,0.0,12.3,0.0,0,0,0,0.125,12.35,0.0,0,0,0,0.0,12.3,0.0,0,0,0,0.0,12.3,0.0,0,0,0,0.0,12.4,0.0,-2,0,0,0.0,4.0,0.0,0,0,0,kReverse,0.0,0.0,0.0,0.0,0.0,0.0,0.0,0.0,0.0,0.0,0.0,
41.583983999999994,true,true,true,0.0,-0.0078125,0.0,-0.0078125,false,false,false,false,0.0,0.0,0.0,0.0,false,false,false,false,0.0,12.3,0.0,0,0,0,0.125,12.35,0.0,0,0,0,0.0,12.3,0.0,0,0,0,0.0,12.3,0.0,0,0,0,0.0,12.4,0.0,-2,0,0,0.0,4.0,0.0,0,0,0,kReverse,0.0,0.0,0.0,0.0,0.0,0.0,0.0,0.0,0.0,0.0,0.0,
41.639216999999995,true,true,true,0.0,-0.0078125,0.0,-0.0078125,false,false,false,false,0.0,0.0,0.0,0.0,false,false,false,false,0.0,12.3,0.0,0,0,0,0.125,12.35,0.0,0,0,0,0.0,12.3,0.0,0,0,0,0.0,12.3,0.0,0,0,0,0.0,12.4,0.0,-2,0,0,0.0,4.0,0.0,0,0,0,kReverse,0.0,0.0,0.0,0.0,0.0,0.0,0.0,0.0,0.0,0.0,0.0,
41.693183,true,true,true,0.0,-0.0078125,0.0,-0.0078125,false,false,false,false,0.0,0.0,0.0,0.0,false,false,false,false,0.0,12.3,0.0,0,0,0,0.125,12.35,0.0,0,0,0,0.0,12.3,0.0,0,0,0,0.0,12.3,0.0,0,0,0,0.0,12.4,0.0,-2,0,0,0.0,4.0,0.0,0,0,0,kReverse,0.0,0.0,0.0,0.0,0.0,0.0,0.0,0.0,0.0,0.0,0.0,
41.742701000000004,true,true,true,0.0,-0.0078125,0.0,-0.0078125,false,false,false,false,0.0,0.0,0.0,0.0,false,false,false,false,0.0,12.3,0.0,0,0,0,0.125,12.35,0.0,0,0,0,0.0,12.3,0.0,0,0,0,0.0,12.3,0.0,0,0,0,0.0,12.4,0.0,-2,0,0,0.0,4.0,0.0,0,0,0,kReverse,0.0,0.0,0.0,0.0,0.0,0.0,0.0,0.0,0.0,0.0,0.0,
41.800221,true,true,true,0.0,-0.0078125,0.0,-0.0078125,false,false,false,false,0.0,0.0,0.0,0.0,false,false,false,false,0.0,12.3,0.0,0,0,0,0.125,12.35,0.0,0,0,0,0.0,12.3,0.0,0,0,0,0.0,12.3,0.0,0,0,0,0.0,12.4,0.0,-2,0,0,0.0,4.0,0.0,0,0,0,kReverse,0.0,0.0,0.0,0.0,0.0,0.0,0.0,0.0,0.0,0.0,0.0,
41.858028999999995,true,true,true,0.0,-0.0078125,0.0,-0.0078125,false,false,false,false,0.0,0.0,0.0,0.0,false,false,false,false,0.0,12.3,0.0,0,0,0,0.125,12.35,0.0,0,0,0,0.0,12.3,0.0,0,0,0,0.0,12.3,0.0,0,0,0,0.0,12.4,0.0,-2,0,0,0.0,4.0,0.0,0,0,0,kReverse,0.0,0.0,0.0,0.0,0.0,0.0,0.0,0.0,0.0,0.0,0.0,
41.911485,true,true,true,0.0,-0.0078125,0.0,-0.0078125,false,false,false,false,0.0,0.0,0.0,0.0,false,false,false,false,0.0,12.3,0.0,0,0,0,0.125,12.35,0.0,0,0,0,0.0,12.3,0.0,0,0,0,0.0,12.3,0.0,0,0,0,0.0,12.4,0.0,-2,0,0,0.0,4.0,0.0,0,0,0,kReverse,0.0,0.0,0.0,0.0,0.0,0.0,0.0,0.0,0.0,0.0,0.0,
41.965852999999996,true,true,true,0.0,-0.0078125,0.0,-0.0078125,false,false,false,false,0.0,0.0,0.0,0.0,false,false,false,false,0.0,12.3,0.0,0,0,0,0.125,12.3,0.0,0,0,0,0.0,12.3,0.0,0,0,0,0.0,12.3,0.0,0,0,0,0.0,12.4,0.0,-2,0,0,0.0,4.0,0.0,0,0,0,kReverse,0.0,0.0,0.0,0.0,0.0,0.0,0.0,0.0,0.0,0.0,0.0,
42.01927299999999,true,true,true,0.0,-0.0078125,0.0,-0.0078125,false,false,false,false,0.0,0.0,0.0,0.0,false,false,false,false,0.0,12.3,0.0,0,0,0,0.125,12.3,0.0,0,0,0,0.0,12.3,0.0,0,0,0,0.0,12.3,0.0,0,0,0,0.0,12.4,0.0,-2,0,0,0.0,4.0,0.0,0,0,0,kReverse,0.0,0.0,0.0,0.0,0.0,0.0,0.0,0.0,0.0,0.0,0.0,
42.078041,true,true,true,0.0,-0.0078125,0.0,-0.0078125,false,false,false,false,0.0,0.0,0.0,0.0,false,false,false,false,0.0,12.3,0.0,0,0,0,0.125,12.3,0.0,0,0,0,0.0,12.3,0.0,0,0,0,0.0,12.3,0.0,0,0,0,0.0,12.4,0.0,-2,0,0,0.0,4.0,0.0,0,0,0,kReverse,0.0,0.0,0.0,0.0,0.0,0.0,0.0,0.0,0.0,0.0,0.0,
42.140136,true,true,true,0.0,-0.0078125,0.0,-0.0078125,false,false,false,false,0.0,0.0,0.0,0.0,false,false,false,false,0.0,12.3,0.0,0,0,0,0.125,12.35,0.0,0,0,0,0.0,12.3,0.0,0,0,0,0.0,12.3,0.0,0,0,0,0.0,12.4,0.0,-2,0,0,0.0,4.0,0.0,0,0,0,kReverse,0.0,0.0,0.0,0.0,0.0,0.0,0.0,0.0,0.0,0.0,0.0,
42.208115,true,true,true,0.0,-0.0078125,0.0,-0.0078125,false,false,false,false,0.0,0.0,0.0,0.0,false,false,false,false,0.0,12.3,0.0,0,0,0,0.125,12.35,0.0,0,0,0,0.0,12.3,0.0,0,0,0,0.0,12.3,0.0,0,0,0,0.0,12.4,0.0,-2,0,0,0.0,4.0,0.0,0,0,0,kReverse,0.0,0.0,0.0,0.0,0.0,0.0,0.0,0.0,0.0,0.0,0.0,
42.260083,true,true,true,0.0,-0.0078125,0.0,-0.0078125,false,false,false,false,0.0,0.0,0.0,0.0,false,false,false,false,0.0,12.3,0.0,0,0,0,0.125,12.35,0.0,0,0,0,0.0,12.3,0.0,0,0,0,0.0,12.3,0.0,0,0,0,0.0,12.4,0.0,-2,0,0,0.0,4.0,0.0,0,0,0,kReverse,0.0,0.0,0.0,0.0,0.0,0.0,0.0,0.0,0.0,0.0,0.0,
42.318306,true,true,true,0.0,-0.0078125,0.0,-0.0078125,false,false,false,false,0.0,0.0,0.0,0.0,false,false,false,false,0.0,12.3,0.0,0,0,0,0.125,12.35,0.0,0,0,0,0.0,12.3,0.0,0,0,0,0.0,12.3,0.0,0,0,0,0.0,12.4,0.0,-2,0,0,0.0,4.0,0.0,0,0,0,kReverse,0.0,0.0,0.0,0.0,0.0,0.0,0.0,0.0,0.0,0.0,0.0,
42.378676,true,true,true,0.0,-0.0078125,0.0,-0.0078125,false,false,false,false,0.0,0.0,0.0,0.0,false,false,false,false,0.0,12.3,0.0,0,0,0,0.125,12.35,0.0,0,0,0,0.0,12.3,0.0,0,0,0,0.0,12.3,0.0,0,0,0,0.0,12.4,0.0,-2,0,0,0.0,4.0,0.0,0,0,0,kReverse,0.0,0.0,0.0,0.0,0.0,0.0,0.0,0.0,0.0,0.0,0.0,
42.440687,true,true,true,0.0,-0.0078125,0.0,-0.0078125,false,false,false,false,0.0,0.0,0.0,0.0,false,false,false,false,0.0,12.3,0.0,0,0,0,0.125,12.35,0.0,0,0,0,0.0,12.3,0.0,0,0,0,0.0,12.3,0.0,0,0,0,0.0,12.4,0.0,-2,0,0,0.0,4.0,0.0,0,0,0,kReverse,0.0,0.0,0.0,0.0,0.0,0.0,0.0,0.0,0.0,0.0,0.0,
42.498115,true,true,true,0.0,-0.0078125,0.0,-0.0078125,false,false,false,false,0.0,0.0,0.0,0.0,false,false,false,false,0.0,12.3,0.0,0,0,0,0.125,12.35,0.0,0,0,0,0.0,12.3,0.0,0,0,0,0.0,12.3,0.0,0,0,0,0.0,12.4,0.0,-2,0,0,0.0,4.0,0.0,0,0,0,kReverse,0.0,0.0,0.0,0.0,0.0,0.0,0.0,0.0,0.0,0.0,0.0,
42.552915999999996,true,true,true,0.0,-0.0078125,0.0,-0.0078125,false,false,false,false,0.0,0.0,0.0,0.0,false,false,false,false,0.0,12.3,0.0,0,0,0,0.125,12.35,0.0,0,0,0,0.0,12.3,0.0,0,0,0,0.0,12.3,0.0,0,0,0,0.0,12.4,0.0,-2,0,0,0.0,4.0,0.0,0,0,0,kReverse,0.0,0.0,0.0,0.0,0.0,0.0,0.0,0.0,0.0,0.0,0.0,
42.600759,true,true,true,0.0,-0.0078125,0.0,-0.0078125,false,false,false,false,0.0,0.0,0.0,0.0,false,false,false,false,0.0,12.4,0.0,0,0,0,0.125,12.4,0.0,0,0,0,0.0,12.4,0.0,0,0,0,0.0,12.35,0.0,0,0,0,0.0,12.450000000000001,0.0,-2,0,0,0.0,4.0,0.0,0,0,0,kReverse,0.0,0.0,0.0,0.0,0.0,0.0,0.0,0.0,0.0,0.0,0.0,
42.655266,true,true,true,0.0,-0.0078125,0.0,-0.0078125,false,false,false,false,0.0,0.0,0.0,0.0,false,false,false,false,0.0,12.4,0.0,0,0,0,0.125,12.4,0.0,0,0,0,0.0,12.4,0.0,0,0,0,0.0,12.35,0.0,0,0,0,0.0,12.450000000000001,0.0,-2,0,0,0.0,4.0,0.0,0,0,0,kReverse,0.0,0.0,0.0,0.0,0.0,0.0,0.0,0.0,0.0,0.0,0.0,
42.708253,true,true,true,0.0,-0.0078125,0.0,-0.0078125,false,false,false,false,0.0,0.0,0.0,0.0,false,false,false,false,0.0,12.4,0.0,0,0,0,0.125,12.4,0.0,0,0,0,0.0,12.4,0.0,0,0,0,0.0,12.35,0.0,0,0,0,0.0,12.450000000000001,0.0,-2,0,0,0.0,4.0,0.0,0,0,0,kReverse,0.0,0.0,0.0,0.0,0.0,0.0,0.0,0.0,0.0,0.0,0.0,
42.758244999999995,true,true,true,0.0,-0.0078125,0.0,-0.0078125,false,false,false,false,0.0,0.0,0.0,0.0,false,false,false,false,0.0,12.65,0.0,0,0,0,0.125,12.65,0.0,0,0,0,0.0,12.65,0.0,0,0,0,0.0,12.65,0.0,0,0,0,0.0,12.75,0.0,-2,0,0,0.0,4.0,0.0,0,0,0,kReverse,0.0,0.0,0.0,0.0,0.0,0.0,0.0,0.0,0.0,0.0,0.0,
42.80465399999999,true,true,true,0.0,-0.0078125,0.0,-0.0078125,false,false,false,false,0.0,0.0,0.0,0.0,false,false,false,false,0.0,12.65,0.0,0,0,0,0.125,12.65,0.0,0,0,0,0.0,12.65,0.0,0,0,0,0.0,12.65,0.0,0,0,0,0.0,12.75,0.0,-2,0,0,0.0,4.0,0.0,0,0,0,kReverse,0.0,0.0,0.0,0.0,0.0,0.0,0.0,0.0,0.0,0.0,0.0,
42.85771,true,true,true,0.0,-0.0078125,0.0,-0.0078125,false,false,false,false,0.0,0.0,0.0,0.0,false,false,false,false,0.0,12.65,0.0,0,0,0,0.125,12.65,0.0,0,0,0,0.0,12.65,0.0,0,0,0,0.0,12.65,0.0,0,0,0,0.0,12.75,0.0,-2,0,0,0.0,4.0,0.0,0,0,0,kReverse,0.0,0.0,0.0,0.0,0.0,0.0,0.0,0.0,0.0,0.0,0.0,
