timer,lineLeft,lineCenter,lineRight,driverLeftX,driverLeftY,driverRightX,driverRightY,driverA,driverB,driverX,driverY,operatorLeftX,operatorLeftY,operatorRightX,operatorRightY,operatorA,operatorB,operatorX,operatorY,LeftFrontCurrent,LeftFrontVoltage,LeftFrontValue,LeftFrontPosition,LeftFrontVelocity,LeftFrontFaults,LeftRearCurrent,LeftRearVoltage,LeftRearValue,LeftRearPosition,LeftRearVelocity,LeftRearFaults,RightFrontCurrent,RightFrontVoltage,RightFrontValue,RightFrontPosition,RightFrontVelocity,RightFrontFaults,RightRearCurrent,RightRearVoltage,RightRearValue,RightRearPosition,RightRearVelocity,RightRearFaults,LiftCurrent,LiftVoltage,LiftValue,LiftPosition,LiftVelocity,LiftFaults,RollerCurrent,RollerVoltage,RollerValue,RollerPosition,RollerVelocity,RollerFaults,PushersState,navx_Pitch,navx_Roll,navx_Yaw,navx_XAcc,navx_YAcc,navx_ZAcc,navx_Temp,navx_Bar,navx_Alt,navx_XDis,navx_YDis,
139.258313,true,true,true,0.0,-0.0234375,0.0,-0.0078125,false,false,false,false,0.0,-0.0078125,0.0,-0.0078125,false,false,false,false,0.0,12.5,0.0,194,0,0,0.125,12.5,0.0,0,0,0,0.0,12.5,0.0,0,0,0,0.0,12.5,0.0,0,0,0,0.0,12.55,0.0,-1,0,0,0.0,4.0,0.0,0,0,0,kReverse,0.0,0.0,0.0,0.0,0.0,0.0,0.0,0.0,0.0,0.0,0.0,
139.359668,true,true,true,0.0,-0.0234375,0.0,-0.0078125,false,false,false,false,0.0,-0.0078125,0.0,-0.0078125,false,false,false,false,0.0,12.5,0.0,194,0,0,0.0,12.5,0.0,0,0,0,0.0,12.5,0.0,0,0,0,0.0,12.5,0.0,0,0,0,0.0,12.55,0.0,-1,0,0,0.0,4.0,0.0,0,0,0,kReverse,0.0,0.0,0.0,0.0,0.0,0.0,0.0,0.0,0.0,0.0,0.0,
139.4352,true,true,true,0.0,-0.0234375,0.0,-0.0078125,false,false,false,false,0.0,-0.0078125,0.0,-0.0078125,false,false,false,false,0.0,12.5,0.0,194,0,0,0.0,12.5,0.0,0,0,0,0.0,12.5,0.0,0,0,0,0.0,12.5,0.0,0,0,0,0.0,12.55,0.0,-1,0,0,0.0,4.0,0.0,0,0,0,kReverse,0.0,0.0,0.0,0.0,0.0,0.0,0.0,0.0,0.0,0.0,0.0,
139.582992,true,true,true,0.0,-1.0,0.0,-0.0078125,false,false,false,false,0.0,-0.0078125,0.0,-0.0078125,false,false,false,false,0.0,12.0,0.0,194,0,0,5.75,12.15,0.0,0,0,0,4.625,12.05,0.0,0,0,0,5.5,12.25,0.0,0,0,0,0.0,12.3,0.0,-1,0,0,0.0,4.0,0.0,0,0,0,kReverse,0.0,0.0,0.0,0.0,0.0,0.0,0.0,0.0,0.0,0.0,0.0,
139.729241,true,true,true,0.0,-1.0,0.960629940032959,-0.0078125,false,false,false,false,0.0,-0.0078125,0.0,-0.0078125,false,false,false,false,21.0,12.0,0.0,194,0,0,22.75,12.15,0.0,0,0,0,19.125,12.05,0.0,0,0,0,15.5,12.25,0.0,0,0,0,0.0,12.3,0.0,-1,0,0,0.0,4.0,0.0,0,0,0,kReverse,0.0,0.0,0.0,0.0,0.0,0.0,0.0,0.0,0.0,0.0,0.0,
139.83212899999998,true,true,true,0.0,-1.0,1.0,-0.0078125,false,false,false,false,0.0,-0.0078125,0.0,-0.0078125,false,false,false,false,49.875,10.15,0.0,194,0,0,60.375,10.3,0.0,0,0,0,0.0,10.45,0.0,0,0,0,0.0,10.45,0.0,0,0,0,0.0,10.600000000000001,0.0,-1,0,0,0.0,4.0,0.0,0,0,0,kReverse,0.0,0.0,0.0,0.0,0.0,0.0,0.0,0.0,0.0,0.0,0.0,
139.893588,true,true,true,0.0,-1.0,0.11811023950576782,-0.0078125,false,false,false,false,0.0,-0.0078125,0.0,-0.0078125,false,false,false,false,40.875,10.15,0.0,194,0,0,49.75,10.3,0.0,0,0,0,0.0,10.45,0.0,0,0,0,0.0,10.45,0.0,0,0,0,0.0,10.600000000000001,0.0,-1,0,0,0.0,4.0,0.0,0,0,0,kReverse,0.0,0.0,0.0,0.0,0.0,0.0,0.0,0.0,0.0,0.0,0.0,
139.953778,true,true,true,0.0,-1.0,0.0,-0.0078125,false,false,false,false,0.0,-0.0078125,0.0,-0.0078125,false,false,false,false,25.875,10.65,0.0,194,0,0,32.625,10.75,0.0,0,0,0,3.0,11.0,0.0,0,0,0,0.0,10.95,0.0,0,0,0,0.0,11.05,0.0,-1,0,0,0.0,4.0,0.0,0,0,0,kReverse,0.0,0.0,0.0,0.0,0.0,0.0,0.0,0.0,0.0,0.0,0.0,
140.108925,true,true,true,0.0,-1.0,0.0,-0.0078125,false,false,false,false,0.0,-0.0078125,0.0,-0.0078125,false,false,false,false,5.625,11.600000000000001,0.0,194,0,0,6.875,11.600000000000001,0.0,0,0,0,10.875,11.55,0.0,0,0,0,6.25,11.55,0.0,0,0,0,0.0,11.75,0.0,-1,0,0,0.0,4.0,0.0,0,0,0,kReverse,0.0,0.0,0.0,0.0,0.0,0.0,0.0,0.0,0.0,0.0,0.0,
140.251863,true,true,true,0.0,-1.0,0.0,-0.0078125,false,false,false,false,0.0,-0.0078125,0.0,-0.0078125,false,false,false,false,5.375,11.75,0.0,194,0,0,7.0,11.75,0.0,0,0,0,7.25,11.75,0.0,0,0,0,5.25,11.8,0.0,0,0,0,0.0,11.9,0.0,-1,0,0,0.0,4.0,0.0,0,0,0,kReverse,0.0,0.0,0.0,0.0,0.0,0.0,0.0,0.0,0.0,0.0,0.0,
140.348,true,true,true,0.0,-1.0,0.0,-0.0078125,false,false,false,false,0.0,-0.0078125,0.0,-0.0078125,false,false,false,false,5.625,11.75,0.0,194,0,0,6.625,11.75,0.0,0,0,0,6.375,11.75,0.0,0,0,0,5.0,11.8,0.0,0,0,0,0.0,11.9,0.0,-1,0,0,0.0,4.0,0.0,0,0,0,kReverse,0.0,0.0,0.0,0.0,0.0,0.0,0.0,0.0,0.0,0.0,0.0,
140.425189,true,true,true,0.0,-1.0,0.0,-0.0078125,false,false,false,false,0.0,-0.0078125,0.0,-0.0078125,false,false,false,false,6.0,11.9,0.0,194,0,0,5.875,11.95,0.0,0,0,0,5.375,11.95,0.0,0,0,0,3.0,11.9,0.0,0,0,0,0.0,12.05,0.0,-1,0,0,0.0,4.0,0.0,0,0,0,kReverse,0.0,0.0,0.0,0.0,0.0,0.0,0.0,0.0,0.0,0.0,0.0,
140.49228399999998,true,true,true,0.0,-1.0,0.0,-0.0078125,false,false,false,false,0.0,-0.0078125,0.0,-0.0078125,false,false,false,false,6.125,11.9,0.0,194,0,0,5.75,11.95,0.0,0,0,0,5.125,11.95,0.0,0,0,0,2.5,11.9,0.0,0,0,0,0.0,12.05,0.0,-1,0,0,0.0,4.0,0.0,0,0,0,kReverse,0.0,0.0,0.0,0.0,0.0,0.0,0.0,0.0,0.0,0.0,0.0,
140.57504699999998,true,true,true,0.0,-1.0,0.0,-0.0078125,false,false,false,false,0.0,-0.0078125,0.0,-0.0078125,false,false,false,false,6.25,11.95,0.0,194,0,0,5.5,12.0,0.0,0,0,0,4.875,12.0,0.0,0,0,0,1.5,12.0,0.0,0,0,0,0.0,12.1,0.0,-1,0,0,0.0,4.0,0.0,0,0,0,kReverse,0.0,0.0,0.0,0.0,0.0,0.0,0.0,0.0,0.0,0.0,0.0,
140.665467,true,true,true,0.0,-1.0,0.0,-0.0078125,false,false,false,false,0.0,-0.0078125,0.0,-0.0078125,false,false,false,false,4.625,11.95,0.0,194,0,0,5.0,12.0,0.0,0,0,0,4.125,12.0,0.0,0,0,0,1.0,12.0,0.0,0,0,0,0.0,12.1,0.0,-1,0,0,0.0,4.0,0.0,0,0,0,kReverse,0.0,0.0,0.0,0.0,0.0,0.0,0.0,0.0,0.0,0.0,0.0,
140.734567,true,true,true,0.0,-1.0,-0.0625,-0.0078125,false,false,false,false,0.0,-0.0078125,0.0,-0.0078125,false,false,false,false,4.0,12.0,0.0,194,0,0,4.875,12.05,0.0,0,0,0,4.0,12.05,0.0,0,0,0,1.0,12.05,0.0,0,0,0,0.0,12.15,0.0,-1,0,0,0.0,4.0,0.0,0,0,0,kReverse,0.0,0.0,0.0,0.0,0.0,0.0,0.0,0.0,0.0,0.0,0.0,
140.906701,true,true,true,0.0,-1.0,0.0,-0.0078125,false,false,false,false,0.0,-0.0078125,0.0,-0.0078125,false,false,false,false,0.625,12.05,0.0,194,0,0,2.0,12.1,0.0,0,0,0,4.125,12.05,0.0,0,0,0,1.5,12.05,0.0,0,0,0,0.0,12.200000000000001,0.0,-1,0,0,0.0,4.0,0.0,0,0,0,kReverse,0.0,0.0,0.0,0.0,0.0,0.0,0.0,0.0,0.0,0.0,0.0,
141.045908,true,true,true,0.0,-1.0,0.0,-0.0078125,false,false,false,false,0.0,-0.0078125,0.0,-0.0078125,false,false,false,false,4.0,12.1,0.0,195,1,0,4.875,12.1,0.0,0,0,0,2.875,12.05,0.0,0,0,0,0.0,12.05,0.0,0,0,0,0.0,12.200000000000001,0.0,-1,0,0,0.0,4.0,0.0,0,0,0,kReverse,0.0,0.0,0.0,0.0,0.0,0.0,0.0,0.0,0.0,0.0,0.0,
141.147323,true,true,true,0.0,0.09448818862438202,0.0,-0.0078125,false,false,false,false,0.0,-0.0078125,0.0,-0.0078125,false,false,false,false,0.5,12.1,0.0,195,0,0,4.5,12.1,0.0,0,0,0,2.875,12.05,0.0,0,0,0,0.5,12.05,0.0,0,0,0,0.0,12.200000000000001,0.0,-1,0,0,0.0,4.0,0.0,0,0,0,kReverse,0.0,0.0,0.0,0.0,0.0,0.0,0.0,0.0,0.0,0.0,0.0,
141.210354,true,true,true,0.0,0.9212598204612732,0.0,-0.0078125,false,false,false,false,0.0,-0.0078125,0.0,-0.0078125,false,false,false,false,0.0,12.35,0.0,195,0,0,0.25,12.35,0.0,0,0,0,0.125,12.35,0.0,0,0,0,0.0,12.35,0.0,0,0,0,0.0,12.450000000000001,0.0,-1,0,0,0.0,4.0,0.0,0,0,0,kReverse,0.0,0.0,0.0,0.0,0.0,0.0,0.0,0.0,0.0,0.0,0.0,
141.269127,true,true,true,-0.203125,1.0,0.0,-0.0078125,false,false,false,false,0.0,-0.0078125,0.0,-0.0078125,false,false,false,false,18.375,12.35,0.0,194,-1,0,19.625,12.35,0.0,0,0,0,22.125,12.35,0.0,0,0,0,14.625,12.35,0.0,0,0,0,0.0,12.450000000000001,0.0,-1,0,0,0.0,4.0,0.0,0,0,0,kReverse,0.0,0.0,0.0,0.0,0.0,0.0,0.0,0.0,0.0,0.0,0.0,
141.503163,true,true,true,-0.8828125,1.0,0.0,-0.0078125,false,false,false,false,0.0,-0.0078125,0.0,-0.0078125,false,false,false,false,17.375,9.850000000000001,0.0,193,0,0,21.125,10.65,0.0,0,0,0,22.5,10.55,0.0,0,0,0,20.625,10.55,0.0,0,0,0,0.0,10.8,0.0,-2,0,0,0.0,4.0,0.0,0,0,0,kReverse,0.0,0.0,0.0,0.0,0.0,0.0,0.0,0.0,0.0,0.0,0.0,
141.61464900000001,true,true,true,-0.8828125,1.0,0.0,-0.0078125,false,false,false,false,0.0,-0.0078125,0.0,-0.0078125,false,false,false,false,2.0,10.65,0.0,193,0,0,3.875,10.65,0.0,0,0,0,7.5,10.55,0.0,0,0,0,7.5,10.55,0.0,0,0,0,0.0,10.8,0.0,-2,0,0,0.0,4.0,0.0,0,0,0,kReverse,0.0,0.0,0.0,0.0,0.0,0.0,0.0,0.0,0.0,0.0,0.0,
141.754632,true,true,true,-0.6328125,0.4566929042339325,0.0,-0.0078125,false,false,false,false,0.0,-0.0078125,0.0,-0.0078125,false,false,false,false,14.375,10.55,0.0,193,0,0,18.875,10.600000000000001,0.0,0,0,0,12.75,10.65,0.0,0,0,0,11.625,10.65,0.0,0,0,0,0.0,10.850000000000001,0.0,-2,0,0,0.0,4.0,0.0,0,0,0,kReverse,0.0,0.0,0.0,0.0,0.0,0.0,0.0,0.0,0.0,0.0,0.0,
141.86384700000002,true,true,true,0.0,-0.0078125,0.0,-0.0078125,false,false,false,false,0.0,-0.0078125,0.0,-0.0078125,false,false,false,false,1.0,11.75,0.0,192,0,0,4.875,11.8,0.0,0,0,0,4.625,11.850000000000001,0.0,0,0,0,0.625,11.850000000000001,0.0,0,0,0,0.0,11.95,0.0,-2,0,0,0.0,4.0,0.0,0,0,0,kReverse,0.0,0.0,0.0,0.0,0.0,0.0,0.0,0.0,0.0,0.0,0.0,
142.003711,true,true,true,0.0,-0.0078125,0.0,-0.0078125,false,false,false,false,0.0,-0.0078125,0.0,-0.0078125,false,false,false,false,0.0,12.35,0.0,192,0,0,0.0,12.35,0.0,0,0,0,0.0,12.35,0.0,0,0,0,0.0,12.35,0.0,0,0,0,0.0,12.4,0.0,-2,0,0,0.0,4.0,0.0,0,0,0,kReverse,0.0,0.0,0.0,0.0,0.0,0.0,0.0,0.0,0.0,0.0,0.0,
142.104416,true,true,true,0.0,-0.0078125,0.0,-0.0078125,false,false,false,false,0.0,-0.0078125,0.0,-0.0078125,false,false,false,false,0.0,12.35,0.0,192,0,0,0.125,12.35,0.0,0,0,0,0.0,12.35,0.0,0,0,0,0.0,12.35,0.0,0,0,0,0.0,12.4,0.0,-2,0,0,0.0,4.0,0.0,0,0,0,kReverse,0.0,0.0,0.0,0.0,0.0,0.0,0.0,0.0,0.0,0.0,0.0,
142.229334,true,true,true,0.0,-0.5390625,0.0,-0.0078125,false,false,false,false,0.0,-0.0078125,0.0,-0.0078125,false,false,false,false,0.0,12.35,0.0,192,0,0,0.0,12.4,0.0,0,0,0,0.0,12.35,0.0,0,0,0,0.0,12.35,0.0,0,0,0,0.0,12.450000000000001,0.0,-2,0,0,0.0,4.0,0.0,0,0,0,kReverse,0.0,0.0,0.0,0.0,0.0,0.0,0.0,0.0,0.0,0.0,0.0,
142.33127299999998,true,true,true,0.0,-0.0078125,0.0,-0.0078125,false,false,false,false,0.0,-0.0078125,0.0,-0.0078125,false,false,false,false,11.625,11.45,0.0,192,0,0,11.0,11.25,0.0,0,0,0,8.125,11.4,0.0,0,0,0,9.5,11.4,0.0,0,0,0,0.0,11.55,0.0,-2,0,0,0.0,4.0,0.0,0,0,0,kReverse,0.0,0.0,0.0,0.0,0.0,0.0,0.0,0.0,0.0,0.0,0.0,
142.411452,true,true,true,0.0,-0.0078125,0.0,-0.0078125,false,false,false,false,0.0,-0.0078125,0.0,-0.0078125,false,false,false,false,0.0,11.45,0.0,192,0,0,0.125,11.25,0.0,0,0,0,0.0,11.4,0.0,0,0,0,0.875,11.4,0.0,0,0,0,0.0,11.55,0.0,-2,0,0,0.0,4.0,0.0,0,0,0,kReverse,0.0,0.0,0.0,0.0,0.0,0.0,0.0,0.0,0.0,0.0,0.0,
142.463638,true,true,true,0.0,-0.65625,0.0,-0.0078125,false,false,false,false,0.0,-0.0078125,0.0,-0.0078125,false,false,false,false,0.0,11.45,0.0,192,0,0,0.125,11.25,0.0,0,0,0,0.0,11.4,0.0,0,0,0,0.0,11.4,0.0,0,0,0,0.0,12.450000000000001,0.0,-2,0,0,0.0,4.0,0.0,0,0,0,kReverse,0.0,0.0,0.0,0.0,0.0,0.0,0.0,0.0,0.0,0.0,0.0,
142.567795,true,true,true,0.0,-0.140625,0.0,-0.0078125,false,false,false,false,0.0,-0.0078125,0.0,-0.0078125,false,false,false,false,3.375,12.35,0.0,192,0,0,5.5,12.35,0.0,0,0,0,4.375,12.35,0.0,0,0,0,3.125,12.35,0.0,0,0,0,0.0,12.450000000000001,0.0,-2,0,0,0.0,4.0,0.0,0,0,0,kReverse,0.0,0.0,0.0,0.0,0.0,0.0,0.0,0.0,0.0,0.0,0.0,
142.65734899999998,true,true,true,0.0,-0.0078125,0.0,-0.0078125,false,false,false,false,0.0,-0.0078125,0.0,-0.0078125,false,false,false,false,0.0,12.35,0.0,192,0,0,0.625,12.35,0.0,0,0,0,0.0,12.35,0.0,0,0,0,0.0,12.35,0.0,0,0,0,0.0,12.4,0.0,-2,0,0,0.0,4.0,0.0,0,0,0,kReverse,0.0,0.0,0.0,0.0,0.0,0.0,0.0,0.0,0.0,0.0,0.0,
142.711988,true,true,true,0.0,-0.0078125,0.0,-0.0078125,false,false,false,false,0.0,-0.0078125,0.0,-0.0078125,false,false,false,false,0.0,12.35,0.0,192,0,0,0.125,12.35,0.0,0,0,0,0.0,12.35,0.0,0,0,0,0.0,12.35,0.0,0,0,0,0.0,12.4,0.0,-2,0,0,0.0,4.0,0.0,0,0,0,kReverse,0.0,0.0,0.0,0.0,0.0,0.0,0.0,0.0,0.0,0.0,0.0,
142.79700699999998,true,true,true,0.0,-0.0078125,0.0,-0.0078125,false,false,false,false,0.0,-0.0078125,0.0,-0.0078125,false,false,false,false,0.0,12.4,0.0,192,0,0,0.125,12.4,0.0,0,0,0,0.0,12.4,0.0,0,0,0,0.0,12.4,0.0,0,0,0,0.0,12.450000000000001,0.0,-2,0,0,0.0,4.0,0.0,0,0,0,kReverse,0.0,0.0,0.0,0.0,0.0,0.0,0.0,0.0,0.0,0.0,0.0,
142.877848,true,true,true,0.0,-0.0078125,0.0,-0.0078125,false,false,false,false,0.0,-0.0078125,0.0,-0.0078125,false,false,false,false,0.0,12.4,0.0,192,0,0,0.0,12.4,0.0,0,0,0,0.0,12.4,0.0,0,0,0,0.0,12.4,0.0,0,0,0,0.0,12.450000000000001,0.0,-2,0,0,0.0,4.0,0.0,0,0,0,kReverse,0.0,0.0,0.0,0.0,0.0,0.0,0.0,0.0,0.0,0.0,0.0,
142.965048,true,true,true,0.0,-0.0078125,0.0,-0.0078125,false,false,false,false,0.0,-0.0078125,0.0,-0.0078125,false,false,false,false,0.0,12.4,0.0,192,0,0,0.0,12.4,0.0,0,0,0,0.0,12.4,0.0,0,0,0,0.0,12.4,0.0,0,0,0,0.0,12.450000000000001,0.0,-2,0,0,0.0,4.0,0.0,0,0,0,kReverse,0.0,0.0,0.0,0.0,0.0,0.0,0.0,0.0,0.0,0.0,0.0,
143.032737,true,true,true,0.0,-0.0078125,0.0,-0.0078125,false,false,false,false,0.0,-0.0078125,0.0,-0.0078125,false,false,false,false,0.0,12.4,0.0,192,0,0,0.125,12.4,0.0,0,0,0,0.0,12.4,0.0,0,0,0,0.0,12.4,0.0,0,0,0,0.0,12.450000000000001,0.0,-2,0,0,0.0,4.0,0.0,0,0,0,kReverse,0.0,0.0,0.0,0.0,0.0,0.0,0.0,0.0,0.0,0.0,0.0,
143.202483,true,true,true,0.0,-0.5078125,0.0,-0.0078125,false,false,false,false,0.0,-0.0078125,0.0,-0.0078125,false,false,false,false,0.0,12.4,0.0,192,0,0,0.125,12.450000000000001,0.0,0,0,0,0.0,12.4,0.0,0,0,0,0.0,12.4,0.0,0,0,0,0.0,12.5,0.0,-2,0,0,0.0,4.0,0.0,0,0,0,kReverse,0.0,0.0,0.0,0.0,0.0,0.0,0.0,0.0,0.0,0.0,0.0,
143.303809,true,true,true,0.0,-1.0,0.0,-0.0078125,false,false,false,false,0.0,-0.0078125,0.0,-0.0078125,false,false,false,false,5.75,11.850000000000001,0.0,192,0,0,11.375,11.9,0.0,0,0,0,9.75,11.9,0.0,0,0,0,4.875,11.850000000000001,0.0,0,0,0,0.0,12.0,0.0,-2,0,0,0.0,4.0,0.0,0,0,0,kReverse,0.0,0.0,0.0,0.0,0.0,0.0,0.0,0.0,0.0,0.0,0.0,
143.369769,true,true,true,0.0,-1.0,0.0,-0.0078125,false,false,false,false,0.0,-0.0078125,0.0,-0.0078125,false,false,false,false,22.75,11.850000000000001,0.0,192,0,0,26.75,11.9,0.0,0,0,0,21.625,11.9,0.0,0,0,0,16.125,11.850000000000001,0.0,0,0,0,0.0,12.0,0.0,-2,0,0,0.0,4.0,0.0,0,0,0,kReverse,0.0,0.0,0.0,0.0,0.0,0.0,0.0,0.0,0.0,0.0,0.0,
143.46400599999998,true,true,true,0.0,-1.0,0.0,-0.0078125,false,false,false,false,0.0,-0.0078125,0.0,-0.0078125,false,false,false,false,18.125,10.75,0.0,192,0,0,20.625,10.7,0.0,0,0,0,17.25,10.75,0.0,0,0,0,14.375,10.8,0.0,0,0,0,0.0,11.0,0.0,-2,0,0,0.0,4.0,0.0,0,0,0,kReverse,0.0,0.0,0.0,0.0,0.0,0.0,0.0,0.0,0.0,0.0,0.0,
143.58013,true,true,true,0.0,-1.0,0.0,-0.0078125,false,false,false,false,0.0,-0.0078125,0.0,-0.0078125,false,false,false,false,11.5,10.75,0.0,192,0,0,14.375,10.7,0.0,0,0,0,11.75,11.4,0.0,0,0,0,8.125,11.350000000000001,0.0,0,0,0,0.0,11.55,0.0,-2,0,0,0.0,4.0,0.0,0,0,0,kReverse,0.0,0.0,0.0,0.0,0.0,0.0,0.0,0.0,0.0,0.0,0.0,
143.651966,true,true,true,0.0,-1.0,0.0,-0.0078125,false,false,false,false,0.0,-0.0078125,0.0,-0.0078125,false,false,false,false,9.25,11.350000000000001,0.0,192,0,0,12.125,11.350000000000001,0.0,0,0,0,10.5,11.4,0.0,0,0,0,6.875,11.350000000000001,0.0,0,0,0,0.0,11.55,0.0,-2,0,0,0.0,4.0,0.0,0,0,0,kReverse,0.0,0.0,0.0,0.0,0.0,0.0,0.0,0.0,0.0,0.0,0.0,
143.74698999999998,true,true,true,0.0,-1.0,0.0,-0.0078125,false,false,false,false,0.0,-0.0078125,0.0,-0.0078125,false,false,false,false,8.625,11.65,0.0,192,0,0,9.5,11.7,0.0,0,0,0,8.5,11.600000000000001,0.0,0,0,0,5.0,11.7,0.0,0,0,0,0.0,11.8,0.0,-2,0,0,0.0,4.0,0.0,0,0,0,kReverse,0.0,0.0,0.0,0.0,0.0,0.0,0.0,0.0,0.0,0.0,0.0,
143.849168,true,true,true,0.0,-1.0,0.0,-0.0078125,false,false,false,false,0.0,-0.0078125,0.0,-0.0078125,false,false,false,false,27.375,11.65,0.0,192,0,0,33.125,11.7,0.0,0,0,0,28.25,11.600000000000001,0.0,0,0,0,22.375,11.7,0.0,0,0,0,0.0,11.8,0.0,-2,0,0,0.0,4.0,0.0,0,0,0,kReverse,0.0,0.0,0.0,0.0,0.0,0.0,0.0,0.0,0.0,0.0,0.0,
143.900035,true,true,true,0.0,-1.0,0.0,-0.0078125,false,false,false,false,0.0,-0.0078125,0.0,-0.0078125,false,false,false,false,24.75,11.65,0.0,192,0,0,30.0,11.7,0.0,0,0,0,26.375,11.600000000000001,0.0,0,0,0,19.875,10.25,0.0,0,0,0,0.0,10.5,0.0,-2,0,0,0.0,4.0,0.0,0,0,0,kReverse,0.0,0.0,0.0,0.0,0.0,0.0,0.0,0.0,0.0,0.0,0.0,
143.993754,true,true,true,0.0,-1.0,0.0,-0.0078125,false,false,false,false,0.0,-0.0078125,0.0,-0.0078125,false,false,false,false,14.25,10.15,0.0,193,1,0,19.375,10.25,0.0,0,0,0,17.25,10.2,0.0,0,0,0,11.25,10.25,0.0,0,0,0,0.0,10.5,0.0,-2,0,0,0.0,4.0,0.0,0,0,0,kReverse,0.0,0.0,0.0,0.0,0.0,0.0,0.0,0.0,0.0,0.0,0.0,
144.19275699999997,true,true,true,0.0,-1.0,0.0,-0.0078125,false,false,false,false,0.0,-0.0078125,0.0,-0.0078125,false,false,false,false,20.375,10.75,0.0,193,0,0,24.75,10.8,0.0,0,0,0,22.25,10.8,0.0,0,0,0,16.125,10.8,0.0,0,0,0,0.0,11.0,0.0,-2,0,0,0.0,4.0,0.0,0,0,0,kReverse,0.0,0.0,0.0,0.0,0.0,0.0,0.0,0.0,0.0,0.0,0.0,
144.30852,true,true,true,0.0,-1.0,0.0,-0.0078125,false,false,false,false,0.0,-0.0078125,0.0,-0.0078125,false,false,false,false,0.0,11.9,0.0,193,0,0,0.625,11.8,0.0,0,0,0,0.375,11.850000000000001,0.0,0,0,0,0.0,11.75,0.0,0,0,0,0.0,11.850000000000001,0.0,-1,1,0,0.0,4.0,0.0,0,0,0,kReverse,0.0,0.0,0.0,0.0,0.0,0.0,0.0,0.0,0.0,0.0,0.0,
144.408482,true,true,true,0.0,-1.0,0.0,-0.0078125,false,false,false,false,0.0,-0.0078125,0.0,-0.0078125,false,false,false,false,0.0,12.35,0.0,193,0,0,0.25,12.35,0.0,0,0,0,0.0,12.35,0.0,0,0,0,0.0,12.35,0.0,0,0,0,0.0,12.4,0.0,-2,0,0,0.0,4.0,0.0,0,0,0,kReverse,0.0,0.0,0.0,0.0,0.0,0.0,0.0,0.0,0.0,0.0,0.0,
144.56085000000002,true,true,true,0.0,-1.0,0.0,-0.0078125,false,false,false,false,0.0,-0.0078125,0.0,-0.0078125,false,false,false,false,0.0,12.200000000000001,0.0,193,0,0,1.75,12.200000000000001,0.0,0,0,0,0.875,12.200000000000001,0.0,0,0,0,0.0,12.25,0.0,0,0,0,0.0,12.35,0.0,-2,0,0,0.0,4.0,0.0,0,0,0,kReverse,0.0,0.0,0.0,0.0,0.0,0.0,0.0,0.0,0.0,0.0,0.0,
144.65465,true,true,true,0.0,-1.0,0.0,-0.0078125,false,false,false,false,0.0,-0.0078125,0.0,-0.0078125,false,false,false,false,0.625,12.200000000000001,0.0,193,0,0,2.375,12.200000000000001,0.0,0,0,0,1.625,12.200000000000001,0.0,0,0,0,0.0,12.25,0.0,0,0,0,0.0,12.35,0.0,-2,0,0,0.0,4.0,0.0,0,0,0,kReverse,0.0,0.0,0.0,0.0,0.0,0.0,0.0,0.0,0.0,0.0,0.0,
144.77001499999997,true,true,true,0.0,-1.0,0.0,-0.0078125,false,false,false,false,0.0,-0.0078125,0.0,-0.0078125,false,false,false,false,0.0,12.200000000000001,0.0,193,0,0,2.125,12.200000000000001,0.0,0,0,0,1.0,12.200000000000001,0.0,0,0,0,0.0,12.200000000000001,0.0,0,0,0,0.0,12.35,0.0,-2,0,0,0.0,4.0,0.0,0,0,0,kReverse,0.0,0.0,0.0,0.0,0.0,0.0,0.0,0.0,0.0,0.0,0.0,
144.915829,true,true,true,0.0,-1.0,0.0,-0.0078125,false,false,false,false,0.0,-0.0078125,0.0,-0.0078125,false,false,false,false,0.625,12.1,0.0,193,0,0,2.125,12.15,0.0,0,0,0,1.5,12.15,0.0,0,0,0,0.0,12.15,0.0,0,0,0,0.0,12.25,0.0,-2,0,0,0.0,4.0,0.0,0,0,0,kReverse,0.0,0.0,0.0,0.0,0.0,0.0,0.0,0.0,0.0,0.0,0.0,
145.04046,true,true,true,0.5275590419769287,-0.46875,0.5196850299835205,-0.0078125,false,false,false,false,0.0,-0.0078125,0.0,-0.0078125,false,false,false,false,1.125,12.15,0.0,193,0,0,2.625,12.15,0.0,0,0,0,2.0,12.15,0.0,0,0,0,0.0,12.15,0.0,0,0,0,0.0,12.25,0.0,-2,0,0,0.0,4.0,0.0,0,0,0,kReverse,0.0,0.0,0.0,0.0,0.0,0.0,0.0,0.0,0.0,0.0,0.0,
145.102695,true,true,true,0.3937007784843445,-0.0078125,1.0,-0.0078125,false,false,false,false,0.0,-0.0078125,0.0,-0.0078125,false,false,false,false,1.125,12.15,0.0,193,0,0,2.375,12.15,0.0,0,0,0,0.125,12.15,0.0,0,0,0,0.0,12.15,0.0,0,0,0,0.0,12.25,0.0,-2,0,0,0.0,4.0,0.0,0,0,0,kReverse,0.0,0.0,0.0,0.0,0.0,0.0,0.0,0.0,0.0,0.0,0.0,
145.200119,true,true,true,0.0,-0.0078125,1.0,-0.0078125,false,false,false,false,0.0,-0.0078125,0.0,-0.0078125,false,false,false,false,0.0,11.0,0.0,193,0,0,1.25,11.0,0.0,0,0,0,36.875,10.7,0.0,0,0,0,35.375,10.65,0.0,0,0,0,0.0,11.05,0.0,-2,0,0,0.0,4.0,0.0,0,0,0,kReverse,0.0,0.0,0.0,0.0,0.0,0.0,0.0,0.0,0.0,0.0,0.0,
145.32428099999998,true,true,true,0.0,-0.0078125,1.0,-0.0078125,false,false,false,false,0.0,-0.0078125,0.0,-0.0078125,false,false,false,false,0.0,11.0,0.0,193,0,0,2.0,11.0,0.0,0,0,0,32.5,10.7,0.0,0,0,0,32.25,10.65,0.0,0,0,0,0.0,11.05,0.0,-2,0,0,0.0,4.0,0.0,0,0,0,kReverse,0.0,0.0,0.0,0.0,0.0,0.0,0.0,0.0,0.0,0.0,0.0,
145.412188,true,true,true,0.0,-0.0078125,1.0,-0.0078125,false,false,false,false,0.0,-0.0078125,0.0,-0.0078125,false,false,false,false,5.25,11.05,0.0,193,0,0,5.375,11.05,0.0,0,0,0,22.625,10.850000000000001,0.0,0,0,0,19.75,10.8,0.0,0,0,0,0.0,11.15,0.0,-2,0,0,0.0,4.0,0.0,0,0,0,kReverse,0.0,0.0,0.0,0.0,0.0,0.0,0.0,0.0,0.0,0.0,0.0,
145.490526,true,true,true,0.0,-0.0078125,1.0,-0.0078125,false,false,false,false,0.0,-0.0078125,0.0,-0.0078125,false,false,false,false,5.375,11.05,0.0,193,0,0,8.125,11.05,0.0,0,0,0,19.75,10.850000000000001,0.0,0,0,0,17.0,10.8,0.0,0,0,0,0.0,11.15,0.0,-2,0,0,0.0,4.0,0.0,0,0,0,kReverse,0.0,0.0,0.0,0.0,0.0,0.0,0.0,0.0,0.0,0.0,0.0,
145.575672,true,true,true,0.0,-0.0078125,-0.046875,-0.0078125,false,false,false,false,0.0,-0.0078125,0.0,-0.0078125,false,false,false,false,6.875,11.2,0.0,193,0,0,9.75,11.3,0.0,0,0,0,12.75,11.2,0.0,0,0,0,12.625,11.3,0.0,0,0,0,0.0,11.4,0.0,-2,0,0,0.0,4.0,0.0,0,0,0,kReverse,0.0,0.0,0.0,0.0,0.0,0.0,0.0,0.0,0.0,0.0,0.0,
145.741343,true,true,true,0.0,-0.0078125,-0.5859375,-0.0078125,false,false,false,false,0.0,-0.0078125,0.0,-0.0078125,false,false,false,false,0.0,12.35,0.0,193,0,0,0.5,12.35,0.0,0,0,0,0.375,12.35,0.0,0,0,0,0.0,12.35,0.0,0,0,0,0.0,12.4,0.0,-2,0,0,0.0,4.0,0.0,0,0,0,kReverse,0.0,0.0,0.0,0.0,0.0,0.0,0.0,0.0,0.0,0.0,0.0,
145.842964,true,true,true,0.0,-0.0078125,-1.0,-0.0078125,false,false,false,false,0.0,-0.0078125,0.0,-0.0078125,false,false,false,false,1.25,12.15,0.0,193,0,0,2.25,12.200000000000001,0.0,0,0,0,1.625,12.200000000000001,0.0,0,0,0,1.125,12.15,0.0,0,0,0,0.0,12.25,0.0,-2,0,0,0.0,4.0,0.0,0,0,0,kReverse,0.0,0.0,0.0,0.0,0.0,0.0,0.0,0.0,0.0,0.0,0.0,
145.909131,true,true,true,0.0,-0.0078125,-1.0,-0.0078125,false,false,false,false,0.0,-0.0078125,0.0,-0.0078125,false,false,false,false,22.875,12.15,0.0,193,0,0,25.375,12.200000000000001,0.0,0,0,0,23.625,12.200000000000001,0.0,0,0,0,17.125,12.15,0.0,0,0,0,0.0,12.25,0.0,-2,0,0,0.0,4.0,0.0,0,0,0,kReverse,0.0,0.0,0.0,0.0,0.0,0.0,0.0,0.0,0.0,0.0,0.0,
145.98932000000002,true,true,true,0.0,-0.0078125,-0.25,-0.0078125,false,false,false,false,0.0,-0.0078125,0.0,-0.0078125,false,false,false,false,16.25,10.55,0.0,193,0,0,21.625,10.850000000000001,0.0,0,0,0,20.125,10.75,0.0,0,0,0,17.5,10.7,0.0,0,0,0,0.0,10.9,0.0,-2,0,0,0.0,4.0,0.0,0,0,0,kReverse,0.0,0.0,0.0,0.0,0.0,0.0,0.0,0.0,0.0,0.0,0.0,
146.09181,true,true,true,0.0,-0.0078125,0.0,-0.0078125,false,false,false,false,0.0,-0.0078125,0.0,-0.0078125,false,false,false,false,0.0,10.55,0.0,193,0,0,0.125,10.850000000000001,0.0,0,0,0,0.125,10.75,0.0,0,0,0,0.0,10.7,0.0,0,0,0,0.0,10.9,0.0,-2,0,0,0.0,4.0,0.0,0,0,0,kReverse,0.0,0.0,0.0,0.0,0.0,0.0,0.0,0.0,0.0,0.0,0.0,
146.152155,true,true,true,0.0,-0.0078125,0.0,-0.0078125,false,false,false,false,0.0,-0.0078125,0.0,-0.0078125,false,false,false,false,0.0,12.35,0.0,193,0,0,0.125,12.35,0.0,0,0,0,0.0,12.35,0.0,0,0,0,0.0,12.35,0.0,0,0,0,0.0,12.4,0.0,-2,0,0,0.0,4.0,0.0,0,0,0,kReverse,0.0,0.0,0.0,0.0,0.0,0.0,0.0,0.0,0.0,0.0,0.0,
146.225363,true,true,true,0.0,-0.0078125,0.0,-0.0078125,false,false,false,false,0.0,-0.0078125,0.0,-0.0078125,false,false,false,false,0.0,12.35,0.0,193,0,0,0.125,12.35,0.0,0,0,0,0.0,12.35,0.0,0,0,0,0.0,12.35,0.0,0,0,0,0.0,12.4,0.0,-2,0,0,0.0,4.0,0.0,0,0,0,kReverse,0.0,0.0,0.0,0.0,0.0,0.0,0.0,0.0,0.0,0.0,0.0,
146.44569399999997,true,true,true,0.0,-0.875,0.0,-0.0078125,false,false,false,false,0.0,-0.0078125,0.0,-0.0078125,false,false,false,false,0.0,12.4,0.0,193,0,0,3.125,12.4,0.0,0,0,0,0.0,12.4,0.0,0,0,0,0.0,12.4,0.0,0,0,0,0.0,12.450000000000001,0.0,-2,0,0,0.0,4.0,0.0,0,0,0,kReverse,0.0,0.0,0.0,0.0,0.0,0.0,0.0,0.0,0.0,0.0,0.0,
146.52947,true,true,true,0.0,-0.1953125,0.0,-0.0078125,false,false,false,false,0.0,-0.0078125,0.0,-0.0078125,false,false,false,false,12.75,11.75,0.0,193,0,0,15.5,11.75,0.0,0,0,0,12.375,11.850000000000001,0.0,0,0,0,10.0,11.850000000000001,0.0,0,0,0,0.0,12.0,0.0,-2,0,0,0.0,4.0,0.0,0,0,0,kReverse,0.0,0.0,0.0,0.0,0.0,0.0,0.0,0.0,0.0,0.0,0.0,
146.649049,true,true,true,0.17322835326194763,-0.375,0.0,-0.0078125,false,false,false,false,0.0,-0.0078125,0.0,-0.0078125,false,false,false,false,0.0,12.35,0.0,193,0,0,0.625,12.35,0.0,0,0,0,0.125,12.35,0.0,0,0,0,0.0,12.35,0.0,0,0,0,0.0,12.4,0.0,-2,0,0,0.0,4.0,0.0,0,0,0,kReverse,0.0,0.0,0.0,0.0,0.0,0.0,0.0,0.0,0.0,0.0,0.0,
146.70521100000002,true,true,true,0.4094488322734833,-0.9375,0.0,-0.0078125,false,false,false,false,0.0,-0.0078125,0.0,-0.0078125,false,false,false,false,0.0,12.35,0.0,193,0,0,0.25,12.35,0.0,0,0,0,0.0,12.35,0.0,0,0,0,0.0,12.35,0.0,0,0,0,0.0,12.4,0.0,-2,0,0,0.0,4.0,0.0,0,0,0,kReverse,0.0,0.0,0.0,0.0,0.0,0.0,0.0,0.0,0.0,0.0,0.0,
146.82457699999998,true,true,true,0.015748031437397003,-0.0625,0.0,-0.0078125,false,false,false,false,0.0,-0.0078125,0.0,-0.0078125,false,false,false,false,12.75,10.8,0.0,193,0,0,16.25,10.9,0.0,0,0,0,7.875,10.850000000000001,0.0,0,0,0,7.75,11.0,0.0,0,0,0,0.0,11.05,0.0,-2,0,0,0.0,4.0,0.0,0,0,0,kReverse,0.0,0.0,0.0,0.0,0.0,0.0,0.0,0.0,0.0,0.0,0.0,
146.97984399999999,true,true,true,0.15748031437397003,-1.0,0.0,-0.0078125,false,false,false,false,0.0,-0.0078125,0.0,-0.0078125,false,false,false,false,0.0,12.35,0.0,193,0,0,0.375,12.35,0.0,0,0,0,0.125,12.35,0.0,0,0,0,0.0,12.35,0.0,0,0,0,0.0,12.4,0.0,-2,0,0,0.0,4.0,0.0,0,0,0,kReverse,0.0,0.0,0.0,0.0,0.0,0.0,0.0,0.0,0.0,0.0,0.0,
147.088579,true,true,true,0.17322835326194763,-1.0,0.0,-0.0078125,false,false,false,false,0.0,-0.0078125,0.0,-0.0078125,false,false,false,false,13.75,12.35,0.0,193,0,0,16.25,12.35,0.0,0,0,0,14.25,12.35,0.0,0,0,0,10.5,12.35,0.0,0,0,0,0.0,11.45,0.0,-2,0,0,0.0,4.0,0.0,0,0,0,kReverse,0.0,0.0,0.0,0.0,0.0,0.0,0.0,0.0,0.0,0.0,0.0,
147.19482399999998,true,true,true,0.17322835326194763,-1.0,0.0,-0.0078125,false,false,false,false,0.0,-0.0078125,0.0,-0.0078125,false,false,false,false,12.125,11.25,0.0,193,0,0,14.875,11.25,0.0,0,0,0,12.625,11.3,0.0,0,0,0,8.875,11.3,0.0,0,0,0,0.0,11.45,0.0,-2,0,0,0.0,4.0,0.0,0,0,0,kReverse,0.0,0.0,0.0,0.0,0.0,0.0,0.0,0.0,0.0,0.0,0.0,
147.309041,true,true,true,0.0,-0.28125,0.0,-0.0078125,false,false,false,false,0.0,-0.0078125,0.0,-0.0078125,false,false,false,false,8.5,11.4,0.0,193,0,0,11.125,11.4,0.0,0,0,0,16.25,11.4,0.0,0,0,0,12.75,11.4,0.0,0,0,0,0.0,11.55,0.0,-2,0,0,0.0,4.0,0.0,0,0,0,kReverse,0.0,0.0,0.0,0.0,0.0,0.0,0.0,0.0,0.0,0.0,0.0,
147.398258,true,true,true,0.0,-0.0078125,0.0,-0.0078125,false,false,false,false,0.0,-0.0078125,0.0,-0.0078125,false,false,false,false,0.0,11.4,0.0,193,0,0,0.25,11.4,0.0,0,0,0,1.125,11.4,0.0,0,0,0,0.125,11.4,0.0,0,0,0,0.0,12.4,0.0,-2,0,0,0.0,4.0,0.0,0,0,0,kReverse,0.0,0.0,0.0,0.0,0.0,0.0,0.0,0.0,0.0,0.0,0.0,
147.50686,true,true,true,0.0,-0.0078125,0.0,-0.0078125,false,false,false,false,0.0,-0.0078125,0.0,-0.0078125,false,false,false,false,0.0,12.35,0.0,193,0,0,0.125,12.35,0.0,0,0,0,0.0,12.35,0.0,0,0,0,0.0,12.3,0.0,0,0,0,0.0,12.4,0.0,-2,0,0,0.0,4.0,0.0,0,0,0,kReverse,0.0,0.0,0.0,0.0,0.0,0.0,0.0,0.0,0.0,0.0,0.0,
147.643737,true,true,true,0.0,-0.0078125,0.0,-0.0078125,false,false,false,false,0.0,-0.0078125,0.0,-0.0078125,false,false,false,false,0.0,12.4,0.0,193,0,0,0.125,12.4,0.0,0,0,0,0.0,12.4,0.0,0,0,0,0.0,12.4,0.0,0,0,0,0.0,12.450000000000001,0.0,-2,0,0,0.0,4.0,0.0,0,0,0,kReverse,0.0,0.0,0.0,0.0,0.0,0.0,0.0,0.0,0.0,0.0,0.0,
147.749794,true,true,true,-1.0,0.9212598204612732,0.0,-0.0078125,false,false,false,false,0.0,-0.0078125,0.0,-0.0078125,false,false,false,false,0.0,12.4,0.0,193,0,0,0.125,12.4,0.0,0,0,0,0.0,12.4,0.0,0,0,0,4.5,12.4,0.0,0,0,0,0.0,12.450000000000001,0.0,-2,0,0,0.0,4.0,0.0,0,0,0,kReverse,0.0,0.0,0.0,0.0,0.0,0.0,0.0,0.0,0.0,0.0,0.0,
147.86146599999998,true,true,true,-1.0,1.0,0.0,-0.0078125,false,false,false,false,0.0,-0.0078125,0.0,-0.0078125,false,false,false,false,16.625,12.4,0.0,193,0,0,20.625,12.4,0.0,0,0,0,19.0,12.4,0.0,0,0,0,15.25,12.4,0.0,0,0,0,0.0,12.450000000000001,0.0,-2,0,0,0.0,4.0,0.0,0,0,0,kReverse,0.0,0.0,0.0,0.0,0.0,0.0,0.0,0.0,0.0,0.0,0.0,
147.911237,true,true,true,-1.0,1.0,0.0,-0.0078125,false,false,false,false,0.0,-0.0078125,0.0,-0.0078125,false,false,false,false,15.5,10.600000000000001,0.0,193,0,0,19.375,10.850000000000001,0.0,0,0,0,18.0,10.7,0.0,0,0,0,15.0,10.75,0.0,0,0,0,0.0,11.0,0.0,-2,0,0,0.0,4.0,0.0,0,0,0,kReverse,0.0,0.0,0.0,0.0,0.0,0.0,0.0,0.0,0.0,0.0,0.0,
148.003736,true,true,true,-1.0,1.0,0.0,-0.0078125,false,false,false,false,0.0,-0.0078125,0.0,-0.0078125,false,false,false,false,13.625,10.600000000000001,0.0,193,0,0,17.5,10.850000000000001,0.0,0,0,0,15.625,10.7,0.0,0,0,0,12.875,10.75,0.0,0,0,0,0.0,11.0,0.0,-2,0,0,0.0,4.0,0.0,0,0,0,kReverse,0.0,0.0,0.0,0.0,0.0,0.0,0.0,0.0,0.0,0.0,0.0,
148.1439,true,true,true,-1.0,1.0,0.0,-0.0078125,false,false,false,false,0.0,-0.0078125,0.0,-0.0078125,false,false,false,false,7.5,11.25,0.0,193,0,0,10.75,11.3,0.0,0,0,0,10.625,11.350000000000001,0.0,0,0,0,7.625,11.3,0.0,0,0,0,0.0,11.5,0.0,-2,0,0,0.0,4.0,0.0,0,0,0,kReverse,0.0,0.0,0.0,0.0,0.0,0.0,0.0,0.0,0.0,0.0,0.0,
148.272402,true,true,true,-0.5078125,0.4566929042339325,0.0,-0.0078125,false,false,false,false,0.0,-0.0078125,0.0,-0.0078125,false,false,false,false,5.375,11.55,0.0,175,-18,0,8.5,11.600000000000001,0.0,0,0,0,8.625,11.600000000000001,0.0,0,0,0,5.5,11.600000000000001,0.0,0,0,0,0.0,11.75,0.0,-2,0,0,0.0,4.0,0.0,0,0,0,kReverse,0.0,0.0,0.0,0.0,0.0,0.0,0.0,0.0,0.0,0.0,0.0,
148.392377,true,true,true,0.0,-0.0078125,0.0,-0.0078125,false,false,false,false,0.0,-0.0078125,0.0,-0.0078125,false,false,false,false,0.0,12.25,0.0,175,0,0,0.5,12.25,0.0,0,0,0,0.875,12.25,0.0,0,0,0,0.0,12.25,0.0,0,0,0,0.0,12.35,0.0,-2,0,0,0.0,4.0,0.0,0,0,0,kReverse,0.0,0.0,0.0,0.0,0.0,0.0,0.0,0.0,0.0,0.0,0.0,
148.509397,true,true,true,0.0,-0.0078125,0.0,-0.0078125,false,false,false,false,0.0,-0.0078125,0.0,-0.0078125,false,false,false,false,0.0,12.25,0.0,175,0,0,0.125,12.25,0.0,0,0,0,0.0,12.25,0.0,0,0,0,0.0,12.25,0.0,0,0,0,0.0,12.35,0.0,-2,0,0,0.0,4.0,0.0,0,0,0,kReverse,0.0,0.0,0.0,0.0,0.0,0.0,0.0,0.0,0.0,0.0,0.0,
148.64629000000002,true,true,true,0.0,0.9527559280395508,-0.625,-0.0078125,false,false,false,false,0.0,-0.0078125,0.0,-0.0078125,false,false,false,false,0.0,12.4,0.0,175,0,0,0.125,12.4,0.0,0,0,0,0.0,12.4,0.0,0,0,0,0.0,12.4,0.0,0,0,0,0.0,12.450000000000001,0.0,-2,0,0,0.0,4.0,0.0,0,0,0,kReverse,0.0,0.0,0.0,0.0,0.0,0.0,0.0,0.0,0.0,0.0,0.0,
148.771255,true,true,true,0.0,1.0,-1.0,-0.0859375,false,false,false,false,0.0,-0.0078125,0.0,-0.0078125,false,false,false,false,8.375,12.1,0.0,175,0,0,8.0,12.200000000000001,0.0,0,0,0,0.0,12.200000000000001,0.0,0,0,0,0.0,12.200000000000001,0.0,0,0,0,0.0,12.3,0.0,-2,0,0,0.0,4.0,0.0,0,0,0,kReverse,0.0,0.0,0.0,0.0,0.0,0.0,0.0,0.0,0.0,0.0,0.0,
148.872374,true,true,true,0.0,1.0,-1.0,-0.0859375,false,false,false,false,0.0,-0.0078125,0.0,-0.0078125,false,false,false,false,27.875,10.75,0.0,174,-1,0,34.375,10.850000000000001,0.0,0,0,0,0.0,11.05,0.0,0,0,0,0.0,11.05,0.0,0,0,0,0.0,11.15,0.0,-2,0,0,0.0,4.0,0.0,0,0,0,kReverse,0.0,0.0,0.0,0.0,0.0,0.0,0.0,0.0,0.0,0.0,0.0,
149.001395,true,true,true,0.0,1.0,-0.2421875,-0.109375,false,false,false,false,0.0,-0.0078125,0.0,-0.0078125,false,false,false,false,24.0,10.75,0.0,174,0,0,29.625,10.850000000000001,0.0,0,0,0,0.0,11.05,0.0,0,0,0,0.0,11.45,0.0,0,0,0,0.0,11.55,0.0,-2,0,0,0.0,4.0,0.0,0,0,0,kReverse,0.0,0.0,0.0,0.0,0.0,0.0,0.0,0.0,0.0,0.0,0.0,
149.10504999999998,true,true,true,0.0,0.14960630238056183,0.0,-0.0078125,false,false,false,false,0.0,-0.0078125,0.0,-0.0078125,false,false,false,false,16.875,11.25,0.0,173,-1,0,23.25,11.3,0.0,0,0,0,0.0,11.45,0.0,0,0,0,0.0,11.45,0.0,0,0,0,0.0,11.55,0.0,-2,0,0,0.0,4.0,0.0,0,0,0,kReverse,0.0,0.0,0.0,0.0,0.0,0.0,0.0,0.0,0.0,0.0,0.0,
149.21094200000002,true,true,true,0.0,-0.0078125,0.0,-0.0078125,false,false,false,false,0.0,-0.0078125,0.0,-0.0078125,false,false,false,false,5.0,11.9,0.0,173,0,0,6.125,12.0,0.0,0,0,0,1.875,12.0,0.0,0,0,0,1.875,12.05,0.0,0,0,0,0.0,12.1,0.0,-2,0,0,0.0,4.0,0.0,0,0,0,kReverse,0.0,0.0,0.0,0.0,0.0,0.0,0.0,0.0,0.0,0.0,0.0,
149.36021899999997,true,true,true,0.04724409431219101,-0.671875,0.0,-0.0078125,false,false,false,false,0.0,-0.0078125,0.0,-0.0078125,false,false,false,false,0.0,12.35,0.0,173,0,0,0.125,12.4,0.0,0,0,0,3.25,12.35,0.0,0,0,0,0.0,12.35,0.0,0,0,0,0.0,12.450000000000001,0.0,0,2,0,0.0,4.0,0.0,0,0,0,kReverse,0.0,0.0,0.0,0.0,0.0,0.0,0.0,0.0,0.0,0.0,0.0,
149.496479,true,true,true,0.11811023950576782,-0.9296875,0.0,-0.0078125,false,false,false,false,0.0,-0.0078125,0.0,-0.0078125,false,false,false,false,3.75,12.35,0.0,175,1,0,4.375,11.75,0.0,0,0,0,10.375,11.75,0.0,0,0,0,5.875,11.75,0.0,0,0,0,0.0,11.9,0.0,0,0,0,0.0,4.0,0.0,0,0,0,kReverse,0.0,0.0,0.0,0.0,0.0,0.0,0.0,0.0,0.0,0.0,0.0,
149.62135899999998,true,true,true,0.0,-0.0078125,0.0,-0.0078125,false,false,false,false,0.0,-0.0078125,0.0,-0.0078125,false,false,false,false,13.75,11.600000000000001,0.0,184,8,0,15.75,11.75,0.0,0,0,0,9.625,11.75,0.0,0,0,0,5.25,11.75,0.0,0,0,0,0.0,11.9,0.0,0,0,0,0.0,4.0,0.0,0,0,0,kReverse,0.0,0.0,0.0,0.0,0.0,0.0,0.0,0.0,0.0,0.0,0.0,
149.73125699999997,true,true,true,0.0,-0.0078125,-1.0,-0.0078125,false,false,false,false,0.0,-0.0078125,0.0,-0.0078125,false,false,false,false,0.0,12.3,0.0,188,1,0,0.125,12.35,0.0,0,0,0,0.0,12.3,0.0,0,0,0,0.0,12.3,0.0,0,0,0,0.0,12.4,0.0,0,0,0,0.0,4.0,0.0,0,0,0,kReverse,0.0,0.0,0.0,0.0,0.0,0.0,0.0,0.0,0.0,0.0,0.0,
149.790237,true,true,true,0.0,0.25196850299835205,-1.0,-0.0078125,false,false,false,false,0.0,-0.0078125,0.0,-0.0078125,false,false,false,false,26.0,12.3,0.0,187,0,0,26.875,12.35,0.0,0,0,0,7.25,12.3,0.0,0,0,0,5.375,12.3,0.0,0,0,0,0.0,12.4,0.0,0,0,0,0.0,4.0,0.0,0,0,0,kReverse,0.0,0.0,0.0,0.0,0.0,0.0,0.0,0.0,0.0,0.0,0.0,
149.92102599999998,true,true,true,-0.5078125,1.0,-1.0,-0.0078125,false,false,false,false,0.0,-0.0078125,0.0,-0.0078125,false,false,false,false,30.5,10.0,0.0,185,-2,0,36.0,10.2,0.0,0,0,0,6.5,10.350000000000001,0.0,0,0,0,5.75,10.3,0.0,0,0,0,0.0,10.5,0.0,0,0,0,0.0,4.0,0.0,0,0,0,kReverse,0.0,0.0,0.0,0.0,0.0,0.0,0.0,0.0,0.0,0.0,0.0,
150.06188699999998,true,true,true,-0.1875,0.5984252095222473,-1.0,-0.0078125,false,false,false,false,0.0,-0.0078125,0.0,-0.0078125,false,false,false,false,47.75,9.75,0.0,175,-6,0,54.875,9.850000000000001,0.0,0,0,0,0.0,10.2,0.0,0,0,0,0.0,10.2,0.0,0,0,0,0.0,10.3,0.0,0,0,0,0.0,4.0,0.0,0,0,0,kReverse,0.0,0.0,0.0,0.0,0.0,0.0,0.0,0.0,0.0,0.0,0.0,
150.205049,true,true,true,0.0,-0.015625,0.0,-0.0078125,false,false,false,false,0.0,-0.0078125,0.0,-0.0078125,false,false,false,false,27.5,10.5,0.0,172,-1,0,24.5,10.65,0.0,0,0,0,1.0,10.8,0.0,0,0,0,0.375,10.8,0.0,0,0,0,0.0,10.9,0.0,0,0,0,0.0,4.0,0.0,0,0,0,kReverse,0.0,0.0,0.0,0.0,0.0,0.0,0.0,0.0,0.0,0.0,0.0,
150.289428,true,true,true,0.0,0.5354330539703369,0.0,-0.0078125,false,false,false,false,0.0,-0.0078125,0.0,-0.0078125,false,false,false,false,0.0,10.5,0.0,172,0,0,0.125,10.65,0.0,0,0,0,0.0,10.8,0.0,0,0,0,0.0,10.8,0.0,0,0,0,0.0,10.9,0.0,0,0,0,0.0,4.0,0.0,0,0,0,kReverse,0.0,0.0,0.0,0.0,0.0,0.0,0.0,0.0,0.0,0.0,0.0,
150.40047,true,true,true,0.0,1.0,0.0,-0.0078125,false,false,false,false,0.0,-0.0078125,0.0,-0.0078125,false,false,false,false,0.0,12.200000000000001,0.0,171,-1,0,0.125,12.200000000000001,0.0,0,0,0,5.25,12.15,0.0,0,0,0,3.5,12.200000000000001,0.0,0,0,0,0.0,12.3,0.0,0,0,0,0.0,4.0,0.0,0,0,0,kReverse,0.0,0.0,0.0,0.0,0.0,0.0,0.0,0.0,0.0,0.0,0.0,
150.506553,true,true,true,0.0,1.0,0.0,-0.0078125,false,false,false,false,0.0,-0.0078125,0.0,-0.0078125,false,false,false,false,10.75,11.100000000000001,0.0,171,0,0,14.25,11.15,0.0,0,0,0,15.375,11.0,0.0,0,0,0,12.375,11.100000000000001,0.0,0,0,0,0.0,11.3,0.0,0,0,0,0.0,4.0,0.0,0,0,0,kReverse,0.0,0.0,0.0,0.0,0.0,0.0,0.0,0.0,0.0,0.0,0.0,
150.589734,true,true,true,0.0,1.0,0.0,-0.0078125,false,false,false,false,0.0,-0.0078125,0.0,-0.0078125,false,false,false,false,9.375,11.100000000000001,0.0,171,0,0,12.75,11.15,0.0,0,0,0,13.0,11.0,0.0,0,0,0,10.125,11.100000000000001,0.0,0,0,0,0.0,11.3,0.0,0,0,0,0.0,4.0,0.0,0,0,0,kReverse,0.0,0.0,0.0,0.0,0.0,0.0,0.0,0.0,0.0,0.0,0.0,
150.692951,true,true,true,0.0,1.0,0.6850393414497375,-0.0078125,false,false,false,false,0.0,-0.0078125,0.0,-0.0078125,false,false,false,false,6.75,11.4,0.0,171,0,0,7.25,11.45,0.0,0,0,0,14.5,11.4,0.0,0,0,0,6.25,11.5,0.0,0,0,0,0.0,11.600000000000001,0.0,0,0,0,0.0,4.0,0.0,0,0,0,kReverse,0.0,0.0,0.0,0.0,0.0,0.0,0.0,0.0,0.0,0.0,0.0,
150.909099,true,true,true,0.0,1.0,0.0,-0.0078125,false,false,false,false,0.0,-0.0078125,0.0,-0.0078125,false,false,false,false,0.0,11.15,0.0,170,-1,0,0.375,11.15,0.0,0,0,0,27.5,10.9,0.0,0,0,0,19.25,10.9,0.0,0,0,0,0.0,11.2,0.0,0,0,0,0.0,4.0,0.0,0,0,0,kReverse,0.0,0.0,0.0,0.0,0.0,0.0,0.0,0.0,0.0,0.0,0.0,
151.039184,true,true,true,0.0,0.30708661675453186,0.0,-0.0078125,false,false,false,false,0.0,-0.0078125,0.0,-0.0078125,false,false,false,false,4.125,11.9,0.0,170,0,0,5.375,11.850000000000001,0.0,0,0,0,6.375,11.850000000000001,0.0,0,0,0,5.625,11.75,0.0,0,0,0,0.0,11.95,0.0,0,0,0,0.0,4.0,0.0,0,0,0,kReverse,0.0,0.0,0.0,0.0,0.0,0.0,0.0,0.0,0.0,0.0,0.0,
151.12853399999997,true,true,true,0.0,-0.0078125,0.0,-0.0078125,false,false,false,false,0.0,-0.0078125,0.0,-0.0078125,false,false,false,false,0.0,12.25,0.0,170,0,0,1.125,12.25,0.0,0,0,0,0.0,12.25,0.0,0,0,0,0.0,12.25,0.0,0,0,0,0.0,12.35,0.0,0,0,0,0.0,4.0,0.0,0,0,0,kReverse,0.0,0.0,0.0,0.0,0.0,0.0,0.0,0.0,0.0,0.0,0.0,
151.26080299999998,true,true,true,0.0,-0.0078125,0.0,-0.0078125,false,false,false,false,0.0,-0.0078125,0.0,-0.0078125,false,false,false,false,0.0,12.25,0.0,170,0,0,0.125,12.4,0.0,0,0,0,0.0,12.4,0.0,0,0,0,0.0,12.35,0.0,0,0,0,0.0,12.450000000000001,0.0,0,0,0,0.0,4.0,0.0,0,0,0,kReverse,0.0,0.0,0.0,0.0,0.0,0.0,0.0,0.0,0.0,0.0,0.0,
151.436163,true,true,true,0.0,-0.0078125,0.24409449100494385,-0.0078125,false,false,false,false,0.0,-0.0078125,0.0,-0.0078125,false,false,false,false,0.0,12.4,0.0,170,0,0,0.125,12.4,0.0,0,0,0,0.0,12.4,0.0,0,0,0,0.0,12.4,0.0,0,0,0,0.0,12.450000000000001,0.0,0,0,0,0.0,4.0,0.0,0,0,0,kReverse,0.0,0.0,0.0,0.0,0.0,0.0,0.0,0.0,0.0,0.0,0.0,
151.531644,true,true,true,0.0,-0.0078125,0.12598425149917603,-0.0078125,false,false,false,false,0.0,-0.0078125,0.0,-0.0078125,false,false,false,false,5.0,12.4,0.0,166,-4,0,5.5,12.4,0.0,0,0,0,0.0,12.4,0.0,0,0,0,0.0,12.4,0.0,0,0,0,0.0,12.450000000000001,0.0,0,0,0,0.0,4.0,0.0,0,0,0,kReverse,0.0,0.0,0.0,0.0,0.0,0.0,0.0,0.0,0.0,0.0,0.0,
151.61808100000002,true,true,true,0.0,-0.0078125,0.0,-0.0078125,false,false,false,false,0.0,-0.0078125,0.0,-0.0078125,false,false,false,false,1.375,12.200000000000001,0.0,166,0,0,2.0,12.4,0.0,0,0,0,0.0,12.35,0.0,0,0,0,0.0,12.35,0.0,0,0,0,0.0,12.4,0.0,0,0,0,0.0,4.0,0.0,0,0,0,kReverse,0.0,0.0,0.0,0.0,0.0,0.0,0.0,0.0,0.0,0.0,0.0,
151.673169,true,true,true,0.0,-0.0078125,0.0,-0.0078125,false,false,false,false,0.0,-0.0078125,0.0,-0.0078125,false,false,false,false,0.0,12.200000000000001,0.0,166,0,0,0.125,12.4,0.0,0,0,0,0.0,12.35,0.0,0,0,0,0.0,12.35,0.0,0,0,0,0.0,12.4,0.0,0,0,0,0.0,4.0,0.0,0,0,0,kReverse,0.0,0.0,0.0,0.0,0.0,0.0,0.0,0.0,0.0,0.0,0.0,
151.80600399999997,true,true,true,0.0,-0.0078125,0.0,-0.0078125,false,false,false,false,0.0,-0.0078125,0.0,-0.0078125,false,false,false,false,0.0,12.4,0.0,166,0,0,0.125,12.4,0.0,0,0,0,0.0,12.4,0.0,0,0,0,0.0,12.4,0.0,0,0,0,0.0,12.450000000000001,0.0,0,0,0,0.0,4.0,0.0,0,0,0,kReverse,0.0,0.0,0.0,0.0,0.0,0.0,0.0,0.0,0.0,0.0,0.0,
151.971244,true,true,true,0.0,-0.0078125,0.0,-0.0078125,false,false,false,false,0.0,-0.0078125,0.0,-0.0078125,false,false,false,false,0.0,12.4,0.0,166,0,0,0.125,12.4,0.0,0,0,0,0.0,12.4,0.0,0,0,0,0.0,12.4,0.0,0,0,0,0.0,12.5,0.0,0,0,0,0.0,4.0,0.0,0,0,0,kReverse,0.0,0.0,0.0,0.0,0.0,0.0,0.0,0.0,0.0,0.0,0.0,
152.063437,true,true,true,0.0,0.9527559280395508,0.0,-0.0078125,false,false,false,false,0.0,-0.0078125,0.0,-0.0078125,false,false,false,false,0.0,12.4,0.0,166,0,0,0.125,12.450000000000001,0.0,0,0,0,0.0,12.4,0.0,0,0,0,0.0,12.4,0.0,0,0,0,0.0,12.5,0.0,0,0,0,0.0,4.0,0.0,0,0,0,kReverse,0.0,0.0,0.0,0.0,0.0,0.0,0.0,0.0,0.0,0.0,0.0,
152.149679,true,true,true,0.0,1.0,0.0,-0.0078125,false,false,false,false,0.0,-0.0078125,0.0,-0.0078125,false,false,false,false,10.25,12.4,0.0,166,0,0,12.0,12.450000000000001,0.0,0,0,0,9.5,12.4,0.0,0,0,0,7.0,12.4,0.0,0,0,0,0.0,12.5,0.0,0,0,0,0.0,4.0,0.0,0,0,0,kReverse,0.0,0.0,0.0,0.0,0.0,0.0,0.0,0.0,0.0,0.0,0.0,
152.19624,true,true,true,0.0,1.0,0.0,-0.0078125,false,false,false,false,0.0,-0.0078125,0.0,-0.0078125,false,false,false,false,16.5,12.4,0.0,166,0,0,19.125,12.450000000000001,0.0,0,0,0,15.75,12.4,0.0,0,0,0,11.25,12.4,0.0,0,0,0,0.0,12.5,0.0,0,0,0,0.0,4.0,0.0,0,0,0,kReverse,0.0,0.0,0.0,0.0,0.0,0.0,0.0,0.0,0.0,0.0,0.0,
152.286806,true,true,true,0.0,1.0,0.0,-0.0078125,false,false,false,false,0.0,-0.0078125,0.0,-0.0078125,false,false,false,false,15.125,10.7,0.0,166,0,0,17.75,10.75,0.0,0,0,0,19.125,10.75,0.0,0,0,0,16.375,10.8,0.0,0,0,0,0.0,11.0,0.0,0,0,0,0.0,4.0,0.0,0,0,0,kReverse,0.0,0.0,0.0,0.0,0.0,0.0,0.0,0.0,0.0,0.0,0.0,
152.379782,true,true,true,0.0,1.0,0.0,-0.0078125,false,false,false,false,0.0,-0.0078125,0.0,-0.0078125,false,false,false,false,12.0,10.7,0.0,166,0,0,16.0,10.75,0.0,0,0,0,15.625,10.75,0.0,0,0,0,11.625,11.25,0.0,0,0,0,0.0,11.350000000000001,0.0,0,0,0,0.0,4.0,0.0,0,0,0,kReverse,0.0,0.0,0.0,0.0,0.0,0.0,0.0,0.0,0.0,0.0,0.0,
152.450779,true,true,true,0.0,-0.0078125,0.0,-0.0078125,false,false,false,false,0.0,-0.0078125,0.0,-0.0078125,false,false,false,false,6.125,11.100000000000001,0.0,166,0,0,11.5,11.2,0.0,0,0,0,13.125,11.100000000000001,0.0,0,0,0,10.125,11.25,0.0,0,0,0,0.0,11.350000000000001,0.0,0,0,0,0.0,4.0,0.0,0,0,0,kReverse,0.0,0.0,0.0,0.0,0.0,0.0,0.0,0.0,0.0,0.0,0.0,
152.545184,true,true,true,0.0,-0.0078125,0.0,-0.0078125,false,false,false,false,0.0,-0.0078125,0.0,-0.0078125,false,false,false,false,0.0,11.100000000000001,0.0,166,0,0,0.125,12.35,0.0,0,0,0,0.0,12.4,0.0,0,0,0,0.0,12.4,0.0,0,0,0,0.0,12.450000000000001,0.0,0,0,0,0.0,4.0,0.0,0,0,0,kReverse,0.0,0.0,0.0,0.0,0.0,0.0,0.0,0.0,0.0,0.0,0.0,
152.72463199999999,true,true,true,0.0,-0.0078125,0.0,-0.0078125,false,false,false,false,0.0,-0.0078125,0.0,-0.0078125,false,false,false,false,0.0,12.35,0.0,166,0,0,0.125,12.4,0.0,0,0,0,0.0,12.35,0.0,0,0,0,0.0,12.35,0.0,0,0,0,0.0,12.450000000000001,0.0,0,0,0,0.0,4.0,0.0,0,0,0,kReverse,0.0,0.0,0.0,0.0,0.0,0.0,0.0,0.0,0.0,0.0,0.0,
152.829118,true,true,true,0.0,-0.0078125,0.0,-0.0078125,false,false,false,false,0.0,-0.0078125,0.0,-0.0078125,false,false,false,false,0.0,12.35,0.0,166,0,0,0.125,12.4,0.0,0,0,0,0.0,12.35,0.0,0,0,0,0.0,12.35,0.0,0,0,0,0.0,12.450000000000001,0.0,0,0,0,0.0,4.0,0.0,0,0,0,kReverse,0.0,0.0,0.0,0.0,0.0,0.0,0.0,0.0,0.0,0.0,0.0,
152.967959,true,true,true,0.0,0.9921259880065918,0.0,-0.0078125,false,false,false,false,0.0,-0.0078125,0.0,-0.0078125,false,false,false,false,0.0,12.4,0.0,166,0,0,0.125,12.4,0.0,0,0,0,0.0,12.4,0.0,0,0,0,0.0,12.4,0.0,0,0,0,0.0,12.450000000000001,0.0,0,0,0,0.0,4.0,0.0,0,0,0,kReverse,0.0,0.0,0.0,0.0,0.0,0.0,0.0,0.0,0.0,0.0,0.0,
153.09434,true,true,true,0.0,1.0,0.0,-0.0078125,false,false,false,false,0.0,-0.0078125,0.0,-0.0078125,false,false,false,false,9.125,11.2,0.0,166,0,0,12.625,11.25,0.0,0,0,0,15.875,11.2,0.0,0,0,0,13.125,11.3,0.0,0,0,0,0.0,11.4,0.0,0,0,0,0.0,4.0,0.0,0,0,0,kReverse,0.0,0.0,0.0,0.0,0.0,0.0,0.0,0.0,0.0,0.0,0.0,
153.214115,true,true,true,-0.1796875,1.0,0.0,-0.0078125,false,false,false,false,0.0,-0.0078125,0.0,-0.0078125,false,false,false,false,12.875,11.2,0.0,166,0,0,16.625,11.15,0.0,0,0,0,10.875,11.3,0.0,0,0,0,8.0,11.3,0.0,0,0,0,0.0,11.4,0.0,0,0,0,0.0,4.0,0.0,0,0,0,kReverse,0.0,0.0,0.0,0.0,0.0,0.0,0.0,0.0,0.0,0.0,0.0,
153.312078,true,true,true,0.0,1.0,0.0,-0.0078125,false,false,false,false,0.0,-0.0078125,0.0,-0.0078125,false,false,false,false,7.875,11.2,0.0,166,0,0,11.5,11.15,0.0,0,0,0,10.875,11.3,0.0,0,0,0,8.0,11.3,0.0,0,0,0,0.0,11.4,0.0,0,0,0,0.0,4.0,0.0,0,0,0,kReverse,0.0,0.0,0.0,0.0,0.0,0.0,0.0,0.0,0.0,0.0,0.0,
153.462134,true,true,true,0.16535432636737823,-0.625,0.0,-0.0078125,false,false,false,false,0.0,-0.0078125,0.0,-0.0078125,false,false,false,false,6.0,11.7,0.0,166,0,0,9.25,11.7,0.0,0,0,0,7.875,11.7,0.0,0,0,0,4.875,11.65,0.0,0,0,0,0.0,11.850000000000001,0.0,0,0,0,0.0,4.0,0.0,0,0,0,kReverse,0.0,0.0,0.0,0.0,0.0,0.0,0.0,0.0,0.0,0.0,0.0,
153.588049,true,true,true,0.35433071851730347,-1.0,0.0,-0.0078125,false,false,false,false,0.0,-0.0078125,0.0,-0.0078125,false,false,false,false,18.5,11.0,0.0,166,0,0,21.5,11.05,0.0,0,0,0,16.5,11.15,0.0,0,0,0,14.375,11.15,0.0,0,0,0,0.0,11.3,0.0,0,0,0,0.0,4.0,0.0,0,0,0,kReverse,0.0,0.0,0.0,0.0,0.0,0.0,0.0,0.0,0.0,0.0,0.0,
153.69912599999998,true,true,true,0.36220473051071167,-1.0,0.0,-0.0078125,false,false,false,false,0.0,-0.0078125,0.0,-0.0078125,false,false,false,false,26.625,10.05,0.0,166,0,0,33.5,10.100000000000001,0.0,0,0,0,27.125,10.15,0.0,0,0,0,21.875,10.15,0.0,0,0,0,0.0,10.3,0.0,0,0,0,0.0,4.0,0.0,0,0,0,kReverse,0.0,0.0,0.0,0.0,0.0,0.0,0.0,0.0,0.0,0.0,0.0,
153.783287,true,true,true,0.36220473051071167,-1.0,0.0,-0.0078125,false,false,false,false,0.0,-0.0078125,0.0,-0.0078125,false,false,false,false,18.25,10.05,0.0,167,1,0,21.625,10.100000000000001,0.0,0,0,0,19.0,10.15,0.0,0,0,0,15.375,10.15,0.0,0,0,0,0.0,10.3,0.0,0,0,0,0.0,4.0,0.0,0,0,0,kReverse,0.0,0.0,0.0,0.0,0.0,0.0,0.0,0.0,0.0,0.0,0.0,
153.87295600000002,true,true,true,0.36220473051071167,-1.0,0.0,-0.0078125,false,false,false,false,0.0,-0.0078125,0.0,-0.0078125,false,false,false,false,14.25,10.9,0.0,168,1,0,17.875,10.95,0.0,0,0,0,16.25,10.9,0.0,0,0,0,12.5,10.9,0.0,0,0,0,0.0,11.15,0.0,0,0,0,0.0,4.0,0.0,0,0,0,kReverse,0.0,0.0,0.0,0.0,0.0,0.0,0.0,0.0,0.0,0.0,0.0,
153.930133,true,true,true,0.36220473051071167,-1.0,0.0,-0.0078125,false,false,false,false,0.0,-0.0078125,0.0,-0.0078125,false,false,false,false,13.75,10.9,0.0,168,0,0,17.375,10.95,0.0,0,0,0,15.5,10.9,0.0,0,0,0,11.75,10.9,0.0,0,0,0,0.0,11.15,0.0,0,0,0,0.0,4.0,0.0,0,0,0,kReverse,0.0,0.0,0.0,0.0,0.0,0.0,0.0,0.0,0.0,0.0,0.0,
154.021601,true,true,true,0.36220473051071167,-1.0,0.0,-0.0078125,false,false,false,false,0.0,-0.0078125,0.0,-0.0078125,false,false,false,false,15.375,10.9,0.0,168,0,0,18.75,11.05,0.0,0,0,0,16.875,10.9,0.0,0,0,0,13.375,10.850000000000001,0.0,0,0,0,0.0,11.100000000000001,0.0,0,0,0,0.0,4.0,0.0,0,0,0,kReverse,0.0,0.0,0.0,0.0,0.0,0.0,0.0,0.0,0.0,0.0,0.0,
154.141097,true,true,true,0.36220473051071167,-1.0,0.0,-0.0078125,false,false,false,false,0.0,-0.0078125,0.0,-0.0078125,false,false,false,false,12.75,10.9,0.0,168,0,0,16.0,11.05,0.0,0,0,0,14.0,11.15,0.0,0,0,0,10.5,11.25,0.0,0,0,0,0.0,11.350000000000001,0.0,0,0,0,0.0,4.0,0.0,0,0,0,kReverse,0.0,0.0,0.0,0.0,0.0,0.0,0.0,0.0,0.0,0.0,0.0,
154.196363,true,true,true,0.36220473051071167,-1.0,0.0,-0.0078125,false,false,false,false,0.0,-0.0078125,0.0,-0.0078125,false,false,false,false,12.125,11.2,0.0,169,1,0,14.875,11.2,0.0,0,0,0,13.375,11.15,0.0,0,0,0,9.875,11.25,0.0,0,0,0,0.0,11.350000000000001,0.0,0,0,0,0.0,4.0,0.0,0,0,0,kReverse,0.0,0.0,0.0,0.0,0.0,0.0,0.0,0.0,0.0,0.0,0.0,
154.26915400000001,true,true,true,0.36220473051071167,-1.0,0.0,-0.0078125,false,false,false,false,0.0,-0.0078125,0.0,-0.0078125,false,false,false,false,10.75,11.2,0.0,169,0,0,13.625,11.2,0.0,0,0,0,12.375,11.15,0.0,0,0,0,8.625,11.25,0.0,0,0,0,0.0,11.350000000000001,0.0,1,1,0,0.0,4.0,0.0,0,0,0,kReverse,0.0,0.0,0.0,0.0,0.0,0.0,0.0,0.0,0.0,0.0,0.0,
154.402861,true,true,true,0.36220473051071167,-1.0,-1.0,-0.0078125,false,false,false,false,0.0,-0.0078125,0.0,-0.0078125,false,false,false,false,5.125,11.4,0.0,169,0,0,7.75,11.4,0.0,0,0,0,10.875,11.4,0.0,0,0,0,4.0,11.4,0.0,0,0,0,0.0,11.55,0.0,0,0,0,0.0,4.0,0.0,0,0,0,kReverse,0.0,0.0,0.0,0.0,0.0,0.0,0.0,0.0,0.0,0.0,0.0,
154.510911,true,true,true,0.36220473051071167,-1.0,-1.0,-0.0078125,false,false,false,false,0.0,-0.0078125,0.0,-0.0078125,false,false,false,false,0.0,11.55,0.0,169,0,0,0.125,11.55,0.0,0,0,0,20.75,11.3,0.0,0,0,0,15.125,11.350000000000001,0.0,0,0,0,0.0,11.600000000000001,0.0,0,0,0,0.0,4.0,0.0,0,0,0,kReverse,0.0,0.0,0.0,0.0,0.0,0.0,0.0,0.0,0.0,0.0,0.0,
154.592736,true,true,true,0.36220473051071167,-1.0,-0.171875,-0.0078125,false,false,false,false,0.0,-0.0078125,0.0,-0.0078125,false,false,false,false,0.0,11.55,0.0,169,0,0,0.125,11.55,0.0,0,0,0,26.125,11.3,0.0,0,0,0,27.25,11.350000000000001,0.0,0,0,0,0.0,11.600000000000001,0.0,0,0,0,0.0,4.0,0.0,0,0,0,kReverse,0.0,0.0,0.0,0.0,0.0,0.0,0.0,0.0,0.0,0.0,0.0,
154.66720999999998,true,true,true,0.36220473051071167,-1.0,0.0,-0.0078125,false,false,false,false,0.0,-0.0078125,0.0,-0.0078125,false,false,false,false,4.875,11.55,0.0,169,0,0,6.25,11.65,0.0,0,0,0,8.25,11.55,0.0,0,0,0,7.875,11.45,0.0,0,0,0,0.0,11.7,0.0,0,0,0,0.0,4.0,0.0,0,0,0,kReverse,0.0,0.0,0.0,0.0,0.0,0.0,0.0,0.0,0.0,0.0,0.0,
154.714771,true,true,true,0.36220473051071167,-1.0,0.0,-0.0078125,false,false,false,false,0.0,-0.0078125,0.0,-0.0078125,false,false,false,false,5.125,11.55,0.0,169,0,0,6.5,11.65,0.0,0,0,0,2.5,11.55,0.0,0,0,0,1.0,11.45,0.0,0,0,0,0.0,11.7,0.0,1,1,0,0.0,4.0,0.0,0,0,0,kReverse,0.0,0.0,0.0,0.0,0.0,0.0,0.0,0.0,0.0,0.0,0.0,
154.808066,true,true,true,0.36220473051071167,-1.0,0.10236220806837082,-0.0078125,false,false,false,false,0.0,-0.0078125,0.0,-0.0078125,false,false,false,false,7.875,11.850000000000001,0.0,169,0,0,10.25,11.95,0.0,0,0,0,5.625,12.0,0.0,0,0,0,5.25,12.0,0.0,0,0,0,0.0,12.1,0.0,0,-1,0,0.0,4.0,0.0,0,0,0,kReverse,0.0,0.0,0.0,0.0,0.0,0.0,0.0,0.0,0.0,0.0,0.0,
154.891305,true,true,true,0.36220473051071167,-1.0,0.27559053897857666,-0.0078125,false,false,false,false,0.0,-0.0078125,0.0,-0.0078125,false,false,false,false,7.625,11.850000000000001,0.0,169,0,0,10.375,11.95,0.0,0,0,0,4.625,12.0,0.0,0,0,0,4.0,12.0,0.0,0,0,0,0.0,12.1,0.0,0,0,0,0.0,4.0,0.0,0,0,0,kReverse,0.0,0.0,0.0,0.0,0.0,0.0,0.0,0.0,0.0,0.0,0.0,
154.97584,true,true,true,0.36220473051071167,-1.0,0.0,-0.0078125,false,false,false,false,0.0,-0.0078125,0.0,-0.0078125,false,false,false,false,13.875,11.7,0.0,169,0,0,17.0,11.8,0.0,0,0,0,0.0,11.9,0.0,0,0,0,0.0,11.9,0.0,0,0,0,0.0,12.05,0.0,0,0,0,0.0,4.0,0.0,0,0,0,kReverse,0.0,0.0,0.0,0.0,0.0,0.0,0.0,0.0,0.0,0.0,0.0,
155.058006,true,true,true,0.36220473051071167,-1.0,0.0,-0.0078125,false,false,false,false,0.0,-0.0078125,0.0,-0.0078125,false,false,false,false,7.125,11.7,0.0,169,0,0,9.25,11.8,0.0,0,0,0,13.0,11.9,0.0,0,0,0,13.375,11.9,0.0,0,0,0,0.0,12.05,0.0,0,0,0,0.0,4.0,0.0,0,0,0,kReverse,0.0,0.0,0.0,0.0,0.0,0.0,0.0,0.0,0.0,0.0,0.0,
155.14765899999998,true,true,true,0.29921260476112366,-1.0,0.0,-0.0078125,false,false,false,false,0.0,-0.0078125,0.0,-0.0078125,false,false,false,false,15.375,10.95,0.0,169,0,0,18.125,11.0,0.0,0,0,0,22.375,10.95,0.0,0,0,0,19.0,11.05,0.0,0,0,0,0.0,11.2,0.0,0,0,0,0.0,4.0,0.0,0,0,0,kReverse,0.0,0.0,0.0,0.0,0.0,0.0,0.0,0.0,0.0,0.0,0.0,
155.232459,true,true,true,0.29921260476112366,-1.0,0.0,-0.0078125,false,false,false,false,0.0,-0.0078125,0.0,-0.0078125,false,false,false,false,11.5,10.95,0.0,169,0,0,14.125,11.0,0.0,0,0,0,20.625,10.95,0.0,0,0,0,17.625,11.05,0.0,0,0,0,0.0,11.2,0.0,0,0,0,0.0,4.0,0.0,0,0,0,kReverse,0.0,0.0,0.0,0.0,0.0,0.0,0.0,0.0,0.0,0.0,0.0,
155.314646,true,true,true,0.29921260476112366,-1.0,0.0,-0.0078125,false,false,false,false,0.0,-0.0078125,0.0,-0.0078125,false,false,false,false,17.0,10.850000000000001,0.0,169,0,0,20.375,10.95,0.0,0,0,0,18.125,10.850000000000001,0.0,0,0,0,14.375,10.9,0.0,0,0,0,0.0,11.15,0.0,0,0,0,0.0,4.0,0.0,0,0,0,kReverse,0.0,0.0,0.0,0.0,0.0,0.0,0.0,0.0,0.0,0.0,0.0,
155.40115400000002,true,true,true,0.29921260476112366,-1.0,0.0,-0.0078125,false,false,false,false,0.0,-0.0078125,0.0,-0.0078125,false,false,false,false,24.5,10.850000000000001,0.0,169,0,0,29.875,10.95,0.0,0,0,0,27.375,10.850000000000001,0.0,0,0,0,25.75,10.9,0.0,0,0,0,0.0,11.15,0.0,0,0,0,0.0,4.0,0.0,0,0,0,kReverse,0.0,0.0,0.0,0.0,0.0,0.0,0.0,0.0,0.0,0.0,0.0,
155.49232899999998,true,true,true,0.29921260476112366,-1.0,-0.9140625,-0.0078125,false,false,false,false,0.0,-0.0078125,0.0,-0.0078125,false,false,false,false,24.5,10.3,0.0,169,0,0,28.875,10.65,0.0,0,0,0,25.625,10.5,0.0,0,0,0,23.25,10.45,0.0,0,0,0,0.0,10.7,0.0,0,0,0,0.0,4.0,0.0,0,0,0,kReverse,0.0,0.0,0.0,0.0,0.0,0.0,0.0,0.0,0.0,0.0,0.0,
155.572684,true,true,true,0.25196850299835205,-1.0,-1.0,-0.0078125,false,false,false,false,0.0,-0.0078125,0.0,-0.0078125,false,false,false,false,0.0,10.3,0.0,168,-1,0,0.375,10.65,0.0,0,0,0,66.5,10.5,0.0,0,0,0,57.125,10.45,0.0,0,0,0,0.0,10.05,0.0,0,0,0,0.0,4.0,0.0,0,0,0,kReverse,0.0,0.0,0.0,0.0,0.0,0.0,0.0,0.0,0.0,0.0,0.0,
155.726717,true,true,true,0.23622047901153564,-1.0,-1.0,-0.0078125,false,false,false,false,0.0,-0.0078125,0.0,-0.0078125,false,false,false,false,0.0,9.95,0.0,168,0,0,0.125,9.95,0.0,0,0,0,78.0,9.5,0.0,0,0,0,80.625,9.5,0.0,0,0,0,0.0,10.05,0.0,0,0,0,0.0,4.0,0.0,0,0,0,kReverse,0.0,0.0,0.0,0.0,0.0,0.0,0.0,0.0,0.0,0.0,0.0,
155.90254499999998,true,true,true,0.23622047901153564,-1.0,-1.0,-0.0078125,false,false,false,false,0.0,-0.0078125,0.0,-0.0078125,false,false,false,false,0.0,9.850000000000001,0.0,168,0,0,0.125,9.9,0.0,0,0,0,66.25,9.5,0.0,0,0,0,66.5,9.45,0.0,0,0,0,0.0,10.0,0.0,0,0,0,0.0,4.0,0.0,0,0,0,kReverse,0.0,0.0,0.0,0.0,0.0,0.0,0.0,0.0,0.0,0.0,0.0,
155.9844,true,true,true,0.08661417663097382,-0.8828125,-1.0,-0.0078125,false,false,false,false,0.0,-0.0078125,0.0,-0.0078125,false,false,false,false,0.0,9.9,0.0,168,0,0,0.125,9.9,0.0,0,0,0,64.25,9.5,0.0,0,0,0,64.25,9.45,0.0,0,0,0,0.0,10.0,0.0,0,0,0,0.0,4.0,0.0,0,0,0,kReverse,0.0,0.0,0.0,0.0,0.0,0.0,0.0,0.0,0.0,0.0,0.0,
156.13200899999998,true,true,true,0.0,0.6614173054695129,-0.0234375,-0.0078125,false,false,false,false,0.0,-0.0078125,0.0,-0.0078125,false,false,false,false,0.0,10.100000000000001,0.0,168,0,0,0.375,10.100000000000001,0.0,0,0,0,71.625,9.75,0.0,0,0,0,72.25,9.7,0.0,0,0,0,0.0,10.2,0.0,0,0,0,0.0,4.0,0.0,0,0,0,kReverse,0.0,0.0,0.0,0.0,0.0,0.0,0.0,0.0,0.0,0.0,0.0,
156.238148,true,true,true,0.0,1.0,0.0,-0.0078125,false,false,false,false,0.0,-0.0078125,0.0,-0.0078125,false,false,false,false,10.625,11.4,0.0,168,0,0,12.75,11.55,0.0,0,0,0,8.125,11.45,0.0,0,0,0,8.25,11.350000000000001,0.0,0,0,0,0.0,11.600000000000001,0.0,0,0,0,0.0,4.0,0.0,0,0,0,kReverse,0.0,0.0,0.0,0.0,0.0,0.0,0.0,0.0,0.0,0.0,0.0,
156.301628,true,true,true,0.0,0.787401556968689,0.0,-0.0078125,false,false,false,false,0.0,-0.0078125,0.0,-0.0078125,false,false,false,false,17.375,11.4,0.0,168,0,0,19.625,11.55,0.0,0,0,0,20.75,11.45,0.0,0,0,0,19.0,11.350000000000001,0.0,0,0,0,0.0,11.600000000000001,0.0,0,0,0,0.0,4.0,0.0,0,0,0,kReverse,0.0,0.0,0.0,0.0,0.0,0.0,0.0,0.0,0.0,0.0,0.0,
156.372138,true,true,true,0.6535432934761047,-0.78125,0.0,-0.0078125,false,false,false,false,0.0,-0.0078125,0.0,-0.0078125,false,false,false,false,9.625,11.4,0.0,168,0,0,12.25,11.55,0.0,0,0,0,11.5,11.45,0.0,0,0,0,9.25,11.350000000000001,0.0,0,0,0,0.0,11.8,0.0,0,0,0,0.0,4.0,0.0,0,0,0,kReverse,0.0,0.0,0.0,0.0,0.0,0.0,0.0,0.0,0.0,0.0,0.0,
156.503938,true,true,true,0.6614173054695129,-1.0,0.0,-0.0078125,false,false,false,false,0.0,-0.0078125,0.0,-0.0078125,false,false,false,false,7.75,11.7,0.0,167,-1,0,9.625,11.600000000000001,0.0,0,0,0,6.875,11.65,0.0,0,0,0,6.125,11.65,0.0,0,0,0,0.0,11.8,0.0,0,0,0,0.0,4.0,0.0,0,0,0,kReverse,0.0,0.0,0.0,0.0,0.0,0.0,0.0,0.0,0.0,0.0,0.0,
156.55552,true,true,true,0.6614173054695129,-1.0,0.0,-0.0078125,false,false,false,false,0.0,-0.0078125,0.0,-0.0078125,false,false,false,false,22.0,10.100000000000001,0.0,167,0,0,25.125,10.15,0.0,0,0,0,20.75,10.100000000000001,0.0,0,0,0,15.875,10.0,0.0,0,0,0,0.0,10.350000000000001,0.0,0,0,0,0.0,4.0,0.0,0,0,0,kReverse,0.0,0.0,0.0,0.0,0.0,0.0,0.0,0.0,0.0,0.0,0.0,
156.637475,true,true,true,0.6614173054695129,-1.0,-0.0859375,-0.0078125,false,false,false,false,0.0,-0.0078125,0.0,-0.0078125,false,false,false,false,24.0,10.100000000000001,0.0,169,2,0,28.125,10.15,0.0,0,0,0,23.625,10.100000000000001,0.0,0,0,0,19.5,10.0,0.0,0,0,0,0.0,10.350000000000001,0.0,0,0,0,0.0,4.0,0.0,0,0,0,kReverse,0.0,0.0,0.0,0.0,0.0,0.0,0.0,0.0,0.0,0.0,0.0,
156.791251,true,true,true,0.6614173054695129,-1.0,-0.2109375,-0.0078125,false,false,false,false,0.0,-0.0078125,0.0,-0.0078125,false,false,false,false,12.625,11.0,0.0,169,0,0,14.875,10.95,0.0,0,0,0,20.125,11.0,0.0,0,0,0,17.0,10.95,0.0,0,0,0,0.0,11.2,0.0,0,0,0,0.0,4.0,0.0,0,0,0,kReverse,0.0,0.0,0.0,0.0,0.0,0.0,0.0,0.0,0.0,0.0,0.0,
156.909536,true,true,true,0.6614173054695129,-1.0,0.0,-0.0078125,false,false,false,false,0.0,-0.0078125,0.0,-0.0078125,false,false,false,false,7.625,10.9,0.0,169,0,0,9.0,10.95,0.0,0,0,0,30.25,10.8,0.0,0,0,0,29.125,10.75,0.0,0,0,0,0.0,11.05,0.0,0,0,0,0.0,4.0,0.0,0,0,0,kReverse,0.0,0.0,0.0,0.0,0.0,0.0,0.0,0.0,0.0,0.0,0.0,
156.97232300000002,true,true,true,0.6614173054695129,-1.0,0.0,-0.0078125,false,false,false,false,0.0,-0.0078125,0.0,-0.0078125,false,false,false,false,16.0,10.9,0.0,169,0,0,17.25,10.95,0.0,0,0,0,26.625,10.8,0.0,0,0,0,26.875,10.75,0.0,0,0,0,0.0,11.05,0.0,0,0,0,0.0,4.0,0.0,0,0,0,kReverse,0.0,0.0,0.0,0.0,0.0,0.0,0.0,0.0,0.0,0.0,0.0,
157.05032500000002,true,true,true,0.6614173054695129,-1.0,0.0,-0.0078125,false,false,false,false,0.0,-0.0078125,0.0,-0.0078125,false,false,false,false,18.25,10.600000000000001,0.0,169,0,0,20.75,10.600000000000001,0.0,0,0,0,27.375,10.600000000000001,0.0,0,0,0,25.0,10.5,0.0,0,0,0,0.0,10.8,0.0,0,0,0,0.0,4.0,0.0,0,0,0,kReverse,0.0,0.0,0.0,0.0,0.0,0.0,0.0,0.0,0.0,0.0,0.0,
157.156183,true,true,true,0.6614173054695129,-1.0,0.0,-0.0078125,false,false,false,false,0.0,-0.0078125,0.0,-0.0078125,false,false,false,false,18.5,10.600000000000001,0.0,169,0,0,20.75,10.600000000000001,0.0,0,0,0,29.0,10.600000000000001,0.0,0,0,0,27.0,10.5,0.0,0,0,0,0.0,10.8,0.0,0,0,0,0.0,4.0,0.0,0,0,0,kReverse,0.0,0.0,0.0,0.0,0.0,0.0,0.0,0.0,0.0,0.0,0.0,
157.22012099999998,true,true,true,0.6456692814826965,-1.0,0.0,-0.0078125,false,false,false,false,0.0,-0.0078125,0.0,-0.0078125,false,false,false,false,22.25,10.5,0.0,169,0,0,24.5,10.5,0.0,0,0,0,27.875,10.5,0.0,0,0,0,25.875,10.5,0.0,0,0,0,0.0,10.7,0.0,0,0,0,0.0,4.0,0.0,0,0,0,kReverse,0.0,0.0,0.0,0.0,0.0,0.0,0.0,0.0,0.0,0.0,0.0,
157.27153099999998,true,true,true,0.6299212574958801,-1.0,0.0,-0.0078125,false,false,false,false,0.0,-0.0078125,0.0,-0.0078125,false,false,false,false,28.125,10.5,0.0,169,0,0,30.625,10.5,0.0,0,0,0,28.75,10.5,0.0,0,0,0,27.125,10.5,0.0,0,0,0,0.0,10.7,0.0,0,0,0,0.0,4.0,0.0,0,0,0,kReverse,0.0,0.0,0.0,0.0,0.0,0.0,0.0,0.0,0.0,0.0,0.0,
157.38572399999998,true,true,true,0.0,0.9842519760131836,0.0,-0.0078125,false,false,false,false,0.0,-0.0078125,0.0,-0.0078125,false,false,false,false,43.125,9.600000000000001,0.0,169,0,0,44.25,9.7,0.0,0,0,0,30.25,9.7,0.0,0,0,0,27.375,9.65,0.0,0,0,0,0.0,9.95,0.0,0,0,0,0.0,4.0,0.0,0,0,0,kReverse,0.0,0.0,0.0,0.0,0.0,0.0,0.0,0.0,0.0,0.0,0.0,
157.492005,true,true,true,0.0,1.0,0.0,-0.0078125,false,false,false,false,0.0,-0.0078125,0.0,-0.0078125,false,false,false,false,15.375,9.600000000000001,0.0,168,-1,0,18.125,9.7,0.0,0,0,0,17.5,9.7,0.0,0,0,0,16.375,11.05,0.0,0,0,0,0.0,11.2,0.0,0,0,0,0.0,4.0,0.0,0,0,0,kReverse,0.0,0.0,0.0,0.0,0.0,0.0,0.0,0.0,0.0,0.0,0.0,
157.619373,true,true,true,0.0,1.0,-1.0,-0.0078125,false,false,false,false,0.0,-0.0078125,0.0,-0.0078125,false,false,false,false,13.25,10.850000000000001,0.0,168,0,0,16.5,11.100000000000001,0.0,0,0,0,17.125,11.05,0.0,0,0,0,14.125,11.05,0.0,0,0,0,0.0,11.2,0.0,0,0,0,0.0,4.0,0.0,0,0,0,kReverse,0.0,0.0,0.0,0.0,0.0,0.0,0.0,0.0,0.0,0.0,0.0,
157.722796,true,true,true,0.0,1.0,-1.0,-0.0078125,false,false,false,false,0.0,-0.0078125,0.0,-0.0078125,false,false,false,false,36.375,10.3,0.0,168,0,0,43.125,10.4,0.0,0,0,0,0.0,10.7,0.0,0,0,0,0.0,10.7,0.0,0,0,0,0.0,10.8,0.0,0,0,0,0.0,4.0,0.0,0,0,0,kReverse,0.0,0.0,0.0,0.0,0.0,0.0,0.0,0.0,0.0,0.0,0.0,
157.772141,true,true,true,0.0,1.0,-1.0,-0.0078125,false,false,false,false,0.0,-0.0078125,0.0,-0.0078125,false,false,false,false,30.375,10.3,0.0,167,-1,0,37.0,10.4,0.0,0,0,0,0.0,10.7,0.0,0,0,0,0.0,10.7,0.0,0,0,0,0.0,10.8,0.0,0,0,0,0.0,4.0,0.0,0,0,0,kReverse,0.0,0.0,0.0,0.0,0.0,0.0,0.0,0.0,0.0,0.0,0.0,
157.85921299999998,true,true,true,0.0,1.0,-0.9296875,-0.0078125,false,false,false,false,0.0,-0.0078125,0.0,-0.0078125,false,false,false,false,28.125,10.850000000000001,0.0,166,-2,0,34.125,10.95,0.0,0,0,0,0.0,11.15,0.0,0,0,0,0.0,11.15,0.0,0,0,0,0.0,11.25,0.0,0,0,0,0.0,4.0,0.0,0,0,0,kReverse,0.0,0.0,0.0,0.0,0.0,0.0,0.0,0.0,0.0,0.0,0.0,
157.97767100000002,true,true,true,0.0,1.0,0.0,-0.0078125,false,false,false,false,0.0,-0.0078125,0.0,-0.0078125,false,false,false,false,22.25,10.850000000000001,0.0,165,-1,0,28.125,10.95,0.0,0,0,0,0.0,11.15,0.0,0,0,0,0.0,11.600000000000001,0.0,0,0,0,0.0,11.7,0.0,0,0,0,0.0,4.0,0.0,0,0,0,kReverse,0.0,0.0,0.0,0.0,0.0,0.0,0.0,0.0,0.0,0.0,0.0,
