timer,lineLeft,lineCenter,lineRight,driverLeftX,driverLeftY,driverRightX,driverRightY,driverA,driverB,driverX,driverY,operatorLeftX,operatorLeftY,operatorRightX,operatorRightY,operatorA,operatorB,operatorX,operatorY,LeftFrontCurrent,LeftFrontVoltage,LeftFrontValue,LeftFrontPosition,LeftFrontVelocity,LeftFrontFaults,LeftRearCurrent,LeftRearVoltage,LeftRearValue,LeftRearPosition,LeftRearVelocity,LeftRearFaults,RightFrontCurrent,RightFrontVoltage,RightFrontValue,RightFrontPosition,RightFrontVelocity,RightFrontFaults,RightRearCurrent,RightRearVoltage,RightRearValue,RightRearPosition,RightRearVelocity,RightRearFaults,LiftCurrent,LiftVoltage,LiftValue,LiftPosition,LiftVelocity,LiftFaults,RollerCurrent,RollerVoltage,RollerValue,RollerPosition,RollerVelocity,RollerFaults,PushersState,navx_Pitch,navx_Roll,navx_Yaw,navx_XAcc,navx_YAcc,navx_ZAcc,navx_Temp,navx_Bar,navx_Alt,navx_XDis,navx_YDis,
180.985184,true,true,true,0.0,-0.0078125,0.031496062874794006,-0.0078125,false,false,false,false,0.0,-0.0078125,0.0,-0.0078125,false,false,false,false,0.0,12.85,0.0,0,0,0,0.0,12.85,0.0,0,0,0,0.0,12.85,0.0,0,0,0,0.0,12.8,0.0,0,0,0,0.0,12.9,0.0,4,0,0,0.0,4.0,0.0,0,0,0,kReverse,0.0,0.0,0.0,0.0,0.0,0.0,0.0,0.0,0.0,0.0,0.0,
181.14079800000002,true,true,true,0.0,-0.0078125,0.031496062874794006,-0.0078125,false,false,false,false,0.0,-0.0078125,0.0,-0.0078125,false,false,false,false,0.0,12.85,0.0,0,0,0,0.125,12.85,0.0,0,0,0,0.0,12.85,0.0,0,0,0,0.0,12.8,0.0,0,0,0,0.0,12.9,0.0,4,0,0,0.0,4.0,0.0,0,0,0,kReverse,0.0,0.0,0.0,0.0,0.0,0.0,0.0,0.0,0.0,0.0,0.0,
181.32971300000003,true,true,true,0.0,-0.0078125,0.031496062874794006,-0.0078125,false,false,false,false,0.0,0.8110235929489136,0.0,-0.0078125,false,false,false,false,0.0,12.85,0.0,0,0,0,0.0,12.85,0.0,0,0,0,0.0,12.85,0.0,0,0,0,0.0,12.85,0.0,0,0,0,0.0,12.9,0.0,4,0,0,0.0,4.0,0.0,0,0,0,kReverse,0.0,0.0,0.0,0.0,0.0,0.0,0.0,0.0,0.0,0.0,0.0,
181.439788,true,true,true,0.0,-0.0078125,0.031496062874794006,-0.0078125,false,false,false,false,0.0,1.0,0.0,-0.0078125,false,false,false,false,0.0,12.85,0.0,0,0,0,0.0,12.85,0.0,0,0,0,0.0,12.85,0.0,0,0,0,0.0,12.85,0.0,0,0,0,0.0,12.9,0.0,4,0,0,0.0,4.0,0.0,0,0,0,kReverse,0.0,0.0,0.0,0.0,0.0,0.0,0.0,0.0,0.0,0.0,0.0,
181.490665,true,true,true,0.0,-0.0078125,0.031496062874794006,-0.0078125,false,false,false,false,0.0,1.0,0.0,-0.0078125,false,false,false,false,0.0,12.85,0.0,0,0,0,0.0,12.85,0.0,0,0,0,0.0,12.85,0.0,0,0,0,0.0,12.85,0.0,0,0,0,0.0,12.9,0.0,4,0,0,0.0,4.0,0.0,0,0,0,kReverse,0.0,0.0,0.0,0.0,0.0,0.0,0.0,0.0,0.0,0.0,0.0,
181.63132000000002,true,true,true,0.0,-0.0078125,0.031496062874794006,-0.0078125,false,false,false,false,0.30708661675453186,1.0,0.0,-0.0078125,false,false,false,false,0.0,12.85,0.0,0,0,0,0.0,12.85,0.0,0,0,0,0.0,12.85,0.0,0,0,0,0.0,12.85,0.0,0,0,0,0.0,12.9,0.0,4,0,0,0.0,4.0,0.0,0,0,0,kReverse,0.0,0.0,0.0,0.0,0.0,0.0,0.0,0.0,0.0,0.0,0.0,
181.886215,true,true,true,0.0,-0.0078125,0.031496062874794006,-0.0078125,false,false,false,false,0.6141732335090637,-0.984375,0.0,-0.0078125,false,false,false,false,0.0,12.85,0.0,0,0,0,0.0,12.85,0.0,0,0,0,0.0,12.85,0.0,0,0,0,0.0,12.85,0.0,0,0,0,0.0,12.9,0.0,4,0,0,0.0,4.0,0.0,0,0,0,kReverse,0.0,0.0,0.0,0.0,0.0,0.0,0.0,0.0,0.0,0.0,0.0,
182.07600900000003,true,true,true,0.0,-0.0078125,0.031496062874794006,-0.0078125,false,false,false,false,0.0,1.0,0.0,-0.0078125,false,false,false,false,0.0,12.85,0.0,0,0,0,0.125,12.85,0.0,0,0,0,0.0,12.85,0.0,0,0,0,0.0,12.85,0.0,0,0,0,0.0,12.9,0.0,4,0,0,0.0,4.0,0.0,0,0,0,kReverse,0.0,0.0,0.0,0.0,0.0,0.0,0.0,0.0,0.0,0.0,0.0,
182.22853800000001,true,true,true,0.0,-0.0078125,0.031496062874794006,-0.0078125,false,false,false,false,0.0,1.0,0.0,-0.0078125,false,false,false,false,0.0,12.85,0.0,0,0,0,0.0,12.9,0.0,0,0,0,0.0,12.85,0.0,0,0,0,0.0,12.85,0.0,0,0,0,0.0,12.9,0.0,4,0,0,0.0,4.0,0.0,0,0,0,kReverse,0.0,0.0,0.0,0.0,0.0,0.0,0.0,0.0,0.0,0.0,0.0,
182.467791,true,true,true,0.0,-0.0078125,0.031496062874794006,-0.0078125,false,false,false,false,0.6614173054695129,-0.3203125,0.0,-0.0078125,false,false,false,false,0.0,12.85,0.0,0,0,0,0.0,12.9,0.0,0,0,0,0.0,12.85,0.0,0,0,0,0.0,12.85,0.0,0,0,0,0.0,12.9,0.0,4,0,0,0.0,4.0,0.0,0,0,0,kReverse,0.0,0.0,0.0,0.0,0.0,0.0,0.0,0.0,0.0,0.0,0.0,
182.62219100000002,true,true,true,0.0,-0.0078125,0.031496062874794006,-0.0078125,false,false,false,false,0.0,1.0,0.0,-0.0078125,false,false,false,false,0.0,12.85,0.0,0,0,0,0.125,12.9,0.0,0,0,0,0.0,12.85,0.0,0,0,0,0.0,12.85,0.0,0,0,0,0.0,12.9,0.0,4,0,0,0.0,4.0,0.0,0,0,0,kReverse,0.0,0.0,0.0,0.0,0.0,0.0,0.0,0.0,0.0,0.0,0.0,
182.692144,true,true,true,0.0,-0.0078125,0.031496062874794006,-0.0078125,false,false,false,false,0.0,1.0,0.0,-0.0078125,false,false,false,false,0.0,12.85,0.0,0,0,0,0.0,12.9,0.0,0,0,0,0.0,12.85,0.0,0,0,0,0.0,12.85,0.0,0,0,0,0.0,12.9,0.0,4,0,0,0.0,4.0,0.0,0,0,0,kReverse,0.0,0.0,0.0,0.0,0.0,0.0,0.0,0.0,0.0,0.0,0.0,
182.843072,true,true,true,0.0,-0.0078125,0.031496062874794006,-0.0078125,false,false,false,false,0.06299212574958801,1.0,0.0,-0.0078125,false,false,false,false,0.0,12.85,0.0,0,0,0,0.125,12.85,0.0,0,0,0,0.0,12.85,0.0,0,0,0,0.0,12.85,0.0,0,0,0,0.0,12.9,0.0,4,0,0,0.0,4.0,0.0,0,0,0,kReverse,0.0,0.0,0.0,0.0,0.0,0.0,0.0,0.0,0.0,0.0,0.0,
182.957298,true,true,true,0.0,-0.0078125,0.031496062874794006,-0.0078125,false,false,false,false,0.8503937125205994,-0.796875,0.0,-0.0078125,false,false,false,false,0.0,12.85,0.0,0,0,0,0.0,12.9,0.0,0,0,0,0.0,12.85,0.0,0,0,0,0.0,12.85,0.0,0,0,0,0.0,12.9,0.0,4,0,0,0.0,4.0,0.0,0,0,0,kReverse,0.0,0.0,0.0,0.0,0.0,0.0,0.0,0.0,0.0,0.0,0.0,
183.09593300000003,true,true,true,0.0,-0.0078125,0.031496062874794006,-0.0078125,false,false,false,false,0.6299212574958801,-1.0,0.0,-0.0078125,false,false,false,false,0.0,12.85,0.0,0,0,0,0.0,12.9,0.0,0,0,0,0.0,12.85,0.0,0,0,0,0.0,12.85,0.0,0,0,0,0.0,12.9,0.0,4,0,0,0.0,4.0,0.0,0,0,0,kReverse,0.0,0.0,0.0,0.0,0.0,0.0,0.0,0.0,0.0,0.0,0.0,
183.27045,true,true,true,0.0,-0.0078125,0.031496062874794006,-0.0078125,false,false,false,false,0.0,1.0,0.0,-0.0078125,false,false,false,false,0.0,12.85,0.0,0,0,0,0.0,12.9,0.0,0,0,0,0.0,12.85,0.0,0,0,0,0.0,12.85,0.0,0,0,0,0.0,12.9,0.0,4,0,0,0.0,4.0,0.0,0,0,0,kReverse,0.0,0.0,0.0,0.0,0.0,0.0,0.0,0.0,0.0,0.0,0.0,
183.410637,true,true,true,0.0,-0.0078125,0.031496062874794006,-0.0078125,false,false,false,false,0.0,1.0,0.0,-0.0078125,false,false,false,false,0.0,12.85,0.0,0,0,0,0.125,12.9,0.0,0,0,0,0.0,12.85,0.0,0,0,0,0.0,12.85,0.0,0,0,0,0.0,12.9,0.0,4,0,0,0.0,4.0,0.0,0,0,0,kReverse,0.0,0.0,0.0,0.0,0.0,0.0,0.0,0.0,0.0,0.0,0.0,
183.63031,true,true,true,0.0,-0.0078125,0.031496062874794006,-0.0078125,false,false,false,false,-0.25,-0.28125,0.0,-0.0078125,false,false,false,false,0.0,12.85,0.0,0,0,0,0.125,12.85,0.0,0,0,0,0.0,12.85,0.0,0,0,0,0.0,12.85,0.0,0,0,0,0.0,12.9,0.0,4,0,0,0.0,4.0,0.0,0,0,0,kReverse,0.0,0.0,0.0,0.0,0.0,0.0,0.0,0.0,0.0,0.0,0.0,
183.74875,true,true,true,0.0,-0.0078125,0.031496062874794006,-0.0078125,false,false,false,false,0.0,-1.0,0.0,-0.0078125,false,false,false,false,0.0,12.85,0.0,0,0,0,0.0,12.9,0.0,0,0,0,0.0,12.85,0.0,0,0,0,0.0,12.85,0.0,0,0,0,0.0,12.9,0.0,4,0,0,0.0,4.0,0.0,0,0,0,kReverse,0.0,0.0,0.0,0.0,0.0,0.0,0.0,0.0,0.0,0.0,0.0,
183.849842,true,true,true,0.0,-0.0078125,0.031496062874794006,-0.0078125,false,false,false,false,-0.1953125,-0.28125,0.0,-0.0078125,false,false,false,false,0.0,12.85,0.0,0,0,0,0.125,12.9,0.0,0,0,0,0.0,12.85,0.0,0,0,0,0.0,12.85,0.0,0,0,0,0.0,12.9,0.0,4,0,0,0.0,4.0,0.0,0,0,0,kReverse,0.0,0.0,0.0,0.0,0.0,0.0,0.0,0.0,0.0,0.0,0.0,
183.969107,true,true,true,0.0,-0.0078125,0.031496062874794006,-0.0078125,false,false,false,false,0.007874015718698502,0.3779527544975281,0.0,-0.0078125,false,false,false,false,0.0,12.85,0.0,0,0,0,0.125,12.9,0.0,0,0,0,0.0,12.85,0.0,0,0,0,0.0,12.85,0.0,0,0,0,0.0,12.9,0.0,4,0,0,0.0,4.0,0.0,0,0,0,kReverse,0.0,0.0,0.0,0.0,0.0,0.0,0.0,0.0,0.0,0.0,0.0,
184.157417,true,true,true,0.0,-0.0078125,0.031496062874794006,-0.0078125,false,false,false,false,0.007874015718698502,1.0,0.0,-0.0078125,false,false,false,false,0.0,12.85,0.0,0,0,0,0.125,12.9,0.0,0,0,0,0.0,12.85,0.0,0,0,0,0.0,12.85,0.0,0,0,0,0.0,12.9,0.0,4,0,0,0.0,4.0,0.0,0,0,0,kReverse,0.0,0.0,0.0,0.0,0.0,0.0,0.0,0.0,0.0,0.0,0.0,
184.328097,true,true,true,0.0,-0.0078125,0.031496062874794006,-0.0078125,false,false,false,false,0.007874015718698502,1.0,0.0,-0.0078125,false,false,false,false,0.0,12.85,0.0,0,0,0,0.0,12.9,0.0,0,0,0,0.0,12.85,0.0,0,0,0,0.0,12.85,0.0,0,0,0,0.0,12.9,0.0,4,0,0,0.0,4.0,0.0,0,0,0,kReverse,0.0,0.0,0.0,0.0,0.0,0.0,0.0,0.0,0.0,0.0,0.0,
184.528251,true,true,true,0.0,-0.0078125,0.031496062874794006,-0.0078125,false,false,false,false,0.007874015718698502,-0.0078125,0.0,-0.0078125,false,false,false,false,0.0,12.85,0.0,0,0,0,0.125,12.9,0.0,0,0,0,0.0,12.85,0.0,0,0,0,0.0,12.85,0.0,0,0,0,0.0,12.9,0.0,4,0,0,0.0,4.0,0.0,0,0,0,kReverse,0.0,0.0,0.0,0.0,0.0,0.0,0.0,0.0,0.0,0.0,0.0,
184.683888,true,true,true,0.0,-0.0078125,0.031496062874794006,-0.0078125,false,false,false,false,0.007874015718698502,1.0,0.0,-0.0078125,false,false,false,false,0.0,12.85,0.0,0,0,0,0.125,12.9,0.0,0,0,0,0.0,12.85,0.0,0,0,0,0.0,12.85,0.0,0,0,0,0.0,12.9,0.0,4,0,0,0.0,4.0,0.0,0,0,0,kReverse,0.0,0.0,0.0,0.0,0.0,0.0,0.0,0.0,0.0,0.0,0.0,
184.867125,true,true,true,0.0,-0.0078125,0.031496062874794006,-0.0078125,false,false,false,false,0.007874015718698502,0.07874015718698502,0.0,-0.0078125,false,false,false,false,0.0,12.85,0.0,0,0,0,0.0,12.9,0.0,0,0,0,0.0,12.85,0.0,0,0,0,0.0,12.85,0.0,0,0,0,0.0,12.9,0.0,4,0,0,0.0,4.0,0.0,0,0,0,kReverse,0.0,0.0,0.0,0.0,0.0,0.0,0.0,0.0,0.0,0.0,0.0,
185.030424,true,true,true,0.0,-0.0078125,0.031496062874794006,-0.0078125,false,false,false,false,-0.8515625,1.0,0.0,-0.0078125,false,false,false,false,0.0,12.85,0.0,0,0,0,0.125,12.9,0.0,0,0,0,0.0,12.85,0.0,0,0,0,0.0,12.85,0.0,0,0,0,0.0,12.9,0.0,4,0,0,0.0,4.0,0.0,0,0,0,kReverse,0.0,0.0,0.0,0.0,0.0,0.0,0.0,0.0,0.0,0.0,0.0,
185.236185,true,true,true,0.0,-0.0078125,0.031496062874794006,-0.0078125,false,false,false,false,0.04724409431219101,0.748031497001648,0.0,-0.0078125,false,false,false,false,0.0,12.85,0.0,0,0,0,0.0,12.9,0.0,0,0,0,0.0,12.85,0.0,0,0,0,0.0,12.85,0.0,0,0,0,0.0,12.9,0.0,4,0,0,0.0,4.0,0.0,0,0,0,kReverse,0.0,0.0,0.0,0.0,0.0,0.0,0.0,0.0,0.0,0.0,0.0,
185.455454,true,true,true,0.0,-0.0078125,0.031496062874794006,-0.0078125,false,false,false,false,-0.6953125,1.0,0.0,-0.0078125,false,false,false,false,0.0,12.85,0.0,0,0,0,0.0,12.9,0.0,0,0,0,0.0,12.85,0.0,0,0,0,0.0,12.85,0.0,0,0,0,0.0,12.9,0.0,4,0,0,0.0,4.0,0.0,0,0,0,kReverse,0.0,0.0,0.0,0.0,0.0,0.0,0.0,0.0,0.0,0.0,0.0,
185.605477,true,true,true,0.0,-0.0078125,0.031496062874794006,-0.0078125,false,false,false,false,-0.296875,0.8503937125205994,0.0,-0.0078125,false,false,false,false,0.0,12.85,0.0,0,0,0,0.0,12.9,0.0,0,0,0,0.0,12.85,0.0,0,0,0,0.0,12.85,0.0,0,0,0,0.0,12.9,0.0,4,0,0,0.0,4.0,0.0,0,0,0,kReverse,0.0,0.0,0.0,0.0,0.0,0.0,0.0,0.0,0.0,0.0,0.0,
185.693609,true,true,true,0.0,-0.0078125,0.031496062874794006,-0.0078125,false,false,false,false,-0.953125,1.0,0.0,-0.0078125,false,false,false,false,0.0,12.85,0.0,0,0,0,0.0,12.9,0.0,0,0,0,0.0,12.85,0.0,0,0,0,0.0,12.85,0.0,0,0,0,0.0,12.9,0.0,4,0,0,0.0,4.0,0.0,0,0,0,kReverse,0.0,0.0,0.0,0.0,0.0,0.0,0.0,0.0,0.0,0.0,0.0,
185.750255,true,true,true,0.0,-0.0078125,0.031496062874794006,-0.0078125,false,false,false,false,-0.2265625,0.9291338324546814,0.0,-0.0078125,false,false,false,false,0.0,12.85,0.0,0,0,0,0.125,12.9,0.0,0,0,0,0.0,12.85,0.0,0,0,0,0.0,12.85,0.0,0,0,0,0.0,12.9,0.0,4,0,0,0.0,4.0,0.0,0,0,0,kReverse,0.0,0.0,0.0,0.0,0.0,0.0,0.0,0.0,0.0,0.0,0.0,
185.906575,true,true,true,0.0,-0.0078125,0.031496062874794006,-0.0078125,false,false,false,false,0.04724409431219101,0.8582677245140076,0.0,-0.0078125,false,false,false,false,0.0,12.85,0.0,0,0,0,0.125,12.9,0.0,0,0,0,0.0,12.85,0.0,0,0,0,0.0,12.85,0.0,0,0,0,0.0,12.9,0.0,4,0,0,0.0,4.0,0.0,0,0,0,kReverse,0.0,0.0,0.0,0.0,0.0,0.0,0.0,0.0,0.0,0.0,0.0,
186.008274,true,true,true,0.0,-0.0078125,0.031496062874794006,-0.0078125,false,false,false,false,0.04724409431219101,0.5354330539703369,0.0,-0.0078125,false,false,false,false,0.0,12.85,0.0,0,0,0,0.125,12.9,0.0,0,0,0,0.0,12.85,0.0,0,0,0,0.0,12.85,0.0,0,0,0,0.0,12.9,0.0,4,0,0,0.0,4.0,0.0,0,0,0,kReverse,0.0,0.0,0.0,0.0,0.0,0.0,0.0,0.0,0.0,0.0,0.0,
186.083636,true,true,true,0.0,-0.0078125,0.031496062874794006,-0.0078125,false,false,false,false,0.4251968562602997,-0.0234375,0.0,-0.0078125,false,false,false,false,0.0,12.85,0.0,0,0,0,0.0,12.9,0.0,0,0,0,0.0,12.85,0.0,0,0,0,0.0,12.85,0.0,0,0,0,0.0,12.9,0.0,4,0,0,0.0,4.0,0.0,0,0,0,kReverse,0.0,0.0,0.0,0.0,0.0,0.0,0.0,0.0,0.0,0.0,0.0,
186.143031,true,true,true,0.0,-0.0078125,0.031496062874794006,-0.0078125,false,false,false,false,-0.4375,1.0,0.0,-0.0078125,false,false,false,false,0.0,12.85,0.0,0,0,0,0.0,12.9,0.0,0,0,0,0.0,12.85,0.0,0,0,0,0.0,12.85,0.0,0,0,0,0.0,12.9,0.0,4,0,0,0.0,4.0,0.0,0,0,0,kReverse,0.0,0.0,0.0,0.0,0.0,0.0,0.0,0.0,0.0,0.0,0.0,
186.205788,true,true,true,0.0,-0.0078125,0.031496062874794006,-0.0078125,false,false,false,false,-0.7734375,1.0,0.0,-0.0078125,false,false,false,false,0.0,12.85,0.0,0,0,0,0.0,12.9,0.0,0,0,0,0.0,12.85,0.0,0,0,0,0.0,12.85,0.0,0,0,0,0.0,12.950000000000001,0.0,4,0,0,0.0,4.0,0.0,0,0,0,kReverse,0.0,0.0,0.0,0.0,0.0,0.0,0.0,0.0,0.0,0.0,0.0,
186.264155,true,true,true,0.0,-0.0078125,0.031496062874794006,-0.0078125,false,false,false,false,0.0,0.3385826647281647,0.0,-0.0078125,false,false,false,false,0.0,12.85,0.0,0,0,0,0.0,12.9,0.0,0,0,0,0.0,12.85,0.0,0,0,0,0.0,12.85,0.0,0,0,0,0.0,12.950000000000001,0.0,4,0,0,0.0,4.0,0.0,0,0,0,kReverse,0.0,0.0,0.0,0.0,0.0,0.0,0.0,0.0,0.0,0.0,0.0,
186.325247,true,true,true,0.0,-0.0078125,0.031496062874794006,-0.0078125,false,false,false,false,-0.2421875,0.20472441613674164,0.0,-0.0078125,false,false,false,false,0.0,12.85,0.0,0,0,0,0.125,12.9,0.0,0,0,0,0.0,12.85,0.0,0,0,0,0.0,12.85,0.0,0,0,0,0.0,12.9,0.0,4,0,0,0.0,4.0,0.0,0,0,0,kReverse,0.0,0.0,0.0,0.0,0.0,0.0,0.0,0.0,0.0,0.0,0.0,
186.384822,true,true,true,0.0,-0.0078125,0.031496062874794006,-0.0078125,false,false,false,false,-1.0,1.0,0.0,-0.0078125,false,false,false,false,0.0,12.85,0.0,0,0,0,0.0,12.9,0.0,0,0,0,0.0,12.85,0.0,0,0,0,0.0,12.85,0.0,0,0,0,0.0,12.9,0.0,4,0,0,0.0,4.0,0.0,0,0,0,kReverse,0.0,0.0,0.0,0.0,0.0,0.0,0.0,0.0,0.0,0.0,0.0,
186.45430199999998,true,true,true,0.0,-0.0078125,0.031496062874794006,-0.0078125,false,false,false,false,-1.0,1.0,0.0,-0.0078125,false,false,false,false,0.0,12.85,0.0,0,0,0,0.125,12.9,0.0,0,0,0,0.0,12.85,0.0,0,0,0,0.0,12.85,0.0,0,0,0,0.0,12.950000000000001,0.0,4,0,0,0.0,4.0,0.0,0,0,0,kReverse,0.0,0.0,0.0,0.0,0.0,0.0,0.0,0.0,0.0,0.0,0.0,
186.594198,true,true,true,0.0,-0.0078125,0.031496062874794006,-0.0078125,false,false,false,false,-0.484375,0.4015747904777527,0.0,-0.0078125,false,false,false,false,0.0,12.85,0.0,0,0,0,0.125,12.9,0.0,0,0,0,0.0,12.85,0.0,0,0,0,0.0,12.85,0.0,0,0,0,0.0,12.950000000000001,0.0,4,0,0,0.0,4.0,0.0,0,0,0,kReverse,0.0,0.0,0.0,0.0,0.0,0.0,0.0,0.0,0.0,0.0,0.0,
186.648649,true,true,true,0.0,-0.0078125,0.031496062874794006,-0.0078125,false,false,false,false,-1.0,1.0,0.0,-0.0078125,false,false,false,false,0.0,12.85,0.0,0,0,0,0.125,12.9,0.0,0,0,0,0.0,12.85,0.0,0,0,0,0.0,12.85,0.0,0,0,0,0.0,12.9,0.0,4,0,0,0.0,4.0,0.0,0,0,0,kReverse,0.0,0.0,0.0,0.0,0.0,0.0,0.0,0.0,0.0,0.0,0.0,
186.740187,true,true,true,0.0,-0.0078125,0.031496062874794006,-0.0078125,false,false,false,false,0.29921260476112366,0.7559055089950562,0.0,-0.0078125,false,false,false,false,0.0,12.85,0.0,0,0,0,0.125,12.9,0.0,0,0,0,0.0,12.85,0.0,0,0,0,0.0,12.85,0.0,0,0,0,0.0,12.9,0.0,4,0,0,0.0,4.0,0.0,0,0,0,kReverse,0.0,0.0,0.0,0.0,0.0,0.0,0.0,0.0,0.0,0.0,0.0,
186.96296300000003,true,true,true,0.0,-0.0078125,0.031496062874794006,-0.0078125,false,false,false,false,0.0,0.8031495809555054,0.0,-0.0078125,false,false,false,false,0.0,12.85,0.0,0,0,0,0.0,12.9,0.0,0,0,0,0.0,12.85,0.0,0,0,0,0.0,12.85,0.0,0,0,0,0.0,12.9,0.0,4,0,0,0.0,4.0,0.0,0,0,0,kReverse,0.0,0.0,0.0,0.0,0.0,0.0,0.0,0.0,0.0,0.0,0.0,
187.13391400000003,true,true,true,0.0,-0.0078125,0.031496062874794006,-0.0078125,false,false,false,false,-0.671875,1.0,0.0,-0.0078125,false,false,false,false,0.0,12.85,0.0,0,0,0,0.0,12.9,0.0,0,0,0,0.0,12.85,0.0,0,0,0,0.0,12.85,0.0,0,0,0,0.0,12.9,0.0,4,0,0,0.0,4.0,0.0,0,0,0,kReverse,0.0,0.0,0.0,0.0,0.0,0.0,0.0,0.0,0.0,0.0,0.0,
187.18892000000002,true,true,true,0.0,0.6456692814826965,0.031496062874794006,-0.0078125,false,false,false,false,-0.65625,1.0,0.0,-0.0078125,false,false,false,false,0.0,12.85,0.0,0,0,0,0.0,12.9,0.0,0,0,0,0.0,12.85,0.0,0,0,0,0.0,12.85,0.0,0,0,0,0.0,12.9,0.0,4,0,0,0.0,4.0,0.0,0,0,0,kReverse,0.0,0.0,0.0,0.0,0.0,0.0,0.0,0.0,0.0,0.0,0.0,
187.26113400000003,true,true,true,0.0,1.0,0.031496062874794006,-0.0078125,false,false,false,false,0.0,0.787401556968689,0.0,-0.0078125,false,false,false,false,6.375,12.85,0.0,0,0,0,12.0,12.9,0.0,0,0,0,13.75,11.15,0.0,0,0,0,7.75,11.2,0.0,0,0,0,0.0,11.4,0.0,4,0,0,0.0,4.0,0.0,0,0,0,kReverse,0.0,0.0,0.0,0.0,0.0,0.0,0.0,0.0,0.0,0.0,0.0,
187.384789,true,true,true,0.0,-0.0078125,0.031496062874794006,-0.0078125,false,false,false,false,-0.8359375,1.0,0.0,-0.0078125,false,false,false,false,15.25,10.850000000000001,0.0,0,0,0,17.25,11.2,0.0,0,0,0,15.5,11.15,0.0,0,0,0,16.0,11.2,0.0,0,0,0,0.0,11.4,0.0,4,0,0,0.0,4.0,0.0,0,0,0,kReverse,0.0,0.0,0.0,0.0,0.0,0.0,0.0,0.0,0.0,0.0,0.0,
187.447734,true,true,true,0.0,-0.0078125,0.031496062874794006,-0.0078125,false,false,false,false,-0.109375,1.0,0.0,-0.0078125,false,false,false,false,1.875,12.5,0.0,0,0,0,5.5,12.55,0.0,0,0,0,3.125,12.5,0.0,0,0,0,0.0,12.5,0.0,0,0,0,0.0,12.6,0.0,4,0,0,0.0,4.0,0.0,0,0,0,kReverse,0.0,0.0,0.0,0.0,0.0,0.0,0.0,0.0,0.0,0.0,0.0,
187.529666,true,true,true,0.0,0.6299212574958801,0.031496062874794006,-0.0078125,false,false,false,false,-0.1953125,0.015748031437397003,0.0,-0.0078125,false,false,false,false,0.0,12.5,0.0,0,0,0,0.125,12.55,0.0,0,0,0,0.0,12.5,0.0,0,0,0,0.0,12.5,0.0,0,0,0,0.0,12.6,0.0,4,0,0,0.0,4.0,0.0,0,0,0,kReverse,0.0,0.0,0.0,0.0,0.0,0.0,0.0,0.0,0.0,0.0,0.0,
187.75381600000003,true,true,true,0.0,-0.0078125,0.031496062874794006,-0.0078125,false,false,false,false,0.007874015718698502,0.3700787425041199,0.0,-0.0078125,false,false,false,false,0.0,12.55,0.0,0,0,0,0.375,12.55,0.0,0,0,0,0.75,12.55,0.0,0,0,0,0.0,12.55,0.0,0,0,0,0.0,12.65,0.0,4,0,0,0.0,4.0,0.0,0,0,0,kReverse,0.0,0.0,0.0,0.0,0.0,0.0,0.0,0.0,0.0,0.0,0.0,
187.933144,true,true,true,0.0,-0.0078125,0.031496062874794006,-0.0078125,false,false,false,false,0.03937007859349251,1.0,0.0,-0.0078125,false,false,false,false,0.0,12.75,0.0,0,0,0,0.125,12.75,0.0,0,0,0,0.0,12.75,0.0,0,0,0,0.0,12.75,0.0,0,0,0,0.0,12.8,0.0,4,0,0,0.0,4.0,0.0,0,0,0,kReverse,0.0,0.0,0.0,0.0,0.0,0.0,0.0,0.0,0.0,0.0,0.0,
188.06990900000002,true,true,true,0.0,0.14960630238056183,0.031496062874794006,-0.0078125,false,false,false,false,0.03937007859349251,0.22834645211696625,0.0,-0.0078125,false,false,false,false,0.0,12.75,0.0,0,0,0,0.125,12.8,0.0,0,0,0,0.0,12.75,0.0,0,0,0,0.0,12.75,0.0,0,0,0,0.0,12.85,0.0,4,0,0,0.0,4.0,0.0,0,0,0,kReverse,0.0,0.0,0.0,0.0,0.0,0.0,0.0,0.0,0.0,0.0,0.0,
188.266433,true,true,true,0.0,-0.0546875,0.031496062874794006,-0.0078125,false,false,false,false,0.03937007859349251,-0.015625,0.0,-0.0078125,false,false,false,false,0.0,12.8,0.0,0,0,0,0.0,12.8,0.0,0,0,0,0.0,12.8,0.0,0,0,0,0.0,12.75,0.0,0,0,0,0.0,12.85,0.0,4,0,0,0.0,4.0,0.0,0,0,0,kReverse,0.0,0.0,0.0,0.0,0.0,0.0,0.0,0.0,0.0,0.0,0.0,
188.36822800000002,true,true,true,0.0,-0.0546875,0.031496062874794006,-0.0078125,false,false,false,false,0.03937007859349251,-0.015625,0.0,-0.0078125,false,false,false,false,0.0,12.8,0.0,0,0,0,0.5,12.8,0.0,0,0,0,0.0,12.8,0.0,0,0,0,0.0,12.75,0.0,0,0,0,0.0,12.85,0.0,4,0,0,0.0,4.0,0.0,0,0,0,kReverse,0.0,0.0,0.0,0.0,0.0,0.0,0.0,0.0,0.0,0.0,0.0,
188.42993600000003,true,true,true,0.0,-0.0546875,0.031496062874794006,-0.0078125,false,false,false,false,0.03937007859349251,-0.015625,0.0,-0.0078125,false,false,false,false,0.0,12.75,0.0,0,0,0,0.5,12.75,0.0,0,0,0,0.0,12.75,0.0,0,0,0,0.0,12.75,0.0,0,0,0,0.0,12.8,0.0,4,0,0,0.0,4.0,0.0,0,0,0,kReverse,0.0,0.0,0.0,0.0,0.0,0.0,0.0,0.0,0.0,0.0,0.0,
188.602587,true,true,true,0.0,0.5433070659637451,0.031496062874794006,-0.0078125,false,false,false,false,0.03937007859349251,-0.015625,0.0,-0.0078125,false,false,false,false,4.625,12.75,0.0,0,0,0,0.375,12.75,0.0,0,0,0,0.0,12.75,0.0,0,0,0,4.75,12.75,0.0,0,0,0,0.0,12.85,0.0,4,0,0,0.0,4.0,0.0,0,0,0,kReverse,0.0,0.0,0.0,0.0,0.0,0.0,0.0,0.0,0.0,0.0,0.0,
188.805668,true,true,true,0.0,0.03937007859349251,0.031496062874794006,-0.0078125,false,false,false,false,0.03937007859349251,-0.015625,0.0,-0.0078125,false,false,false,false,10.5,10.8,0.0,0,0,0,17.25,10.95,0.0,0,0,0,18.625,10.8,0.0,0,0,0,12.5,10.850000000000001,0.0,0,0,0,0.0,11.05,0.0,4,0,0,0.0,4.0,0.0,0,0,0,kReverse,0.0,0.0,0.0,0.0,0.0,0.0,0.0,0.0,0.0,0.0,0.0,
188.934449,true,true,true,0.0,0.03937007859349251,0.031496062874794006,-0.0078125,false,false,false,false,0.03937007859349251,-0.015625,0.6377952694892883,-0.0078125,false,false,false,false,0.0,12.6,0.0,0,0,0,0.0,12.65,0.0,0,0,0,0.0,12.6,0.0,0,0,0,0.0,12.6,0.0,0,0,0,0.0,12.700000000000001,0.0,4,0,0,0.0,4.0,0.0,0,0,0,kReverse,0.0,0.0,0.0,0.0,0.0,0.0,0.0,0.0,0.0,0.0,0.0,
189.06585800000002,true,true,true,0.0,0.03937007859349251,0.031496062874794006,-0.0078125,false,false,false,false,0.03937007859349251,-0.015625,0.0,-0.0078125,false,false,false,false,0.0,12.700000000000001,0.0,0,0,0,0.0,12.700000000000001,0.0,0,0,0,0.0,12.65,0.0,0,0,0,0.0,12.65,0.0,0,0,0,0.0,12.8,0.0,4,0,0,0.0,4.0,0.0,0,0,0,kReverse,0.0,0.0,0.0,0.0,0.0,0.0,0.0,0.0,0.0,0.0,0.0,
189.208314,true,true,true,0.0,0.03937007859349251,0.031496062874794006,-0.0078125,false,false,false,false,0.03937007859349251,-0.015625,0.0,-0.0078125,false,false,false,false,0.0,12.700000000000001,0.0,0,0,0,0.125,12.75,0.0,0,0,0,0.0,12.700000000000001,0.0,0,0,0,0.0,12.700000000000001,0.0,0,0,0,0.0,12.8,0.0,4,0,0,0.0,4.0,0.0,0,0,0,kReverse,0.0,0.0,0.0,0.0,0.0,0.0,0.0,0.0,0.0,0.0,0.0,
189.297187,true,true,true,0.0,0.03937007859349251,0.031496062874794006,-0.0078125,false,false,false,false,0.03937007859349251,-0.015625,0.0,-0.0078125,false,false,false,false,0.0,12.700000000000001,0.0,0,0,0,0.0,12.75,0.0,0,0,0,0.0,12.700000000000001,0.0,0,0,0,0.0,12.700000000000001,0.0,0,0,0,0.0,12.8,0.0,4,0,0,0.0,4.0,0.0,0,0,0,kReverse,0.0,0.0,0.0,0.0,0.0,0.0,0.0,0.0,0.0,0.0,0.0,
189.40816800000002,true,true,true,0.0,0.03937007859349251,0.031496062874794006,-0.0078125,false,false,false,false,0.03937007859349251,-0.015625,0.0,-0.0078125,false,false,false,false,0.0,12.75,0.0,0,0,0,0.125,12.75,0.0,0,0,0,0.125,12.75,0.0,0,0,0,0.0,12.700000000000001,0.0,0,0,0,0.0,12.8,0.0,4,0,0,0.0,4.0,0.0,0,0,0,kReverse,0.0,0.0,0.0,0.0,0.0,0.0,0.0,0.0,0.0,0.0,0.0,
189.466331,true,true,true,0.0,0.03937007859349251,0.031496062874794006,-0.0078125,false,false,false,false,0.03937007859349251,-0.015625,0.0,-0.0078125,false,false,false,false,0.0,12.75,0.0,0,0,0,0.0,12.75,0.0,0,0,0,0.125,12.75,0.0,0,0,0,0.0,12.700000000000001,0.0,0,0,0,0.0,12.8,0.0,4,0,0,0.0,4.0,0.0,0,0,0,kReverse,0.0,0.0,0.0,0.0,0.0,0.0,0.0,0.0,0.0,0.0,0.0,
189.548361,true,true,true,0.0,0.03937007859349251,0.031496062874794006,-0.0078125,false,false,false,false,0.03937007859349251,-0.015625,0.0,-0.0078125,false,false,false,false,0.0,12.75,0.0,0,0,0,0.0,12.75,0.0,0,0,0,0.0,12.75,0.0,0,0,0,0.0,12.700000000000001,0.0,0,0,0,0.0,12.8,0.0,4,0,0,0.0,4.0,0.0,0,0,0,kReverse,0.0,0.0,0.0,0.0,0.0,0.0,0.0,0.0,0.0,0.0,0.0,
189.650035,true,true,true,0.0,0.03937007859349251,0.031496062874794006,-0.0078125,false,false,false,false,0.03937007859349251,-0.015625,0.0,-0.0078125,false,false,false,false,0.0,12.75,0.0,0,0,0,0.125,12.75,0.0,0,0,0,0.0,12.75,0.0,0,0,0,0.0,12.75,0.0,0,0,0,0.0,12.8,0.0,4,0,0,0.0,4.0,0.0,0,0,0,kReverse,0.0,0.0,0.0,0.0,0.0,0.0,0.0,0.0,0.0,0.0,0.0,
189.725953,true,true,true,0.0,0.03937007859349251,0.031496062874794006,-0.0078125,false,false,false,false,0.03937007859349251,-0.015625,0.0,-0.0078125,false,false,false,false,0.0,12.75,0.0,0,0,0,0.125,12.75,0.0,0,0,0,0.0,12.75,0.0,0,0,0,0.0,12.75,0.0,0,0,0,0.0,12.8,0.0,4,0,0,0.0,4.0,0.0,0,0,0,kReverse,0.0,0.0,0.0,0.0,0.0,0.0,0.0,0.0,0.0,0.0,0.0,
189.78606200000002,true,true,true,0.0,0.03937007859349251,0.031496062874794006,-0.0078125,false,false,false,false,0.03937007859349251,-0.015625,0.0,-0.0078125,false,false,false,false,0.0,12.75,0.0,0,0,0,0.0,12.75,0.0,0,0,0,0.0,12.75,0.0,0,0,0,0.0,12.75,0.0,0,0,0,0.0,12.8,0.0,4,0,0,0.0,4.0,0.0,0,0,0,kReverse,0.0,0.0,0.0,0.0,0.0,0.0,0.0,0.0,0.0,0.0,0.0,
189.90852900000002,true,true,true,0.0,0.03937007859349251,0.031496062874794006,-0.0078125,false,false,false,false,0.03937007859349251,-0.015625,0.0,-0.0078125,false,false,false,false,0.0,12.75,0.0,0,0,0,0.125,12.75,0.0,0,0,0,0.125,12.75,0.0,0,0,0,0.0,12.75,0.0,0,0,0,0.0,12.8,0.0,4,0,0,0.0,4.0,0.0,0,0,0,kReverse,0.0,0.0,0.0,0.0,0.0,0.0,0.0,0.0,0.0,0.0,0.0,
189.969613,true,true,true,0.0,0.03937007859349251,0.031496062874794006,-0.0078125,false,false,false,false,0.03937007859349251,-0.015625,0.0,-0.0078125,false,false,false,false,0.0,12.75,0.0,0,0,0,0.0,12.75,0.0,0,0,0,0.125,12.75,0.0,0,0,0,0.0,12.75,0.0,0,0,0,0.0,12.8,0.0,4,0,0,0.0,4.0,0.0,0,0,0,kReverse,0.0,0.0,0.0,0.0,0.0,0.0,0.0,0.0,0.0,0.0,0.0,
190.02813700000002,true,true,true,0.0,0.03937007859349251,0.031496062874794006,-0.0078125,false,false,false,false,0.03937007859349251,-0.015625,0.0,-0.0078125,false,false,false,false,0.0,12.75,0.0,0,0,0,0.125,12.75,0.0,0,0,0,0.125,12.75,0.0,0,0,0,0.0,12.75,0.0,0,0,0,0.0,12.8,0.0,4,0,0,0.0,4.0,0.0,0,0,0,kReverse,0.0,0.0,0.0,0.0,0.0,0.0,0.0,0.0,0.0,0.0,0.0,
190.191033,true,true,true,0.0,0.03937007859349251,0.031496062874794006,-0.0078125,false,false,false,false,0.03937007859349251,-0.015625,0.0,-0.0078125,false,false,false,false,0.0,12.75,0.0,0,0,0,0.0,12.75,0.0,0,0,0,0.125,12.75,0.0,0,0,0,0.0,12.75,0.0,0,0,0,0.0,12.8,0.0,4,0,0,0.0,4.0,0.0,0,0,0,kReverse,0.0,0.0,0.0,0.0,0.0,0.0,0.0,0.0,0.0,0.0,0.0,
190.351881,true,true,true,-0.6328125,1.0,0.031496062874794006,-0.0078125,false,false,false,false,0.03937007859349251,-0.015625,0.0,-0.0078125,false,false,false,false,5.0,12.75,0.0,0,0,0,0.125,12.75,0.0,0,0,0,5.375,12.75,0.0,0,0,0,5.75,12.75,0.0,0,0,0,0.0,12.8,0.0,4,0,0,0.0,4.0,0.0,0,0,0,kReverse,0.0,0.0,0.0,0.0,0.0,0.0,0.0,0.0,0.0,0.0,0.0,
190.533511,true,true,true,0.0,-0.0078125,0.031496062874794006,-0.0078125,false,false,false,false,0.03937007859349251,-0.015625,0.0,-0.0078125,false,false,false,false,13.125,10.600000000000001,0.0,0,0,0,19.875,10.7,0.0,0,0,0,17.375,10.65,0.0,0,0,0,11.625,10.65,0.0,0,0,0,0.0,10.850000000000001,0.0,4,0,0,0.0,4.0,0.0,0,0,0,kReverse,0.0,0.0,0.0,0.0,0.0,0.0,0.0,0.0,0.0,0.0,0.0,
190.727429,true,true,true,0.0,-0.0078125,0.031496062874794006,-0.0078125,false,false,false,false,0.03937007859349251,-0.015625,0.0,-0.0078125,false,false,false,false,0.0,12.6,0.0,0,0,0,0.125,12.6,0.0,0,0,0,0.0,12.6,0.0,0,0,0,0.0,12.6,0.0,0,0,0,0.0,12.65,0.0,4,0,0,0.0,4.0,0.0,0,0,0,kReverse,0.0,0.0,0.0,0.0,0.0,0.0,0.0,0.0,0.0,0.0,0.0,
190.921276,true,true,true,0.0,-0.0078125,0.031496062874794006,-0.0078125,false,false,false,false,0.03937007859349251,-0.015625,0.0,-0.0078125,false,false,false,false,0.0,12.65,0.0,0,0,0,0.0,12.65,0.0,0,0,0,0.0,12.65,0.0,0,0,0,0.0,12.65,0.0,0,0,0,0.0,12.75,0.0,4,0,0,0.0,4.0,0.0,0,0,0,kReverse,0.0,0.0,0.0,0.0,0.0,0.0,0.0,0.0,0.0,0.0,0.0,
191.031504,true,true,true,0.0,-1.0,0.031496062874794006,-0.0078125,false,false,false,false,0.03937007859349251,-0.015625,0.0,-0.0078125,false,false,false,false,0.0,12.65,0.0,0,0,0,0.125,12.700000000000001,0.0,0,0,0,0.0,12.65,0.0,0,0,0,0.0,12.65,0.0,0,0,0,0.0,12.75,0.0,4,0,0,0.0,4.0,0.0,0,0,0,kReverse,0.0,0.0,0.0,0.0,0.0,0.0,0.0,0.0,0.0,0.0,0.0,
191.088568,true,true,true,0.04724409431219101,-1.0,0.031496062874794006,-0.0078125,false,false,false,false,0.03937007859349251,-0.015625,0.0,-0.0078125,false,false,false,false,18.0,12.65,0.0,0,0,0,14.25,12.700000000000001,0.0,0,0,0,24.5,12.65,0.0,0,0,0,19.0,12.65,0.0,0,0,0,0.0,12.75,0.0,4,0,0,0.0,4.0,0.0,0,0,0,kReverse,0.0,0.0,0.0,0.0,0.0,0.0,0.0,0.0,0.0,0.0,0.0,
191.22584600000002,true,true,true,0.11811023950576782,-0.7265625,0.031496062874794006,-0.0078125,false,false,false,false,0.03937007859349251,-0.015625,0.0,-0.0078125,false,false,false,false,23.125,9.25,0.0,0,0,0,27.25,9.65,0.0,0,0,0,16.75,9.350000000000001,0.0,0,0,0,16.5,9.45,0.0,0,0,0,0.0,9.75,0.0,4,0,0,0.0,4.0,0.0,0,0,0,kReverse,0.0,0.0,0.0,0.0,0.0,0.0,0.0,0.0,0.0,0.0,0.0,
191.29672200000002,true,true,true,0.0,-0.0078125,0.031496062874794006,-0.0078125,false,false,false,false,0.03937007859349251,-0.015625,0.0,-0.0078125,false,false,false,false,8.625,11.4,0.0,0,0,0,12.5,11.5,0.0,0,0,0,8.125,11.45,0.0,0,0,0,7.125,11.45,0.0,0,0,0,0.0,11.600000000000001,0.0,4,0,0,0.0,4.0,0.0,0,0,0,kReverse,0.0,0.0,0.0,0.0,0.0,0.0,0.0,0.0,0.0,0.0,0.0,
191.35910400000003,true,true,true,0.0,-0.0078125,0.031496062874794006,-0.0078125,false,false,false,false,0.03937007859349251,-0.015625,0.0,-0.0078125,false,false,false,false,0.5,11.4,0.0,0,0,0,2.375,11.5,0.0,0,0,0,1.625,11.45,0.0,0,0,0,0.5,11.45,0.0,0,0,0,0.0,11.600000000000001,0.0,4,0,0,0.0,4.0,0.0,0,0,0,kReverse,0.0,0.0,0.0,0.0,0.0,0.0,0.0,0.0,0.0,0.0,0.0,
191.56604700000003,true,true,true,0.11023622006177902,-1.0,0.031496062874794006,-0.0078125,false,false,false,false,0.03937007859349251,-0.015625,0.0,-0.0078125,false,false,false,false,0.0,12.55,0.0,0,0,0,3.125,12.6,0.0,0,0,0,6.875,11.5,0.0,0,0,0,5.0,11.45,0.0,0,0,0,0.0,11.600000000000001,0.0,4,0,0,0.0,4.0,0.0,0,0,0,kReverse,0.0,0.0,0.0,0.0,0.0,0.0,0.0,0.0,0.0,0.0,0.0,
191.78607,true,true,true,0.0,-0.0078125,0.031496062874794006,-0.0078125,false,false,false,false,0.03937007859349251,-0.015625,0.0,-0.0078125,false,false,false,false,12.75,11.100000000000001,0.0,0,0,0,17.25,11.15,0.0,0,0,0,8.375,11.05,0.0,0,0,0,8.125,11.100000000000001,0.0,0,0,0,0.0,11.3,0.0,4,0,0,0.0,4.0,0.0,0,0,0,kReverse,0.0,0.0,0.0,0.0,0.0,0.0,0.0,0.0,0.0,0.0,0.0,
191.982569,true,true,true,0.0,-0.0078125,-0.671875,-0.0078125,false,false,false,false,0.03937007859349251,-0.015625,0.0,-0.0078125,false,false,false,false,0.0,12.55,0.0,0,0,0,4.75,12.55,0.0,0,0,0,2.375,12.55,0.0,0,0,0,0.0,12.55,0.0,0,0,0,0.0,12.6,0.0,4,0,0,0.0,4.0,0.0,0,0,0,kReverse,0.0,0.0,0.0,0.0,0.0,0.0,0.0,0.0,0.0,0.0,0.0,
192.17389500000002,true,true,true,0.0,-0.0078125,0.0,-0.0078125,false,false,false,false,0.03937007859349251,-0.015625,0.0,-0.0078125,false,false,false,false,21.375,10.2,0.0,0,0,0,29.25,10.600000000000001,0.0,0,0,0,7.375,10.65,0.0,0,0,0,4.625,10.65,0.0,0,0,0,0.0,10.7,0.0,4,0,0,0.0,4.0,0.0,0,0,0,kReverse,0.0,0.0,0.0,0.0,0.0,0.0,0.0,0.0,0.0,0.0,0.0,
192.37680300000002,true,true,true,0.0,-0.0078125,0.0,0.015748031437397003,false,false,false,false,0.03937007859349251,-0.015625,0.0,-0.0078125,false,false,false,false,0.0,12.450000000000001,0.0,0,0,0,0.125,12.450000000000001,0.0,0,0,0,0.0,12.4,0.0,0,0,0,0.0,12.4,0.0,0,0,0,0.0,12.450000000000001,0.0,4,0,0,0.0,4.0,0.0,0,0,0,kReverse,0.0,0.0,0.0,0.0,0.0,0.0,0.0,0.0,0.0,0.0,0.0,
192.47991700000003,true,true,true,0.0,-0.0078125,0.0,0.015748031437397003,false,false,false,false,0.03937007859349251,-0.015625,0.0,-0.0078125,false,false,false,false,3.25,12.25,0.0,0,0,0,4.75,12.4,0.0,0,0,0,1.5,12.4,0.0,0,0,0,0.0,12.4,0.0,0,0,0,0.0,12.450000000000001,0.0,4,0,0,0.0,4.0,0.0,0,0,0,kReverse,0.0,0.0,0.0,0.0,0.0,0.0,0.0,0.0,0.0,0.0,0.0,
192.56485800000002,true,true,true,0.0,-0.0078125,0.023622047156095505,0.015748031437397003,false,false,false,false,0.03937007859349251,-0.015625,0.0,-0.0078125,false,false,false,false,0.0,12.55,0.0,0,0,0,0.125,12.6,0.0,0,0,0,0.0,12.6,0.0,0,0,0,0.0,12.55,0.0,0,0,0,0.0,12.65,0.0,4,0,0,0.0,4.0,0.0,0,0,0,kReverse,0.0,0.0,0.0,0.0,0.0,0.0,0.0,0.0,0.0,0.0,0.0,
192.63109100000003,true,true,true,0.0,-0.0078125,1.0,0.015748031437397003,false,false,false,false,0.03937007859349251,-0.015625,0.0,-0.0078125,false,false,false,false,0.0,12.55,0.0,0,0,0,0.0,12.6,0.0,0,0,0,0.0,12.6,0.0,0,0,0,0.0,12.55,0.0,0,0,0,0.0,12.65,0.0,4,0,0,0.0,4.0,0.0,0,0,0,kReverse,0.0,0.0,0.0,0.0,0.0,0.0,0.0,0.0,0.0,0.0,0.0,
192.689904,true,true,true,0.0,-0.0078125,1.0,0.07086614519357681,false,false,false,false,0.03937007859349251,-0.015625,0.0,-0.0078125,false,false,false,false,12.625,12.55,0.0,0,0,0,9.75,12.6,0.0,0,0,0,21.625,12.6,0.0,0,0,0,20.25,12.55,0.0,0,0,0,0.0,10.25,0.0,4,0,0,0.0,4.0,0.0,0,0,0,kReverse,0.0,0.0,0.0,0.0,0.0,0.0,0.0,0.0,0.0,0.0,0.0,
192.859663,true,true,true,0.0,-0.0078125,0.0,-0.0078125,false,false,false,false,0.03937007859349251,-0.015625,0.0,-0.0078125,false,false,false,false,16.125,9.75,0.0,0,0,0,21.0,10.05,0.0,0,0,0,11.875,11.4,0.0,0,0,0,11.75,11.3,0.0,0,0,0,0.0,11.4,0.0,4,0,0,0.0,4.0,0.0,0,0,0,kReverse,0.0,0.0,0.0,0.0,0.0,0.0,0.0,0.0,0.0,0.0,0.0,
193.024494,true,true,true,0.0,-0.0078125,0.0,-0.0078125,false,false,false,false,0.03937007859349251,-0.015625,0.0,-0.0078125,false,false,false,false,0.0,12.55,0.0,0,0,0,0.125,12.55,0.0,0,0,0,0.0,12.55,0.0,0,0,0,0.0,12.55,0.0,0,0,0,0.0,12.6,0.0,4,0,0,0.0,4.0,0.0,0,0,0,kReverse,0.0,0.0,0.0,0.0,0.0,0.0,0.0,0.0,0.0,0.0,0.0,
193.207376,true,true,true,0.0,-0.0078125,0.0,-0.0078125,false,false,false,false,0.03937007859349251,-0.015625,0.0,-0.0078125,false,false,false,false,0.0,12.6,0.0,0,0,0,0.0,12.6,0.0,0,0,0,0.0,12.6,0.0,0,0,0,0.0,12.55,0.0,0,0,0,0.0,12.65,0.0,4,0,0,0.0,4.0,0.0,0,0,0,kReverse,0.0,0.0,0.0,0.0,0.0,0.0,0.0,0.0,0.0,0.0,0.0,
193.39377900000002,true,true,true,0.0,-0.0078125,-0.96875,-0.0078125,false,false,false,false,0.03937007859349251,-0.015625,0.0,-0.0078125,false,false,false,false,4.875,12.6,0.0,0,0,0,0.0,12.6,0.0,0,0,0,0.0,12.6,0.0,0,0,0,0.0,12.6,0.0,0,0,0,0.0,12.65,0.0,4,0,0,0.0,4.0,0.0,0,0,0,kReverse,0.0,0.0,0.0,0.0,0.0,0.0,0.0,0.0,0.0,0.0,0.0,
193.596179,true,true,true,0.0,-0.0078125,0.0,-0.0078125,false,false,false,false,0.03937007859349251,-0.015625,0.0,-0.0078125,false,false,false,false,10.875,10.3,0.0,0,0,0,19.625,10.45,0.0,0,0,0,17.125,10.4,0.0,0,0,0,11.875,10.5,0.0,0,0,0,0.0,10.65,0.0,4,0,0,0.0,4.0,0.0,0,0,0,kReverse,0.0,0.0,0.0,0.0,0.0,0.0,0.0,0.0,0.0,0.0,0.0,
193.75826700000002,true,true,true,0.0,-0.0078125,0.0,-0.0078125,false,false,false,false,0.03937007859349251,-0.015625,0.0,-0.0078125,false,false,false,false,0.0,12.450000000000001,0.0,0,0,0,0.125,12.5,0.0,0,0,0,0.0,12.450000000000001,0.0,0,0,0,0.0,12.450000000000001,0.0,0,0,0,0.0,12.55,0.0,4,0,0,0.0,4.0,0.0,0,0,0,kReverse,0.0,0.0,0.0,0.0,0.0,0.0,0.0,0.0,0.0,0.0,0.0,
193.93107500000002,true,true,true,0.0,-0.0078125,0.0,-0.0078125,false,false,false,false,0.03937007859349251,-0.015625,0.0,-0.0078125,false,false,false,false,0.0,12.55,0.0,0,0,0,0.125,12.55,0.0,0,0,0,0.0,12.55,0.0,0,0,0,0.0,12.55,0.0,0,0,0,0.0,12.65,0.0,4,0,0,0.0,4.0,0.0,0,0,0,kReverse,0.0,0.0,0.0,0.0,0.0,0.0,0.0,0.0,0.0,0.0,0.0,
194.067969,true,true,true,0.0,-0.0078125,1.0,-0.0078125,false,false,false,false,0.03937007859349251,-0.015625,0.0,-0.0078125,false,false,false,false,0.0,12.6,0.0,0,0,0,0.125,12.6,0.0,0,0,0,0.0,12.6,0.0,0,0,0,0.0,12.6,0.0,0,0,0,0.0,12.65,0.0,4,0,0,0.0,4.0,0.0,0,0,0,kReverse,0.0,0.0,0.0,0.0,0.0,0.0,0.0,0.0,0.0,0.0,0.0,
194.20690100000002,true,true,true,0.0,-0.0078125,0.0,-0.0078125,false,false,false,false,0.03937007859349251,-0.015625,0.0,-0.0078125,false,false,false,false,22.5,9.9,0.0,0,0,0,26.5,9.9,0.0,0,0,0,18.875,10.0,0.0,0,0,0,19.0,9.850000000000001,0.0,0,0,0,0.0,10.15,0.0,4,0,0,0.0,4.0,0.0,0,0,0,kReverse,0.0,0.0,0.0,0.0,0.0,0.0,0.0,0.0,0.0,0.0,0.0,
194.32804000000002,true,true,true,0.0,-0.0078125,0.0,-0.0078125,false,false,false,false,0.03937007859349251,-0.015625,0.0,-0.0078125,false,false,false,false,0.0,12.5,0.0,0,0,0,0.125,12.55,0.0,0,0,0,0.0,12.5,0.0,0,0,0,0.0,12.5,0.0,0,0,0,0.0,12.6,0.0,4,0,0,0.0,4.0,0.0,0,0,0,kReverse,0.0,0.0,0.0,0.0,0.0,0.0,0.0,0.0,0.0,0.0,0.0,
194.450634,true,true,true,0.0,-0.125,0.0,-0.0078125,false,false,false,false,0.03937007859349251,-0.015625,0.0,-0.0078125,false,false,false,false,0.0,12.5,0.0,0,0,0,0.125,12.55,0.0,0,0,0,0.0,12.5,0.0,0,0,0,0.0,12.5,0.0,0,0,0,0.0,12.6,0.0,4,0,0,0.0,4.0,0.0,0,0,0,kReverse,0.0,0.0,0.0,0.0,0.0,0.0,0.0,0.0,0.0,0.0,0.0,
194.550045,true,true,true,0.0,-1.0,0.0,-0.0078125,false,false,false,false,0.03937007859349251,-0.015625,0.0,-0.0078125,false,false,false,false,11.125,12.55,0.0,0,0,0,8.125,12.55,0.0,0,0,0,8.0,12.55,0.0,0,0,0,5.25,12.55,0.0,0,0,0,0.0,12.65,0.0,4,0,0,0.0,4.0,0.0,0,0,0,kReverse,0.0,0.0,0.0,0.0,0.0,0.0,0.0,0.0,0.0,0.0,0.0,
194.62973000000002,true,true,true,0.0,-1.0,0.0,-0.0078125,false,false,false,false,0.03937007859349251,-0.015625,0.0,-0.0078125,false,false,false,false,24.625,12.55,0.0,0,0,0,25.0,12.55,0.0,0,0,0,21.0,10.0,0.0,0,0,0,18.625,10.2,0.0,0,0,0,0.0,10.45,0.0,4,0,0,0.0,4.0,0.0,0,0,0,kReverse,0.0,0.0,0.0,0.0,0.0,0.0,0.0,0.0,0.0,0.0,0.0,
194.688916,true,true,true,0.0,-1.0,0.0,-0.0078125,false,false,false,false,0.03937007859349251,-0.015625,0.0,-0.0078125,false,false,false,false,20.0,10.15,0.0,0,0,0,24.875,10.2,0.0,0,0,0,17.625,10.0,0.0,0,0,0,15.625,10.2,0.0,0,0,0,0.0,10.45,0.0,4,0,0,0.0,4.0,0.0,0,0,0,kReverse,0.0,0.0,0.0,0.0,0.0,0.0,0.0,0.0,0.0,0.0,0.0,
194.814021,true,true,true,0.0,-1.0,0.0,-0.0078125,false,false,false,false,0.03937007859349251,-0.015625,0.0,-0.0078125,false,false,false,false,14.625,10.8,0.0,0,0,0,18.75,10.850000000000001,0.0,0,0,0,14.875,10.8,0.0,0,0,0,12.0,10.850000000000001,0.0,0,0,0,0.0,11.0,0.0,4,0,0,0.0,4.0,0.0,0,0,0,kReverse,0.0,0.0,0.0,0.0,0.0,0.0,0.0,0.0,0.0,0.0,0.0,
194.995636,true,true,true,0.0,-0.0078125,0.0,-0.0078125,false,false,false,false,0.03937007859349251,-0.015625,0.0,-0.0078125,false,false,false,false,8.25,11.350000000000001,0.0,0,0,0,11.875,11.4,0.0,0,0,0,9.75,11.350000000000001,0.0,0,0,0,3.75,11.4,0.0,0,0,0,0.0,11.55,0.0,4,0,0,0.0,4.0,0.0,0,0,0,kReverse,0.0,0.0,0.0,0.0,0.0,0.0,0.0,0.0,0.0,0.0,0.0,
195.138034,true,true,true,0.0,-0.0078125,0.0,-0.0078125,false,false,false,false,0.03937007859349251,-0.015625,0.0,-0.0078125,false,false,false,false,0.0,12.5,0.0,0,0,0,0.125,12.55,0.0,0,0,0,0.0,12.5,0.0,0,0,0,0.0,12.5,0.0,0,0,0,0.0,12.6,0.0,6,2,0,0.0,4.0,0.0,0,0,0,kReverse,0.0,0.0,0.0,0.0,0.0,0.0,0.0,0.0,0.0,0.0,0.0,
195.282496,true,true,true,0.0,-0.8515625,0.0,-0.0078125,false,false,false,false,0.03937007859349251,-0.015625,0.0,-0.0078125,false,false,false,false,0.0,12.55,0.0,0,0,0,0.0,12.55,0.0,0,0,0,0.0,12.55,0.0,0,0,0,0.0,12.55,0.0,0,0,0,0.0,12.65,0.0,6,0,0,0.0,4.0,0.0,0,0,0,kReverse,0.0,0.0,0.0,0.0,0.0,0.0,0.0,0.0,0.0,0.0,0.0,
195.41038500000002,true,true,true,0.11811023950576782,-1.0,0.0,-0.0078125,false,false,false,false,0.03937007859349251,-0.015625,0.0,-0.0078125,true,false,false,false,21.5,12.55,0.0,0,0,0,23.5,12.55,0.0,0,0,0,16.625,12.55,0.0,0,0,0,17.0,12.55,0.0,0,0,0,0.0,12.65,0.0,6,0,0,0.0,4.0,0.0,0,0,0,kForward,0.0,0.0,0.0,0.0,0.0,0.0,0.0,0.0,0.0,0.0,0.0,
195.625923,true,true,true,0.18110236525535583,-1.0,0.0,-0.0078125,false,false,false,false,0.03937007859349251,-0.015625,0.0,-0.0078125,true,false,false,false,16.75,10.600000000000001,0.0,0,0,0,20.625,10.75,0.0,0,0,0,15.125,10.75,0.0,0,0,0,11.75,10.8,0.0,0,0,0,0.0,10.9,0.0,6,0,0,0.0,4.0,0.0,0,0,0,kForward,0.0,0.0,0.0,0.0,0.0,0.0,0.0,0.0,0.0,0.0,0.0,
195.787586,true,true,true,0.26771652698516846,-1.0,0.0,-0.0078125,false,false,false,false,0.03937007859349251,-0.015625,0.0,-0.0078125,true,false,false,false,36.875,9.15,0.0,0,0,0,41.5,9.25,0.0,0,0,0,30.5,8.9,0.0,0,0,0,29.625,9.100000000000001,0.0,0,0,0,0.0,9.45,0.0,6,0,0,0.0,4.0,0.0,0,0,0,kForward,0.0,0.0,0.0,0.0,0.0,0.0,0.0,0.0,0.0,0.0,0.0,
195.9105,true,true,true,0.26771652698516846,-1.0,0.0,-0.0078125,false,false,false,false,0.03937007859349251,-0.015625,0.0,-0.0078125,true,false,false,false,34.125,9.15,0.0,0,0,0,39.25,9.2,0.0,0,0,0,27.75,9.25,0.0,0,0,0,27.625,9.2,0.0,0,0,0,0.0,9.45,0.0,6,0,0,0.0,4.0,0.0,0,0,0,kForward,0.0,0.0,0.0,0.0,0.0,0.0,0.0,0.0,0.0,0.0,0.0,
196.038277,true,true,true,0.26771652698516846,-1.0,0.0,-0.0078125,false,false,false,false,0.03937007859349251,-0.015625,0.0,-0.0078125,true,false,false,false,25.5,9.15,0.0,0,0,0,31.125,9.2,0.0,0,0,0,26.875,9.25,0.0,0,0,0,24.25,9.2,0.0,0,0,0,0.0,9.45,0.0,6,0,0,0.0,4.0,0.0,0,0,0,kForward,0.0,0.0,0.0,0.0,0.0,0.0,0.0,0.0,0.0,0.0,0.0,
196.118974,true,true,true,0.26771652698516846,-1.0,0.0,-0.0078125,false,false,false,false,0.03937007859349251,-0.015625,0.0,-0.0078125,true,false,false,false,30.875,9.3,0.0,0,0,0,33.375,9.25,0.0,0,0,0,29.625,9.25,0.0,0,0,0,30.875,9.4,0.0,0,0,0,0.0,9.65,0.0,6,0,0,0.0,4.0,0.0,0,0,0,kForward,0.0,0.0,0.0,0.0,0.0,0.0,0.0,0.0,0.0,0.0,0.0,
196.22434700000002,true,true,true,0.26771652698516846,-1.0,0.0,-0.0078125,false,false,false,false,0.03937007859349251,-0.015625,0.0,-0.0078125,true,false,false,false,35.5,9.3,0.0,0,0,0,39.625,9.15,0.0,0,0,0,26.75,9.2,0.0,0,0,0,28.5,8.95,0.0,0,0,0,0.0,9.4,0.0,6,0,0,0.0,4.0,0.0,0,0,0,kForward,0.0,0.0,0.0,0.0,0.0,0.0,0.0,0.0,0.0,0.0,0.0,
196.346562,true,true,true,0.20472441613674164,-1.0,0.0,-0.0078125,false,false,false,false,0.03937007859349251,-0.015625,0.0,-0.0078125,true,false,false,false,29.5,8.9,0.0,0,0,0,35.75,9.15,0.0,0,0,0,27.125,9.2,0.0,0,0,0,28.125,8.95,0.0,0,0,0,0.0,9.4,0.0,6,0,0,0.0,4.0,0.0,0,0,0,kForward,0.0,0.0,0.0,0.0,0.0,0.0,0.0,0.0,0.0,0.0,0.0,
196.540526,true,true,true,0.10236220806837082,-0.328125,0.0,-0.0078125,false,false,false,false,0.03937007859349251,-0.015625,0.0,-0.0078125,true,false,false,false,31.375,9.100000000000001,0.0,0,0,0,39.875,9.15,0.0,0,0,0,28.75,9.100000000000001,0.0,0,0,0,30.625,9.25,0.0,0,0,0,0.0,9.55,0.0,6,0,0,0.0,4.0,0.0,0,0,0,kForward,0.0,0.0,0.0,0.0,0.0,0.0,0.0,0.0,0.0,0.0,0.0,
196.677242,true,true,true,0.0,-0.0078125,0.0,-0.0078125,false,false,false,false,0.03937007859349251,-0.015625,0.0,-0.0078125,true,false,false,false,12.875,9.45,0.0,0,0,0,13.5,9.5,0.0,0,0,0,10.875,9.55,0.0,0,0,0,8.0,9.5,0.0,0,0,0,0.0,9.75,0.0,6,0,0,0.0,4.0,0.0,0,0,0,kForward,0.0,0.0,0.0,0.0,0.0,0.0,0.0,0.0,0.0,0.0,0.0,
196.863756,true,true,true,0.0,1.0,0.0,-0.0078125,false,false,false,false,0.03937007859349251,-0.015625,0.0,-0.0078125,true,false,false,false,0.0,12.0,0.0,0,0,0,0.125,12.0,0.0,0,0,0,0.0,12.0,0.0,0,0,0,0.0,12.1,0.0,0,0,0,0.0,12.15,0.0,6,0,0,0.0,4.0,0.0,0,0,0,kForward,0.0,0.0,0.0,0.0,0.0,0.0,0.0,0.0,0.0,0.0,0.0,
197.034293,true,true,true,0.0,1.0,0.0,-0.0078125,false,false,false,false,0.03937007859349251,-0.015625,0.0,-0.0078125,true,false,false,false,11.375,10.850000000000001,0.0,0,0,0,15.375,10.8,0.0,0,0,0,12.75,10.850000000000001,0.0,0,0,0,9.625,10.8,0.0,0,0,0,0.0,11.0,0.0,6,0,0,0.0,4.0,0.0,0,0,0,kForward,0.0,0.0,0.0,0.0,0.0,0.0,0.0,0.0,0.0,0.0,0.0,
197.172855,true,true,true,0.0,1.0,0.0,-0.0078125,false,false,false,false,0.03937007859349251,-0.015625,0.0,-0.0078125,true,false,false,false,7.25,10.850000000000001,0.0,0,0,0,10.875,10.8,0.0,0,0,0,9.375,11.25,0.0,0,0,0,6.25,11.3,0.0,0,0,0,0.0,11.4,0.0,6,0,0,0.0,4.0,0.0,0,0,0,kForward,0.0,0.0,0.0,0.0,0.0,0.0,0.0,0.0,0.0,0.0,0.0,
197.347719,true,true,true,0.0,-0.0078125,0.0,-0.0078125,false,false,false,false,0.03937007859349251,-0.015625,0.0,-0.0078125,true,false,false,false,5.0,11.2,0.0,0,0,0,8.375,11.3,0.0,0,0,0,4.875,11.55,0.0,0,0,0,4.75,11.55,0.0,0,0,0,0.0,11.600000000000001,0.0,6,0,0,0.0,4.0,0.0,0,0,0,kForward,0.0,0.0,0.0,0.0,0.0,0.0,0.0,0.0,0.0,0.0,0.0,
197.544858,true,true,true,0.0,0.6220472455024719,0.0,-0.0078125,false,false,false,false,0.03937007859349251,-0.015625,0.0,-0.0078125,false,false,false,false,0.0,12.200000000000001,0.0,0,0,0,0.125,12.25,0.0,0,0,0,0.0,12.200000000000001,0.0,0,0,0,0.0,12.200000000000001,0.0,0,0,0,0.0,12.3,0.0,6,0,0,0.0,4.0,0.0,0,0,0,kReverse,0.0,0.0,0.0,0.0,0.0,0.0,0.0,0.0,0.0,0.0,0.0,
197.75197,true,true,true,0.0,1.0,0.0,-0.0078125,false,false,false,false,0.03937007859349251,-0.015625,0.0,-0.0078125,false,false,false,false,0.0,12.4,0.0,0,0,0,0.0,12.4,0.0,0,0,0,0.0,12.4,0.0,0,0,0,0.0,12.4,0.0,0,0,0,0.0,12.450000000000001,0.0,6,0,0,0.0,4.0,0.0,0,0,0,kReverse,0.0,0.0,0.0,0.0,0.0,0.0,0.0,0.0,0.0,0.0,0.0,
197.956208,true,true,true,0.0,-0.046875,1.0,-0.140625,false,false,false,false,0.03937007859349251,-0.015625,0.0,-0.0078125,false,false,false,false,12.0,11.0,0.0,0,1,0,12.25,11.05,0.0,0,0,0,11.125,11.100000000000001,0.0,0,0,0,7.0,11.15,0.0,0,0,0,0.0,11.3,0.0,6,0,0,0.0,4.0,0.0,0,0,0,kReverse,0.0,0.0,0.0,0.0,0.0,0.0,0.0,0.0,0.0,0.0,0.0,
198.140779,true,true,true,0.0,-0.046875,1.0,-0.171875,false,false,false,false,0.03937007859349251,-0.015625,0.0,-0.0078125,false,false,false,false,30.375,10.350000000000001,0.0,0,0,0,36.625,10.3,0.0,0,0,0,5.25,10.600000000000001,0.0,0,0,0,4.625,10.600000000000001,0.0,0,0,0,0.0,10.7,0.0,6,0,0,0.0,4.0,0.0,0,0,0,kReverse,0.0,0.0,0.0,0.0,0.0,0.0,0.0,0.0,0.0,0.0,0.0,
198.352084,true,true,true,0.0,-0.046875,-0.09375,-0.0078125,false,false,false,false,0.03937007859349251,-0.015625,0.0,-0.0078125,false,false,false,false,15.625,10.75,0.0,0,0,0,22.625,10.75,0.0,0,0,0,4.5,10.8,0.0,0,0,0,3.875,10.8,0.0,0,0,0,0.0,11.0,0.0,6,0,0,0.0,4.0,0.0,0,0,0,kReverse,0.0,0.0,0.0,0.0,0.0,0.0,0.0,0.0,0.0,0.0,0.0,
198.549918,true,true,true,1.0,-1.0,0.0,-0.0078125,false,false,false,false,0.03937007859349251,-0.015625,0.0,-0.0078125,false,false,false,false,0.0,12.200000000000001,0.0,0,0,0,0.375,12.200000000000001,0.0,0,0,0,0.125,12.200000000000001,0.0,0,0,0,0.0,12.200000000000001,0.0,0,0,0,0.0,12.25,0.0,6,0,0,0.0,4.0,0.0,0,0,0,kReverse,0.0,0.0,0.0,0.0,0.0,0.0,0.0,0.0,0.0,0.0,0.0,
198.681826,true,true,true,1.0,-1.0,0.0,-0.0078125,false,false,false,false,0.03937007859349251,-0.015625,0.0,-0.0078125,false,false,false,false,9.375,11.25,0.0,0,0,0,13.5,11.2,0.0,0,0,0,12.125,11.25,0.0,0,0,0,7.625,11.2,0.0,0,0,0,0.0,11.350000000000001,0.0,6,0,0,0.0,4.0,0.0,0,0,0,kReverse,0.0,0.0,0.0,0.0,0.0,0.0,0.0,0.0,0.0,0.0,0.0,
198.853845,true,true,true,1.0,-1.0,0.0,-0.0078125,false,false,false,false,0.03937007859349251,-0.015625,0.0,-0.0078125,false,false,false,false,14.5,10.600000000000001,0.0,0,0,0,17.5,10.5,0.0,0,0,0,14.0,10.65,0.0,0,0,0,11.125,10.65,0.0,0,0,0,0.0,10.75,0.0,6,0,0,0.0,4.0,0.0,0,0,0,kReverse,0.0,0.0,0.0,0.0,0.0,0.0,0.0,0.0,0.0,0.0,0.0,
198.99276,true,true,true,1.0,-1.0,0.0,-0.0078125,false,false,false,false,0.03937007859349251,-0.015625,0.0,-0.0078125,false,false,false,false,9.5,11.0,0.0,0,0,0,12.375,11.15,0.0,0,0,0,10.125,11.15,0.0,0,0,0,7.125,11.100000000000001,0.0,0,0,0,0.0,11.25,0.0,6,0,0,0.0,4.0,0.0,0,0,0,kReverse,0.0,0.0,0.0,0.0,0.0,0.0,0.0,0.0,0.0,0.0,0.0,
199.12653400000002,true,true,true,1.0,-1.0,0.834645688533783,-0.0078125,false,false,false,false,0.03937007859349251,-0.015625,0.0,-0.0078125,false,false,false,false,6.875,11.350000000000001,0.0,0,0,0,10.0,11.350000000000001,0.0,0,0,0,8.375,11.350000000000001,0.0,0,0,0,5.0,11.4,0.0,0,0,0,0.0,11.5,0.0,6,0,0,0.0,4.0,0.0,0,0,0,kReverse,0.0,0.0,0.0,0.0,0.0,0.0,0.0,0.0,0.0,0.0,0.0,
199.186983,true,true,true,1.0,-1.0,1.0,-0.0078125,false,false,false,false,0.03937007859349251,-0.015625,0.0,-0.0078125,false,false,false,false,21.375,11.350000000000001,0.0,0,0,0,22.125,11.350000000000001,0.0,0,0,0,3.125,11.350000000000001,0.0,0,0,0,2.375,11.4,0.0,0,0,0,0.0,11.5,0.0,6,0,0,0.0,4.0,0.0,0,0,0,kReverse,0.0,0.0,0.0,0.0,0.0,0.0,0.0,0.0,0.0,0.0,0.0,
199.241263,true,true,true,1.0,-1.0,1.0,-0.0078125,false,false,false,false,0.03937007859349251,-0.015625,0.0,-0.0078125,false,false,false,false,28.0,11.350000000000001,0.0,0,0,0,34.125,11.350000000000001,0.0,0,0,0,0.0,11.350000000000001,0.0,0,0,0,0.0,11.4,0.0,0,0,0,0.0,11.5,0.0,6,0,0,0.0,4.0,0.0,0,0,0,kReverse,0.0,0.0,0.0,0.0,0.0,0.0,0.0,0.0,0.0,0.0,0.0,
199.289105,true,true,true,1.0,-1.0,1.0,-0.0078125,false,false,false,false,0.03937007859349251,-0.015625,0.0,-0.0078125,false,false,false,false,27.0,10.55,0.0,0,0,0,33.5,10.65,0.0,0,0,0,0.0,10.8,0.0,0,0,0,0.0,10.8,0.0,0,0,0,0.0,10.9,0.0,6,0,0,0.0,4.0,0.0,0,0,0,kReverse,0.0,0.0,0.0,0.0,0.0,0.0,0.0,0.0,0.0,0.0,0.0,
199.347393,true,true,true,1.0,-1.0,1.0,-0.0078125,false,false,false,false,0.03937007859349251,-0.015625,0.0,-0.0078125,false,false,false,false,23.75,10.55,0.0,0,0,0,30.875,10.65,0.0,0,0,0,0.0,10.8,0.0,0,0,0,0.0,10.8,0.0,0,0,0,0.0,10.9,0.0,6,0,0,0.0,4.0,0.0,0,0,0,kReverse,0.0,0.0,0.0,0.0,0.0,0.0,0.0,0.0,0.0,0.0,0.0,
199.494369,true,true,true,1.0,-1.0,0.0,0.031496062874794006,false,false,false,false,0.03937007859349251,-0.015625,0.0,-0.0078125,false,false,false,false,16.5,10.850000000000001,0.0,0,0,0,26.125,10.9,0.0,0,0,0,0.0,11.05,0.0,0,0,0,0.0,11.05,0.0,0,0,0,0.0,11.15,0.0,6,0,0,0.0,4.0,0.0,0,0,0,kReverse,0.0,0.0,0.0,0.0,0.0,0.0,0.0,0.0,0.0,0.0,0.0,
199.673408,true,true,true,1.0,-1.0,0.0,0.031496062874794006,false,false,false,false,0.03937007859349251,-0.015625,0.0,-0.0078125,false,false,false,false,0.0,11.850000000000001,0.0,0,0,0,0.75,11.850000000000001,0.0,0,0,0,5.125,11.8,0.0,0,0,0,3.0,11.850000000000001,0.0,0,0,0,0.0,11.95,0.0,6,0,0,0.0,4.0,0.0,0,0,0,kReverse,0.0,0.0,0.0,0.0,0.0,0.0,0.0,0.0,0.0,0.0,0.0,
199.804795,true,true,true,1.0,-1.0,0.0,0.031496062874794006,false,false,false,false,0.03937007859349251,-0.015625,0.0,-0.0078125,false,false,false,false,0.625,11.9,0.0,0,0,0,2.625,11.95,0.0,0,0,0,3.375,11.9,0.0,0,0,0,1.0,11.9,0.0,0,0,0,0.0,12.05,0.0,6,0,0,0.0,4.0,0.0,0,0,0,kReverse,0.0,0.0,0.0,0.0,0.0,0.0,0.0,0.0,0.0,0.0,0.0,
199.959649,true,true,true,1.0,-1.0,-0.578125,0.6614173054695129,false,false,false,false,0.03937007859349251,-0.015625,0.0,-0.0078125,false,false,false,false,1.125,11.850000000000001,0.0,0,0,0,4.125,11.9,0.0,0,0,0,10.625,11.9,0.0,0,0,0,6.875,11.9,0.0,0,0,0,0.0,12.0,0.0,6,0,0,0.0,4.0,0.0,0,0,0,kReverse,0.0,0.0,0.0,0.0,0.0,0.0,0.0,0.0,0.0,0.0,0.0,
200.0529,true,true,true,0.0,-0.0078125,1.0,-1.0,false,false,false,false,0.03937007859349251,-0.015625,0.0,-0.0078125,false,false,false,false,0.0,11.850000000000001,0.0,0,0,0,0.0,11.9,0.0,0,0,0,22.5,11.9,0.0,0,0,0,16.75,11.9,0.0,0,0,0,0.0,12.0,0.0,6,0,0,0.0,4.0,0.0,0,0,0,kReverse,0.0,0.0,0.0,0.0,0.0,0.0,0.0,0.0,0.0,0.0,0.0,
200.21562300000002,true,true,true,0.0,-0.0078125,1.0,-0.1640625,false,false,false,false,0.03937007859349251,-0.015625,0.0,-0.0078125,false,false,false,false,5.75,10.850000000000001,0.0,0,0,0,5.625,10.95,0.0,0,0,0,29.625,10.850000000000001,0.0,0,0,0,27.375,10.850000000000001,0.0,0,0,0,0.0,10.5,0.0,6,0,0,0.0,4.0,0.0,0,0,0,kReverse,0.0,0.0,0.0,0.0,0.0,0.0,0.0,0.0,0.0,0.0,0.0,
200.414095,true,true,true,0.0,-0.0078125,0.0,-0.0078125,false,false,false,false,0.03937007859349251,-0.015625,0.0,-0.0078125,false,false,false,false,2.75,10.8,0.0,0,0,0,8.5,10.8,0.0,0,0,0,22.375,10.7,0.0,0,0,0,20.75,10.65,0.0,0,0,0,0.0,10.9,0.0,6,0,0,0.0,4.0,0.0,0,0,0,kReverse,0.0,0.0,0.0,0.0,0.0,0.0,0.0,0.0,0.0,0.0,0.0,
200.566294,true,true,true,0.0,-0.0078125,1.0,1.0,false,false,false,false,0.03937007859349251,-0.015625,0.0,-0.0078125,false,false,false,false,0.0,12.200000000000001,0.0,0,0,0,0.125,12.200000000000001,0.0,0,0,0,3.875,12.200000000000001,0.0,0,0,0,0.0,12.200000000000001,0.0,0,0,0,0.0,12.25,0.0,6,0,0,0.0,4.0,0.0,0,0,0,kReverse,0.0,0.0,0.0,0.0,0.0,0.0,0.0,0.0,0.0,0.0,0.0,
200.746069,true,true,true,0.0,-0.0078125,0.15748031437397003,0.20472441613674164,false,false,false,false,0.03937007859349251,-0.015625,0.0,-0.0078125,false,false,false,false,10.125,10.7,0.0,0,0,0,13.25,10.8,0.0,0,0,0,13.25,10.7,0.0,0,0,0,13.75,10.8,0.0,0,0,0,0.0,10.9,0.0,6,0,0,0.0,4.0,0.0,0,0,0,kReverse,0.0,0.0,0.0,0.0,0.0,0.0,0.0,0.0,0.0,0.0,0.0,
200.88495600000002,true,true,true,0.0,-0.0078125,0.0,0.03937007859349251,false,false,false,false,0.03937007859349251,-0.015625,0.0,-0.0078125,false,false,false,false,0.0,12.200000000000001,0.0,0,0,0,0.125,12.25,0.0,0,0,0,0.0,12.25,0.0,0,0,0,0.0,12.25,0.0,0,0,0,0.0,12.35,0.0,6,0,0,0.0,4.0,0.0,0,0,0,kReverse,0.0,0.0,0.0,0.0,0.0,0.0,0.0,0.0,0.0,0.0,0.0,
201.02493300000003,true,true,true,0.29921260476112366,-0.3203125,0.0,0.03937007859349251,false,false,false,false,0.03937007859349251,-0.015625,0.0,-0.0078125,false,false,false,false,0.0,12.200000000000001,0.0,0,0,0,0.25,12.25,0.0,0,0,0,0.0,12.25,0.0,0,0,0,0.0,12.25,0.0,0,0,0,0.0,12.3,0.0,6,0,0,0.0,4.0,0.0,0,0,0,kReverse,0.0,0.0,0.0,0.0,0.0,0.0,0.0,0.0,0.0,0.0,0.0,
201.14075599999998,true,true,true,0.5669291615486145,-0.3984375,-0.03125,0.03937007859349251,false,false,false,false,0.03937007859349251,-0.015625,0.0,-0.0078125,false,false,false,false,0.0,12.200000000000001,0.0,0,0,0,1.375,12.25,0.0,0,0,0,0.625,12.25,0.0,0,0,0,0.0,12.25,0.0,0,0,0,0.0,12.3,0.0,6,0,0,0.0,4.0,0.0,0,0,0,kReverse,0.0,0.0,0.0,0.0,0.0,0.0,0.0,0.0,0.0,0.0,0.0,
201.312244,true,true,true,0.0,-0.0078125,-1.0,0.03937007859349251,false,false,false,false,0.03937007859349251,-0.015625,0.0,-0.0078125,false,false,false,false,5.5,11.850000000000001,0.0,0,0,0,3.375,11.9,0.0,0,0,0,11.375,11.9,0.0,0,0,0,7.0,11.9,0.0,0,0,0,0.0,12.0,0.0,6,0,0,0.0,4.0,0.0,0,0,0,kReverse,0.0,0.0,0.0,0.0,0.0,0.0,0.0,0.0,0.0,0.0,0.0,
201.49514200000002,true,true,true,0.10236220806837082,-0.1796875,0.0,0.03937007859349251,false,false,false,false,0.03937007859349251,-0.015625,0.0,-0.0078125,false,false,false,false,18.875,10.350000000000001,0.0,-1,-1,0,23.875,10.5,0.0,0,0,0,9.625,10.95,0.0,0,0,0,9.625,10.9,0.0,0,0,0,0.0,11.05,0.0,6,0,0,0.0,4.0,0.0,0,0,0,kReverse,0.0,0.0,0.0,0.0,0.0,0.0,0.0,0.0,0.0,0.0,0.0,
201.67887900000002,true,true,true,0.4645669162273407,-1.0,0.0,0.03937007859349251,false,false,false,false,0.03937007859349251,-0.015625,0.0,-0.0078125,false,false,false,false,1.125,12.1,0.0,0,0,0,1.375,12.15,0.0,0,0,0,6.75,12.15,0.0,0,0,0,4.5,12.15,0.0,0,0,0,0.0,12.25,0.0,6,0,0,0.0,4.0,0.0,0,0,0,kReverse,0.0,0.0,0.0,0.0,0.0,0.0,0.0,0.0,0.0,0.0,0.0,
201.82348000000002,true,true,true,0.4724409580230713,-1.0,0.0,0.03937007859349251,false,false,false,false,0.03937007859349251,-0.015625,0.0,-0.0078125,false,false,false,false,15.375,12.1,0.0,0,0,0,19.375,12.15,0.0,0,0,0,16.5,10.55,0.0,0,0,0,14.375,10.55,0.0,0,0,0,0.0,10.8,0.0,6,0,0,0.0,4.0,0.0,0,0,0,kReverse,0.0,0.0,0.0,0.0,0.0,0.0,0.0,0.0,0.0,0.0,0.0,
201.97234100000003,true,true,true,0.5590550899505615,-0.5546875,0.0,0.03937007859349251,false,false,false,false,0.03937007859349251,-0.015625,0.0,-0.0078125,false,false,false,false,8.25,10.45,0.0,0,0,0,13.5,10.75,0.0,0,0,0,11.375,10.55,0.0,0,0,0,8.5,10.55,0.0,0,0,0,0.0,10.8,0.0,6,0,0,0.0,4.0,0.0,0,0,0,kReverse,0.0,0.0,0.0,0.0,0.0,0.0,0.0,0.0,0.0,0.0,0.0,
202.066471,true,true,true,0.0,-0.0078125,0.6377952694892883,0.03937007859349251,false,false,false,false,0.03937007859349251,-0.015625,0.0,-0.0078125,false,false,false,false,0.0,11.600000000000001,0.0,0,0,0,1.25,11.55,0.0,0,0,0,0.5,11.600000000000001,0.0,0,0,0,0.0,11.55,0.0,0,0,0,0.0,11.65,0.0,6,0,0,0.0,4.0,0.0,0,0,0,kReverse,0.0,0.0,0.0,0.0,0.0,0.0,0.0,0.0,0.0,0.0,0.0,
202.11679700000002,true,true,true,0.0,-0.0078125,1.0,0.03937007859349251,false,false,false,false,0.03937007859349251,-0.015625,0.0,-0.0078125,false,false,false,false,0.0,11.600000000000001,0.0,0,0,0,1.25,11.55,0.0,0,0,0,9.875,11.600000000000001,0.0,0,0,0,5.875,11.55,0.0,0,0,0,0.0,11.65,0.0,6,0,0,0.0,4.0,0.0,0,0,0,kReverse,0.0,0.0,0.0,0.0,0.0,0.0,0.0,0.0,0.0,0.0,0.0,
202.172695,true,true,true,0.0,-0.0078125,1.0,0.03937007859349251,false,false,false,false,0.03937007859349251,-0.015625,0.0,-0.0078125,false,false,false,false,6.25,10.350000000000001,0.0,0,0,0,7.375,10.5,0.0,0,0,0,33.0,10.350000000000001,0.0,0,0,0,31.5,10.350000000000001,0.0,0,0,0,0.0,10.65,0.0,6,0,0,0.0,4.0,0.0,0,0,0,kReverse,0.0,0.0,0.0,0.0,0.0,0.0,0.0,0.0,0.0,0.0,0.0,
202.34195200000002,true,true,true,0.0,-0.0078125,0.0,0.03937007859349251,false,false,false,false,0.03937007859349251,-0.015625,0.0,-0.0078125,false,false,false,false,9.75,10.5,0.0,0,0,0,12.75,10.600000000000001,0.0,0,0,0,20.75,10.55,0.0,0,0,0,18.875,10.5,0.0,0,0,0,0.0,10.75,0.0,6,0,0,0.0,4.0,0.0,0,0,0,kReverse,0.0,0.0,0.0,0.0,0.0,0.0,0.0,0.0,0.0,0.0,0.0,
202.39251800000002,true,true,true,0.0,-0.0078125,0.0,0.03937007859349251,false,false,false,false,0.03937007859349251,-0.015625,0.0,-0.0078125,false,false,false,false,4.5,10.5,0.0,0,0,0,5.25,10.600000000000001,0.0,0,0,0,5.0,10.55,0.0,0,0,0,8.5,10.5,0.0,0,0,0,0.0,10.75,0.0,6,0,0,0.0,4.0,0.0,0,0,0,kReverse,0.0,0.0,0.0,0.0,0.0,0.0,0.0,0.0,0.0,0.0,0.0,
202.483616,true,true,true,0.0,-0.0078125,0.0,0.03937007859349251,false,false,false,false,0.03937007859349251,-0.015625,0.0,-0.0078125,false,false,false,false,0.0,12.200000000000001,0.0,0,0,0,0.125,12.200000000000001,0.0,0,0,0,0.0,12.200000000000001,0.0,0,0,0,0.0,12.200000000000001,0.0,0,0,0,0.0,12.25,0.0,6,0,0,0.0,4.0,0.0,0,0,0,kReverse,0.0,0.0,0.0,0.0,0.0,0.0,0.0,0.0,0.0,0.0,0.0,
202.612619,true,true,true,0.0,-0.0078125,0.0,0.03937007859349251,false,false,false,false,0.03937007859349251,-0.015625,0.0,-0.0078125,false,false,false,false,0.0,12.200000000000001,0.0,0,0,0,0.125,12.200000000000001,0.0,0,0,0,0.0,12.200000000000001,0.0,0,0,0,0.0,12.200000000000001,0.0,0,0,0,0.0,12.25,0.0,6,0,0,0.0,4.0,0.0,0,0,0,kReverse,0.0,0.0,0.0,0.0,0.0,0.0,0.0,0.0,0.0,0.0,0.0,
202.73842800000003,true,true,true,0.0,-0.0078125,-0.84375,0.03937007859349251,false,false,false,false,0.03937007859349251,-0.015625,0.0,-0.0078125,false,false,false,false,0.0,12.25,0.0,0,0,0,0.125,12.25,0.0,0,0,0,0.0,12.25,0.0,0,0,0,0.0,12.25,0.0,0,0,0,0.0,12.3,0.0,6,0,0,0.0,4.0,0.0,0,0,0,kReverse,0.0,0.0,0.0,0.0,0.0,0.0,0.0,0.0,0.0,0.0,0.0,
202.792453,true,true,true,0.0,-0.0078125,-0.75,0.03937007859349251,false,false,false,false,0.03937007859349251,-0.015625,0.0,-0.0078125,false,false,false,false,9.0,12.25,0.0,0,0,0,13.625,10.8,0.0,0,0,0,9.625,10.850000000000001,0.0,0,0,0,5.625,10.8,0.0,0,0,0,0.0,11.0,0.0,6,0,0,0.0,4.0,0.0,0,0,0,kReverse,0.0,0.0,0.0,0.0,0.0,0.0,0.0,0.0,0.0,0.0,0.0,
202.88342699999998,true,true,true,0.0,-0.0078125,0.0,0.03937007859349251,false,false,false,false,0.03937007859349251,-0.015625,0.0,-0.0078125,false,false,false,false,11.375,10.65,0.0,0,0,0,15.5,10.8,0.0,0,0,0,8.625,10.850000000000001,0.0,0,0,0,9.625,10.8,0.0,0,0,0,0.0,11.0,0.0,6,0,0,0.0,4.0,0.0,0,0,0,kReverse,0.0,0.0,0.0,0.0,0.0,0.0,0.0,0.0,0.0,0.0,0.0,
203.01127800000003,true,true,true,0.0,-0.0078125,0.0,0.03937007859349251,false,false,false,false,0.03937007859349251,-0.015625,0.0,-0.0078125,false,false,false,false,0.0,12.200000000000001,0.0,0,0,0,0.125,12.200000000000001,0.0,0,0,0,0.0,12.200000000000001,0.0,0,0,0,0.0,12.200000000000001,0.0,0,0,0,0.0,12.25,0.0,6,0,0,0.0,4.0,0.0,0,0,0,kReverse,0.0,0.0,0.0,0.0,0.0,0.0,0.0,0.0,0.0,0.0,0.0,
203.222924,true,true,true,0.0,-0.0078125,0.0,0.03937007859349251,false,false,false,false,0.03937007859349251,-0.015625,0.0,-0.0078125,false,false,false,false,0.0,12.25,0.0,0,0,0,0.125,12.25,0.0,0,0,0,0.0,12.25,0.0,0,0,0,0.0,12.25,0.0,0,0,0,0.0,12.35,0.0,6,0,0,0.0,4.0,0.0,0,0,0,kReverse,0.0,0.0,0.0,0.0,0.0,0.0,0.0,0.0,0.0,0.0,0.0,
203.394695,true,true,true,0.0,-1.0,0.0,0.03937007859349251,false,false,false,false,0.03937007859349251,-0.015625,0.0,-0.0078125,false,false,false,false,5.75,12.25,0.0,0,0,0,0.125,12.25,0.0,0,0,0,3.375,12.25,0.0,0,0,0,5.5,12.25,0.0,0,0,0,0.0,12.35,0.0,6,0,0,0.0,4.0,0.0,0,0,0,kReverse,0.0,0.0,0.0,0.0,0.0,0.0,0.0,0.0,0.0,0.0,0.0,
203.569169,true,true,true,0.0,-0.0078125,0.0,0.03937007859349251,false,false,false,false,0.03937007859349251,-0.015625,0.0,-0.0078125,false,false,false,false,13.875,10.4,0.0,0,0,0,23.375,10.45,0.0,0,0,0,11.5,11.3,0.0,0,0,0,11.0,11.2,0.0,0,0,0,0.0,11.350000000000001,0.0,6,0,0,0.0,4.0,0.0,0,0,0,kReverse,0.0,0.0,0.0,0.0,0.0,0.0,0.0,0.0,0.0,0.0,0.0,
203.7965,true,true,true,0.0,-1.0,0.0,0.03937007859349251,false,false,false,false,0.03937007859349251,-0.015625,0.0,-0.0078125,false,false,false,false,0.0,12.200000000000001,0.0,0,0,0,0.125,12.25,0.0,0,0,0,0.0,12.25,0.0,0,0,0,0.0,12.200000000000001,0.0,0,0,0,0.0,12.3,0.0,6,0,0,0.0,4.0,0.0,0,0,0,kReverse,0.0,0.0,0.0,0.0,0.0,0.0,0.0,0.0,0.0,0.0,0.0,
203.863021,true,true,true,-0.5703125,-1.0,0.0,0.03937007859349251,false,false,false,false,0.03937007859349251,-0.015625,0.0,-0.0078125,false,false,false,false,11.5,12.200000000000001,0.0,0,0,0,11.75,12.25,0.0,0,0,0,12.625,12.25,0.0,0,0,0,7.625,12.200000000000001,0.0,0,0,0,0.0,12.3,0.0,6,0,0,0.0,4.0,0.0,0,0,0,kReverse,0.0,0.0,0.0,0.0,0.0,0.0,0.0,0.0,0.0,0.0,0.0,
203.934821,true,true,true,-0.6875,-0.4921875,0.0,0.03937007859349251,false,false,false,false,0.03937007859349251,-0.015625,0.0,-0.0078125,false,false,false,false,10.25,10.7,0.0,0,0,0,16.875,10.9,0.0,0,0,0,12.875,10.9,0.0,0,0,0,8.0,10.850000000000001,0.0,0,0,0,0.0,11.05,0.0,6,0,0,0.0,4.0,0.0,0,0,0,kReverse,0.0,0.0,0.0,0.0,0.0,0.0,0.0,0.0,0.0,0.0,0.0,
204.13767800000002,true,true,true,0.0,-0.0078125,0.0,0.03937007859349251,false,false,false,false,0.03937007859349251,-0.015625,0.0,-0.0078125,false,false,false,false,0.0,12.1,0.0,0,0,0,0.625,12.15,0.0,0,0,0,0.0,12.15,0.0,0,0,0,0.0,12.1,0.0,0,0,0,0.0,12.25,0.0,6,0,0,0.0,4.0,0.0,0,0,0,kReverse,0.0,0.0,0.0,0.0,0.0,0.0,0.0,0.0,0.0,0.0,0.0,
