timer,lineLeft,lineCenter,lineRight,driverLeftX,driverLeftY,driverRightX,driverRightY,driverA,driverB,driverX,driverY,operatorLeftX,operatorLeftY,operatorRightX,operatorRightY,operatorA,operatorB,operatorX,operatorY,LeftFrontCurrent,LeftFrontVoltage,LeftFrontValue,LeftFrontPosition,LeftFrontVelocity,LeftFrontFaults,LeftRearCurrent,LeftRearVoltage,LeftRearValue,LeftRearPosition,LeftRearVelocity,LeftRearFaults,RightFrontCurrent,RightFrontVoltage,RightFrontValue,RightFrontPosition,RightFrontVelocity,RightFrontFaults,RightRearCurrent,RightRearVoltage,RightRearValue,RightRearPosition,RightRearVelocity,RightRearFaults,LiftCurrent,LiftVoltage,LiftValue,LiftPosition,LiftVelocity,LiftFaults,RollerCurrent,RollerVoltage,RollerValue,RollerPosition,RollerVelocity,RollerFaults,PushersState,navx_Pitch,navx_Roll,navx_Yaw,navx_XAcc,navx_YAcc,navx_ZAcc,navx_Temp,navx_Bar,navx_Alt,navx_XDis,navx_YDis,
366.75438899999995,true,true,true,0.0,-0.0078125,0.0,-0.0078125,false,false,false,false,0.0,-0.0078125,0.0,-0.0078125,false,false,false,false,0.0,12.700000000000001,0.0,6432,0,0,0.125,12.700000000000001,0.0,0,0,0,0.0,12.700000000000001,0.0,0,0,0,0.0,12.700000000000001,0.0,0,0,0,0.0,12.8,0.0,-5,0,0,0.0,4.0,0.0,0,0,0,kReverse,0.0,0.0,0.0,0.0,0.0,0.0,0.0,0.0,0.0,0.0,0.0,
366.970736,true,true,true,0.0,-0.0078125,0.0,-0.0078125,false,false,false,false,0.0,-0.0078125,0.0,-0.0078125,false,false,false,false,0.0,12.700000000000001,0.0,6432,0,0,0.125,12.75,0.0,0,0,0,0.0,12.700000000000001,0.0,0,0,0,0.0,12.700000000000001,0.0,0,0,0,0.0,12.8,0.0,-5,0,0,0.0,4.0,0.0,0,0,0,kReverse,0.0,0.0,0.0,0.0,0.0,0.0,0.0,0.0,0.0,0.0,0.0,
367.13321099999996,true,true,true,0.0,-0.0078125,0.0,-0.0078125,false,false,false,false,0.0,-0.0078125,0.0,-0.0078125,false,false,false,false,0.0,12.700000000000001,0.0,6432,0,0,0.0,12.75,0.0,0,0,0,0.0,12.700000000000001,0.0,0,0,0,0.0,12.700000000000001,0.0,0,0,0,0.0,12.8,0.0,-5,0,0,0.0,4.0,0.0,0,0,0,kReverse,0.0,0.0,0.0,0.0,0.0,0.0,0.0,0.0,0.0,0.0,0.0,
367.178234,true,true,true,0.0,-0.0078125,0.0,-0.0078125,false,false,false,false,0.0,-0.0078125,0.0,-0.0078125,false,false,false,false,0.0,12.700000000000001,0.0,6432,0,0,0.125,12.75,0.0,0,0,0,0.0,12.700000000000001,0.0,0,0,0,0.0,12.700000000000001,0.0,0,0,0,0.0,12.8,0.0,-5,0,0,0.0,4.0,0.0,0,0,0,kReverse,0.0,0.0,0.0,0.0,0.0,0.0,0.0,0.0,0.0,0.0,0.0,
367.238302,true,true,true,0.0,-0.0078125,0.0,-0.0078125,false,false,false,false,0.0,-0.0078125,0.0,-0.0078125,false,false,false,false,0.0,12.700000000000001,0.0,6432,0,0,0.125,12.75,0.0,0,0,0,0.0,12.700000000000001,0.0,0,0,0,0.0,12.700000000000001,0.0,0,0,0,0.0,12.8,0.0,-5,0,0,0.0,4.0,0.0,0,0,0,kReverse,0.0,0.0,0.0,0.0,0.0,0.0,0.0,0.0,0.0,0.0,0.0,
367.353825,true,true,true,0.0,1.0,0.0,-0.0078125,false,false,false,false,0.0,-0.0078125,0.0,-0.0078125,false,false,false,false,0.0,12.700000000000001,0.0,6432,0,0,0.125,12.75,0.0,0,0,0,7.875,12.700000000000001,0.0,0,0,0,6.75,12.700000000000001,0.0,0,0,0,0.0,12.8,0.0,-5,0,0,0.0,4.0,0.0,0,0,0,kReverse,0.0,0.0,0.0,0.0,0.0,0.0,0.0,0.0,0.0,0.0,0.0,
367.43967699999996,true,true,true,0.0,1.0,0.0,-0.0078125,false,false,false,false,0.0,-0.0078125,0.0,-0.0078125,false,false,false,false,18.5,10.2,0.0,6399,-33,0,22.75,10.15,0.0,0,0,0,23.0,10.15,0.0,0,0,0,21.125,10.05,0.0,0,0,0,0.0,10.350000000000001,0.0,-5,0,0,0.0,4.0,0.0,0,0,0,kReverse,0.0,0.0,0.0,0.0,0.0,0.0,0.0,0.0,0.0,0.0,0.0,
367.526272,true,true,true,0.0,1.0,0.0,-0.0078125,false,false,false,false,0.0,-0.0078125,0.0,-0.0078125,false,false,false,false,16.375,10.2,0.0,6330,-81,0,20.125,10.15,0.0,0,0,0,18.875,10.15,0.0,0,0,0,16.75,10.05,0.0,0,0,0,0.0,10.350000000000001,0.0,-5,0,0,0.0,4.0,0.0,0,0,0,kReverse,0.0,0.0,0.0,0.0,0.0,0.0,0.0,0.0,0.0,0.0,0.0,
367.63818699999996,true,true,true,0.0,0.6535432934761047,0.0,-0.0078125,false,false,false,false,0.0,-0.0078125,0.0,-0.0078125,false,false,false,false,10.625,10.850000000000001,0.0,6124,-178,0,12.0,11.0,0.0,0,0,0,10.125,11.0,0.0,0,0,0,8.625,10.9,0.0,0,0,0,0.0,11.100000000000001,0.0,-5,0,0,0.0,4.0,0.0,0,0,0,kReverse,0.0,0.0,0.0,0.0,0.0,0.0,0.0,0.0,0.0,0.0,0.0,
367.71709899999996,true,true,true,0.0,-0.046875,0.0,-0.0078125,false,false,false,false,0.0,-0.0078125,0.0,-0.0078125,false,false,false,false,0.5,10.850000000000001,0.0,5954,-213,0,2.75,11.0,0.0,0,0,0,2.125,11.0,0.0,0,0,0,1.375,10.9,0.0,0,0,0,0.0,11.100000000000001,0.0,-5,0,0,0.0,4.0,0.0,0,0,0,kReverse,0.0,0.0,0.0,0.0,0.0,0.0,0.0,0.0,0.0,0.0,0.0,
367.824728,true,true,true,0.0,-0.046875,-1.0,-0.0078125,false,false,false,false,0.0,-0.0078125,0.0,-0.0078125,false,false,false,false,3.0,12.5,0.0,5717,-195,0,1.625,12.5,0.0,0,0,0,13.875,12.5,0.0,0,0,0,11.875,12.450000000000001,0.0,0,0,0,0.0,12.55,0.0,-5,0,0,0.0,4.0,0.0,0,0,0,kReverse,0.0,0.0,0.0,0.0,0.0,0.0,0.0,0.0,0.0,0.0,0.0,
368.055196,true,true,true,0.0,-0.078125,0.031496062874794006,-0.0078125,false,false,false,false,0.0,-0.0078125,0.0,-0.0078125,false,false,false,false,6.5,10.2,0.0,5230,-229,0,9.625,10.350000000000001,0.0,0,0,0,28.125,10.850000000000001,0.0,0,0,0,23.0,10.850000000000001,0.0,0,0,0,0.0,11.100000000000001,0.0,-5,0,0,0.0,4.0,0.0,0,0,0,kReverse,0.0,0.0,0.0,0.0,0.0,0.0,0.0,0.0,0.0,0.0,0.0,
368.206875,true,true,true,0.0,-1.0,0.031496062874794006,-0.0078125,false,false,false,false,0.0,-0.0078125,0.0,-0.0078125,false,false,false,false,6.875,11.100000000000001,0.0,4985,-131,0,6.25,11.0,0.0,0,0,0,0.0,10.850000000000001,0.0,0,0,0,0.0,10.850000000000001,0.0,0,0,0,0.0,10.850000000000001,0.0,-5,0,0,0.0,4.0,0.0,0,0,0,kReverse,0.0,0.0,0.0,0.0,0.0,0.0,0.0,0.0,0.0,0.0,0.0,
368.27625,true,true,true,0.0,-1.0,0.031496062874794006,-0.0078125,false,false,false,false,0.0,-0.0078125,0.0,-0.0078125,false,false,false,false,26.875,10.350000000000001,0.0,4939,-93,0,32.5,10.9,0.0,0,0,0,21.75,10.55,0.0,0,0,0,18.5,10.75,0.0,0,0,0,0.0,10.850000000000001,0.0,-5,0,0,0.0,4.0,0.0,0,0,0,kReverse,0.0,0.0,0.0,0.0,0.0,0.0,0.0,0.0,0.0,0.0,0.0,
368.45786499999997,true,true,true,0.0,-1.0,1.0,-0.0078125,false,false,false,false,0.0,-0.0078125,0.0,-0.0078125,false,false,false,false,23.875,10.55,0.0,5101,145,0,27.5,10.55,0.0,0,0,0,6.125,10.55,0.0,0,0,0,4.75,10.65,0.0,0,0,0,0.0,10.8,0.0,-5,0,0,0.0,4.0,0.0,0,0,0,kReverse,0.0,0.0,0.0,0.0,0.0,0.0,0.0,0.0,0.0,0.0,0.0,
368.646058,true,true,true,0.0,-1.0,0.0,-0.0078125,false,false,false,false,0.0,-0.0078125,0.0,-0.0078125,false,false,false,false,26.25,10.15,0.0,5618,330,0,34.75,10.3,0.0,0,0,0,1.625,10.55,0.0,0,0,0,0.5,10.55,0.0,0,0,0,0.0,10.600000000000001,0.0,-5,0,0,0.0,4.0,0.0,0,0,0,kReverse,0.0,0.0,0.0,0.0,0.0,0.0,0.0,0.0,0.0,0.0,0.0,
368.82294899999994,true,true,true,0.0,-1.0,0.0,-0.0078125,false,false,false,false,0.0,-0.0078125,0.0,-0.0078125,false,false,false,false,10.5,11.4,0.0,6275,359,0,11.75,11.45,0.0,0,0,0,6.625,11.55,0.0,0,0,0,5.125,11.600000000000001,0.0,0,0,0,0.0,11.75,0.0,-5,0,0,0.0,4.0,0.0,0,0,0,kReverse,0.0,0.0,0.0,0.0,0.0,0.0,0.0,0.0,0.0,0.0,0.0,
369.02209899999997,true,true,true,0.0,-1.0,-1.0,-0.0078125,false,false,false,false,0.0,-0.0078125,0.0,-0.0078125,false,false,false,false,1.375,11.850000000000001,0.0,6933,321,0,2.5,11.850000000000001,0.0,0,0,0,18.0,11.850000000000001,0.0,0,0,0,13.625,11.850000000000001,0.0,0,0,0,0.0,12.0,0.0,-5,0,0,0.0,4.0,0.0,0,0,0,kReverse,0.0,0.0,0.0,0.0,0.0,0.0,0.0,0.0,0.0,0.0,0.0,
369.18400299999996,true,true,true,0.0,-1.0,-1.0,-0.0078125,false,false,false,false,0.0,-0.0078125,0.0,-0.0078125,false,false,false,false,0.0,11.850000000000001,0.0,7379,275,0,0.125,11.2,0.0,0,0,0,27.5,11.0,0.0,0,0,0,22.0,11.05,0.0,0,0,0,0.0,11.3,0.0,-5,0,0,0.0,4.0,0.0,0,0,0,kReverse,0.0,0.0,0.0,0.0,0.0,0.0,0.0,0.0,0.0,0.0,0.0,
369.28667799999994,true,true,true,0.0,-1.0,-1.0,-0.0078125,false,false,false,false,0.0,-0.0078125,0.0,-0.0078125,false,false,false,false,0.0,11.2,0.0,7613,291,0,0.125,11.2,0.0,0,0,0,24.0,11.0,0.0,0,0,0,18.25,11.05,0.0,0,0,0,0.0,11.3,0.0,-5,0,0,0.0,4.0,0.0,0,0,0,kReverse,0.0,0.0,0.0,0.0,0.0,0.0,0.0,0.0,0.0,0.0,0.0,
369.357801,true,true,true,0.0,-1.0,-0.125,-0.0078125,false,false,false,false,0.0,-0.0078125,0.0,-0.0078125,false,false,false,false,0.0,11.4,0.0,7845,292,0,0.125,11.4,0.0,0,0,0,23.25,11.2,0.0,0,0,0,16.875,11.25,0.0,0,0,0,0.0,11.45,0.0,-5,0,0,0.0,4.0,0.0,0,0,0,kReverse,0.0,0.0,0.0,0.0,0.0,0.0,0.0,0.0,0.0,0.0,0.0,
369.48865599999993,true,true,true,0.0,-1.0,-0.1328125,-0.0078125,false,false,false,false,0.0,-0.0078125,0.0,-0.0078125,false,false,false,false,0.0,11.4,0.0,8226,267,0,0.0,11.4,0.0,0,0,0,13.5,11.2,0.0,0,0,0,8.625,11.25,0.0,0,0,0,0.0,11.45,0.0,-5,0,0,0.0,4.0,0.0,0,0,0,kReverse,0.0,0.0,0.0,0.0,0.0,0.0,0.0,0.0,0.0,0.0,0.0,
369.56279,true,true,true,0.0,-1.0,-0.84375,-0.0078125,false,false,false,false,0.0,-0.0078125,0.0,-0.0078125,false,false,false,false,2.125,11.95,0.0,8451,278,0,6.625,12.05,0.0,0,0,0,0.375,12.0,0.0,0,0,0,0.0,12.0,0.0,0,0,0,0.0,12.1,0.0,-5,0,0,0.0,4.0,0.0,0,0,0,kReverse,0.0,0.0,0.0,0.0,0.0,0.0,0.0,0.0,0.0,0.0,0.0,
369.63012799999996,true,true,true,0.0,-1.0,-1.0,-0.0078125,false,false,false,false,0.0,-0.0078125,0.0,-0.0078125,false,false,false,false,0.0,11.95,0.0,8609,276,0,1.0,12.05,0.0,0,0,0,18.625,12.0,0.0,0,0,0,8.875,12.0,0.0,0,0,0,0.0,12.1,0.0,-5,0,0,0.0,4.0,0.0,0,0,0,kReverse,0.0,0.0,0.0,0.0,0.0,0.0,0.0,0.0,0.0,0.0,0.0,
369.73934699999995,true,true,true,0.0,-1.0,0.015748031437397003,-0.0078125,false,false,false,false,0.0,-0.0078125,0.0,-0.0078125,false,false,false,false,0.0,11.350000000000001,0.0,8865,256,0,1.25,11.350000000000001,0.0,0,0,0,19.25,11.15,0.0,0,0,0,14.75,11.15,0.0,0,0,0,0.0,11.4,0.0,-5,0,0,0.0,4.0,0.0,0,0,0,kReverse,0.0,0.0,0.0,0.0,0.0,0.0,0.0,0.0,0.0,0.0,0.0,
369.8888,true,true,true,0.0,-1.0,0.015748031437397003,-0.0078125,false,false,false,false,0.0,-0.0078125,0.0,-0.0078125,false,false,false,false,10.375,12.0,0.0,9346,312,0,13.25,12.1,0.0,0,0,0,8.0,12.1,0.0,0,0,0,8.5,12.1,0.0,0,0,0,0.0,12.200000000000001,0.0,-5,0,0,0.0,4.0,0.0,0,0,0,kReverse,0.0,0.0,0.0,0.0,0.0,0.0,0.0,0.0,0.0,0.0,0.0,
370.06301999999994,true,true,true,0.0,-1.0,1.0,-0.0078125,false,false,false,false,0.0,-0.0078125,0.0,-0.0078125,false,false,false,false,15.5,10.5,0.0,10002,436,0,20.25,10.55,0.0,0,0,0,19.125,10.600000000000001,0.0,0,0,0,13.625,10.55,0.0,0,0,0,0.0,10.75,0.0,-5,0,0,0.0,4.0,0.0,0,0,0,kReverse,0.0,0.0,0.0,0.0,0.0,0.0,0.0,0.0,0.0,0.0,0.0,
370.198305,true,true,true,0.0,-1.0,0.3700787425041199,-0.0078125,false,false,false,false,0.0,-0.0078125,0.0,-0.0078125,false,false,false,false,16.125,11.2,0.0,10665,481,0,20.625,11.350000000000001,0.0,0,0,0,0.0,11.45,0.0,0,0,0,0.0,11.45,0.0,0,0,0,0.0,11.5,0.0,-5,0,0,0.0,4.0,0.0,0,0,0,kReverse,0.0,0.0,0.0,0.0,0.0,0.0,0.0,0.0,0.0,0.0,0.0,
370.26409699999994,true,true,true,0.0,-1.0,0.0,-0.0078125,false,false,false,false,0.0,-0.0078125,0.0,-0.0078125,false,false,false,false,16.375,11.2,0.0,10970,504,256,21.0,11.350000000000001,0.0,0,0,0,0.0,11.45,0.0,0,0,0,0.0,11.45,0.0,0,0,0,0.0,11.5,0.0,-5,0,0,0.0,4.0,0.0,0,0,0,kReverse,0.0,0.0,0.0,0.0,0.0,0.0,0.0,0.0,0.0,0.0,0.0,
370.384159,true,true,true,0.0,-1.0,0.0,-0.0078125,false,false,false,false,0.0,-0.0078125,0.0,-0.0078125,false,false,false,false,9.0,10.8,0.0,11591,520,256,13.0,10.9,0.0,0,0,0,21.25,10.8,0.0,0,0,0,14.25,10.9,0.0,0,0,0,0.0,11.05,0.0,-5,0,0,0.0,4.0,0.0,0,0,0,kReverse,0.0,0.0,0.0,0.0,0.0,0.0,0.0,0.0,0.0,0.0,0.0,
370.567255,true,true,true,0.0,-1.0,0.0,-0.0078125,false,false,false,false,0.0,-0.0078125,0.0,-0.0078125,false,false,false,false,10.625,10.8,0.0,12509,498,256,15.0,10.9,0.0,0,0,0,14.875,10.850000000000001,0.0,0,0,0,9.75,10.850000000000001,0.0,0,0,0,0.0,11.05,0.0,-5,0,0,0.0,4.0,0.0,0,0,0,kReverse,0.0,0.0,0.0,0.0,0.0,0.0,0.0,0.0,0.0,0.0,0.0,
370.72166999999996,true,true,true,0.0,-1.0,0.17322835326194763,-0.0078125,false,false,false,false,0.0,-0.0078125,0.0,-0.0078125,false,false,false,false,9.5,11.0,0.0,13467,538,256,14.0,11.100000000000001,0.0,0,0,0,11.125,11.05,0.0,0,0,0,7.25,11.05,0.0,0,0,0,0.0,11.25,0.0,-5,0,0,0.0,4.0,0.0,0,0,0,kReverse,0.0,0.0,0.0,0.0,0.0,0.0,0.0,0.0,0.0,0.0,0.0,
370.888,true,true,true,0.0,-1.0,1.0,-0.0078125,false,false,false,false,0.0,-0.0078125,0.0,-0.0078125,false,false,false,false,9.25,11.5,0.0,14249,562,256,13.375,11.55,0.0,0,0,0,1.625,11.600000000000001,0.0,0,0,0,0.0,11.600000000000001,0.0,0,0,0,0.0,11.7,0.0,-5,0,0,0.0,4.0,0.0,0,0,0,kReverse,0.0,0.0,0.0,0.0,0.0,0.0,0.0,0.0,0.0,0.0,0.0,
370.943068,true,true,true,0.0,-1.0,1.0,-0.0078125,false,false,false,false,0.0,-0.0078125,0.0,-0.0078125,false,false,false,false,8.75,11.5,0.0,14594,571,256,12.875,11.75,0.0,0,0,0,0.0,11.850000000000001,0.0,0,0,0,0.0,11.850000000000001,0.0,0,0,0,0.0,11.9,0.0,-5,0,0,0.0,4.0,0.0,0,0,0,kReverse,0.0,0.0,0.0,0.0,0.0,0.0,0.0,0.0,0.0,0.0,0.0,
371.06350199999997,true,true,true,0.0,-1.0,0.11811023950576782,-0.0078125,false,false,false,false,0.0,-0.0078125,0.0,-0.0078125,false,false,false,false,9.0,11.7,0.0,15411,586,256,11.75,11.75,0.0,0,0,0,0.0,11.850000000000001,0.0,0,0,0,0.0,11.850000000000001,0.0,0,0,0,0.0,11.9,0.0,-5,0,0,0.0,4.0,0.0,0,0,0,kReverse,0.0,0.0,0.0,0.0,0.0,0.0,0.0,0.0,0.0,0.0,0.0,
371.177064,true,true,true,0.0,-1.0,-0.0390625,-0.0078125,false,false,false,false,0.0,-0.0078125,0.0,-0.0078125,false,false,false,false,9.25,11.9,0.0,15995,584,256,11.75,12.0,0.0,0,0,0,0.0,12.05,0.0,0,0,0,0.0,12.05,0.0,0,0,0,0.0,12.1,0.0,-5,0,0,0.0,4.0,0.0,0,0,0,kReverse,0.0,0.0,0.0,0.0,0.0,0.0,0.0,0.0,0.0,0.0,0.0,
371.24602899999996,true,true,true,0.0,-1.0,-0.0390625,-0.0078125,false,false,false,false,0.0,-0.0078125,0.0,-0.0078125,false,false,false,false,4.625,11.9,0.0,16460,580,256,5.5,12.0,0.0,0,0,0,12.5,12.05,0.0,0,0,0,8.5,11.5,0.0,0,0,0,0.0,11.65,0.0,-5,0,0,0.0,4.0,0.0,0,0,0,kReverse,0.0,0.0,0.0,0.0,0.0,0.0,0.0,0.0,0.0,0.0,0.0,
371.40388299999995,true,true,true,0.0,-0.5625,-0.0390625,-0.0078125,false,false,false,false,0.0,-0.0078125,0.0,-0.0078125,false,false,false,false,4.625,11.5,0.0,17371,565,256,6.25,11.55,0.0,0,0,0,8.75,12.1,0.0,0,0,0,7.375,12.1,0.0,0,0,0,0.0,12.200000000000001,0.0,-5,0,0,0.0,4.0,0.0,0,0,0,kReverse,0.0,0.0,0.0,0.0,0.0,0.0,0.0,0.0,0.0,0.0,0.0,
371.55107499999997,true,true,true,0.0,1.0,-0.0390625,-0.0078125,false,false,false,false,0.0,-0.0078125,0.0,-0.0078125,false,false,false,false,0.0,12.15,0.0,18111,529,256,0.625,12.15,0.0,0,0,0,3.875,12.1,0.0,0,0,0,13.25,12.1,0.0,0,0,0,0.0,12.200000000000001,0.0,-5,0,0,0.0,4.0,0.0,0,0,0,kReverse,0.0,0.0,0.0,0.0,0.0,0.0,0.0,0.0,0.0,0.0,0.0,
371.75782399999997,true,true,true,0.0,0.8661417365074158,-0.0390625,-0.0078125,false,false,false,false,0.0,-0.0078125,0.0,-0.0078125,false,false,false,false,17.125,10.2,0.0,18614,123,0,21.375,10.3,0.0,0,0,0,19.75,10.3,0.0,0,0,0,18.625,10.15,0.0,0,0,0,0.0,10.55,0.0,-5,0,0,0.0,4.0,0.0,0,0,0,kReverse,0.0,0.0,0.0,0.0,0.0,0.0,0.0,0.0,0.0,0.0,0.0,
371.95647599999995,true,true,true,0.0,-0.0078125,1.0,-0.0078125,false,false,false,false,0.0,-0.0078125,0.0,-0.0078125,false,false,false,false,23.875,9.65,0.0,18509,-44,0,25.125,9.600000000000001,0.0,0,0,0,22.5,9.65,0.0,0,0,0,22.375,9.5,0.0,0,0,0,0.0,9.850000000000001,0.0,-5,0,0,0.0,4.0,0.0,0,0,0,kReverse,0.0,0.0,0.0,0.0,0.0,0.0,0.0,0.0,0.0,0.0,0.0,
372.162577,true,true,true,0.0,-0.9921875,0.20472441613674164,-0.0078125,false,false,false,false,0.0,-0.0078125,0.0,-0.0078125,false,false,false,false,20.125,9.9,0.0,18691,118,0,24.375,10.0,0.0,0,0,0,17.25,9.95,0.0,0,0,0,15.875,10.100000000000001,0.0,0,0,0,0.0,10.2,0.0,-5,0,0,0.0,4.0,0.0,0,0,0,kReverse,0.0,0.0,0.0,0.0,0.0,0.0,0.0,0.0,0.0,0.0,0.0,
372.365543,true,true,true,0.0,-1.0,-0.0234375,-0.0078125,false,false,false,false,0.0,-0.0078125,0.0,-0.0078125,false,false,false,false,33.25,10.0,0.0,19103,235,0,37.875,10.45,0.0,0,0,0,0.875,10.45,0.0,0,0,0,7.125,10.75,0.0,0,0,0,0.0,11.0,0.0,-5,0,0,0.0,4.0,0.0,0,0,0,kReverse,0.0,0.0,0.0,0.0,0.0,0.0,0.0,0.0,0.0,0.0,0.0,
372.573141,true,true,true,0.0,-0.1953125,-0.515625,-0.0078125,false,false,false,false,0.0,-0.0078125,0.0,-0.0078125,false,false,false,false,6.125,11.25,0.0,19635,252,0,11.375,11.25,0.0,0,0,0,12.5,11.25,0.0,0,0,0,7.375,11.2,0.0,0,0,0,0.0,11.350000000000001,0.0,-5,0,0,0.0,4.0,0.0,0,0,0,kReverse,0.0,0.0,0.0,0.0,0.0,0.0,0.0,0.0,0.0,0.0,0.0,
372.702489,true,true,true,0.0,-0.0078125,-1.0,-0.0078125,false,false,false,false,0.0,-0.0078125,0.0,-0.0078125,false,false,false,false,5.125,11.25,0.0,19845,165,0,10.625,11.600000000000001,0.0,0,0,0,4.375,11.55,0.0,0,0,0,1.0,11.75,0.0,0,0,0,0.0,11.75,0.0,-5,0,0,0.0,4.0,0.0,0,0,0,kReverse,0.0,0.0,0.0,0.0,0.0,0.0,0.0,0.0,0.0,0.0,0.0,
372.798337,true,true,true,0.0,-0.0078125,-1.0,-0.0078125,false,false,false,false,0.0,-0.0078125,0.0,-0.0078125,false,false,false,false,29.375,11.2,0.0,19938,93,0,35.875,11.600000000000001,0.0,0,0,0,7.625,11.55,0.0,0,0,0,5.125,11.75,0.0,0,0,0,0.0,11.75,0.0,-5,0,0,0.0,4.0,0.0,0,0,0,kReverse,0.0,0.0,0.0,0.0,0.0,0.0,0.0,0.0,0.0,0.0,0.0,
372.87680199999994,true,true,true,0.0,-0.0078125,-1.0,-0.0078125,false,false,false,false,0.0,-0.0078125,0.0,-0.0078125,false,false,false,false,19.0,10.65,0.0,19930,3,0,22.875,10.8,0.0,0,0,0,9.625,10.8,0.0,0,0,0,6.375,10.8,0.0,0,0,0,0.0,10.9,0.0,-5,0,0,0.0,4.0,0.0,0,0,0,kReverse,0.0,0.0,0.0,0.0,0.0,0.0,0.0,0.0,0.0,0.0,0.0,
373.091131,true,true,true,0.0,-0.0078125,0.0,-0.0078125,false,false,false,false,0.0,-0.0078125,0.0,-0.0078125,false,false,false,false,10.25,11.0,0.0,19577,-205,0,14.125,11.05,0.0,0,0,0,10.875,11.100000000000001,0.0,0,0,0,5.625,11.100000000000001,0.0,0,0,0,0.0,11.25,0.0,-5,0,0,0.0,4.0,0.0,0,0,0,kReverse,0.0,0.0,0.0,0.0,0.0,0.0,0.0,0.0,0.0,0.0,0.0,
373.31501999999995,true,true,true,0.0,-0.0078125,-1.0,-0.0078125,false,false,false,false,0.0,-0.0078125,0.0,-0.0078125,false,false,false,false,0.0,12.450000000000001,0.0,19215,-142,0,0.125,12.450000000000001,0.0,0,0,0,6.25,12.450000000000001,0.0,0,0,0,5.0,12.450000000000001,0.0,0,0,0,0.0,12.55,0.0,-5,0,0,0.0,4.0,0.0,0,0,0,kReverse,0.0,0.0,0.0,0.0,0.0,0.0,0.0,0.0,0.0,0.0,0.0,
373.47260199999994,true,true,true,0.0,-0.0078125,-1.0,-0.0078125,false,false,false,false,0.0,-0.0078125,0.0,-0.0078125,false,false,false,false,13.75,10.850000000000001,0.0,18985,-150,0,17.75,10.9,0.0,0,0,0,15.375,10.9,0.0,0,0,0,12.5,10.850000000000001,0.0,0,0,0,0.0,11.05,0.0,-5,0,0,0.0,4.0,0.0,0,0,0,kReverse,0.0,0.0,0.0,0.0,0.0,0.0,0.0,0.0,0.0,0.0,0.0,
373.670735,true,true,true,0.0,-0.0078125,-1.0,-0.0078125,false,false,false,false,0.0,-0.0078125,0.0,-0.0078125,false,false,false,false,9.875,11.0,0.0,18571,-216,0,13.75,11.05,0.0,0,0,0,13.5,11.0,0.0,0,0,0,10.375,11.05,0.0,0,0,0,0.0,11.2,0.0,-5,0,0,0.0,4.0,0.0,0,0,0,kReverse,0.0,0.0,0.0,0.0,0.0,0.0,0.0,0.0,0.0,0.0,0.0,
373.85877899999997,true,true,true,0.0,1.0,0.0,-0.0078125,false,false,false,false,0.0,-0.0078125,0.0,-0.0078125,false,false,false,false,8.5,11.15,0.0,18145,-240,0,10.625,11.15,0.0,0,0,0,13.5,11.15,0.0,0,0,0,10.125,11.15,0.0,0,0,0,0.0,11.3,0.0,-5,0,0,0.0,4.0,0.0,0,0,0,kReverse,0.0,0.0,0.0,0.0,0.0,0.0,0.0,0.0,0.0,0.0,0.0,
374.055509,true,true,true,0.0,1.0,0.0,-0.0078125,false,false,false,false,0.0,-0.0078125,0.0,-0.0078125,false,false,false,false,5.625,11.2,0.0,17719,-195,0,8.625,11.3,0.0,0,0,0,15.0,11.3,0.0,0,0,0,15.25,11.25,0.0,0,0,0,0.0,11.4,0.0,-5,0,0,0.0,4.0,0.0,0,0,0,kReverse,0.0,0.0,0.0,0.0,0.0,0.0,0.0,0.0,0.0,0.0,0.0,
374.18222199999997,true,true,true,0.0,1.0,0.0,-0.0078125,false,false,false,false,0.0,-0.0078125,0.0,-0.0078125,false,false,false,false,10.0,10.9,0.0,17468,-212,0,13.25,10.95,0.0,0,0,0,12.75,11.0,0.0,0,0,0,10.625,11.0,0.0,0,0,0,0.0,11.15,0.0,-5,0,0,0.0,4.0,0.0,0,0,0,kReverse,0.0,0.0,0.0,0.0,0.0,0.0,0.0,0.0,0.0,0.0,0.0,
374.2808739999999,true,true,true,0.0,1.0,0.0,-0.0078125,false,false,false,false,0.0,-0.0078125,0.0,-0.0078125,false,false,false,false,8.0,10.9,0.0,17224,-244,0,11.375,10.95,0.0,0,0,0,10.875,11.0,0.0,0,0,0,8.5,11.0,0.0,0,0,0,0.0,11.15,0.0,-5,0,0,0.0,4.0,0.0,0,0,0,kReverse,0.0,0.0,0.0,0.0,0.0,0.0,0.0,0.0,0.0,0.0,0.0,
374.41878399999996,true,true,true,0.0,1.0,0.0,-0.0078125,false,false,false,false,0.0,-0.0078125,0.0,-0.0078125,false,false,false,false,5.0,11.3,0.0,16769,-293,0,8.125,11.350000000000001,0.0,0,0,0,7.5,11.4,0.0,0,0,0,5.375,11.350000000000001,0.0,0,0,0,0.0,11.55,0.0,-5,0,0,0.0,4.0,0.0,0,0,0,kReverse,0.0,0.0,0.0,0.0,0.0,0.0,0.0,0.0,0.0,0.0,0.0,
374.50194999999997,true,true,true,0.0,1.0,0.0,-0.0078125,false,false,false,false,0.0,-0.0078125,0.0,-0.0078125,false,false,false,false,4.875,11.65,0.0,16584,-304,0,7.375,11.75,0.0,0,0,0,6.75,11.7,0.0,0,0,0,4.75,11.65,0.0,0,0,0,0.0,11.850000000000001,0.0,-5,0,0,0.0,4.0,0.0,0,0,0,kReverse,0.0,0.0,0.0,0.0,0.0,0.0,0.0,0.0,0.0,0.0,0.0,
374.571554,true,true,true,0.0,1.0,0.0,-0.0078125,false,false,false,false,0.0,-0.0078125,0.0,-0.0078125,false,false,false,false,4.875,11.65,0.0,16336,-310,0,7.75,11.75,0.0,0,0,0,6.5,11.7,0.0,0,0,0,4.75,11.65,0.0,0,0,0,0.0,11.850000000000001,0.0,-5,0,0,0.0,4.0,0.0,0,0,0,kReverse,0.0,0.0,0.0,0.0,0.0,0.0,0.0,0.0,0.0,0.0,0.0,
374.635375,true,true,true,0.0,0.3858267664909363,0.0,-0.0078125,false,false,false,false,0.0,-0.0078125,0.0,-0.0078125,false,false,false,false,12.375,10.9,0.0,16191,-264,0,15.375,10.9,0.0,0,0,0,8.625,11.05,0.0,0,0,0,5.25,11.05,0.0,0,0,0,0.0,11.2,0.0,-5,0,0,0.0,4.0,0.0,0,0,0,kReverse,0.0,0.0,0.0,0.0,0.0,0.0,0.0,0.0,0.0,0.0,0.0,
374.69034,true,true,true,0.0,-0.125,0.0,-0.0078125,false,false,false,false,0.0,-0.0078125,0.0,-0.0078125,false,false,false,false,4.875,10.9,0.0,16096,-186,0,7.75,10.9,0.0,0,0,0,2.75,11.05,0.0,0,0,0,2.25,11.05,0.0,0,0,0,0.0,11.2,0.0,-5,0,0,0.0,4.0,0.0,0,0,0,kReverse,0.0,0.0,0.0,0.0,0.0,0.0,0.0,0.0,0.0,0.0,0.0,
374.776531,true,true,true,0.0,-0.578125,0.0,-0.0078125,false,false,false,false,0.0,-0.0078125,0.0,-0.0078125,false,false,false,false,0.0,10.9,0.0,16008,-119,0,0.625,10.9,0.0,0,0,0,1.5,11.05,0.0,0,0,0,3.0,12.200000000000001,0.0,0,0,0,0.0,12.3,0.0,-5,0,0,0.0,4.0,0.0,0,0,0,kReverse,0.0,0.0,0.0,0.0,0.0,0.0,0.0,0.0,0.0,0.0,0.0,
374.872793,true,true,true,0.0,-1.0,0.0,-0.0078125,false,false,false,false,0.0,-0.0078125,0.0,-0.0078125,false,false,false,false,7.0,12.05,0.0,15957,-51,0,8.0,12.200000000000001,0.0,0,0,0,8.0,12.1,0.0,0,0,0,6.375,12.200000000000001,0.0,0,0,0,0.0,12.3,0.0,-5,0,0,0.0,4.0,0.0,0,0,0,kReverse,0.0,0.0,0.0,0.0,0.0,0.0,0.0,0.0,0.0,0.0,0.0,
374.92340499999995,true,true,true,0.0,-0.921875,0.0,-0.0078125,false,false,false,false,0.0,-0.0078125,0.0,-0.0078125,false,false,false,false,16.0,12.05,0.0,15952,-28,0,18.75,12.200000000000001,0.0,0,0,0,17.5,12.1,0.0,0,0,0,11.625,12.200000000000001,0.0,0,0,0,0.0,12.3,0.0,-5,0,0,0.0,4.0,0.0,0,0,0,kReverse,0.0,0.0,0.0,0.0,0.0,0.0,0.0,0.0,0.0,0.0,0.0,
375.0111,true,true,true,0.0,-1.0,0.0,-0.0078125,false,false,false,false,0.0,-0.0078125,0.0,-0.0078125,false,false,false,false,12.875,10.5,0.0,16003,51,0,16.5,10.5,0.0,0,0,0,13.75,10.5,0.0,0,0,0,10.125,10.5,0.0,0,0,0,0.0,10.7,0.0,-5,0,0,0.0,4.0,0.0,0,0,0,kReverse,0.0,0.0,0.0,0.0,0.0,0.0,0.0,0.0,0.0,0.0,0.0,
375.22376399999996,true,true,true,0.0,-1.0,0.0,-0.0078125,false,false,false,false,0.0,-0.0078125,0.0,-0.0078125,false,false,false,false,8.0,11.25,0.0,16432,246,0,11.25,11.2,0.0,0,0,0,9.25,11.15,0.0,0,0,0,5.5,11.2,0.0,0,0,0,0.0,11.350000000000001,0.0,-5,0,0,0.0,4.0,0.0,0,0,0,kReverse,0.0,0.0,0.0,0.0,0.0,0.0,0.0,0.0,0.0,0.0,0.0,
375.429806,true,true,true,0.0,-0.015625,0.0,-0.0078125,false,false,false,false,0.0,-0.0078125,0.0,-0.0078125,false,false,false,false,3.125,11.7,0.0,17060,294,0,8.375,11.75,0.0,0,0,0,7.125,11.75,0.0,0,0,0,1.0,11.7,0.0,0,0,0,0.0,11.850000000000001,0.0,-5,0,0,0.0,4.0,0.0,0,0,0,kReverse,0.0,0.0,0.0,0.0,0.0,0.0,0.0,0.0,0.0,0.0,0.0,
375.615137,true,true,true,-0.28125,-0.7890625,-0.953125,-0.0078125,false,false,false,false,0.0,-0.0078125,0.0,-0.0078125,false,false,false,false,0.0,12.5,0.0,17554,273,0,0.125,12.55,0.0,0,0,0,0.0,12.5,0.0,0,0,0,0.0,12.5,0.0,0,0,0,0.0,12.6,0.0,-5,0,0,0.0,4.0,0.0,0,0,0,kReverse,0.0,0.0,0.0,0.0,0.0,0.0,0.0,0.0,0.0,0.0,0.0,
375.67580899999996,true,true,true,0.0,-0.1015625,-1.0,-0.0078125,false,false,false,false,0.0,-0.0078125,0.0,-0.0078125,false,false,false,false,0.0,12.5,0.0,17700,257,0,0.0,12.55,0.0,0,0,0,24.875,12.5,0.0,0,0,0,18.875,12.5,0.0,0,0,0,0.0,12.6,0.0,-5,0,0,0.0,4.0,0.0,0,0,0,kReverse,0.0,0.0,0.0,0.0,0.0,0.0,0.0,0.0,0.0,0.0,0.0,
375.72991199999996,true,true,true,0.0,-0.65625,-0.921875,-0.0078125,false,false,false,false,0.0,-0.0078125,0.0,-0.0078125,false,false,false,false,22.0,12.5,0.0,17815,207,0,24.125,12.55,0.0,0,0,0,13.875,12.5,0.0,0,0,0,11.0,12.5,0.0,0,0,0,0.0,12.6,0.0,-5,0,0,0.0,4.0,0.0,0,0,0,kReverse,0.0,0.0,0.0,0.0,0.0,0.0,0.0,0.0,0.0,0.0,0.0,
375.78823199999994,true,true,true,-0.3359375,-0.484375,-0.0234375,-0.0078125,false,false,false,false,0.0,-0.0078125,0.0,-0.0078125,false,false,false,false,4.375,10.850000000000001,0.0,17907,165,0,7.125,10.7,0.0,0,0,0,25.75,10.850000000000001,0.0,0,0,0,16.125,10.850000000000001,0.0,0,0,0,0.0,11.05,0.0,-5,0,0,0.0,4.0,0.0,0,0,0,kReverse,0.0,0.0,0.0,0.0,0.0,0.0,0.0,0.0,0.0,0.0,0.0,
375.85130799999996,true,true,true,-0.328125,0.7637795209884644,0.0,-0.0078125,false,false,false,false,0.0,-0.0078125,0.0,-0.0078125,false,false,false,false,0.625,10.850000000000001,0.0,17987,139,0,1.75,10.7,0.0,0,0,0,2.375,10.850000000000001,0.0,0,0,0,6.5,10.850000000000001,0.0,0,0,0,0.0,11.05,0.0,-5,0,0,0.0,4.0,0.0,0,0,0,kReverse,0.0,0.0,0.0,0.0,0.0,0.0,0.0,0.0,0.0,0.0,0.0,
375.911481,true,true,true,-0.2734375,1.0,0.0,-0.0078125,false,false,false,false,0.0,-0.0078125,0.0,-0.0078125,false,false,false,false,5.625,10.850000000000001,0.0,18053,118,0,6.25,11.350000000000001,0.0,0,0,0,12.625,11.350000000000001,0.0,0,0,0,11.375,11.45,0.0,0,0,0,0.0,11.5,0.0,-5,0,0,0.0,4.0,0.0,0,0,0,kReverse,0.0,0.0,0.0,0.0,0.0,0.0,0.0,0.0,0.0,0.0,0.0,
375.969769,true,true,true,0.0,1.0,-0.8984375,-0.0078125,false,false,false,false,0.0,-0.0078125,0.0,-0.0078125,false,false,false,false,25.625,11.2,0.0,18082,69,0,28.75,11.350000000000001,0.0,0,0,0,32.125,11.350000000000001,0.0,0,0,0,31.5,11.45,0.0,0,0,0,0.0,11.5,0.0,-5,0,0,0.0,4.0,0.0,0,0,0,kReverse,0.0,0.0,0.0,0.0,0.0,0.0,0.0,0.0,0.0,0.0,0.0,
376.01848799999993,true,true,true,0.0,0.913385808467865,-1.0,-0.0078125,false,false,false,false,0.0,-0.0078125,0.0,-0.0078125,false,false,false,false,48.25,11.2,0.0,18087,35,0,53.125,11.350000000000001,0.0,0,0,0,15.5,11.350000000000001,0.0,0,0,0,8.0,11.45,0.0,0,0,0,0.0,11.5,0.0,-5,0,0,0.0,4.0,0.0,0,0,0,kReverse,0.0,0.0,0.0,0.0,0.0,0.0,0.0,0.0,0.0,0.0,0.0,
376.08875399999994,true,true,true,0.0,-0.0078125,0.0,-0.0078125,false,false,false,false,0.0,-0.0078125,0.0,-0.0078125,false,false,false,false,52.375,9.3,0.0,18051,-32,0,57.0,9.45,0.0,0,0,0,0.5,9.75,0.0,0,0,0,0.5,9.75,0.0,0,0,0,0.0,9.8,0.0,-5,0,0,0.0,4.0,0.0,0,0,0,kReverse,0.0,0.0,0.0,0.0,0.0,0.0,0.0,0.0,0.0,0.0,0.0,
376.153065,true,true,true,0.0,-0.0078125,0.0,-0.0078125,false,false,false,false,0.0,-0.0078125,0.0,-0.0078125,false,false,false,false,2.625,9.3,0.0,17926,-145,0,7.125,9.45,0.0,0,0,0,0.0,9.75,0.0,0,0,0,0.0,9.75,0.0,0,0,0,0.0,9.8,0.0,-5,0,0,0.0,4.0,0.0,0,0,0,kReverse,0.0,0.0,0.0,0.0,0.0,0.0,0.0,0.0,0.0,0.0,0.0,
376.241213,true,true,true,0.0,-0.0078125,0.0,-0.0078125,false,false,false,false,0.0,-0.0078125,0.0,-0.0078125,false,false,false,false,0.0,12.450000000000001,0.0,17838,-116,0,0.125,12.450000000000001,0.0,0,0,0,0.0,12.450000000000001,0.0,0,0,0,0.0,12.450000000000001,0.0,0,0,0,0.0,12.55,0.0,-5,0,0,0.0,4.0,0.0,0,0,0,kReverse,0.0,0.0,0.0,0.0,0.0,0.0,0.0,0.0,0.0,0.0,0.0,
376.32438899999994,true,true,true,0.0,0.7086614370346069,0.0,-0.0078125,false,false,false,false,0.0,-0.0078125,0.0,-0.0078125,false,false,false,false,0.0,12.450000000000001,0.0,17759,-99,0,1.25,12.450000000000001,0.0,0,0,0,0.0,12.450000000000001,0.0,0,0,0,0.0,12.450000000000001,0.0,0,0,0,0.0,12.55,0.0,-5,0,0,0.0,4.0,0.0,0,0,0,kReverse,0.0,0.0,0.0,0.0,0.0,0.0,0.0,0.0,0.0,0.0,0.0,
376.47932899999995,true,true,true,0.0,-0.0078125,0.0,-0.0078125,false,false,false,false,0.0,-0.0078125,0.0,-0.0078125,false,false,false,false,7.125,11.600000000000001,0.0,17574,-121,0,7.375,11.65,0.0,0,0,0,8.875,11.7,0.0,0,0,0,7.375,11.7,0.0,0,0,0,0.0,11.850000000000001,0.0,-5,0,0,0.0,4.0,0.0,0,0,0,kReverse,0.0,0.0,0.0,0.0,0.0,0.0,0.0,0.0,0.0,0.0,0.0,
376.72724,true,true,true,0.14960630238056183,0.7007874250411987,0.0,-0.0078125,false,false,false,false,0.0,-0.0078125,0.0,-0.0078125,false,false,false,false,0.0,12.55,0.0,17334,-88,0,3.5,12.6,0.0,0,0,0,0.0,12.55,0.0,0,0,0,5.25,12.55,0.0,0,0,0,0.0,12.65,0.0,-5,0,0,0.0,4.0,0.0,0,0,0,kReverse,0.0,0.0,0.0,0.0,0.0,0.0,0.0,0.0,0.0,0.0,0.0,
376.88399499999997,true,true,true,0.4251968562602997,-1.0,0.0,-0.0078125,false,false,false,false,0.0,-0.0078125,0.0,-0.0078125,false,false,false,false,13.875,10.55,0.0,17122,-153,0,19.625,10.7,0.0,0,0,0,16.375,10.7,0.0,0,0,0,14.25,10.65,0.0,0,0,0,0.0,10.9,0.0,-5,0,0,0.0,4.0,0.0,0,0,0,kReverse,0.0,0.0,0.0,0.0,0.0,0.0,0.0,0.0,0.0,0.0,0.0,
377.03559099999995,true,true,true,0.34645670652389526,-1.0,0.0,-0.0078125,false,false,false,false,0.0,-0.0078125,0.0,-0.0078125,false,false,false,false,29.125,9.600000000000001,0.0,17015,-27,0,33.75,9.7,0.0,0,0,0,26.375,9.65,0.0,0,0,0,24.5,9.55,0.0,0,0,0,0.0,9.9,0.0,-5,0,0,0.0,4.0,0.0,0,0,0,kReverse,0.0,0.0,0.0,0.0,0.0,0.0,0.0,0.0,0.0,0.0,0.0,
377.278691,true,true,true,0.3385826647281647,-1.0,0.0,-0.0078125,false,false,false,false,0.0,-0.0078125,0.0,-0.0078125,false,false,false,false,13.625,10.5,0.0,17271,175,0,16.75,10.65,0.0,0,0,0,15.5,10.55,0.0,0,0,0,11.875,10.600000000000001,0.0,0,0,0,0.0,10.8,0.0,-5,0,0,0.0,4.0,0.0,0,0,0,kReverse,0.0,0.0,0.0,0.0,0.0,0.0,0.0,0.0,0.0,0.0,0.0,
377.415051,true,true,true,0.3385826647281647,-1.0,0.0,-0.0078125,false,false,false,false,0.0,-0.0078125,0.0,-0.0078125,false,false,false,false,11.5,10.850000000000001,0.0,17565,214,0,14.875,10.95,0.0,0,0,0,13.75,11.0,0.0,0,0,0,10.125,10.9,0.0,0,0,0,0.0,11.15,0.0,-5,0,0,0.0,4.0,0.0,0,0,0,kReverse,0.0,0.0,0.0,0.0,0.0,0.0,0.0,0.0,0.0,0.0,0.0,
377.544836,true,true,true,0.3385826647281647,-1.0,0.0,-0.0078125,false,false,false,false,0.0,-0.0078125,0.0,-0.0078125,false,false,false,false,6.75,11.4,0.0,17843,233,0,8.375,11.4,0.0,0,0,0,7.5,11.4,0.0,0,0,0,5.125,11.4,0.0,0,0,0,0.0,11.55,0.0,-5,0,0,0.0,4.0,0.0,0,0,0,kReverse,0.0,0.0,0.0,0.0,0.0,0.0,0.0,0.0,0.0,0.0,0.0,
377.595199,true,true,true,0.3385826647281647,-1.0,0.0,-0.0078125,false,false,false,false,0.0,-0.0078125,0.0,-0.0078125,false,false,false,false,5.75,11.4,0.0,18011,263,0,6.875,11.4,0.0,0,0,0,5.875,11.4,0.0,0,0,0,5.0,11.4,0.0,0,0,0,0.0,11.55,0.0,-5,0,0,0.0,4.0,0.0,0,0,0,kReverse,0.0,0.0,0.0,0.0,0.0,0.0,0.0,0.0,0.0,0.0,0.0,
377.67970299999996,true,true,true,0.33070865273475647,-1.0,0.16535432636737823,-0.0078125,false,false,false,false,0.0,-0.0078125,0.0,-0.0078125,false,false,false,false,5.875,11.850000000000001,0.0,18276,327,0,8.0,11.9,0.0,0,0,0,5.125,11.850000000000001,0.0,0,0,0,4.5,11.9,0.0,0,0,0,0.0,12.0,0.0,-5,0,0,0.0,4.0,0.0,0,0,0,kReverse,0.0,0.0,0.0,0.0,0.0,0.0,0.0,0.0,0.0,0.0,0.0,
377.834932,true,true,true,0.0,-0.0078125,0.34645670652389526,-0.0078125,false,false,false,false,0.0,-0.0078125,0.0,-0.0078125,false,false,false,false,6.125,11.8,0.0,18809,339,0,11.25,11.850000000000001,0.0,0,0,0,1.75,11.9,0.0,0,0,0,1.0,11.850000000000001,0.0,0,0,0,0.0,12.0,0.0,-5,0,0,0.0,4.0,0.0,0,0,0,kReverse,0.0,0.0,0.0,0.0,0.0,0.0,0.0,0.0,0.0,0.0,0.0,
377.990664,true,true,true,0.0,-0.0078125,0.3779527544975281,-0.0078125,false,false,false,false,0.0,-0.0078125,0.0,-0.0078125,false,false,false,false,0.0,12.4,0.0,19285,282,0,0.0,12.450000000000001,0.0,0,0,0,4.75,12.450000000000001,0.0,0,0,0,3.875,12.35,0.0,0,0,0,0.0,12.5,0.0,-5,0,0,0.0,4.0,0.0,0,0,0,kReverse,0.0,0.0,0.0,0.0,0.0,0.0,0.0,0.0,0.0,0.0,0.0,
378.171142,true,true,true,0.0,-0.6484375,0.0,-0.0078125,false,false,false,false,0.0,-0.0078125,0.0,-0.0078125,false,false,false,false,0.0,12.25,0.0,19692,209,0,0.25,12.25,0.0,0,0,0,7.0,12.25,0.0,0,0,0,4.375,12.25,0.0,0,0,0,0.0,12.35,0.0,-5,0,0,0.0,4.0,0.0,0,0,0,kReverse,0.0,0.0,0.0,0.0,0.0,0.0,0.0,0.0,0.0,0.0,0.0,
378.358594,true,true,true,0.0,-0.7890625,-0.4140625,-0.0078125,false,false,false,false,0.0,-0.0078125,0.0,-0.0078125,false,false,false,false,5.25,11.8,0.0,20003,160,0,6.125,11.850000000000001,0.0,0,0,0,11.5,11.850000000000001,0.0,0,0,0,8.25,11.8,0.0,0,0,0,0.0,11.95,0.0,-5,0,0,0.0,4.0,0.0,0,0,0,kReverse,0.0,0.0,0.0,0.0,0.0,0.0,0.0,0.0,0.0,0.0,0.0,
378.49208899999996,true,true,true,0.0,-0.7890625,-0.921875,-0.0078125,false,false,false,false,0.0,-0.0078125,0.0,-0.0078125,false,false,false,false,0.0,11.4,0.0,20179,121,0,0.375,11.4,0.0,0,0,0,21.25,11.25,0.0,0,0,0,18.0,11.2,0.0,0,0,0,0.0,11.5,0.0,-5,0,0,0.0,4.0,0.0,0,0,0,kReverse,0.0,0.0,0.0,0.0,0.0,0.0,0.0,0.0,0.0,0.0,0.0,
378.563748,true,true,true,0.0,-0.796875,-0.0078125,-0.0078125,false,false,false,false,0.0,-0.0078125,0.0,-0.0078125,false,false,false,false,1.375,11.4,0.0,20247,117,0,2.5,11.4,0.0,0,0,0,38.5,11.25,0.0,0,0,0,35.875,11.2,0.0,0,0,0,0.0,11.5,0.0,-5,0,0,0.0,4.0,0.0,0,0,0,kReverse,0.0,0.0,0.0,0.0,0.0,0.0,0.0,0.0,0.0,0.0,0.0,
378.702568,true,true,true,0.0,-0.796875,0.0,-0.0078125,false,false,false,false,0.0,-0.0078125,0.0,-0.0078125,false,false,false,false,8.125,11.8,0.0,20442,135,0,11.0,11.9,0.0,0,0,0,3.0,11.9,0.0,0,0,0,1.0,11.9,0.0,0,0,0,0.0,12.05,0.0,-5,0,0,0.0,4.0,0.0,0,0,0,kReverse,0.0,0.0,0.0,0.0,0.0,0.0,0.0,0.0,0.0,0.0,0.0,
378.84554099999997,true,true,true,0.0,-0.796875,0.0,-0.0078125,false,false,false,false,0.0,-0.0078125,0.0,-0.0078125,false,false,false,false,4.375,11.850000000000001,0.0,20648,176,0,6.25,11.95,0.0,0,0,0,4.0,11.9,0.0,0,0,0,2.5,11.9,0.0,0,0,0,0.0,12.05,0.0,-5,0,0,0.0,4.0,0.0,0,0,0,kReverse,0.0,0.0,0.0,0.0,0.0,0.0,0.0,0.0,0.0,0.0,0.0,
378.920745,true,true,true,0.0,-0.796875,0.0,-0.0078125,false,false,false,false,0.0,-0.0078125,0.0,-0.0078125,false,false,false,false,4.5,11.850000000000001,0.0,20820,211,0,5.5,11.95,0.0,0,0,0,3.875,11.9,0.0,0,0,0,2.0,11.9,0.0,0,0,0,0.0,12.05,0.0,-5,0,0,0.0,4.0,0.0,0,0,0,kReverse,0.0,0.0,0.0,0.0,0.0,0.0,0.0,0.0,0.0,0.0,0.0,
378.99165099999993,true,true,true,0.0,-0.3359375,0.0,-0.0078125,false,false,false,false,0.0,-0.0078125,0.0,-0.0078125,false,false,false,false,3.5,12.0,0.0,21012,238,0,5.0,12.05,0.0,0,0,0,3.625,12.05,0.0,0,0,0,2.0,12.05,0.0,0,0,0,0.0,12.15,0.0,-5,0,0,0.0,4.0,0.0,0,0,0,kReverse,0.0,0.0,0.0,0.0,0.0,0.0,0.0,0.0,0.0,0.0,0.0,
379.05474599999997,true,true,true,0.0,-0.0078125,0.0,-0.0078125,false,false,false,false,0.0,-0.0078125,0.0,-0.0078125,false,false,false,false,0.0,12.0,0.0,21154,239,0,1.625,12.05,0.0,0,0,0,0.5,12.05,0.0,0,0,0,0.0,12.05,0.0,0,0,0,0.0,12.15,0.0,-5,0,0,0.0,4.0,0.0,0,0,0,kReverse,0.0,0.0,0.0,0.0,0.0,0.0,0.0,0.0,0.0,0.0,0.0,
379.12215999999995,true,true,true,0.0,-0.0078125,0.0,-0.0078125,false,false,false,false,0.0,-0.0078125,0.0,-0.0078125,false,false,false,false,0.0,12.55,0.0,21292,232,0,0.125,12.55,0.0,0,0,0,0.0,12.55,0.0,0,0,0,0.0,12.55,0.0,0,0,0,0.0,12.6,0.0,-5,0,0,0.0,4.0,0.0,0,0,0,kReverse,0.0,0.0,0.0,0.0,0.0,0.0,0.0,0.0,0.0,0.0,0.0,
379.265832,true,true,true,0.0,-0.0078125,0.0,-0.0078125,false,false,false,false,0.0,-0.0078125,0.0,-0.0078125,false,false,false,false,0.0,12.55,0.0,21619,235,0,0.125,12.55,0.0,0,0,0,0.0,12.55,0.0,0,0,0,0.0,12.55,0.0,0,0,0,0.0,12.65,0.0,-5,0,0,0.0,4.0,0.0,0,0,0,kReverse,0.0,0.0,0.0,0.0,0.0,0.0,0.0,0.0,0.0,0.0,0.0,
379.32138399999997,true,true,true,0.0,-0.0078125,0.0,-0.0078125,false,false,false,false,0.0,-0.0078125,0.0,-0.0078125,false,false,false,false,0.0,12.55,0.0,21753,226,0,0.125,12.55,0.0,0,0,0,0.0,12.55,0.0,0,0,0,0.0,12.55,0.0,0,0,0,0.0,12.65,0.0,-5,0,0,0.0,4.0,0.0,0,0,0,kReverse,0.0,0.0,0.0,0.0,0.0,0.0,0.0,0.0,0.0,0.0,0.0,
379.409141,true,true,true,0.0,-0.4375,0.0,-0.0078125,false,false,false,false,0.0,-0.0078125,0.0,-0.0078125,false,false,false,false,0.0,12.55,0.0,21963,210,0,0.125,12.55,0.0,0,0,0,0.0,12.55,0.0,0,0,0,0.0,12.6,0.0,0,0,0,0.0,12.65,0.0,-5,0,0,0.0,4.0,0.0,0,0,0,kReverse,0.0,0.0,0.0,0.0,0.0,0.0,0.0,0.0,0.0,0.0,0.0,
379.614675,true,true,true,0.0,-1.0,0.0,-0.0078125,false,false,false,false,0.0,-0.0078125,0.0,-0.0078125,false,false,false,false,0.0,12.55,0.0,22347,186,0,0.375,12.6,0.0,0,0,0,0.125,12.55,0.0,0,0,0,3.0,12.55,0.0,0,0,0,0.0,12.65,0.0,-5,0,0,0.0,4.0,0.0,0,0,0,kReverse,0.0,0.0,0.0,0.0,0.0,0.0,0.0,0.0,0.0,0.0,0.0,
379.81753999999995,true,true,true,0.0,-1.0,0.0,-0.0078125,false,false,false,false,0.0,-0.0078125,0.0,-0.0078125,false,false,false,false,9.5,11.3,0.0,22784,237,0,12.5,11.4,0.0,0,0,0,10.5,11.350000000000001,0.0,0,0,0,7.25,11.350000000000001,0.0,0,0,0,0.0,11.5,0.0,-5,0,0,0.0,4.0,0.0,0,0,0,kReverse,0.0,0.0,0.0,0.0,0.0,0.0,0.0,0.0,0.0,0.0,0.0,
379.997459,true,true,true,0.0,-0.5,0.0,-0.0078125,false,false,false,false,0.0,-0.0078125,0.0,-0.0078125,false,false,false,false,5.875,11.600000000000001,0.0,23281,288,0,8.875,11.65,0.0,0,0,0,7.5,11.600000000000001,0.0,0,0,0,5.125,11.600000000000001,0.0,0,0,0,0.0,11.75,0.0,-5,0,0,0.0,4.0,0.0,0,0,0,kReverse,0.0,0.0,0.0,0.0,0.0,0.0,0.0,0.0,0.0,0.0,0.0,
380.07554799999997,true,true,true,0.0,-0.0078125,0.0,-0.0078125,false,false,false,false,0.0,-0.0078125,0.0,-0.0078125,false,false,false,false,0.0,12.25,0.0,23510,288,0,2.125,12.25,0.0,0,0,0,1.375,12.25,0.0,0,0,0,0.0,12.25,0.0,0,0,0,0.0,12.4,0.0,-5,0,0,0.0,4.0,0.0,0,0,0,kReverse,0.0,0.0,0.0,0.0,0.0,0.0,0.0,0.0,0.0,0.0,0.0,
380.13618399999996,true,true,true,0.0,-0.0078125,0.0,-0.0078125,false,false,false,false,0.0,-0.0078125,0.0,-0.0078125,false,false,false,false,0.0,12.25,0.0,23673,275,0,0.25,12.25,0.0,0,0,0,0.125,12.25,0.0,0,0,0,0.0,12.25,0.0,0,0,0,0.0,12.4,0.0,-5,0,0,0.0,4.0,0.0,0,0,0,kReverse,0.0,0.0,0.0,0.0,0.0,0.0,0.0,0.0,0.0,0.0,0.0,
380.25443199999995,true,true,true,0.0,-0.0078125,0.0,-0.0078125,false,false,false,false,0.0,-0.0078125,0.0,-0.0078125,false,false,false,false,0.0,12.55,0.0,23981,258,0,0.125,12.55,0.0,0,0,0,0.0,12.55,0.0,0,0,0,0.0,12.55,0.0,0,0,0,0.0,12.65,0.0,-5,0,0,0.0,4.0,0.0,0,0,0,kReverse,0.0,0.0,0.0,0.0,0.0,0.0,0.0,0.0,0.0,0.0,0.0,
380.450791,true,true,true,0.0,-0.7734375,0.0,-0.0078125,false,false,false,false,0.0,-0.0078125,0.0,-0.0078125,false,false,false,false,0.0,12.6,0.0,24478,239,0,0.125,12.6,0.0,0,0,0,2.625,12.6,0.0,0,0,0,0.0,12.6,0.0,0,0,0,0.0,12.65,0.0,-5,0,0,0.0,4.0,0.0,0,0,0,kReverse,0.0,0.0,0.0,0.0,0.0,0.0,0.0,0.0,0.0,0.0,0.0,
380.63712899999996,true,true,true,0.0,-0.0078125,0.0,-0.0078125,false,false,false,false,0.0,-0.0078125,0.0,-0.0078125,false,false,false,false,3.125,11.8,0.0,24946,266,0,4.375,11.850000000000001,0.0,0,0,0,3.25,11.8,0.0,0,0,0,1.125,11.8,0.0,0,0,0,0.0,11.9,0.0,-5,0,0,0.0,4.0,0.0,0,0,0,kReverse,0.0,0.0,0.0,0.0,0.0,0.0,0.0,0.0,0.0,0.0,0.0,
380.795801,true,true,true,0.0,0.8031495809555054,0.0,-0.0078125,false,false,false,false,0.0,-0.0078125,0.0,-0.0078125,false,false,false,false,0.0,12.55,0.0,25319,224,0,0.125,12.55,0.0,0,0,0,0.0,12.55,0.0,0,0,0,0.0,12.55,0.0,0,0,0,0.0,12.6,0.0,-5,0,0,0.0,4.0,0.0,0,0,0,kReverse,0.0,0.0,0.0,0.0,0.0,0.0,0.0,0.0,0.0,0.0,0.0,
380.91590499999995,true,true,true,0.0,-0.0078125,0.0,-0.0078125,false,false,false,false,0.0,-0.0078125,0.0,-0.0078125,false,false,false,false,18.625,10.0,0.0,25539,172,0,23.75,10.2,0.0,0,0,0,21.875,10.15,0.0,0,0,0,20.375,10.15,0.0,0,0,0,0.0,10.350000000000001,0.0,-5,0,0,0.0,4.0,0.0,0,0,0,kReverse,0.0,0.0,0.0,0.0,0.0,0.0,0.0,0.0,0.0,0.0,0.0,
380.986554,true,true,true,0.0,-0.0078125,0.0,-0.0078125,false,false,false,false,0.0,-0.0078125,0.0,-0.0078125,false,false,false,false,3.25,10.0,0.0,25612,131,0,0.125,10.2,0.0,0,0,0,0.0,10.15,0.0,0,0,0,0.0,10.15,0.0,0,0,0,0.0,10.350000000000001,0.0,-5,0,0,0.0,4.0,0.0,0,0,0,kReverse,0.0,0.0,0.0,0.0,0.0,0.0,0.0,0.0,0.0,0.0,0.0,
381.201144,true,true,true,0.0,0.36220473051071167,0.0,-0.0078125,false,false,false,false,0.0,-0.0078125,0.0,-0.0078125,false,false,false,false,0.0,12.55,0.0,25767,50,0,0.5,12.6,0.0,0,0,0,0.875,12.55,0.0,0,0,0,0.0,12.55,0.0,0,0,0,0.0,12.65,0.0,-5,0,0,0.0,4.0,0.0,0,0,0,kReverse,0.0,0.0,0.0,0.0,0.0,0.0,0.0,0.0,0.0,0.0,0.0,
381.43178699999993,true,true,true,-0.34375,0.5826771855354309,0.0,-0.0078125,false,false,false,false,0.0,-0.0078125,0.0,-0.0078125,false,false,false,false,1.75,12.1,0.0,25764,-15,0,2.875,12.1,0.0,0,0,0,4.25,12.1,0.0,0,0,0,3.0,12.1,0.0,0,0,0,0.0,12.200000000000001,0.0,-5,0,0,0.0,4.0,0.0,0,0,0,kReverse,0.0,0.0,0.0,0.0,0.0,0.0,0.0,0.0,0.0,0.0,0.0,
381.579088,true,true,true,0.0,-0.0078125,0.0,-0.0078125,false,false,false,false,0.0,-0.0078125,0.0,-0.0078125,false,false,false,false,3.125,11.8,0.0,25680,-72,0,3.75,11.850000000000001,0.0,0,0,0,3.5,11.850000000000001,0.0,0,0,0,2.5,11.75,0.0,0,0,0,0.0,11.9,0.0,-5,0,0,0.0,4.0,0.0,0,0,0,kReverse,0.0,0.0,0.0,0.0,0.0,0.0,0.0,0.0,0.0,0.0,0.0,
381.78443699999997,true,true,true,0.0,-0.0078125,0.0,-0.0078125,false,false,false,false,0.0,-0.0078125,0.0,-0.0078125,false,false,false,false,0.0,12.55,0.0,25515,-78,0,0.125,12.55,0.0,0,0,0,0.0,12.55,0.0,0,0,0,0.0,12.55,0.0,0,0,0,0.0,12.65,0.0,-5,0,0,0.0,4.0,0.0,0,0,0,kReverse,0.0,0.0,0.0,0.0,0.0,0.0,0.0,0.0,0.0,0.0,0.0,
381.945698,true,true,true,0.0,-0.0078125,0.7401574850082397,-0.0078125,false,false,false,false,0.0,-0.0078125,0.0,-0.0078125,false,false,false,false,0.0,12.6,0.0,25411,-71,0,0.125,12.6,0.0,0,0,0,0.0,12.6,0.0,0,0,0,0.0,12.6,0.0,0,0,0,0.0,12.65,0.0,-5,0,0,0.0,4.0,0.0,0,0,0,kReverse,0.0,0.0,0.0,0.0,0.0,0.0,0.0,0.0,0.0,0.0,0.0,
382.002272,true,true,true,0.0,-0.0078125,0.7795275449752808,-0.0078125,false,false,false,false,0.0,-0.0078125,0.0,-0.0078125,false,false,false,false,2.875,12.25,0.0,25377,-60,0,3.5,12.25,0.0,0,0,0,0.625,12.3,0.0,0,0,0,0.0,12.25,0.0,0,0,0,0.0,12.4,0.0,-5,0,0,0.0,4.0,0.0,0,0,0,kReverse,0.0,0.0,0.0,0.0,0.0,0.0,0.0,0.0,0.0,0.0,0.0,
382.101648,true,true,true,0.0,-0.0078125,0.0,-0.0078125,false,false,false,false,0.0,-0.0078125,0.0,-0.0078125,false,false,false,false,18.375,12.25,0.0,25362,-15,0,19.25,12.25,0.0,0,0,0,9.625,12.3,0.0,0,0,0,8.5,12.25,0.0,0,0,0,0.0,12.4,0.0,-5,0,0,0.0,4.0,0.0,0,0,0,kReverse,0.0,0.0,0.0,0.0,0.0,0.0,0.0,0.0,0.0,0.0,0.0,
382.277248,true,true,true,0.0,-0.40625,0.0,-0.0078125,false,false,false,false,0.0,-0.0078125,0.0,-0.0078125,false,false,false,false,0.0,12.5,0.0,25362,3,0,0.125,12.5,0.0,0,0,0,5.0,12.5,0.0,0,0,0,3.875,12.5,0.0,0,0,0,0.0,11.350000000000001,0.0,-5,0,0,0.0,4.0,0.0,0,0,0,kReverse,0.0,0.0,0.0,0.0,0.0,0.0,0.0,0.0,0.0,0.0,0.0,
382.558949,true,true,true,0.0,1.0,0.0,-0.0078125,false,false,false,false,0.0,-0.0078125,0.0,-0.0078125,false,false,false,false,11.0,11.2,0.0,25583,127,0,16.625,11.2,0.0,0,0,0,18.0,11.15,0.0,0,0,0,15.0,11.15,0.0,0,0,0,0.0,11.350000000000001,0.0,-5,0,0,0.0,4.0,0.0,0,0,0,kReverse,0.0,0.0,0.0,0.0,0.0,0.0,0.0,0.0,0.0,0.0,0.0,
382.721897,true,true,true,0.0,1.0,0.0,-0.0078125,false,false,false,false,0.0,-0.0078125,0.0,-0.0078125,false,false,false,false,26.625,9.3,0.0,25599,6,0,33.25,9.600000000000001,0.0,0,0,0,28.75,9.5,0.0,0,0,0,30.375,9.45,0.0,0,0,0,0.0,9.75,0.0,-5,0,0,0.0,4.0,0.0,0,0,0,kReverse,0.0,0.0,0.0,0.0,0.0,0.0,0.0,0.0,0.0,0.0,0.0,
382.855093,true,true,true,0.23622047901153564,-0.828125,0.0,-0.0078125,false,false,false,false,0.0,-0.0078125,0.0,-0.0078125,false,false,false,false,16.0,10.15,0.0,25529,-66,0,19.875,10.2,0.0,0,0,0,19.375,10.25,0.0,0,0,0,17.5,10.2,0.0,0,0,0,0.0,10.45,0.0,-5,0,0,0.0,4.0,0.0,0,0,0,kReverse,0.0,0.0,0.0,0.0,0.0,0.0,0.0,0.0,0.0,0.0,0.0,
383.020429,true,true,true,0.30708661675453186,-1.0,0.0,-0.0078125,false,false,false,false,0.0,-0.0078125,0.0,-0.0078125,false,false,false,false,18.125,10.3,0.0,25494,18,0,20.375,10.25,0.0,0,0,0,23.0,10.4,0.0,0,0,0,20.875,10.3,0.0,0,0,0,0.0,10.55,0.0,-5,0,0,0.0,4.0,0.0,0,0,0,kReverse,0.0,0.0,0.0,0.0,0.0,0.0,0.0,0.0,0.0,0.0,0.0,
383.228859,true,true,true,0.18110236525535583,-1.0,0.0,-0.0078125,false,false,false,false,0.0,-0.0078125,0.0,-0.0078125,false,false,false,false,16.125,10.25,0.0,25634,110,0,18.75,10.350000000000001,0.0,0,0,0,16.25,10.100000000000001,0.0,0,0,0,12.875,10.25,0.0,0,0,0,0.0,10.45,0.0,-5,0,0,0.0,4.0,0.0,0,0,0,kReverse,0.0,0.0,0.0,0.0,0.0,0.0,0.0,0.0,0.0,0.0,0.0,
383.407005,true,true,true,0.0,-0.0078125,0.0,-0.0078125,false,false,false,false,0.0,-0.0078125,0.0,-0.0078125,false,false,false,false,11.75,10.850000000000001,0.0,25990,207,0,14.75,10.9,0.0,0,0,0,11.5,10.9,0.0,0,0,0,10.125,11.75,0.0,0,0,0,0.0,11.9,0.0,-5,0,0,0.0,4.0,0.0,0,0,0,kReverse,0.0,0.0,0.0,0.0,0.0,0.0,0.0,0.0,0.0,0.0,0.0,
383.600737,true,true,true,0.0,-0.0078125,0.0,-0.0078125,false,false,false,false,0.0,-0.0078125,0.0,-0.0078125,false,false,false,false,0.0,12.5,0.0,26353,170,0,0.125,12.55,0.0,0,0,0,0.0,12.5,0.0,0,0,0,0.0,12.5,0.0,0,0,0,0.0,12.6,0.0,-4,1,0,0.0,4.0,0.0,0,0,0,kReverse,0.0,0.0,0.0,0.0,0.0,0.0,0.0,0.0,0.0,0.0,0.0,
383.825228,true,true,true,0.0,1.0,0.0,-0.0078125,false,false,false,false,0.0,-0.0078125,0.0,-0.0078125,false,false,false,false,0.0,12.55,0.0,26825,204,0,5.0,12.55,0.0,0,0,0,7.625,12.55,0.0,0,0,0,13.375,12.55,0.0,0,0,0,0.0,12.6,0.0,-4,0,0,0.0,4.0,0.0,0,0,0,kReverse,0.0,0.0,0.0,0.0,0.0,0.0,0.0,0.0,0.0,0.0,0.0,
383.99338499999993,true,true,true,0.0,1.0,0.0,-0.0078125,false,false,false,false,0.0,-0.0078125,0.0,-0.0078125,false,false,false,false,23.625,9.0,0.0,27013,73,0,28.375,9.3,0.0,0,0,0,24.375,9.15,0.0,0,0,0,22.625,9.15,0.0,0,0,0,0.0,9.45,0.0,-4,0,0,0.0,4.0,0.0,0,0,0,kReverse,0.0,0.0,0.0,0.0,0.0,0.0,0.0,0.0,0.0,0.0,0.0,
384.163238,true,true,true,0.0,1.0,0.0,-0.0078125,false,false,false,false,0.0,-0.0078125,0.0,-0.0078125,false,false,false,false,14.875,10.25,0.0,26910,-105,0,18.25,10.3,0.0,0,0,0,17.5,10.350000000000001,0.0,0,0,0,15.625,10.3,0.0,0,0,0,0.0,10.5,0.0,-4,0,0,0.0,4.0,0.0,0,0,0,kReverse,0.0,0.0,0.0,0.0,0.0,0.0,0.0,0.0,0.0,0.0,0.0,
384.351546,true,true,true,0.0,1.0,-0.96875,-0.0078125,false,false,false,false,0.0,-0.0078125,0.0,-0.0078125,false,false,false,false,8.5,11.15,0.0,26450,-265,0,10.125,11.3,0.0,0,0,0,9.625,11.25,0.0,0,0,0,3.875,11.15,0.0,0,0,0,0.0,11.350000000000001,0.0,-4,0,0,0.0,4.0,0.0,0,0,0,kReverse,0.0,0.0,0.0,0.0,0.0,0.0,0.0,0.0,0.0,0.0,0.0,
384.532132,true,true,true,0.0,1.0,0.0,-0.0078125,false,false,false,false,0.0,-0.0078125,0.0,-0.0078125,false,false,false,false,18.75,10.2,0.0,25784,-409,0,25.625,10.350000000000001,0.0,0,0,0,0.0,10.600000000000001,0.0,0,0,0,0.0,10.55,0.0,0,0,0,0.0,11.8,0.0,-4,0,0,0.0,4.0,0.0,0,0,0,kReverse,0.0,0.0,0.0,0.0,0.0,0.0,0.0,0.0,0.0,0.0,0.0,
384.672657,true,true,true,0.0,1.0,0.0,-0.0078125,false,false,false,false,0.0,-0.0078125,0.0,-0.0078125,false,false,false,false,3.0,11.75,0.0,25283,-352,0,4.625,11.7,0.0,0,0,0,10.25,11.75,0.0,0,0,0,7.375,11.600000000000001,0.0,0,0,0,0.0,11.8,0.0,-4,0,0,0.0,4.0,0.0,0,0,0,kReverse,0.0,0.0,0.0,0.0,0.0,0.0,0.0,0.0,0.0,0.0,0.0,
384.87215999999995,true,true,true,0.0,1.0,0.0,-0.0078125,false,false,false,false,0.0,-0.0078125,0.0,-0.0078125,false,false,false,false,5.375,11.850000000000001,0.0,24612,-335,0,5.625,11.9,0.0,0,0,0,6.75,11.850000000000001,0.0,0,0,0,4.75,11.850000000000001,0.0,0,0,0,0.0,12.0,0.0,-4,0,0,0.0,4.0,0.0,0,0,0,kReverse,0.0,0.0,0.0,0.0,0.0,0.0,0.0,0.0,0.0,0.0,0.0,
385.01399299999997,true,true,true,0.0,1.0,1.0,-0.0078125,false,false,false,false,0.0,-0.0078125,0.0,-0.0078125,false,false,false,false,5.0,11.850000000000001,0.0,24146,-336,0,5.5,11.9,0.0,0,0,0,5.5,11.850000000000001,0.0,0,0,0,4.875,11.850000000000001,0.0,0,0,0,0.0,12.0,0.0,-4,0,0,0.0,4.0,0.0,0,0,0,kReverse,0.0,0.0,0.0,0.0,0.0,0.0,0.0,0.0,0.0,0.0,0.0,
385.074774,true,true,true,0.0,1.0,1.0,-0.0078125,false,false,false,false,0.0,-0.0078125,0.0,-0.0078125,false,false,false,false,0.0,11.600000000000001,0.0,23954,-327,0,0.875,11.7,0.0,0,0,0,23.875,11.600000000000001,0.0,0,0,0,18.375,11.7,0.0,0,0,0,0.0,11.850000000000001,0.0,-4,0,0,0.0,4.0,0.0,0,0,0,kReverse,0.0,0.0,0.0,0.0,0.0,0.0,0.0,0.0,0.0,0.0,0.0,
385.137616,true,true,true,0.0,1.0,0.8267716765403748,-0.0078125,false,false,false,false,0.0,-0.0078125,0.0,-0.0078125,false,false,false,false,0.0,11.600000000000001,0.0,23783,-291,0,0.125,11.7,0.0,0,0,0,26.125,11.600000000000001,0.0,0,0,0,21.625,11.7,0.0,0,0,0,0.0,11.850000000000001,0.0,-4,0,0,0.0,4.0,0.0,0,0,0,kReverse,0.0,0.0,0.0,0.0,0.0,0.0,0.0,0.0,0.0,0.0,0.0,
385.23948799999994,true,true,true,0.0,1.0,-0.015625,-0.0078125,false,false,false,false,0.0,-0.0078125,0.0,-0.0078125,false,false,false,false,0.0,11.350000000000001,0.0,23467,-257,0,0.375,11.4,0.0,0,0,0,22.0,11.2,0.0,0,0,0,19.0,11.2,0.0,0,0,0,0.0,11.45,0.0,-4,0,0,0.0,4.0,0.0,0,0,0,kReverse,0.0,0.0,0.0,0.0,0.0,0.0,0.0,0.0,0.0,0.0,0.0,
385.39219899999995,true,true,true,0.0,1.0,0.960629940032959,0.5511810779571533,false,false,false,false,0.0,-0.0078125,0.0,-0.0078125,false,false,false,false,2.875,12.0,0.0,23065,-301,0,5.625,12.0,0.0,0,0,0,0.125,12.05,0.0,0,0,0,7.875,12.05,0.0,0,0,0,0.0,12.1,0.0,-4,0,0,0.0,4.0,0.0,0,0,0,kReverse,0.0,0.0,0.0,0.0,0.0,0.0,0.0,0.0,0.0,0.0,0.0,
385.52602499999995,true,true,true,0.0,1.0,1.0,0.5511810779571533,false,false,false,false,0.0,-0.0078125,0.0,-0.0078125,false,false,false,false,0.0,11.45,0.0,22760,-244,0,0.375,11.45,0.0,0,0,0,24.625,11.25,0.0,0,0,0,19.25,11.25,0.0,0,0,0,0.0,11.5,0.0,-4,0,0,0.0,4.0,0.0,0,0,0,kReverse,0.0,0.0,0.0,0.0,0.0,0.0,0.0,0.0,0.0,0.0,0.0,
385.71580299999994,true,true,true,0.0,0.11023622006177902,-0.0234375,-0.0078125,false,false,false,false,0.0,-0.0078125,0.0,-0.0078125,false,false,false,false,0.0,11.3,0.0,22317,-220,0,0.125,11.350000000000001,0.0,0,0,0,16.125,11.15,0.0,0,0,0,13.125,11.15,0.0,0,0,0,0.0,11.4,0.0,-4,0,0,0.0,4.0,0.0,0,0,0,kReverse,0.0,0.0,0.0,0.0,0.0,0.0,0.0,0.0,0.0,0.0,0.0,
385.864614,true,true,true,0.0,-0.0234375,-0.0234375,-0.0078125,false,false,false,false,0.0,-0.0078125,0.0,-0.0078125,false,false,false,false,4.5,12.200000000000001,0.0,21969,-263,0,3.25,12.25,0.0,0,0,0,0.0,12.25,0.0,0,0,0,0.0,12.25,0.0,0,0,0,0.0,12.35,0.0,-4,0,0,0.0,4.0,0.0,0,0,0,kReverse,0.0,0.0,0.0,0.0,0.0,0.0,0.0,0.0,0.0,0.0,0.0,
386.046567,true,true,true,0.0,-0.0234375,-0.0234375,-0.0078125,false,false,false,false,0.0,-0.0078125,0.0,-0.0078125,false,false,false,false,0.0,12.55,0.0,21652,-136,0,0.125,12.55,0.0,0,0,0,0.0,12.55,0.0,0,0,0,0.0,12.55,0.0,0,0,0,0.0,12.6,0.0,-2,0,0,0.0,4.0,0.0,0,0,0,kReverse,0.0,0.0,0.0,0.0,0.0,0.0,0.0,0.0,0.0,0.0,0.0,
386.16695799999997,true,true,true,0.0,1.0,-0.0234375,-0.0078125,false,false,false,false,0.0,-0.0078125,0.0,-0.0078125,false,false,false,false,0.0,12.55,0.0,21523,-106,0,0.125,12.6,0.0,0,0,0,0.0,12.55,0.0,0,0,0,6.875,12.55,0.0,0,0,0,0.0,12.65,0.0,-2,0,0,0.0,4.0,0.0,0,0,0,kReverse,0.0,0.0,0.0,0.0,0.0,0.0,0.0,0.0,0.0,0.0,0.0,
386.36875,true,true,true,0.0,1.0,-0.0234375,-0.0078125,false,false,false,false,0.0,-0.0078125,0.0,-0.0078125,false,false,false,false,15.25,10.25,0.0,21321,-120,0,18.75,10.3,0.0,0,0,0,17.875,10.3,0.0,0,0,0,14.0,10.3,0.0,0,0,0,0.0,10.5,0.0,-2,0,0,0.0,4.0,0.0,0,0,0,kReverse,0.0,0.0,0.0,0.0,0.0,0.0,0.0,0.0,0.0,0.0,0.0,
386.51342199999993,true,true,true,0.0,1.0,-0.0234375,-0.0078125,false,false,false,false,0.0,-0.0078125,0.0,-0.0078125,false,false,false,false,12.0,10.9,0.0,21050,-205,0,15.375,11.0,0.0,0,0,0,11.5,11.0,0.0,0,0,0,8.625,11.0,0.0,0,0,0,0.0,11.15,0.0,-2,0,0,0.0,4.0,0.0,0,0,0,kReverse,0.0,0.0,0.0,0.0,0.0,0.0,0.0,0.0,0.0,0.0,0.0,
386.764056,true,true,true,0.0,-1.0,-0.0234375,-0.0078125,false,false,false,false,0.0,-0.0078125,0.0,-0.0078125,false,false,false,false,10.375,10.9,0.0,20548,-224,0,16.25,10.95,0.0,0,0,0,12.375,11.0,0.0,0,0,0,9.625,11.0,0.0,0,0,0,0.0,10.45,0.0,-2,0,0,0.0,4.0,0.0,0,0,0,kReverse,0.0,0.0,0.0,0.0,0.0,0.0,0.0,0.0,0.0,0.0,0.0,
386.89372699999996,true,true,true,0.0,-1.0,-0.0234375,-0.0078125,false,false,false,false,0.0,-0.0078125,0.0,-0.0078125,false,false,false,false,26.375,10.15,0.0,20385,-83,0,31.875,10.2,0.0,0,0,0,29.0,10.2,0.0,0,0,0,27.0,10.2,0.0,0,0,0,0.0,10.45,0.0,-2,0,0,0.0,4.0,0.0,0,0,0,kReverse,0.0,0.0,0.0,0.0,0.0,0.0,0.0,0.0,0.0,0.0,0.0,
387.08007399999997,true,true,true,0.0,-1.0,-0.0234375,-0.0078125,false,false,false,false,0.0,-0.0078125,0.0,-0.0078125,false,false,false,false,16.625,9.7,0.0,20426,54,0,20.25,9.850000000000001,0.0,0,0,0,17.75,9.850000000000001,0.0,0,0,0,14.625,9.7,0.0,0,0,0,0.0,10.9,0.0,-2,0,0,0.0,4.0,0.0,0,0,0,kReverse,0.0,0.0,0.0,0.0,0.0,0.0,0.0,0.0,0.0,0.0,0.0,
387.23659299999997,true,true,true,0.0,-1.0,-0.0234375,-0.0078125,false,false,false,false,0.0,-0.0078125,0.0,-0.0078125,false,false,false,false,11.5,10.65,0.0,20736,193,0,14.75,10.8,0.0,0,0,0,14.5,11.0,0.0,0,0,0,11.0,11.05,0.0,0,0,0,0.0,11.2,0.0,-2,0,0,0.0,4.0,0.0,0,0,0,kReverse,0.0,0.0,0.0,0.0,0.0,0.0,0.0,0.0,0.0,0.0,0.0,
387.42114799999996,true,true,true,0.0,-1.0,-0.0234375,-0.0078125,false,false,false,false,0.0,-0.0078125,0.0,-0.0078125,false,false,false,false,5.125,11.0,0.0,21142,273,0,7.5,11.75,0.0,0,0,0,7.125,11.75,0.0,0,0,0,5.375,11.75,0.0,0,0,0,0.0,11.850000000000001,0.0,-2,0,0,0.0,4.0,0.0,0,0,0,kReverse,0.0,0.0,0.0,0.0,0.0,0.0,0.0,0.0,0.0,0.0,0.0,
387.626516,true,true,true,0.0,-1.0,-0.0234375,-0.0078125,false,false,false,false,0.0,-0.0078125,0.0,-0.0078125,false,false,false,false,5.875,11.850000000000001,0.0,21726,299,0,6.125,11.850000000000001,0.0,0,0,0,6.125,11.850000000000001,0.0,0,0,0,5.0,11.850000000000001,0.0,0,0,0,0.0,11.95,0.0,-2,0,0,0.0,4.0,0.0,0,0,0,kReverse,0.0,0.0,0.0,0.0,0.0,0.0,0.0,0.0,0.0,0.0,0.0,
387.785033,true,true,true,0.0,-1.0,-0.0234375,-0.0078125,false,false,false,false,0.0,-0.0078125,0.0,-0.0078125,false,false,false,false,6.0,11.9,0.0,22247,330,0,5.5,11.9,0.0,0,0,0,6.0,11.9,0.0,0,0,0,4.5,11.9,0.0,0,0,0,0.0,12.05,0.0,-2,0,0,0.0,4.0,0.0,0,0,0,kReverse,0.0,0.0,0.0,0.0,0.0,0.0,0.0,0.0,0.0,0.0,0.0,
387.91824199999996,true,true,true,0.0,-1.0,-0.0234375,-0.0078125,false,false,false,false,0.0,-0.0078125,0.0,-0.0078125,false,false,false,false,3.5,12.0,0.0,22718,338,0,5.0,12.0,0.0,0,0,0,5.25,12.0,0.0,0,0,0,2.5,12.0,0.0,0,0,0,0.0,12.1,0.0,-2,0,0,0.0,4.0,0.0,0,0,0,kReverse,0.0,0.0,0.0,0.0,0.0,0.0,0.0,0.0,0.0,0.0,0.0,
388.000797,true,true,true,0.0,-0.0078125,-0.0234375,-0.0078125,false,false,false,false,0.0,-0.0078125,0.0,-0.0078125,false,false,false,false,4.0,12.0,0.0,22990,340,0,5.0,12.0,0.0,0,0,0,3.125,12.0,0.0,0,0,0,2.5,12.0,0.0,0,0,0,0.0,12.1,0.0,-2,0,0,0.0,4.0,0.0,0,0,0,kReverse,0.0,0.0,0.0,0.0,0.0,0.0,0.0,0.0,0.0,0.0,0.0,
388.091244,true,true,true,0.0,-0.0078125,-0.0234375,-0.0078125,false,false,false,false,0.0,-0.0078125,0.0,-0.0078125,false,false,false,false,0.0,12.5,0.0,23304,314,0,0.125,12.55,0.0,0,0,0,0.0,12.55,0.0,0,0,0,0.0,12.5,0.0,0,0,0,0.0,12.6,0.0,-2,0,0,0.0,4.0,0.0,0,0,0,kReverse,0.0,0.0,0.0,0.0,0.0,0.0,0.0,0.0,0.0,0.0,0.0,
388.160014,true,true,true,0.0,-0.0078125,-0.0234375,-0.0078125,false,false,false,false,0.0,-0.0078125,0.0,-0.0078125,false,false,false,false,0.0,12.5,0.0,23487,302,0,0.125,12.55,0.0,0,0,0,0.0,12.55,0.0,0,0,0,0.0,12.5,0.0,0,0,0,0.0,12.6,0.0,-2,0,0,0.0,4.0,0.0,0,0,0,kReverse,0.0,0.0,0.0,0.0,0.0,0.0,0.0,0.0,0.0,0.0,0.0,
388.35680299999996,true,true,true,0.0,-0.0078125,-0.0234375,-0.0078125,false,false,false,false,0.0,-0.0078125,0.0,-0.0078125,false,false,false,false,0.0,12.55,0.0,24095,296,0,0.125,12.55,0.0,0,0,0,0.0,12.55,0.0,0,0,0,0.0,12.55,0.0,0,0,0,0.0,12.65,0.0,-2,0,0,0.0,4.0,0.0,0,0,0,kReverse,0.0,0.0,0.0,0.0,0.0,0.0,0.0,0.0,0.0,0.0,0.0,
388.59248699999995,true,true,true,0.0,-1.0,-0.0234375,-0.0078125,false,false,false,false,0.0,-0.0078125,0.0,-0.0078125,false,false,false,false,0.0,12.6,0.0,24740,260,0,3.375,12.6,0.0,0,0,0,3.625,12.6,0.0,0,0,0,0.0,12.6,0.0,0,0,0,0.0,12.65,0.0,-2,0,0,0.0,4.0,0.0,0,0,0,kReverse,0.0,0.0,0.0,0.0,0.0,0.0,0.0,0.0,0.0,0.0,0.0,
388.73615099999995,true,true,true,0.0,-0.0078125,-0.0234375,-0.0078125,false,false,false,false,0.0,-0.0078125,0.0,-0.0078125,false,false,false,false,5.5,11.7,0.0,25133,286,0,8.25,11.75,0.0,0,0,0,8.625,11.7,0.0,0,0,0,5.125,11.7,0.0,0,0,0,0.0,11.850000000000001,0.0,-2,0,0,0.0,4.0,0.0,0,0,0,kReverse,0.0,0.0,0.0,0.0,0.0,0.0,0.0,0.0,0.0,0.0,0.0,
388.93344399999995,true,true,true,0.0,-0.0078125,-0.0234375,-0.0078125,false,false,false,false,0.0,-0.0078125,0.0,-0.0078125,false,false,false,false,0.0,12.55,0.0,25640,251,0,0.125,12.6,0.0,0,0,0,0.0,12.55,0.0,0,0,0,0.0,12.55,0.0,0,0,0,0.0,12.65,0.0,-2,0,0,0.0,4.0,0.0,0,0,0,kReverse,0.0,0.0,0.0,0.0,0.0,0.0,0.0,0.0,0.0,0.0,0.0,
389.043632,true,true,true,0.0,1.0,-0.0234375,-0.0078125,false,false,false,false,0.0,-0.0078125,0.0,-0.0078125,false,false,false,false,0.0,12.6,0.0,25894,254,0,0.125,12.6,0.0,0,0,0,0.0,12.6,0.0,0,0,0,0.0,12.6,0.0,0,0,0,0.0,12.65,0.0,-2,0,0,0.0,4.0,0.0,0,0,0,kReverse,0.0,0.0,0.0,0.0,0.0,0.0,0.0,0.0,0.0,0.0,0.0,
389.10380299999997,true,true,true,0.0,1.0,-0.0234375,-0.0078125,false,false,false,false,0.0,-0.0078125,0.0,-0.0078125,false,false,false,false,28.0,12.6,0.0,26050,204,0,35.5,12.6,0.0,0,0,0,34.125,12.6,0.0,0,0,0,29.375,12.6,0.0,0,0,0,0.0,12.65,0.0,-2,0,0,0.0,4.0,0.0,0,0,0,kReverse,0.0,0.0,0.0,0.0,0.0,0.0,0.0,0.0,0.0,0.0,0.0,
389.34249299999993,true,true,true,0.0,-0.0078125,-0.0234375,-0.0078125,false,false,false,false,0.0,-0.0078125,0.0,-0.0078125,false,false,false,false,19.125,9.600000000000001,0.0,26082,-35,0,19.5,10.7,0.0,0,0,0,17.0,10.7,0.0,0,0,0,17.875,10.5,0.0,0,0,0,0.0,10.850000000000001,0.0,-2,0,0,0.0,4.0,0.0,0,0,0,kReverse,0.0,0.0,0.0,0.0,0.0,0.0,0.0,0.0,0.0,0.0,0.0,
389.442216,true,true,true,0.0,-0.0078125,-0.0234375,-0.0078125,false,false,false,false,0.0,-0.0078125,0.0,-0.0078125,false,false,false,false,0.0,10.850000000000001,0.0,26008,-74,0,0.125,10.7,0.0,0,0,0,0.0,10.7,0.0,0,0,0,0.0,10.5,0.0,0,0,0,0.0,10.850000000000001,0.0,-2,0,0,0.0,4.0,0.0,0,0,0,kReverse,0.0,0.0,0.0,0.0,0.0,0.0,0.0,0.0,0.0,0.0,0.0,
389.57891699999993,true,true,true,0.0,0.8503937125205994,-0.0234375,-0.0078125,false,false,false,false,0.0,-0.0078125,0.0,-0.0078125,false,false,false,false,0.0,12.5,0.0,25952,-20,0,0.5,12.55,0.0,0,0,0,0.5,12.5,0.0,0,0,0,0.0,12.5,0.0,0,0,0,0.0,12.6,0.0,-2,0,0,0.0,4.0,0.0,0,0,0,kReverse,0.0,0.0,0.0,0.0,0.0,0.0,0.0,0.0,0.0,0.0,0.0,
389.747236,true,true,true,0.0,1.0,-0.0234375,-0.0078125,false,false,false,false,0.0,-0.0078125,0.0,-0.0078125,false,false,false,false,6.625,12.05,0.0,25828,-95,0,8.0,12.1,0.0,0,0,0,5.375,12.05,0.0,0,0,0,2.875,12.05,0.0,0,0,0,0.0,12.15,0.0,-2,0,0,0.0,4.0,0.0,0,0,0,kReverse,0.0,0.0,0.0,0.0,0.0,0.0,0.0,0.0,0.0,0.0,0.0,
389.89804300000003,true,true,true,0.0,1.0,-0.0234375,-0.0078125,false,false,false,false,0.0,-0.0078125,0.0,-0.0078125,false,false,false,false,11.0,10.9,0.0,25554,-209,0,14.25,11.100000000000001,0.0,0,0,0,12.625,11.0,0.0,0,0,0,9.5,11.0,0.0,0,0,0,0.0,11.2,0.0,-2,0,0,0.0,4.0,0.0,0,0,0,kReverse,0.0,0.0,0.0,0.0,0.0,0.0,0.0,0.0,0.0,0.0,0.0,
390.06125199999997,true,true,true,0.0,1.0,-0.0234375,-0.0078125,false,false,false,false,0.0,-0.0078125,0.0,-0.0078125,false,false,false,false,6.5,11.3,0.0,25084,-278,0,10.0,11.4,0.0,0,0,0,8.625,11.3,0.0,0,0,0,5.5,11.3,0.0,0,0,0,0.0,11.5,0.0,-2,0,0,0.0,4.0,0.0,0,0,0,kReverse,0.0,0.0,0.0,0.0,0.0,0.0,0.0,0.0,0.0,0.0,0.0,
390.234427,true,true,true,0.0,1.0,-0.0234375,-0.0078125,false,false,false,false,0.0,-0.0078125,0.0,-0.0078125,false,false,false,false,5.0,11.65,0.0,24595,-308,0,8.25,11.7,0.0,0,0,0,6.5,11.65,0.0,0,0,0,4.625,11.65,0.0,0,0,0,0.0,11.75,0.0,-2,0,0,0.0,4.0,0.0,0,0,0,kReverse,0.0,0.0,0.0,0.0,0.0,0.0,0.0,0.0,0.0,0.0,0.0,
390.417855,true,true,true,0.0,1.0,-0.0234375,-0.0078125,false,false,false,false,0.0,-0.0078125,0.0,-0.0078125,false,false,false,false,5.25,11.8,0.0,24001,-334,0,6.625,11.850000000000001,0.0,0,0,0,5.5,11.850000000000001,0.0,0,0,0,4.625,11.850000000000001,0.0,0,0,0,0.0,12.0,0.0,-2,0,0,0.0,4.0,0.0,0,0,0,kReverse,0.0,0.0,0.0,0.0,0.0,0.0,0.0,0.0,0.0,0.0,0.0,
390.57032,true,true,true,0.0,1.0,-0.0234375,-0.0078125,false,false,false,false,0.0,-0.0078125,0.0,-0.0078125,false,false,false,false,4.5,11.9,0.0,23447,-348,0,5.75,11.95,0.0,0,0,0,4.375,12.0,0.0,0,0,0,2.75,11.9,0.0,0,0,0,0.0,12.05,0.0,-2,0,0,0.0,4.0,0.0,0,0,0,kReverse,0.0,0.0,0.0,0.0,0.0,0.0,0.0,0.0,0.0,0.0,0.0,
390.73749599999996,true,true,true,0.0,1.0,-0.0234375,-0.0078125,false,false,false,false,0.0,-0.0078125,0.0,-0.0078125,false,false,false,false,8.375,12.0,0.0,22808,-354,0,8.5,12.05,0.0,0,0,0,8.5,12.05,0.0,0,0,0,8.0,12.05,0.0,0,0,0,0.0,12.15,0.0,-2,0,0,0.0,4.0,0.0,0,0,0,kReverse,0.0,0.0,0.0,0.0,0.0,0.0,0.0,0.0,0.0,0.0,0.0,
390.938231,true,true,true,0.0,0.5433070659637451,0.9763779640197754,0.8031495809555054,false,false,false,false,0.0,-0.0078125,0.0,-0.0078125,false,false,false,false,13.375,10.25,0.0,22023,-451,0,19.25,10.65,0.0,0,0,0,17.625,10.7,0.0,0,0,0,13.125,10.65,0.0,0,0,0,0.0,10.850000000000001,0.0,-2,0,0,0.0,4.0,0.0,0,0,0,kReverse,0.0,0.0,0.0,0.0,0.0,0.0,0.0,0.0,0.0,0.0,0.0,
391.132907,true,true,true,0.0,-0.0078125,-0.0078125,-0.015625,false,false,false,false,0.0,-0.0078125,0.0,-0.0078125,false,false,false,false,8.875,11.350000000000001,0.0,21512,-181,0,11.75,11.15,0.0,0,0,0,11.75,11.350000000000001,0.0,0,0,0,7.125,11.350000000000001,0.0,0,0,0,0.0,11.5,0.0,-2,0,0,0.0,4.0,0.0,0,0,0,kReverse,0.0,0.0,0.0,0.0,0.0,0.0,0.0,0.0,0.0,0.0,0.0,
