timer,lineLeft,lineCenter,lineRight,LeftFrontCurrent,LeftFrontVoltage,LeftFrontValue,LeftFrontPosition,LeftFrontVelocity,LeftFrontFaults,LeftRearCurrent,LeftRearVoltage,LeftRearValue,LeftRearPosition,LeftRearVelocity,LeftRearFaults,RightFrontCurrent,RightFrontVoltage,RightFrontValue,RightFrontPosition,RightFrontVelocity,RightFrontFaults,RightRearCurrent,RightRearVoltage,RightRearValue,RightRearPosition,RightRearVelocity,RightRearFaults,LiftCurrent,LiftVoltage,LiftValue,LiftPosition,LiftVelocity,LiftFaults,WristCurrent,WristVoltage,WristValue,WristPosition,WristVelocity,WristFaults,RollerCurrent,RollerVoltage,RollerValue,RollerPosition,RollerVelocity,RollerFaults,PushersState,PivotsState,navx_Pitch,navx_Roll,navx_Yaw,navx_XAcc,navx_YAcc,navx_ZAcc,navx_Temp,navx_Bar,navx_Alt,navx_XDis,navx_YDis,
142.96675699999997,true,true,true,0.0,12.25,0.0,-1384,0,0,0.0,12.25,0.0,0,0,0,0.125,12.25,0.0,-676,0,0,0.0,12.3,0.0,0,0,0,0.0,12.25,0.0,0,0,0,0.0,12.25,0.0,0,0,0,0.0,12.35,0.0,0,0,0,kReverse,kOff,-84.23,1.79,1.71,0.034118652,-0.9581299,0.28967285,25.21,0.0,0.0,-0.034439087,-0.113845825,
143.050688,true,true,true,0.0,12.25,0.0,-1384,0,0,0.0,12.25,0.0,0,0,0,0.125,12.25,0.0,-676,0,0,0.0,12.3,0.0,0,0,0,0.0,12.25,0.0,0,0,0,0.0,12.25,0.0,0,0,0,0.0,12.35,0.0,0,0,0,kReverse,kOff,-84.19,1.77,1.68,0.022705078,-1.0991821,0.27600098,25.21,0.0,-14.0,-0.034439087,-0.10166931,
143.08499700000002,true,true,true,0.0,12.25,0.0,-1384,0,0,0.0,12.25,0.0,0,0,0,0.125,12.25,0.0,-676,0,0,0.0,12.3,0.0,0,0,0,0.0,12.25,0.0,0,0,0,0.0,12.25,0.0,0,0,0,0.0,12.35,0.0,0,0,0,kReverse,kOff,-84.18,1.74,1.65,0.029846191,-1.2501221,0.24597168,25.21,0.0,-10.0,-0.034439087,-0.08860779,
143.120916,true,true,true,0.0,12.25,0.0,-1384,0,0,0.0,12.25,0.0,0,0,0,0.125,12.25,0.0,-676,0,0,0.0,12.3,0.0,0,0,0,0.0,12.25,0.0,0,0,0,0.0,12.25,0.0,0,0,0,0.0,12.35,0.0,0,0,0,kReverse,kOff,-84.15,1.77,1.68,0.06689453,-1.638855,0.15612793,25.21,0.0,16.0,-0.03425598,-0.053771973,
143.168795,true,true,true,0.0,12.25,0.0,-1384,0,0,0.0,12.25,0.0,0,0,0,0.125,12.25,0.0,-676,0,0,0.0,12.3,0.0,0,0,0,0.0,12.25,0.0,0,0,0,0.0,12.25,0.0,0,0,0,0.0,12.35,0.0,0,0,0,kReverse,kOff,-84.15,1.77,1.69,0.05267334,-1.6338501,0.13500977,25.21,0.0,2.0,-0.03425598,-0.046676636,
143.207903,true,true,true,0.0,12.25,0.0,-1384,0,0,0.0,12.25,0.0,0,0,0,0.125,12.25,0.0,-676,0,0,0.0,12.25,0.0,0,0,0,0.0,12.25,0.0,0,0,0,0.0,12.25,0.0,0,0,0,0.0,12.35,0.0,0,0,0,kReverse,kOff,-84.17,1.79,1.7,0.07757568,-1.4871216,0.08306885,25.21,0.0,31.0,-0.03416443,-0.025650024,
143.250413,true,true,true,0.0,12.25,0.0,-1384,0,0,0.0,12.25,0.0,0,0,0,0.125,12.25,0.0,-676,0,0,0.0,12.25,0.0,0,0,0,0.0,12.25,0.0,0,0,0,0.0,12.25,0.0,0,0,0,0.0,12.35,0.0,0,0,0,kReverse,kOff,-84.13,1.85,1.77,0.07324219,-1.2536621,0.054748535,25.21,0.0,33.0,-0.033599854,-0.005203247,
143.29272199999997,true,true,true,0.0,12.25,0.0,-1384,0,0,0.0,12.25,0.0,0,0,0,0.125,12.25,0.0,-676,0,0,0.0,12.25,0.0,0,0,0,0.0,12.25,0.0,0,0,0,0.0,12.25,0.0,0,0,0,0.0,12.35,0.0,0,0,0,kReverse,kOff,-84.11,1.85,1.76,0.042907715,-0.96154785,-0.032409668,25.21,0.0,13.0,-0.03300476,0.0143585205,
143.331191,true,true,true,0.0,12.25,0.0,-1384,0,0,0.0,12.25,0.0,0,0,0,0.125,12.25,0.0,-676,0,0,0.0,12.25,0.0,0,0,0,0.0,12.25,0.0,0,0,0,0.0,12.25,0.0,0,0,0,0.0,12.35,0.0,0,0,0,kReverse,kOff,-84.14,1.84,1.75,0.05621338,-0.8777466,-0.04626465,25.21,0.0,30.0,-0.032958984,0.026611328,
143.369374,true,true,true,0.0,12.25,0.0,-1384,0,0,0.0,12.25,0.0,0,0,0,0.125,12.25,0.0,-676,0,0,0.0,12.25,0.0,0,0,0,0.0,12.25,0.0,0,0,0,0.0,12.25,0.0,0,0,0,0.0,12.3,0.0,0,0,0,kReverse,kOff,-84.14,1.83,1.74,0.057617188,-0.8821411,-0.05847168,25.21,0.0,31.0,-0.03277588,0.038146973,
143.405481,true,true,true,0.0,12.25,0.0,-1384,0,0,0.0,12.25,0.0,0,0,0,0.125,12.25,0.0,-676,0,0,0.0,12.25,0.0,0,0,0,0.0,12.25,0.0,0,0,0,0.0,12.25,0.0,0,0,0,0.0,12.3,0.0,0,0,0,kReverse,kOff,-84.13,1.8,1.71,0.07849121,-1.0180054,-0.03894043,25.21,0.0,48.0,-0.032165527,0.054000854,
143.444596,true,true,true,0.0,12.25,0.0,-1384,0,0,0.0,12.25,0.0,0,0,0,0.125,12.25,0.0,-676,0,0,0.0,12.25,0.0,0,0,0,0.0,12.25,0.0,0,0,0,0.0,12.25,0.0,0,0,0,0.0,12.3,0.0,0,0,0,kReverse,kOff,-84.08,1.82,1.73,0.10101318,-1.1200562,-0.077819824,25.21,0.0,68.0,-0.030899048,0.06793213,
143.481872,true,true,true,0.0,12.25,0.0,-1384,0,0,0.0,12.25,0.0,0,0,0,0.125,12.25,0.0,-676,0,0,0.0,12.25,0.0,0,0,0,0.0,12.25,0.0,0,0,0,0.0,12.25,0.0,0,0,0,0.0,12.3,0.0,0,0,0,kReverse,kOff,-84.09,1.83,1.75,0.07141113,-1.2000122,-0.15307617,25.21,0.0,37.0,-0.029663086,0.07569885,
143.532996,true,true,true,0.0,12.25,0.0,-1384,0,0,0.0,12.25,0.0,0,0,0,0.125,12.25,0.0,-676,0,0,0.0,12.25,0.0,0,0,0,0.0,12.25,0.0,0,0,0,0.0,12.25,0.0,0,0,0,0.0,12.3,0.0,0,0,0,kReverse,kOff,-84.04,1.9,1.81,0.019470215,-0.81829834,-0.13171387,25.21,0.0,-4.0,-0.02659607,0.08895874,
143.587158,true,true,true,0.0,12.25,0.0,-1384,0,0,0.0,12.25,0.0,0,0,0,0.125,12.25,0.0,-676,0,0,0.0,12.25,0.0,0,0,0,0.0,12.25,0.0,0,0,0,0.0,12.25,0.0,0,0,0,0.0,12.3,0.0,0,0,0,kReverse,kOff,-84.04,1.9,1.82,-0.01940918,-0.6137085,-0.13903809,25.21,0.0,-36.0,-0.026672363,0.09213257,
143.62053999999998,true,true,true,0.0,12.25,0.0,-1384,0,0,0.0,12.25,0.0,0,0,0,0.125,12.25,0.0,-676,0,0,0.0,12.25,0.0,0,0,0,0.0,12.25,0.0,0,0,0,0.0,12.25,0.0,0,0,0,0.0,12.3,0.0,0,0,0,kReverse,kOff,-84.07,1.89,1.81,-0.03479004,-0.53082275,-0.07598877,25.21,0.0,-50.0,-0.02696228,0.094329834,
143.667223,true,true,true,0.0,12.25,0.0,-1384,0,0,0.0,12.25,0.0,0,0,0,0.125,12.25,0.0,-676,0,0,0.0,12.25,0.0,0,0,0,0.0,12.25,0.0,0,0,0,0.0,12.25,0.0,0,0,0,0.0,12.3,0.0,0,0,0,kReverse,kOff,-84.09,1.88,1.8,-0.04559326,-0.5958252,0.1326294,25.21,0.0,-66.0,-0.02859497,0.09744263,
143.705905,true,true,true,0.0,12.25,0.0,-1384,0,0,0.0,12.25,0.0,0,0,0,0.125,12.25,0.0,-676,0,0,0.0,12.25,0.0,0,0,0,0.0,12.25,0.0,0,0,0,0.0,12.25,0.0,0,0,0,0.0,12.3,0.0,0,0,0,kReverse,kOff,-84.09,1.89,1.81,-0.03277588,-0.680542,0.18591309,25.21,0.0,-57.0,-0.029937744,0.09944153,
143.737352,true,true,true,0.0,12.25,0.0,-1384,0,0,0.0,12.25,0.0,0,0,0,0.125,12.25,0.0,-676,0,0,0.0,12.25,0.0,0,0,0,0.0,12.25,0.0,0,0,0,0.0,12.25,0.0,0,0,0,0.0,12.3,0.0,0,0,0,kReverse,kOff,-84.12,1.89,1.8,-0.022155762,-0.7271118,0.28668213,25.21,0.0,-49.0,-0.031585693,0.10227966,
143.76890899999998,true,true,true,0.0,12.25,0.0,-1384,0,0,0.0,12.25,0.0,0,0,0,0.125,12.25,0.0,-676,0,0,0.0,12.25,0.0,0,0,0,0.0,12.25,0.0,0,0,0,0.0,12.25,0.0,0,0,0,0.0,12.3,0.0,0,0,0,kReverse,kOff,-84.16,1.89,1.8,0.017028809,-0.76446533,0.37945557,25.21,0.0,-13.0,-0.033477783,0.10636902,
143.802271,true,true,true,0.0,12.25,0.0,-1384,0,0,0.0,12.25,0.0,0,0,0,0.125,12.25,0.0,-676,0,0,0.0,12.25,0.0,0,0,0,0.0,12.25,0.0,0,0,0,0.0,12.25,0.0,0,0,0,0.0,12.3,0.0,0,0,0,kReverse,kOff,-84.13,1.91,1.82,0.035339355,-0.7988281,0.41778564,25.21,0.0,2.0,-0.034439087,0.112213135,
143.830336,true,true,true,0.0,12.25,0.0,-1384,0,0,0.0,12.25,0.0,0,0,0,0.125,12.25,0.0,-676,0,0,0.0,12.25,0.0,0,0,0,0.0,12.25,0.0,0,0,0,0.0,12.25,0.0,0,0,0,0.0,12.3,0.0,0,0,0,kReverse,kOff,-84.12,1.9,1.81,0.033996582,-0.8936157,0.39404297,25.21,0.0,-1.0,-0.034439087,0.11982727,
143.864835,true,true,true,0.0,12.25,0.0,-1384,0,0,0.0,12.25,0.0,0,0,0,0.125,12.25,0.0,-676,0,0,0.0,12.25,0.0,0,0,0,0.0,12.25,0.0,0,0,0,0.0,12.25,0.0,0,0,0,0.0,12.3,0.0,0,0,0,kReverse,kOff,-84.14,1.9,1.81,0.06750488,-1.0559692,0.34777832,25.21,0.0,11.0,-0.034301758,0.1341095,
143.8978,true,true,true,0.0,12.25,0.0,-1384,0,0,0.0,12.25,0.0,0,0,0,0.125,12.25,0.0,-676,0,0,0.0,12.25,0.0,0,0,0,0.0,12.25,0.0,0,0,0,0.0,12.25,0.0,0,0,0,0.0,12.3,0.0,0,0,0,kReverse,kOff,-84.12,1.89,1.8,0.07128906,-1.3648682,0.32983398,25.21,0.0,22.0,-0.03427124,0.14526367,
143.94955299999998,true,true,true,0.0,12.25,0.0,-1384,0,0,0.0,12.25,0.0,0,0,0,0.125,12.25,0.0,-676,0,0,0.0,12.25,0.0,0,0,0,0.0,12.25,0.0,0,0,0,0.0,12.25,0.0,0,0,0,0.0,12.3,0.0,0,0,0,kReverse,kOff,-84.14,1.89,1.81,0.07885742,-1.4180908,0.10632324,25.21,0.0,32.0,-0.03327942,0.18295288,
144.029789,true,true,true,0.0,12.25,0.0,-1384,0,0,0.0,12.25,0.0,0,0,0,0.125,12.25,0.0,-676,0,0,0.0,12.25,0.0,0,0,0,0.0,12.25,0.0,0,0,0,0.0,12.25,0.0,0,0,0,0.0,12.3,0.0,0,0,0,kReverse,kOff,-84.11,1.9,1.82,0.03668213,-1.0431519,0.016540527,25.21,0.0,3.0,-0.03236389,0.20173645,
144.086403,true,true,true,0.0,12.25,0.0,-1384,0,0,0.0,12.25,0.0,0,0,0,0.125,12.25,0.0,-676,0,0,0.0,12.25,0.0,0,0,0,0.0,12.25,0.0,0,0,0,0.0,12.25,0.0,0,0,0,0.0,12.3,0.0,0,0,0,kReverse,kOff,-84.11,1.9,1.81,0.043518066,-0.9043579,-0.08850098,25.21,0.0,16.0,-0.03236389,0.21925354,
144.11922,true,true,true,0.0,12.25,0.0,-1384,0,0,0.0,12.25,0.0,0,0,0,0.125,12.25,0.0,-676,0,0,0.0,12.25,0.0,0,0,0,0.0,12.25,0.0,0,0,0,0.0,12.25,0.0,0,0,0,0.0,12.3,0.0,0,0,0,kReverse,kOff,-84.11,1.88,1.79,0.074157715,-1.0111694,-0.063964844,25.21,0.0,43.0,-0.032165527,0.23487854,
144.14835699999998,true,true,true,0.0,12.25,0.0,-1384,0,0,0.0,12.25,0.0,0,0,0,0.125,12.25,0.0,-676,0,0,0.0,12.25,0.0,0,0,0,0.0,12.25,0.0,0,0,0,0.0,12.25,0.0,0,0,0,0.0,12.3,0.0,0,0,0,kReverse,kOff,-84.08,1.89,1.8,0.08508301,-1.0663452,-0.070739746,25.21,0.0,52.0,-0.031982422,0.24417114,
144.178935,true,true,true,0.0,12.200000000000001,0.0,-1384,0,0,0.0,12.25,0.0,0,0,0,0.125,12.200000000000001,0.0,-676,0,0,0.0,12.25,0.0,0,0,0,0.0,12.25,0.0,0,0,0,0.0,12.25,0.0,0,0,0,0.0,12.3,0.0,0,0,0,kReverse,kOff,-84.09,1.91,1.82,0.048706055,-1.0393066,-0.13677979,25.21,0.0,17.0,-0.031143188,0.25228882,
144.20979799999998,true,true,true,0.0,12.200000000000001,0.0,-1384,0,0,0.0,12.25,0.0,0,0,0,0.125,12.200000000000001,0.0,-676,0,0,0.0,12.25,0.0,0,0,0,0.0,12.25,0.0,0,0,0,0.0,12.25,0.0,0,0,0,0.0,12.3,0.0,0,0,0,kReverse,kOff,-84.08,1.91,1.83,0.04095459,-0.88879395,-0.113586426,25.21,0.0,14.0,-0.031143188,0.25920105,
144.24361299999998,true,true,true,0.0,12.200000000000001,0.0,-1384,0,0,0.0,12.25,0.0,0,0,0,0.125,12.200000000000001,0.0,-676,0,0,0.0,12.25,0.0,0,0,0,0.0,12.25,0.0,0,0,0,0.0,12.25,0.0,0,0,0,0.0,12.3,0.0,0,0,0,kReverse,kOff,-84.08,1.9,1.82,0.01184082,-0.69677734,-0.108947754,25.21,0.0,-8.0,-0.031143188,0.26507568,
144.268712,true,true,true,0.0,12.200000000000001,0.0,-1384,0,0,0.0,12.25,0.0,0,0,0,0.125,12.200000000000001,0.0,-676,0,0,0.0,12.25,0.0,0,0,0,0.0,12.25,0.0,0,0,0,0.0,12.25,0.0,0,0,0,0.0,12.3,0.0,0,0,0,kReverse,kOff,-84.08,1.9,1.82,0.005859375,-0.6486206,-0.12194824,25.21,0.0,-12.0,-0.031143188,0.26765442,
144.30296099999998,true,true,true,0.0,12.200000000000001,0.0,-1384,0,0,0.0,12.25,0.0,0,0,0,0.125,12.200000000000001,0.0,-676,0,0,0.0,12.25,0.0,0,0,0,0.0,12.25,0.0,0,0,0,0.0,12.25,0.0,0,0,0,0.0,12.3,0.0,0,0,0,kReverse,kOff,-84.09,1.9,1.81,-0.02911377,-0.59106445,-0.09222412,25.22,0.0,-46.0,-0.03126526,0.27209473,
144.32717599999998,true,true,true,0.0,12.200000000000001,0.0,-1384,0,0,0.0,12.25,0.0,0,0,0,0.125,12.200000000000001,0.0,-676,0,0,0.0,12.25,0.0,0,0,0,0.0,12.25,0.0,0,0,0,0.0,12.200000000000001,0.0,0,0,0,0.0,12.25,0.0,0,0,0,kReverse,kOff,-84.09,1.9,1.81,-0.04107666,-0.6704712,0.01586914,25.22,0.0,-62.0,-0.03164673,0.27589417,
144.35831699999997,true,true,true,0.0,12.200000000000001,0.0,-1384,0,0,0.0,12.25,0.0,0,0,0,0.125,12.200000000000001,0.0,-676,0,0,0.0,12.25,0.0,0,0,0,0.0,12.25,0.0,0,0,0,0.0,12.200000000000001,0.0,0,0,0,0.0,12.25,0.0,0,0,0,kReverse,kOff,-84.09,1.92,1.84,-0.021057129,-0.83135986,0.10394287,25.22,0.0,-49.0,-0.032791138,0.28112793,
144.387693,true,true,true,0.0,12.200000000000001,0.0,-1384,0,0,0.0,12.25,0.0,0,0,0,0.125,12.200000000000001,0.0,-676,0,0,0.0,12.25,0.0,0,0,0,0.0,12.25,0.0,0,0,0,0.0,12.200000000000001,0.0,0,0,0,0.0,12.25,0.0,0,0,0,kReverse,kOff,-84.11,1.93,1.85,-0.03186035,-0.8093872,0.16320801,25.22,0.0,-60.0,-0.033309937,0.28292847,
144.406367,true,true,true,0.0,12.200000000000001,0.0,-1384,0,0,0.0,12.25,0.0,0,0,0,0.125,12.200000000000001,0.0,-676,0,0,0.0,12.25,0.0,0,0,0,0.0,12.25,0.0,0,0,0,0.0,12.200000000000001,0.0,0,0,0,0.0,12.25,0.0,0,0,0,kReverse,kOff,-84.12,1.94,1.85,-0.005493164,-0.7597046,0.25323486,25.22,0.0,-34.0,-0.034561157,0.28701782,
144.44609699999998,true,true,true,0.0,12.200000000000001,0.0,-1384,0,0,0.0,12.25,0.0,0,0,0,0.125,12.200000000000001,0.0,-676,0,0,0.0,12.25,0.0,0,0,0,0.0,12.25,0.0,0,0,0,0.0,12.200000000000001,0.0,0,0,0,0.0,12.25,0.0,0,0,0,kReverse,kOff,-84.13,1.94,1.85,0.009399414,-0.7030029,0.3413086,25.22,0.0,-19.0,-0.03526306,0.29226685,
144.46982999999997,true,true,true,0.0,12.200000000000001,0.0,-1384,0,0,0.0,12.25,0.0,0,0,0,0.125,12.200000000000001,0.0,-676,0,0,0.0,12.25,0.0,0,0,0,0.0,12.25,0.0,0,0,0,0.0,12.200000000000001,0.0,0,0,0,0.0,12.25,0.0,0,0,0,kReverse,kOff,-84.13,1.93,1.84,0.022705078,-0.83184814,0.35162354,25.22,0.0,-10.0,-0.035339355,0.2990265,
144.504391,true,true,true,0.0,12.200000000000001,0.0,-1384,0,0,0.0,12.200000000000001,0.0,0,0,0,0.125,12.200000000000001,0.0,-676,0,0,0.0,12.25,0.0,0,0,0,0.0,12.200000000000001,0.0,0,0,0,0.0,12.200000000000001,0.0,0,0,0,0.0,12.25,0.0,0,0,0,kReverse,kOff,-84.14,1.92,1.84,0.05114746,-1.1153564,0.40252686,25.22,0.0,8.0,-0.03540039,0.3072815,
144.529542,true,true,true,0.0,12.200000000000001,0.0,-1384,0,0,0.0,12.200000000000001,0.0,0,0,0,0.125,12.200000000000001,0.0,-676,0,0,0.0,12.25,0.0,0,0,0,0.0,12.200000000000001,0.0,0,0,0,0.0,12.200000000000001,0.0,0,0,0,0.0,12.25,0.0,0,0,0,kReverse,kOff,-84.14,1.9,1.82,0.103271484,-1.4805298,0.4046631,25.22,0.0,49.0,-0.035354614,0.3170929,
144.55960499999998,true,true,true,0.0,12.200000000000001,0.0,-1384,0,0,0.0,12.200000000000001,0.0,0,0,0,0.125,12.200000000000001,0.0,-676,0,0,0.0,12.25,0.0,0,0,0,0.0,12.200000000000001,0.0,0,0,0,0.0,12.200000000000001,0.0,0,0,0,0.0,12.25,0.0,0,0,0,kReverse,kOff,-84.13,1.92,1.84,0.12384033,-1.7009888,0.34313965,25.22,0.0,63.0,-0.035003662,0.32818604,
144.58597199999997,true,true,true,0.0,12.200000000000001,0.0,-1384,0,0,0.0,12.200000000000001,0.0,0,0,0,0.125,12.200000000000001,0.0,-676,0,0,0.0,12.25,0.0,0,0,0,0.0,12.200000000000001,0.0,0,0,0,0.0,12.200000000000001,0.0,0,0,0,0.0,12.25,0.0,0,0,0,kReverse,kOff,-84.13,1.93,1.85,0.10144043,-1.6018677,0.21295166,25.22,0.0,45.0,-0.034347534,0.34005737,
144.61921699999996,true,true,true,0.0,12.200000000000001,0.0,-1384,0,0,0.0,12.200000000000001,0.0,0,0,0,0.125,12.200000000000001,0.0,-676,0,0,0.0,12.25,0.0,0,0,0,0.0,12.200000000000001,0.0,0,0,0,0.0,12.200000000000001,0.0,0,0,0,0.0,12.25,0.0,0,0,0,kReverse,kOff,-84.12,1.95,1.87,0.066345215,-1.2194214,0.07305908,25.22,0.0,25.0,-0.032974243,0.35801697,
144.659395,true,true,true,0.0,12.200000000000001,0.0,-1384,0,0,0.0,12.200000000000001,0.0,0,0,0,0.125,12.200000000000001,0.0,-676,0,0,0.0,12.25,0.0,0,0,0,0.0,12.200000000000001,0.0,0,0,0,0.0,12.200000000000001,0.0,0,0,0,0.0,12.25,0.0,0,0,0,kReverse,kOff,-84.12,1.92,1.83,0.02545166,-0.7576904,-0.07879639,25.22,0.0,2.0,-0.032485962,0.36941528,
144.688859,true,true,true,0.0,12.200000000000001,0.0,-1384,0,0,0.0,12.200000000000001,0.0,0,0,0,0.125,12.200000000000001,0.0,-676,0,0,0.0,12.25,0.0,0,0,0,0.0,12.200000000000001,0.0,0,0,0,0.0,12.200000000000001,0.0,0,0,0,0.0,12.25,0.0,0,0,0,kReverse,kOff,-84.11,1.91,1.83,0.024047852,-0.77557373,-0.08703613,25.22,0.0,0.0,-0.032485962,0.3748169,
144.71432499999997,true,true,true,0.0,12.200000000000001,0.0,-1384,0,0,0.0,12.200000000000001,0.0,0,0,0,0.125,12.200000000000001,0.0,-676,0,0,0.0,12.25,0.0,0,0,0,0.0,12.200000000000001,0.0,0,0,0,0.0,12.200000000000001,0.0,0,0,0,0.0,12.25,0.0,0,0,0,kReverse,kOff,-84.1,1.9,1.81,0.048583984,-0.9303589,-0.10247803,25.22,0.0,20.0,-0.032470703,0.38487244,
144.741107,true,true,true,0.0,12.200000000000001,0.0,-1384,0,0,0.0,12.200000000000001,0.0,0,0,0,0.125,12.200000000000001,0.0,-676,0,0,0.0,12.25,0.0,0,0,0,0.0,12.200000000000001,0.0,0,0,0,0.0,12.200000000000001,0.0,0,0,0,0.0,12.25,0.0,0,0,0,kReverse,kOff,-84.1,1.91,1.82,0.0602417,-1.0956421,-0.10369873,25.22,0.0,26.0,-0.032302856,0.3938446,
144.76989899999998,true,true,true,0.0,12.200000000000001,0.0,-1384,0,0,0.0,12.200000000000001,0.0,0,0,0,0.125,12.200000000000001,0.0,-676,0,0,0.0,12.25,0.0,0,0,0,0.0,12.200000000000001,0.0,0,0,0,0.0,12.200000000000001,0.0,0,0,0,0.0,12.25,0.0,0,0,0,kReverse,kOff,-84.1,1.92,1.83,0.05718994,-1.114563,-0.113220215,25.22,0.0,23.0,-0.031982422,0.4016266,
144.79967799999997,true,true,true,0.0,12.200000000000001,0.0,-1384,0,0,0.0,12.200000000000001,0.0,0,0,0,0.125,12.200000000000001,0.0,-676,0,0,0.0,12.25,0.0,0,0,0,0.0,12.200000000000001,0.0,0,0,0,0.0,12.200000000000001,0.0,0,0,0,0.0,12.25,0.0,0,0,0,kReverse,kOff,-84.09,1.94,1.86,0.061157227,-0.95202637,-0.080322266,25.23,0.0,31.0,-0.0315094,0.40830994,
144.826876,true,true,true,0.0,12.200000000000001,0.0,-1384,0,0,0.0,12.200000000000001,0.0,0,0,0,0.125,12.200000000000001,0.0,-676,0,0,0.0,12.25,0.0,0,0,0,0.0,12.200000000000001,0.0,0,0,0,0.0,12.200000000000001,0.0,0,0,0,0.0,12.25,0.0,0,0,0,kReverse,kOff,-84.09,1.95,1.87,0.01373291,-0.671875,-0.09106445,25.23,0.0,-6.0,-0.030944824,0.41407776,
144.85047199999997,true,true,true,0.0,12.200000000000001,0.0,-1384,0,0,0.0,12.200000000000001,0.0,0,0,0,0.125,12.200000000000001,0.0,-676,0,0,0.0,12.25,0.0,0,0,0,0.0,12.200000000000001,0.0,0,0,0,0.0,12.200000000000001,0.0,0,0,0,0.0,12.25,0.0,0,0,0,kReverse,kOff,-84.09,1.94,1.86,0.0016479492,-0.598938,-0.07324219,25.23,0.0,-16.0,-0.030944824,0.41667175,
144.874167,true,true,true,0.0,12.200000000000001,0.0,-1384,0,0,0.0,12.200000000000001,0.0,0,0,0,0.125,12.200000000000001,0.0,-676,0,0,0.0,12.25,0.0,0,0,0,0.0,12.200000000000001,0.0,0,0,0,0.0,12.200000000000001,0.0,0,0,0,0.0,12.25,0.0,0,0,0,kReverse,kOff,-84.09,1.94,1.85,-0.02947998,-0.5552368,-0.030456543,25.23,0.0,-46.0,-0.031066895,0.42138672,
144.905826,true,true,true,0.0,12.200000000000001,0.0,-1384,0,0,0.0,12.200000000000001,0.0,0,0,0,0.125,12.200000000000001,0.0,-676,0,0,0.0,12.25,0.0,0,0,0,0.0,12.200000000000001,0.0,0,0,0,0.0,12.200000000000001,0.0,0,0,0,0.0,12.25,0.0,0,0,0,kReverse,kOff,-84.08,1.93,1.84,-0.036376953,-0.7394409,-0.0026855469,25.23,0.0,-60.0,-0.03149414,0.42564392,
144.93062999999998,true,true,true,0.0,12.200000000000001,0.0,-1384,0,0,0.0,12.200000000000001,0.0,0,0,0,0.125,12.200000000000001,0.0,-676,0,0,0.0,12.25,0.0,0,0,0,0.0,12.200000000000001,0.0,0,0,0,0.0,12.200000000000001,0.0,0,0,0,0.0,12.25,0.0,0,0,0,kReverse,kOff,-84.1,1.95,1.86,-0.02532959,-0.8557739,0.079589844,25.23,0.0,-54.0,-0.032211304,0.4296112,
144.95920999999998,true,true,true,0.0,12.200000000000001,0.0,-1384,0,0,0.0,12.200000000000001,0.0,0,0,0,0.125,12.200000000000001,0.0,-676,0,0,0.0,12.25,0.0,0,0,0,0.0,12.200000000000001,0.0,0,0,0,0.0,12.200000000000001,0.0,0,0,0,0.0,12.25,0.0,0,0,0,kReverse,kOff,-84.09,1.97,1.88,-0.021057129,-0.82476807,0.2052002,25.23,0.0,-51.0,-0.033218384,0.43374634,
144.986742,true,true,true,0.0,12.200000000000001,0.0,-1384,0,0,0.0,12.200000000000001,0.0,0,0,0,0.125,12.200000000000001,0.0,-676,0,0,0.0,12.25,0.0,0,0,0,0.0,12.200000000000001,0.0,0,0,0,0.0,12.200000000000001,0.0,0,0,0,0.0,12.25,0.0,0,0,0,kReverse,kOff,-84.09,1.98,1.89,0.0032958984,-0.7873535,0.24749756,25.23,0.0,-26.0,-0.033798218,0.43608093,
145.01394699999997,true,true,true,0.0,12.200000000000001,0.0,-1384,0,0,0.0,12.200000000000001,0.0,0,0,0,0.125,12.200000000000001,0.0,-676,0,0,0.0,12.25,0.0,0,0,0,0.0,12.200000000000001,0.0,0,0,0,0.0,12.200000000000001,0.0,0,0,0,0.0,12.25,0.0,0,0,0,kReverse,kOff,-84.12,1.97,1.89,-0.0075683594,-0.7024536,0.29797363,25.23,0.0,-35.0,-0.035095215,0.44154358,
145.03758899999997,true,true,true,0.0,12.200000000000001,0.0,-1384,0,0,0.0,12.200000000000001,0.0,0,0,0,0.125,12.200000000000001,0.0,-676,0,0,0.0,12.25,0.0,0,0,0,0.0,12.200000000000001,0.0,0,0,0,0.0,12.200000000000001,0.0,0,0,0,0.0,12.25,0.0,0,0,0,kReverse,kOff,-84.13,1.95,1.86,0.036376953,-0.88256836,0.38128662,25.23,0.0,1.0,-0.03652954,0.44836426,
145.061702,true,true,true,0.0,12.200000000000001,0.0,-1384,0,0,0.0,12.200000000000001,0.0,0,0,0,0.125,12.200000000000001,0.0,-676,0,0,0.0,12.25,0.0,0,0,0,0.0,12.200000000000001,0.0,0,0,0,0.0,12.200000000000001,0.0,0,0,0,0.0,12.25,0.0,0,0,0,kReverse,kOff,-84.12,1.94,1.85,0.06890869,-1.2981567,0.4222412,25.23,0.0,19.0,-0.03652954,0.45681763,
145.095796,true,true,true,0.0,12.200000000000001,0.0,-1384,0,0,0.0,12.200000000000001,0.0,0,0,0,0.125,12.200000000000001,0.0,-676,0,0,0.0,12.25,0.0,0,0,0,0.0,12.200000000000001,0.0,0,0,0,0.0,12.200000000000001,0.0,0,0,0,0.0,12.25,0.0,0,0,0,kReverse,kOff,-84.12,1.94,1.85,0.12646484,-1.6749268,0.39215088,25.23,0.0,65.0,-0.036376953,0.46676636,
145.122032,true,true,true,0.0,12.200000000000001,0.0,-1384,0,0,0.0,12.200000000000001,0.0,0,0,0,0.125,12.200000000000001,0.0,-676,0,0,0.0,12.25,0.0,0,0,0,0.0,12.200000000000001,0.0,0,0,0,0.0,12.200000000000001,0.0,0,0,0,0.0,12.25,0.0,0,0,0,kReverse,kOff,-84.13,1.94,1.86,0.1307373,-1.7301636,0.3605957,25.23,0.0,68.0,-0.03616333,0.47218323,
145.146687,true,true,true,0.0,12.200000000000001,0.0,-1384,0,0,0.0,12.200000000000001,0.0,0,0,0,0.125,12.200000000000001,0.0,-676,0,0,0.0,12.25,0.0,0,0,0,0.0,12.200000000000001,0.0,0,0,0,0.0,12.200000000000001,0.0,0,0,0,0.0,12.25,0.0,0,0,0,kReverse,kOff,-84.12,1.96,1.87,0.12670898,-1.5478516,0.22509766,25.23,0.0,72.0,-0.035461426,0.48361206,
145.168378,true,true,true,0.0,12.200000000000001,0.0,-1384,0,0,0.0,12.200000000000001,0.0,0,0,0,0.125,12.200000000000001,0.0,-676,0,0,0.0,12.25,0.0,0,0,0,0.0,12.200000000000001,0.0,0,0,0,0.0,12.200000000000001,0.0,0,0,0,0.0,12.25,0.0,0,0,0,kReverse,kOff,-84.09,1.97,1.89,0.09234619,-1.319519,0.12634277,25.23,0.0,46.0,-0.034988403,0.48945618,
145.18894899999998,true,true,true,0.0,12.200000000000001,0.0,-1384,0,0,0.0,12.200000000000001,0.0,0,0,0,0.125,12.200000000000001,0.0,-676,0,0,0.0,12.25,0.0,0,0,0,0.0,12.200000000000001,0.0,0,0,0,0.0,12.200000000000001,0.0,0,0,0,0.0,12.25,0.0,0,0,0,kReverse,kOff,-84.08,1.95,1.87,0.01574707,-0.7411499,-0.069885254,25.23,0.0,-7.0,-0.034484863,0.5062866,
145.22387999999998,true,true,true,0.0,12.200000000000001,0.0,-1384,0,0,0.0,12.200000000000001,0.0,0,0,0,0.125,12.200000000000001,0.0,-676,0,0,0.0,12.25,0.0,0,0,0,0.0,12.200000000000001,0.0,0,0,0,0.0,12.200000000000001,0.0,0,0,0,0.0,12.25,0.0,0,0,0,kReverse,kOff,-84.07,1.95,1.86,0.024780273,-0.72332764,-0.097473145,25.23,0.0,2.0,-0.034484863,0.5115204,
145.249124,true,true,true,0.0,12.200000000000001,0.0,-1384,0,0,0.0,12.200000000000001,0.0,0,0,0,0.125,12.200000000000001,0.0,-676,0,0,0.0,12.25,0.0,0,0,0,0.0,12.200000000000001,0.0,0,0,0,0.0,12.200000000000001,0.0,0,0,0,0.0,12.25,0.0,0,0,0,kReverse,kOff,-84.06,1.93,1.84,0.05090332,-0.9178467,-0.13116455,25.23,0.0,23.0,-0.034454346,0.52119446,
145.28235199999997,true,true,true,0.0,12.200000000000001,0.0,-1384,0,0,0.0,12.200000000000001,0.0,0,0,0,0.125,12.200000000000001,0.0,-676,0,0,0.0,12.25,0.0,0,0,0,0.0,12.200000000000001,0.0,0,0,0,0.0,12.200000000000001,0.0,0,0,0,0.0,12.25,0.0,0,0,0,kReverse,kOff,-84.07,1.94,1.86,0.061767578,-1.1765747,-0.10021973,25.25,0.0,23.0,-0.03416443,0.533371,
145.31060399999998,true,true,true,0.0,12.200000000000001,0.0,-1384,0,0,0.0,12.200000000000001,0.0,0,0,0,0.125,12.200000000000001,0.0,-676,0,0,0.0,12.25,0.0,0,0,0,0.0,12.200000000000001,0.0,0,0,0,0.0,12.200000000000001,0.0,0,0,0,0.0,12.25,0.0,0,0,0,kReverse,kOff,-84.06,1.96,1.88,0.055725098,-1.1018066,-0.07696533,25.25,0.0,20.0,-0.033996582,0.53685,
145.33545599999997,true,true,true,0.0,12.200000000000001,0.0,-1384,0,0,0.0,12.200000000000001,0.0,0,0,0,0.125,12.200000000000001,0.0,-676,0,0,0.0,12.25,0.0,0,0,0,0.0,12.200000000000001,0.0,0,0,0,0.0,12.200000000000001,0.0,0,0,0,0.0,12.25,0.0,0,0,0,kReverse,kOff,-84.05,1.99,1.9,0.03363037,-0.8345337,-0.07366943,25.25,0.0,7.0,-0.033584595,0.54307556,
145.359705,true,true,true,0.0,12.200000000000001,0.0,-1384,0,0,0.0,12.200000000000001,0.0,0,0,0,0.125,12.200000000000001,0.0,-676,0,0,0.0,12.25,0.0,0,0,0,0.0,12.200000000000001,0.0,0,0,0,0.0,12.200000000000001,0.0,0,0,0,0.0,12.25,0.0,0,0,0,kReverse,kOff,-84.07,1.97,1.89,0.0015869141,-0.55633545,-0.07122803,25.25,0.0,-15.0,-0.033584595,0.54852295,
145.395647,true,true,true,0.0,12.200000000000001,0.0,-1384,0,0,0.0,12.200000000000001,0.0,0,0,0,0.125,12.200000000000001,0.0,-676,0,0,0.0,12.25,0.0,0,0,0,0.0,12.200000000000001,0.0,0,0,0,0.0,12.200000000000001,0.0,0,0,0,0.0,12.25,0.0,0,0,0,kReverse,kOff,-84.06,1.96,1.87,-0.019836426,-0.53790283,-0.005065918,25.25,0.0,-37.0,-0.033691406,0.553421,
145.423216,true,true,true,0.0,12.200000000000001,0.0,-1384,0,0,0.0,12.200000000000001,0.0,0,0,0,0.125,12.200000000000001,0.0,-676,0,0,0.0,12.25,0.0,0,0,0,0.0,12.200000000000001,0.0,0,0,0,0.0,12.200000000000001,0.0,0,0,0,0.0,12.25,0.0,0,0,0,kReverse,kOff,-84.05,1.95,1.87,-0.033447266,-0.737854,-0.016601562,25.25,0.0,-57.0,-0.034057617,0.55796814,
145.448423,true,true,true,0.0,12.200000000000001,0.0,-1384,0,0,0.0,12.200000000000001,0.0,0,0,0,0.125,12.200000000000001,0.0,-676,0,0,0.0,12.200000000000001,0.0,0,0,0,0.0,12.200000000000001,0.0,0,0,0,0.0,12.200000000000001,0.0,0,0,0,0.0,12.25,0.0,0,0,0,kReverse,kOff,-84.07,1.97,1.89,-0.016479492,-0.90448,0.08001709,25.25,0.0,-47.0,-0.034713745,0.56214905,
145.48427399999997,true,true,true,0.0,12.200000000000001,0.0,-1384,0,0,0.0,12.200000000000001,0.0,0,0,0,0.125,12.200000000000001,0.0,-676,0,0,0.0,12.200000000000001,0.0,0,0,0,0.0,12.200000000000001,0.0,0,0,0,0.0,12.200000000000001,0.0,0,0,0,0.0,12.25,0.0,0,0,0,kReverse,kOff,-84.08,1.98,1.9,-0.020996094,-0.9083252,0.14459229,25.25,0.0,-53.0,-0.03514099,0.56425476,
145.50642,true,true,true,0.0,12.200000000000001,0.0,-1384,0,0,0.0,12.200000000000001,0.0,0,0,0,0.125,12.200000000000001,0.0,-676,0,0,0.0,12.200000000000001,0.0,0,0,0,0.0,12.200000000000001,0.0,0,0,0,0.0,12.200000000000001,0.0,0,0,0,0.0,12.25,0.0,0,0,0,kReverse,kOff,-84.07,2.0,1.92,0.013122559,-0.7836304,0.24328613,25.25,0.0,-17.0,-0.03616333,0.5688782,
145.52936599999998,true,true,true,0.0,12.200000000000001,0.0,-1384,0,0,0.0,12.200000000000001,0.0,0,0,0,0.125,12.200000000000001,0.0,-676,0,0,0.0,12.200000000000001,0.0,0,0,0,0.0,12.200000000000001,0.0,0,0,0,0.0,12.200000000000001,0.0,0,0,0,0.0,12.25,0.0,0,0,0,kReverse,kOff,-84.12,1.99,1.9,-0.010559082,-0.7137451,0.28070068,25.25,0.0,-39.0,-0.037338257,0.5744171,
145.558011,true,true,true,0.0,12.200000000000001,0.0,-1384,0,0,0.0,12.200000000000001,0.0,0,0,0,0.125,12.200000000000001,0.0,-676,0,0,0.0,12.200000000000001,0.0,0,0,0,0.0,12.200000000000001,0.0,0,0,0,0.0,12.200000000000001,0.0,0,0,0,0.0,12.25,0.0,0,0,0,kReverse,kOff,-84.13,1.97,1.88,0.032470703,-0.9159546,0.41174316,25.25,0.0,-4.0,-0.03868103,0.5812988,
145.586285,true,true,true,0.25,12.200000000000001,0.0,-1386,0,0,0.25,12.200000000000001,0.0,0,0,0,0.125,12.200000000000001,0.0,-676,0,0,0.25,12.200000000000001,0.0,0,0,0,0.0,12.200000000000001,0.0,0,0,0,0.0,12.200000000000001,0.0,0,0,0,0.0,12.25,0.0,0,0,0,kReverse,kOff,-84.12,1.94,1.86,0.04058838,-1.3200684,0.3388672,25.25,0.0,-8.0,-0.039352417,0.589798,
145.61540399999998,true,true,true,23.375,12.200000000000001,0.0,-1428,-10,0,11.875,10.3,0.0,0,0,0,15.5,10.2,0.0,-696,-3,0,6.875,10.45,0.0,0,0,0,0.0,10.350000000000001,0.0,0,0,0,0.0,10.25,0.0,0,0,0,0.0,10.45,0.0,0,0,0,kReverse,kOff,-84.15,1.87,1.79,-0.21582031,-1.4918823,0.6144409,25.25,0.0,-272.0,-0.039535522,0.59469604,
145.646799,true,true,true,38.375,9.9,0.0,-1453,-28,0,24.5,10.3,0.0,0,0,0,26.625,10.2,0.0,-727,-15,0,28.25,10.45,0.0,0,0,0,0.0,10.350000000000001,0.0,0,0,0,0.0,10.25,0.0,0,0,0,0.0,10.45,0.0,0,0,0,kReverse,kOff,-84.71,1.9,1.88,-0.1385498,-0.75213623,-1.4116821,25.25,0.0,-156.0,-0.03967285,0.6029358,
145.672127,true,true,true,51.5,9.9,0.0,-1477,-52,0,47.5,10.3,0.0,0,0,0,43.25,10.2,0.0,-782,-62,0,39.875,10.45,0.0,0,0,0,0.0,10.350000000000001,0.0,0,0,0,0.0,10.25,0.0,0,0,0,0.0,10.45,0.0,0,0,0,kReverse,kOff,-84.86,1.49,1.58,-0.09326172,-1.2025757,-0.27160645,25.25,0.0,-130.0,-0.04045105,0.6066742,
145.70125199999998,true,true,true,46.0,9.9,0.0,-1548,-107,0,49.0,10.3,0.0,0,0,0,44.5,10.2,0.0,-816,-90,0,42.375,10.45,0.0,0,0,0,0.0,10.350000000000001,0.0,0,0,0,0.0,10.25,0.0,0,0,0,0.0,10.45,0.0,0,0,0,kReverse,kOff,-85.86,1.68,1.75,0.3652954,-1.6482544,-1.1156006,25.25,0.0,295.0,-0.04144287,0.60572815,
145.728087,true,true,true,41.625,9.9,0.0,-1590,-132,0,45.5,10.3,0.0,0,0,0,41.5,10.2,0.0,-855,-118,0,41.75,10.45,0.0,0,0,0,0.0,10.350000000000001,0.0,0,0,0,0.0,10.25,0.0,0,0,0,0.0,10.45,0.0,0,0,0,kReverse,kOff,-88.0,1.65,1.67,-0.16253662,-0.79571533,-0.28448486,25.25,0.0,-191.0,-0.0418396,0.60020447,
145.750161,true,true,true,35.875,9.9,0.0,-1640,-156,0,39.875,10.3,0.0,0,0,0,23.625,10.2,0.0,-932,-161,0,31.625,10.45,0.0,0,0,0,0.0,10.350000000000001,0.0,0,0,0,0.0,10.25,0.0,0,0,0,0.0,10.45,0.0,0,0,0,kReverse,kOff,-88.31,1.68,1.68,0.16741943,-1.6941528,-0.9694214,25.25,0.0,104.0,-0.042160034,0.59632874,
145.77401299999997,true,true,true,25.0,9.9,0.0,-1678,-174,0,18.75,11.5,0.0,0,0,0,11.25,11.600000000000001,0.0,-953,-170,0,18.375,11.600000000000001,0.0,0,0,0,0.0,11.7,0.0,0,0,0,0.0,11.7,0.0,0,0,0,0.0,11.7,0.0,0,0,0,kReverse,kOff,-88.02,1.59,1.58,0.2130127,-0.7112427,-0.6781006,25.25,0.0,187.0,-0.042266846,0.59135437,
145.79295599999998,true,true,true,12.625,11.600000000000001,0.0,-1702,-187,0,8.5,11.5,0.0,0,0,0,2.75,11.600000000000001,0.0,-967,-170,0,8.125,11.600000000000001,0.0,0,0,0,0.0,11.7,0.0,0,0,0,0.0,11.7,0.0,0,0,0,0.0,11.7,0.0,0,0,0,kReverse,kOff,-87.27,1.73,1.71,0.1496582,-0.6621704,0.6047363,25.25,0.0,134.0,-0.042312622,0.58195496,
145.81040099999998,true,true,true,3.875,11.600000000000001,0.0,-1723,-191,0,8.5,11.5,0.0,0,0,0,0.125,11.600000000000001,0.0,-976,-158,0,0.0,11.600000000000001,0.0,0,0,0,0.0,11.7,0.0,0,0,0,0.0,11.7,0.0,0,0,0,0.0,11.7,0.0,0,0,0,kReverse,kOff,-87.35,1.72,1.7,0.15844727,-1.1409912,0.08862305,25.24,0.0,124.0,-0.042144775,0.5781708,
145.838833,true,true,true,0.0,11.600000000000001,0.0,-1762,-163,0,0.0,11.5,0.0,0,0,0,0.125,11.600000000000001,0.0,-992,-136,0,0.0,11.600000000000001,0.0,0,0,0,0.0,11.7,0.0,0,0,0,0.0,11.7,0.0,0,0,0,0.0,11.7,0.0,0,0,0,kReverse,kOff,-88.06,1.87,1.87,-0.15350342,-2.0,0.45550537,25.24,0.0,-213.0,-0.04208374,0.5704651,
145.863408,true,true,true,0.0,11.600000000000001,0.0,-1789,-140,0,0.0,11.5,0.0,0,0,0,0.125,11.600000000000001,0.0,-1012,-111,0,0.0,11.600000000000001,0.0,0,0,0,0.0,11.7,0.0,0,0,0,0.0,11.7,0.0,0,0,0,0.0,11.7,0.0,0,0,0,kReverse,kOff,-87.99,1.74,1.76,-0.40307617,-2.0,0.54907227,25.24,0.0,-454.0,-0.042633057,0.5673523,
145.883788,true,true,true,0.0,11.600000000000001,0.0,-1817,-123,0,0.0,11.5,0.0,0,0,0,0.125,11.600000000000001,0.0,-1032,-92,0,0.0,11.600000000000001,0.0,0,0,0,0.0,11.7,0.0,0,0,0,0.0,11.7,0.0,0,0,0,0.0,11.7,0.0,0,0,0,kReverse,kOff,-85.74,2.42,2.51,0.39788818,0.53881836,0.6600952,25.24,0.0,436.0,-0.04260254,0.5635376,
145.906316,true,true,true,0.0,11.600000000000001,0.0,-1844,-115,0,0.0,11.5,0.0,0,0,0,0.125,11.600000000000001,0.0,-1051,-82,0,0.0,11.600000000000001,0.0,0,0,0,0.0,11.7,0.0,0,0,0,0.0,11.7,0.0,0,0,0,0.0,11.7,0.0,0,0,0,kReverse,kOff,-84.42,2.64,2.8,-0.004272461,-0.48565674,0.14630127,25.24,0.0,-23.0,-0.040985107,0.5626373,
145.928845,true,true,true,0.0,11.600000000000001,0.0,-1869,-117,0,0.0,11.5,0.0,0,0,0,0.125,11.600000000000001,0.0,-1075,-83,0,0.0,11.600000000000001,0.0,0,0,0,0.0,12.05,0.0,0,0,0,0.0,12.05,0.0,0,0,0,0.0,12.1,0.0,0,0,0,kReverse,kOff,-84.04,2.56,2.76,0.11431885,-1.4971924,0.20117188,25.24,0.0,49.0,-0.040115356,0.56251526,
145.955905,true,true,true,0.0,12.05,0.0,-1927,-129,0,0.0,12.1,0.0,0,0,0,0.125,12.05,0.0,-1123,-100,0,0.125,12.1,0.0,0,0,0,0.0,12.05,0.0,0,0,0,0.0,12.05,0.0,0,0,0,0.0,12.1,0.0,0,0,0,kReverse,kOff,-83.52,2.77,3.06,-0.076171875,-0.5019531,0.33624268,25.24,0.0,-86.0,-0.037872314,0.56259155,
145.98136499999998,true,true,true,0.0,12.05,0.0,-1961,-135,0,0.0,12.1,0.0,0,0,0,0.125,12.05,0.0,-1148,-108,0,0.125,12.1,0.0,0,0,0,0.0,12.05,0.0,0,0,0,0.0,12.05,0.0,0,0,0,0.0,12.1,0.0,0,0,0,kReverse,kOff,-84.2,2.54,2.81,-0.17077637,-0.7988281,-0.1404419,25.24,0.0,-216.0,-0.035873413,0.5639496,
146.005682,true,true,true,0.0,12.05,0.0,-1997,-141,0,0.0,12.1,0.0,0,0,0,0.125,12.05,0.0,-1174,-113,0,0.125,12.1,0.0,0,0,0,0.0,12.05,0.0,0,0,0,0.0,12.05,0.0,0,0,0,0.0,12.1,0.0,0,0,0,kReverse,kOff,-85.18,2.46,2.69,0.17858887,-2.0,0.4701538,25.24,0.0,109.0,-0.03501892,0.5647888,
146.028066,true,true,true,0.0,12.05,0.0,-2032,-148,0,0.0,12.1,0.0,0,0,0,0.125,12.05,0.0,-1199,-118,0,0.125,12.1,0.0,0,0,0,0.0,12.05,0.0,0,0,0,0.0,12.05,0.0,0,0,0,0.0,12.1,0.0,0,0,0,kReverse,kOff,-86.46,2.29,2.47,-0.22235107,-1.6376343,-0.15222168,25.24,0.0,-302.0,-0.033233643,0.5670624,
146.04972199999997,true,true,true,0.0,12.05,0.0,-2065,-157,0,0.0,12.1,0.0,0,0,0,0.125,12.05,0.0,-1220,-121,0,0.125,12.1,0.0,0,0,0,0.0,12.05,0.0,0,0,0,0.0,12.05,0.0,0,0,0,0.0,12.1,0.0,0,0,0,kReverse,kOff,-86.82,1.99,2.17,-0.6086426,-1.2329712,0.28112793,25.24,0.0,-633.0,-0.033065796,0.56822205,
146.069786,true,true,true,0.0,12.05,0.0,-2095,-164,0,0.0,12.1,0.0,0,0,0,0.125,12.05,0.0,-1251,-117,0,0.0,12.1,0.0,0,0,0,0.0,12.05,0.0,0,0,0,0.0,12.05,0.0,0,0,0,0.0,12.1,0.0,0,0,0,kReverse,kOff,-86.4,1.31,1.57,0.12188721,-0.8985596,0.31658936,25.24,0.0,121.0,-0.03479004,0.5713806,
146.092335,true,true,true,0.0,12.05,0.0,-2123,-167,0,0.0,12.1,0.0,0,0,0,0.125,12.1,0.0,-1263,-108,0,0.0,12.1,0.0,0,0,0,0.0,12.1,0.0,0,0,0,0.0,12.1,0.0,0,0,0,0.0,12.200000000000001,0.0,0,0,0,kReverse,kOff,-85.68,1.43,1.77,0.418396,-0.7909546,0.45483398,25.24,0.0,429.0,-0.035461426,0.5735016,
146.112117,true,true,true,0.0,12.1,0.0,-2144,-163,0,0.0,12.1,0.0,0,0,0,0.125,12.1,0.0,-1276,-96,0,0.0,12.1,0.0,0,0,0,0.0,12.1,0.0,0,0,0,0.0,12.1,0.0,0,0,0,0.0,12.200000000000001,0.0,0,0,0,kReverse,kOff,-84.98,1.89,2.29,0.35101318,-1.8362427,-0.76123047,25.24,0.0,212.0,-0.035690308,0.57525635,
146.131521,true,true,true,0.0,12.1,0.0,-2163,-153,0,0.0,12.1,0.0,0,0,0,0.125,12.1,0.0,-1288,-84,0,0.0,12.1,0.0,0,0,0,0.0,12.1,0.0,0,0,0,0.0,12.1,0.0,0,0,0,0.0,12.200000000000001,0.0,0,0,0,kReverse,kOff,-84.79,2.3,2.73,0.095825195,-0.06628418,0.3661499,25.24,0.0,125.0,-0.035095215,0.57743835,
146.15984899999998,true,true,true,0.0,12.1,0.0,-2193,-123,0,0.0,12.1,0.0,0,0,0,0.125,12.1,0.0,-1300,-73,0,0.0,12.1,0.0,0,0,0,0.0,12.1,0.0,0,0,0,0.0,12.1,0.0,0,0,0,0.0,12.200000000000001,0.0,0,0,0,kReverse,kOff,-84.71,2.31,2.76,-0.09020996,-0.24768066,0.8770752,25.24,0.0,-21.0,-0.034576416,0.57943726,
146.17951799999997,true,true,true,0.0,12.1,0.0,-2206,-107,0,0.0,12.1,0.0,0,0,0,0.125,12.1,0.0,-1316,-67,0,0.0,12.1,0.0,0,0,0,0.0,12.1,0.0,0,0,0,0.0,12.1,0.0,0,0,0,0.0,12.200000000000001,0.0,0,0,0,kReverse,kOff,-84.74,2.18,2.62,0.28155518,-0.5140991,0.41430664,25.24,0.0,294.0,-0.03364563,0.58477783,
146.20269499999998,true,true,true,0.0,12.1,0.0,-2221,-92,0,0.0,12.1,0.0,0,0,0,0.125,12.1,0.0,-1333,-65,0,0.0,12.1,0.0,0,0,0,0.0,12.1,0.0,0,0,0,0.0,12.1,0.0,0,0,0,0.0,12.200000000000001,0.0,0,0,0,kReverse,kOff,-84.7,2.34,2.8,0.09289551,-0.17730713,0.7640381,25.24,0.0,155.0,-0.032821655,0.58828735,
146.223375,true,true,true,0.0,12.1,0.0,-2240,-82,0,0.0,12.1,0.0,0,0,0,0.125,12.1,0.0,-1348,-66,0,0.0,12.1,0.0,0,0,0,0.0,12.1,0.0,0,0,0,0.0,12.1,0.0,0,0,0,0.0,12.200000000000001,0.0,0,0,0,kReverse,kOff,-84.24,2.25,2.76,-0.22424316,-0.7439575,1.0797119,25.24,0.0,-157.0,-0.031280518,0.5987396,
146.24534599999998,true,true,true,0.0,12.1,0.0,-2260,-78,0,0.0,12.1,0.0,0,0,0,0.125,12.1,0.0,-1364,-70,0,0.125,12.1,0.0,0,0,0,0.0,12.1,0.0,0,0,0,0.0,12.1,0.0,0,0,0,0.0,12.200000000000001,0.0,0,0,0,kReverse,kOff,-84.63,1.75,2.27,-0.05609131,-1.0305176,0.04119873,25.24,0.0,-92.0,-0.03111267,0.61203,
146.27452399999999,true,true,true,0.0,12.1,0.0,-2294,-82,0,0.0,12.1,0.0,0,0,0,0.125,12.1,0.0,-1391,-76,0,0.125,12.15,0.0,0,0,0,0.0,12.1,0.0,0,0,0,0.0,12.1,0.0,0,0,0,0.0,12.200000000000001,0.0,0,0,0,kReverse,kOff,-84.47,1.77,2.32,0.12615967,-0.73791504,0.16235352,25.24,0.0,112.0,-0.031188965,0.61872864,
146.29827,true,true,true,0.0,12.1,0.0,-2308,-85,0,0.0,12.1,0.0,0,0,0,0.125,12.1,0.0,-1403,-76,0,0.125,12.15,0.0,0,0,0,0.0,12.1,0.0,0,0,0,0.0,12.1,0.0,0,0,0,0.0,12.200000000000001,0.0,0,0,0,kReverse,kOff,-84.2,2.02,2.6,-0.039245605,-1.0378418,-0.46862793,25.24,0.0,-134.0,-0.031082153,0.631546,
146.327565,true,true,true,0.0,12.1,0.0,-2321,-86,0,0.0,12.1,0.0,0,0,0,0.125,12.1,0.0,-1412,-72,0,0.0,12.15,0.0,0,0,0,0.0,12.1,0.0,0,0,0,0.0,12.1,0.0,0,0,0,0.0,12.200000000000001,0.0,0,0,0,kReverse,kOff,-84.24,1.9,2.52,-0.013671875,-1.2485352,0.49157715,25.23,0.0,-13.0,-0.031555176,0.6435394,
146.35222499999998,true,true,true,0.0,12.1,0.0,-2331,-82,0,0.0,12.1,0.0,0,0,0,0.125,12.1,0.0,-1426,-60,0,0.0,12.15,0.0,0,0,0,0.0,12.1,0.0,0,0,0,0.0,12.1,0.0,0,0,0,0.0,12.200000000000001,0.0,0,0,0,kReverse,kOff,-83.93,2.09,2.73,0.17797852,-1.1610718,0.53570557,25.23,0.0,180.0,-0.031661987,0.6572876,
146.380517,true,true,true,0.0,12.1,0.0,-2352,-68,0,0.0,12.1,0.0,0,0,0,0.125,12.1,0.0,-1433,-52,0,0.0,12.15,0.0,0,0,0,0.0,12.1,0.0,0,0,0,0.0,12.1,0.0,0,0,0,0.0,12.200000000000001,0.0,0,0,0,kReverse,kOff,-83.82,2.19,2.85,0.0018310547,-1.2592773,0.38793945,25.23,0.0,-17.0,-0.031463623,0.66485596,
146.403853,true,true,true,0.0,12.1,0.0,-2361,-61,0,0.0,12.1,0.0,0,0,0,0.125,12.1,0.0,-1441,-45,0,0.0,12.15,0.0,0,0,0,0.0,12.1,0.0,0,0,0,0.0,12.1,0.0,0,0,0,0.0,12.200000000000001,0.0,0,0,0,kReverse,kOff,-83.54,2.11,2.82,0.10827637,-1.6707153,0.36083984,25.23,0.0,66.0,-0.031417847,0.6812744,
146.428077,true,true,true,0.0,12.1,0.0,-2370,-56,0,0.0,12.1,0.0,0,0,0,0.125,12.1,0.0,-1449,-41,0,0.0,12.15,0.0,0,0,0,0.0,12.1,0.0,0,0,0,0.0,12.1,0.0,0,0,0,0.0,12.200000000000001,0.0,0,0,0,kReverse,kOff,-83.45,2.06,2.8,0.031066895,-1.6450806,0.60235596,25.23,0.0,20.0,-0.03086853,0.6993866,
146.448834,true,true,true,0.0,12.1,0.0,-2379,-52,0,0.0,12.1,0.0,0,0,0,0.125,12.1,0.0,-1457,-38,0,0.0,12.15,0.0,0,0,0,0.0,12.1,0.0,0,0,0,0.0,12.1,0.0,0,0,0,0.0,12.200000000000001,0.0,0,0,0,kReverse,kOff,-83.45,1.99,2.74,-0.025268555,-1.4833374,0.20770264,25.23,0.0,-71.0,-0.030578613,0.7090454,
146.468664,true,true,true,0.0,12.1,0.0,-2388,-49,0,0.0,12.1,0.0,0,0,0,0.125,12.1,0.0,-1465,-37,0,0.0,12.15,0.0,0,0,0,0.0,12.1,0.0,0,0,0,0.0,12.1,0.0,0,0,0,0.0,12.200000000000001,0.0,0,0,0,kReverse,kOff,-83.49,1.92,2.68,0.050354004,-1.3649902,-0.021911621,25.23,0.0,-16.0,-0.030334473,0.7186127,
146.493969,true,true,true,0.0,12.1,0.0,-2396,-47,0,0.0,12.1,0.0,0,0,0,0.125,12.1,0.0,-1476,-37,0,0.0,12.15,0.0,0,0,0,0.0,12.1,0.0,0,0,0,0.0,12.1,0.0,0,0,0,0.0,12.200000000000001,0.0,0,0,0,kReverse,kOff,-83.51,1.94,2.7,0.1628418,-1.288208,0.059753418,25.23,0.0,108.0,-0.029632568,0.7372894,
146.517481,true,true,true,0.0,12.1,0.0,-2407,-42,0,0.0,12.1,0.0,0,0,0,0.125,12.1,0.0,-1480,-36,0,0.0,12.15,0.0,0,0,0,0.0,12.1,0.0,0,0,0,0.0,12.1,0.0,0,0,0,0.0,12.200000000000001,0.0,0,0,0,kReverse,kOff,-83.48,1.98,2.75,0.09637451,-0.883728,-0.08477783,25.23,0.0,43.0,-0.02909851,0.74635315,
146.53894999999997,true,true,true,0.0,12.1,0.0,-2411,-39,0,0.0,12.1,0.0,0,0,0,0.125,12.1,0.0,-1483,-33,0,0.0,12.15,0.0,0,0,0,0.0,12.1,0.0,0,0,0,0.0,12.1,0.0,0,0,0,0.0,12.200000000000001,0.0,0,0,0,kReverse,kOff,-83.17,2.04,2.85,0.11407471,-1.411377,0.008544922,25.23,0.0,44.0,-0.027877808,0.7640686,
146.56448299999997,true,true,true,0.0,12.1,0.0,-2414,-34,0,0.0,12.1,0.0,0,0,0,0.125,12.1,0.0,-1486,-28,0,0.0,12.15,0.0,0,0,0,0.0,12.1,0.0,0,0,0,0.0,12.1,0.0,0,0,0,0.0,12.200000000000001,0.0,0,0,0,kReverse,kOff,-83.05,2.04,2.86,0.04815674,-1.2410889,0.08239746,25.23,0.0,-3.0,-0.026489258,0.7813873,
146.58487699999998,true,true,true,0.0,12.1,0.0,-2417,-29,0,0.0,12.1,0.0,0,0,0,0.125,12.1,0.0,-1489,-24,0,0.0,12.15,0.0,0,0,0,0.0,12.1,0.0,0,0,0,0.0,12.1,0.0,0,0,0,0.0,12.200000000000001,0.0,0,0,0,kReverse,kOff,-82.96,2.04,2.88,0.014404297,-0.90026855,-0.19445801,25.23,0.0,-54.0,-0.025817871,0.7897949,
146.60701999999998,true,true,true,0.0,12.1,0.0,-2419,-24,0,0.0,12.1,0.0,0,0,0,0.125,12.1,0.0,-1492,-19,0,0.0,12.15,0.0,0,0,0,0.0,12.1,0.0,0,0,0,0.0,12.1,0.0,0,0,0,0.0,12.200000000000001,0.0,0,0,0,kReverse,kOff,-82.9,2.02,2.86,-0.027648926,-0.493042,-0.17254639,25.23,0.0,-72.0,-0.025238037,0.7978363,
146.62702399999998,true,true,true,0.0,12.1,0.0,-2421,-19,0,0.0,12.1,0.0,0,0,0,0.125,12.1,0.0,-1494,-16,0,0.0,12.15,0.0,0,0,0,0.0,12.1,0.0,0,0,0,0.0,12.1,0.0,0,0,0,0.0,12.200000000000001,0.0,0,0,0,kReverse,kOff,-82.91,2.02,2.86,0.017578125,0.058898926,0.16046143,25.23,0.0,39.0,-0.024047852,0.81378174,
146.64756,true,true,true,0.0,12.1,0.0,-2422,-15,0,0.0,12.1,0.0,0,0,0,0.125,12.1,0.0,-1496,-14,0,0.0,12.15,0.0,0,0,0,0.0,12.1,0.0,0,0,0,0.0,12.1,0.0,0,0,0,0.0,12.200000000000001,0.0,0,0,0,kReverse,kOff,-82.87,2.04,2.88,-0.10961914,-0.2376709,0.19445801,25.23,0.0,-97.0,-0.023468018,0.822052,
146.67104999999998,true,true,true,0.0,12.1,0.0,-2423,-12,0,0.0,12.1,0.0,0,0,0,0.125,12.1,0.0,-1496,-11,0,0.0,12.15,0.0,0,0,0,0.0,12.1,0.0,0,0,0,0.0,12.1,0.0,0,0,0,0.0,12.200000000000001,0.0,0,0,0,kReverse,kOff,-82.86,2.04,2.88,-0.0036621094,-0.90771484,0.07501221,25.23,0.0,-40.0,-0.02255249,0.8388214,
146.69802099999998,true,true,true,0.0,12.1,0.0,-2423,-7,0,0.0,12.1,0.0,0,0,0,0.125,12.1,0.0,-1496,-8,0,0.0,12.15,0.0,0,0,0,0.0,12.1,0.0,0,0,0,0.0,12.1,0.0,0,0,0,0.0,12.200000000000001,0.0,0,0,0,kReverse,kOff,-82.73,2.07,2.93,-0.047790527,-0.6081543,0.24719238,25.23,0.0,-48.0,-0.021835327,0.8559265,
146.72219499999997,true,true,true,0.0,12.1,0.0,-2423,-5,0,0.0,12.1,0.0,0,0,0,0.125,12.1,0.0,-1496,-6,0,0.0,12.15,0.0,0,0,0,0.0,12.1,0.0,0,0,0,0.0,12.1,0.0,0,0,0,0.0,12.200000000000001,0.0,0,0,0,kReverse,kOff,-82.69,2.07,2.94,-0.027282715,-0.68463135,0.45239258,25.23,0.0,-41.0,-0.02128601,0.8744354,
146.747614,true,true,true,0.0,12.15,0.0,-2423,-3,0,0.0,12.15,0.0,0,0,0,0.125,12.1,0.0,-1496,-3,0,0.0,12.15,0.0,0,0,0,0.0,12.15,0.0,0,0,0,0.0,12.1,0.0,0,0,0,0.0,12.200000000000001,0.0,0,0,0,kReverse,kOff,-82.69,2.06,2.93,0.022583008,-0.9493408,0.42791748,25.23,0.0,25.0,-0.02104187,0.88438416,
146.76923499999998,true,true,true,0.0,12.15,0.0,-2423,-1,0,0.0,12.15,0.0,0,0,0,0.125,12.1,0.0,-1496,-1,0,0.0,12.15,0.0,0,0,0,0.0,12.15,0.0,0,0,0,0.0,12.1,0.0,0,0,0,0.0,12.200000000000001,0.0,0,0,0,kReverse,kOff,-82.68,2.1,2.96,0.06500244,-1.036377,0.33532715,25.23,0.0,51.0,-0.020736694,0.89468384,
146.789999,true,true,true,0.0,12.15,0.0,-2423,0,0,0.0,12.15,0.0,0,0,0,0.125,12.1,0.0,-1496,0,0,0.0,12.15,0.0,0,0,0,0.0,12.15,0.0,0,0,0,0.0,12.1,0.0,0,0,0,0.0,12.200000000000001,0.0,0,0,0,kReverse,kOff,-82.79,2.09,2.94,0.042907715,-1.392334,0.1963501,25.23,0.0,-4.0,-0.02003479,0.915802,
146.81194499999998,true,true,true,0.0,12.15,0.0,-2423,0,0,0.0,12.15,0.0,0,0,0,0.125,12.1,0.0,-1496,0,0,0.0,12.15,0.0,0,0,0,0.0,12.15,0.0,0,0,0,0.0,12.1,0.0,0,0,0,0.0,12.200000000000001,0.0,0,0,0,kReverse,kOff,-82.79,2.09,2.94,0.042907715,-1.392334,0.1963501,25.23,0.0,-4.0,-0.02003479,0.915802,
146.832607,true,true,true,0.0,12.15,0.0,-2423,0,0,0.0,12.15,0.0,0,0,0,0.125,12.1,0.0,-1496,0,0,0.0,12.15,0.0,0,0,0,0.0,12.15,0.0,0,0,0,0.0,12.1,0.0,0,0,0,0.0,12.200000000000001,0.0,0,0,0,kReverse,kOff,-82.81,2.11,2.96,0.12017822,-1.515686,0.2006836,25.19,0.0,65.0,-0.018661499,0.9482727,
146.857642,true,true,true,0.0,12.15,0.0,-2423,0,0,0.0,12.15,0.0,0,0,0,0.125,12.1,0.0,-1496,0,0,0.0,12.15,0.0,0,0,0,0.0,12.15,0.0,0,0,0,0.0,12.1,0.0,0,0,0,0.0,12.200000000000001,0.0,0,0,0,kReverse,kOff,-82.81,2.11,2.96,0.12017822,-1.515686,0.2006836,25.19,0.0,65.0,-0.018661499,0.9482727,
146.882796,true,true,true,0.0,12.15,0.0,-2423,0,0,0.0,12.15,0.0,0,0,0,0.125,12.1,0.0,-1496,0,0,0.0,12.15,0.0,0,0,0,0.0,12.15,0.0,0,0,0,0.0,12.1,0.0,0,0,0,0.0,12.200000000000001,0.0,0,0,0,kReverse,kOff,-82.85,2.04,2.89,0.07067871,-0.9844971,0.13952637,25.19,0.0,37.0,-0.016662598,0.98095703,
146.906063,true,true,true,0.0,12.1,0.0,-2423,0,0,0.0,12.15,0.0,0,0,0,0.125,12.1,0.0,-1496,0,0,0.0,12.15,0.0,0,0,0,0.0,12.1,0.0,0,0,0,0.0,12.1,0.0,0,0,0,0.0,12.200000000000001,0.0,0,0,0,kReverse,kOff,-82.86,1.99,2.84,0.06097412,-1.3167114,-0.047912598,25.19,0.0,-10.0,-0.015167236,1.0024414,
146.926693,true,true,true,0.0,12.1,0.0,-2423,0,0,0.0,12.15,0.0,0,0,0,0.125,12.1,0.0,-1496,0,0,0.0,12.15,0.0,0,0,0,0.0,12.1,0.0,0,0,0,0.0,12.1,0.0,0,0,0,0.0,12.200000000000001,0.0,0,0,0,kReverse,kOff,-82.86,1.99,2.84,0.06097412,-1.3167114,-0.047912598,25.19,0.0,-10.0,-0.015167236,1.0024414,
146.957786,true,true,true,0.0,12.1,0.0,-2423,0,0,0.0,12.15,0.0,0,0,0,0.125,12.1,0.0,-1496,0,0,0.0,12.15,0.0,0,0,0,0.0,12.1,0.0,0,0,0,0.0,12.1,0.0,0,0,0,0.0,12.200000000000001,0.0,0,0,0,kReverse,kOff,-82.91,2.0,2.85,0.0814209,-1.1272583,-0.14489746,25.19,0.0,7.0,-0.013626099,1.0227509,
146.986697,true,true,true,0.0,12.1,0.0,-2423,0,0,0.0,12.15,0.0,0,0,0,0.125,12.1,0.0,-1496,0,0,0.0,12.15,0.0,0,0,0,0.0,12.1,0.0,0,0,0,0.0,12.1,0.0,0,0,0,0.0,12.200000000000001,0.0,0,0,0,kReverse,kOff,-82.92,2.01,2.85,0.014526367,-0.8119507,-0.23577881,25.19,0.0,-54.0,-0.012084961,1.0415497,
147.009662,true,true,true,0.0,12.1,0.0,-2423,0,0,0.0,12.15,0.0,0,0,0,0.125,12.1,0.0,-1496,0,0,0.0,12.15,0.0,0,0,0,0.0,12.1,0.0,0,0,0,0.0,12.1,0.0,0,0,0,0.0,12.200000000000001,0.0,0,0,0,kReverse,kOff,-82.96,2.01,2.84,-0.018188477,-0.67004395,-0.17932129,25.19,0.0,-72.0,-0.010864258,1.05867,
147.031421,true,true,true,0.0,12.1,0.0,-2423,0,0,0.0,12.15,0.0,0,0,0,0.125,12.1,0.0,-1496,0,0,0.0,12.15,0.0,0,0,0,0.0,12.1,0.0,0,0,0,0.0,12.1,0.0,0,0,0,0.0,12.200000000000001,0.0,0,0,0,kReverse,kOff,-82.97,2.01,2.84,-0.056518555,-0.7338257,-0.111694336,25.19,0.0,-105.0,-0.010437012,1.0667267,
147.056104,true,true,true,0.0,12.1,0.0,-2423,0,0,0.0,12.15,0.0,0,0,0,0.125,12.1,0.0,-1496,0,0,0.0,12.15,0.0,0,0,0,0.0,12.1,0.0,0,0,0,0.0,12.1,0.0,0,0,0,0.0,12.200000000000001,0.0,0,0,0,kReverse,kOff,-83.03,2.01,2.84,-0.050964355,-0.8112793,-0.070739746,25.19,0.0,-99.0,-0.009918213,1.0821686,
147.08400499999996,true,true,true,0.0,12.1,0.0,-2423,0,0,0.0,12.15,0.0,0,0,0,0.125,12.1,0.0,-1496,0,0,0.0,12.15,0.0,0,0,0,0.0,12.1,0.0,0,0,0,0.0,12.1,0.0,0,0,0,0.0,12.200000000000001,0.0,0,0,0,kReverse,kOff,-83.05,2.03,2.85,-0.027832031,-0.8551636,0.029785156,25.19,0.0,-66.0,-0.009841919,1.0896301,
147.102696,true,true,true,0.0,12.1,0.0,-2423,0,0,0.0,12.15,0.0,0,0,0,0.125,12.1,0.0,-1496,0,0,0.0,12.15,0.0,0,0,0,0.0,12.1,0.0,0,0,0,0.0,12.1,0.0,0,0,0,0.0,12.200000000000001,0.0,0,0,0,kReverse,kOff,-83.04,2.07,2.89,-0.027038574,-0.6114502,0.081848145,25.19,0.0,-47.0,-0.009887695,1.104538,
147.12886799999998,true,true,true,0.0,12.1,0.0,-2423,0,0,0.0,12.15,0.0,0,0,0,0.125,12.1,0.0,-1496,0,0,0.0,12.15,0.0,0,0,0,0.0,12.1,0.0,0,0,0,0.0,12.1,0.0,0,0,0,0.0,12.200000000000001,0.0,0,0,0,kReverse,kOff,-83.06,2.06,2.88,-0.033813477,-0.597229,0.18493652,25.19,0.0,-41.0,-0.0101623535,1.1198273,
147.14995,true,true,true,0.0,12.1,0.0,-2423,0,0,0.0,12.15,0.0,0,0,0,0.125,12.1,0.0,-1496,0,0,0.0,12.15,0.0,0,0,0,0.0,12.1,0.0,0,0,0,0.0,12.1,0.0,0,0,0,0.0,12.200000000000001,0.0,0,0,0,kReverse,kOff,-83.08,2.05,2.87,-0.035949707,-0.7003174,0.2526245,25.19,0.0,-40.0,-0.010375977,1.1277466,
147.168917,true,true,true,0.0,12.1,0.0,-2423,0,0,0.0,12.15,0.0,0,0,0,0.125,12.1,0.0,-1496,0,0,0.0,12.15,0.0,0,0,0,0.0,12.1,0.0,0,0,0,0.0,12.1,0.0,0,0,0,0.0,12.200000000000001,0.0,0,0,0,kReverse,kOff,-83.08,2.03,2.85,-0.007751465,-0.78674316,0.25543213,25.19,0.0,-15.0,-0.010635376,1.13591,
147.19008599999998,true,true,true,0.0,12.1,0.0,-2423,0,0,0.0,12.15,0.0,0,0,0,0.125,12.1,0.0,-1496,0,0,0.0,12.15,0.0,0,0,0,0.0,12.1,0.0,0,0,0,0.0,12.1,0.0,0,0,0,0.0,12.200000000000001,0.0,0,0,0,kReverse,kOff,-83.13,2.02,2.83,0.07849121,-1.2313843,0.30877686,25.19,0.0,54.0,-0.0105896,1.1529236,
147.211908,true,true,true,0.0,12.1,0.0,-2423,0,0,0.0,12.15,0.0,0,0,0,0.125,12.1,0.0,-1496,0,0,0.0,12.15,0.0,0,0,0,0.0,12.15,0.0,0,0,0,0.0,12.1,0.0,0,0,0,0.0,12.200000000000001,0.0,0,0,0,kReverse,kOff,-83.15,2.03,2.84,0.09729004,-1.2599487,0.30773926,25.19,0.0,71.0,-0.010467529,1.1617432,
147.238609,true,true,true,0.0,12.1,0.0,-2423,0,0,0.0,12.15,0.0,0,0,0,0.125,12.1,0.0,-1496,0,0,0.0,12.15,0.0,0,0,0,0.0,12.15,0.0,0,0,0,0.0,12.1,0.0,0,0,0,0.0,12.200000000000001,0.0,0,0,0,kReverse,kOff,-83.15,2.06,2.87,0.115600586,-1.1972046,0.284729,25.19,0.0,89.0,-0.009857178,1.1801453,
147.263547,true,true,true,0.0,12.1,0.0,-2423,0,0,0.0,12.15,0.0,0,0,0,0.125,12.1,0.0,-1496,0,0,0.0,12.15,0.0,0,0,0,0.0,12.15,0.0,0,0,0,0.0,12.1,0.0,0,0,0,0.0,12.200000000000001,0.0,0,0,0,kReverse,kOff,-83.19,2.05,2.85,0.07342529,-0.9885864,0.26470947,25.19,0.0,55.0,-0.008834839,1.1992798,
147.286577,true,true,true,0.0,12.1,0.0,-2423,0,0,0.0,12.15,0.0,0,0,0,0.125,12.1,0.0,-1496,0,0,0.0,12.15,0.0,0,0,0,0.0,12.15,0.0,0,0,0,0.0,12.1,0.0,0,0,0,0.0,12.200000000000001,0.0,0,0,0,kReverse,kOff,-83.19,2.02,2.82,0.11315918,-1.1497803,0.16687012,25.19,0.0,76.0,-0.0074768066,1.2190399,
147.31489499999998,true,true,true,0.0,12.1,0.0,-2423,0,0,0.0,12.15,0.0,0,0,0,0.125,12.1,0.0,-1496,0,0,0.0,12.15,0.0,0,0,0,0.0,12.15,0.0,0,0,0,0.0,12.1,0.0,0,0,0,0.0,12.200000000000001,0.0,0,0,0,kReverse,kOff,-83.2,2.0,2.81,0.09857178,-1.3009644,0.09790039,25.19,0.0,46.0,-0.006668091,1.2289429,
147.335232,true,true,true,0.0,12.1,0.0,-2423,0,0,0.0,12.15,0.0,0,0,0,0.125,12.1,0.0,-1496,0,0,0.0,12.15,0.0,0,0,0,0.0,12.15,0.0,0,0,0,0.0,12.1,0.0,0,0,0,0.0,12.200000000000001,0.0,0,0,0,kReverse,kOff,-83.21,2.0,2.8,0.12054443,-1.4429321,0.032226562,25.19,0.0,53.0,-0.005783081,1.2387085,
147.359171,true,true,true,0.0,12.1,0.0,-2423,0,0,0.0,12.15,0.0,0,0,0,0.125,12.1,0.0,-1496,0,0,0.0,12.15,0.0,0,0,0,0.0,12.15,0.0,0,0,0,0.0,12.1,0.0,0,0,0,0.0,12.200000000000001,0.0,0,0,0,kReverse,kOff,-83.23,2.02,2.82,0.124816895,-1.4506836,-0.006652832,25.19,0.0,51.0,-0.003768921,1.2576294,
147.381568,true,true,true,0.0,12.1,0.0,-2423,0,0,0.0,12.1,0.0,0,0,0,0.125,12.1,0.0,-1496,0,0,0.0,12.15,0.0,0,0,0,0.0,12.15,0.0,0,0,0,0.0,12.1,0.0,0,0,0,0.0,12.200000000000001,0.0,0,0,0,kReverse,kOff,-83.21,2.05,2.85,0.08911133,-1.2358398,-0.123046875,25.19,0.0,12.0,-0.002670288,1.2666626,
147.400315,true,true,true,0.0,12.1,0.0,-2423,0,0,0.0,12.1,0.0,0,0,0,0.125,12.1,0.0,-1496,0,0,0.0,12.15,0.0,0,0,0,0.0,12.15,0.0,0,0,0,0.0,12.1,0.0,0,0,0,0.0,12.200000000000001,0.0,0,0,0,kReverse,kOff,-83.23,2.06,2.86,0.0014038086,-0.76312256,-0.16577148,25.19,0.0,-56.0,-5.79834E-4,1.2836914,
147.424108,true,true,true,0.0,12.1,0.0,-2423,0,0,0.0,12.1,0.0,0,0,0,0.125,12.1,0.0,-1496,0,0,0.0,12.15,0.0,0,0,0,0.0,12.15,0.0,0,0,0,0.0,12.1,0.0,0,0,0,0.0,12.200000000000001,0.0,0,0,0,kReverse,kOff,-83.21,2.05,2.85,-0.049560547,-0.7200928,-0.14776611,25.19,0.0,-102.0,0.0011749268,1.2995148,
147.45001399999998,true,true,true,0.0,12.1,0.0,-2423,0,0,0.0,12.1,0.0,0,0,0,0.125,12.1,0.0,-1496,0,0,0.0,12.15,0.0,0,0,0,0.0,12.15,0.0,0,0,0,0.0,12.1,0.0,0,0,0,0.0,12.200000000000001,0.0,0,0,0,kReverse,kOff,-83.22,2.04,2.84,-0.055480957,-0.8053589,-0.11407471,25.19,0.0,-108.0,0.0018615723,1.3070221,
147.475845,true,true,true,0.0,12.1,0.0,-2423,0,0,0.0,12.1,0.0,0,0,0,0.125,12.1,0.0,-1496,0,0,0.0,12.15,0.0,0,0,0,0.0,12.15,0.0,0,0,0,0.0,12.1,0.0,0,0,0,0.0,12.200000000000001,0.0,0,0,0,kReverse,kOff,-83.25,2.06,2.86,-0.026733398,-0.9250488,6.1035156E-5,25.19,0.0,-72.0,0.0028533936,1.3213806,
147.501434,true,true,true,0.0,12.1,0.0,-2423,0,0,0.0,12.1,0.0,0,0,0,0.125,12.1,0.0,-1496,0,0,0.0,12.15,0.0,0,0,0,0.0,12.15,0.0,0,0,0,0.0,12.1,0.0,0,0,0,0.0,12.200000000000001,0.0,0,0,0,kReverse,kOff,-83.27,2.1,2.89,-0.0126953125,-0.7408447,0.07305908,25.19,0.0,-40.0,0.0035095215,1.3353577,
147.52403099999998,true,true,true,0.0,12.1,0.0,-2423,0,0,0.0,12.1,0.0,0,0,0,0.125,12.1,0.0,-1496,0,0,0.0,12.15,0.0,0,0,0,0.0,12.15,0.0,0,0,0,0.0,12.1,0.0,0,0,0,0.0,12.200000000000001,0.0,0,0,0,kReverse,kOff,-83.27,2.12,2.91,-0.028930664,-0.6005249,0.09161377,25.19,0.0,-47.0,0.003753662,1.3423462,
147.54782699999998,true,true,true,0.0,12.1,0.0,-2423,0,0,0.0,12.15,0.0,0,0,0,0.125,12.1,0.0,-1496,0,0,0.0,12.15,0.0,0,0,0,0.0,12.15,0.0,0,0,0,0.0,12.1,0.0,0,0,0,0.0,12.200000000000001,0.0,0,0,0,kReverse,kOff,-83.29,2.11,2.89,-0.039855957,-0.54681396,0.20379639,25.19,0.0,-42.0,0.0040283203,1.3567352,
147.56781999999998,true,true,true,0.0,12.1,0.0,-2423,0,0,0.0,12.15,0.0,0,0,0,0.125,12.1,0.0,-1496,0,0,0.0,12.15,0.0,0,0,0,0.0,12.15,0.0,0,0,0,0.0,12.1,0.0,0,0,0,0.0,12.200000000000001,0.0,0,0,0,kReverse,kOff,-83.29,2.09,2.88,-0.022827148,-0.65448,0.23626709,25.19,0.0,-26.0,0.0040740967,1.3642426,
147.59003199999998,true,true,true,0.0,12.1,0.0,-2423,0,0,0.0,12.15,0.0,0,0,0,0.125,12.1,0.0,-1496,0,0,0.0,12.15,0.0,0,0,0,0.0,12.15,0.0,0,0,0,0.0,12.1,0.0,0,0,0,0.0,12.200000000000001,0.0,0,0,0,kReverse,kOff,-83.33,2.06,2.84,0.047973633,-1.1013794,0.32281494,25.19,0.0,32.0,0.004135132,1.3800201,
147.61269499999997,true,true,true,0.0,12.1,0.0,-2423,0,0,0.0,12.15,0.0,0,0,0,0.125,12.1,0.0,-1496,0,0,0.0,12.15,0.0,0,0,0,0.0,12.15,0.0,0,0,0,0.0,12.1,0.0,0,0,0,0.0,12.200000000000001,0.0,0,0,0,kReverse,kOff,-83.34,2.07,2.85,0.09185791,-1.3092651,0.3100586,25.19,0.0,63.0,0.0042419434,1.3882751,
147.641535,true,true,true,0.0,12.1,0.0,-2423,0,0,0.0,12.15,0.0,0,0,0,0.125,12.1,0.0,-1496,0,0,0.0,12.15,0.0,0,0,0,0.0,12.15,0.0,0,0,0,0.0,12.1,0.0,0,0,0,0.0,12.200000000000001,0.0,0,0,0,kReverse,kOff,-83.36,2.1,2.87,0.15344238,-1.3325806,0.31433105,25.19,0.0,123.0,0.004776001,1.405426,
147.666707,true,true,true,0.0,12.1,0.0,-2423,0,0,0.0,12.15,0.0,0,0,0,0.125,12.1,0.0,-1496,0,0,0.0,12.15,0.0,0,0,0,0.0,12.15,0.0,0,0,0,0.0,12.1,0.0,0,0,0,0.0,12.200000000000001,0.0,0,0,0,kReverse,kOff,-83.39,2.13,2.9,0.08691406,-1.0134888,0.27770996,25.19,0.0,68.0,0.005859375,1.4233856,
147.689022,true,true,true,0.0,12.1,0.0,-2423,0,0,0.0,12.15,0.0,0,0,0,0.125,12.1,0.0,-1496,0,0,0.0,12.15,0.0,0,0,0,0.0,12.15,0.0,0,0,0,0.0,12.1,0.0,0,0,0,0.0,12.200000000000001,0.0,0,0,0,kReverse,kOff,-83.38,2.11,2.89,0.07849121,-0.9642334,0.25115967,25.19,0.0,59.0,0.0065307617,1.432663,
147.71428,true,true,true,0.0,12.1,0.0,-2423,0,0,0.0,12.1,0.0,0,0,0,0.125,12.1,0.0,-1496,0,0,0.0,12.15,0.0,0,0,0,0.0,12.15,0.0,0,0,0,0.0,12.1,0.0,0,0,0,0.0,12.200000000000001,0.0,0,0,0,kReverse,kOff,-83.37,2.08,2.86,0.10784912,-1.1780396,0.13641357,25.19,0.0,64.0,0.008163452,1.4515991,
147.733408,true,true,true,0.0,12.1,0.0,-2423,0,0,0.0,12.1,0.0,0,0,0,0.125,12.1,0.0,-1496,0,0,0.0,12.15,0.0,0,0,0,0.0,12.15,0.0,0,0,0,0.0,12.1,0.0,0,0,0,0.0,12.200000000000001,0.0,0,0,0,kReverse,kOff,-83.39,2.06,2.84,0.10870361,-1.3573608,0.086242676,25.19,0.0,51.0,0.009094238,1.4610443,
147.761375,true,true,true,0.0,12.1,0.0,-2423,0,0,0.0,12.1,0.0,0,0,0,0.125,12.1,0.0,-1496,0,0,0.0,12.15,0.0,0,0,0,0.0,12.15,0.0,0,0,0,0.0,12.1,0.0,0,0,0,0.0,12.200000000000001,0.0,0,0,0,kReverse,kOff,-83.39,2.08,2.85,0.14959717,-1.5533447,0.009277344,25.19,0.0,72.0,0.01121521,1.4794159,
147.78319799999997,true,true,true,0.0,12.1,0.0,-2423,0,0,0.0,12.1,0.0,0,0,0,0.125,12.1,0.0,-1496,0,0,0.0,12.15,0.0,0,0,0,0.0,12.15,0.0,0,0,0,0.0,12.1,0.0,0,0,0,0.0,12.200000000000001,0.0,0,0,0,kReverse,kOff,-83.39,2.13,2.9,0.059143066,-0.9857178,-0.15441895,25.19,0.0,-9.0,0.013626099,1.4967804,
147.80605099999997,true,true,true,0.0,12.1,0.0,-2423,0,0,0.0,12.1,0.0,0,0,0,0.125,12.1,0.0,-1496,0,0,0.0,12.15,0.0,0,0,0,0.0,12.15,0.0,0,0,0,0.0,12.1,0.0,0,0,0,0.0,12.200000000000001,0.0,0,0,0,kReverse,kOff,-83.41,2.12,2.89,0.0063476562,-0.78100586,-0.1595459,25.19,0.0,-52.0,0.014801025,1.5049744,
147.827326,true,true,true,0.0,12.1,0.0,-2423,0,0,0.0,12.1,0.0,0,0,0,0.125,12.1,0.0,-1496,0,0,0.0,12.15,0.0,0,0,0,0.0,12.15,0.0,0,0,0,0.0,12.1,0.0,0,0,0,0.0,12.200000000000001,0.0,0,0,0,kReverse,kOff,-83.4,2.1,2.87,-0.03967285,-0.60546875,-0.15161133,25.19,0.0,-87.0,0.01687622,1.520401,
147.84809699999997,true,true,true,0.0,12.1,0.0,-2423,0,0,0.0,12.1,0.0,0,0,0,0.125,12.1,0.0,-1496,0,0,0.0,12.15,0.0,0,0,0,0.0,12.15,0.0,0,0,0,0.0,12.1,0.0,0,0,0,0.0,12.200000000000001,0.0,0,0,0,kReverse,kOff,-83.39,2.09,2.86,-0.06109619,-0.71191406,-0.14404297,25.23,0.0,-113.0,0.017730713,1.5276794,
147.87022699999997,true,true,true,0.0,12.1,0.0,-2423,0,0,0.0,12.15,0.0,0,0,0,0.125,12.1,0.0,-1496,0,0,0.0,12.15,0.0,0,0,0,0.0,12.15,0.0,0,0,0,0.0,12.1,0.0,0,0,0,0.0,12.200000000000001,0.0,0,0,0,kReverse,kOff,-83.4,2.09,2.86,-0.0423584,-0.8496704,-0.101745605,25.23,0.0,-96.0,0.018432617,1.5346832,
147.89031899999998,true,true,true,0.0,12.1,0.0,-2423,0,0,0.0,12.15,0.0,0,0,0,0.125,12.1,0.0,-1496,0,0,0.0,12.15,0.0,0,0,0,0.0,12.15,0.0,0,0,0,0.0,12.1,0.0,0,0,0,0.0,12.200000000000001,0.0,0,0,0,kReverse,kOff,-83.45,2.11,2.88,-0.019897461,-0.99835205,0.028137207,25.23,0.0,-66.0,0.019515991,1.548111,
147.91241799999997,true,true,true,0.0,12.1,0.0,-2423,0,0,0.0,12.15,0.0,0,0,0,0.125,12.1,0.0,-1496,0,0,0.0,12.15,0.0,0,0,0,0.0,12.15,0.0,0,0,0,0.0,12.1,0.0,0,0,0,0.0,12.200000000000001,0.0,0,0,0,kReverse,kOff,-83.46,2.13,2.89,-0.012084961,-0.9359741,0.09118652,25.23,0.0,-47.0,0.019927979,1.5546875,
147.933511,true,true,true,0.0,12.1,0.0,-2423,0,0,0.0,12.15,0.0,0,0,0,0.125,12.1,0.0,-1496,0,0,0.0,12.15,0.0,0,0,0,0.0,12.15,0.0,0,0,0,0.0,12.1,0.0,0,0,0,0.0,12.200000000000001,0.0,0,0,0,kReverse,kOff,-83.48,2.16,2.92,-0.05456543,-0.5421753,0.10015869,25.23,0.0,-69.0,0.020553589,1.5547333,
147.957614,true,true,true,0.0,12.1,0.0,-2423,0,0,0.0,12.15,0.0,0,0,0,0.125,12.1,0.0,-1496,0,0,0.0,12.15,0.0,0,0,0,0.0,12.15,0.0,0,0,0,0.0,12.1,0.0,0,0,0,0.0,12.200000000000001,0.0,0,0,0,kReverse,kOff,-83.5,2.15,2.91,-0.053955078,-0.4732666,0.16253662,25.23,0.0,-57.0,0.020751953,1.5548706,
147.985598,true,true,true,0.0,12.1,0.0,-2423,0,0,0.0,12.15,0.0,0,0,0,0.125,12.1,0.0,-1496,0,0,0.0,12.15,0.0,0,0,0,0.0,12.15,0.0,0,0,0,0.0,12.1,0.0,0,0,0,0.0,12.200000000000001,0.0,0,0,0,kReverse,kOff,-83.5,2.11,2.87,0.008483887,-0.9472656,0.28448486,25.23,0.0,-4.0,0.020950317,1.5566711,
148.01000399999998,true,true,true,0.0,12.1,0.0,-2423,0,0,0.0,12.15,0.0,0,0,0,0.125,12.1,0.0,-1496,0,0,0.0,12.15,0.0,0,0,0,0.0,12.15,0.0,0,0,0,0.0,12.1,0.0,0,0,0,0.0,12.200000000000001,0.0,0,0,0,kReverse,kOff,-83.52,2.1,2.86,0.08465576,-1.2178345,0.28808594,25.23,0.0,58.0,0.020980835,1.5577393,
148.038892,true,true,true,0.0,12.1,0.0,-2423,0,0,0.0,12.1,0.0,0,0,0,0.125,12.1,0.0,-1496,0,0,0.0,12.15,0.0,0,0,0,0.0,12.15,0.0,0,0,0,0.0,12.1,0.0,0,0,0,0.0,12.200000000000001,0.0,0,0,0,kReverse,kOff,-83.53,2.14,2.89,0.13006592,-1.2804565,0.3338623,25.23,0.0,104.0,0.021347046,1.5605774,
148.066444,true,true,true,0.0,12.1,0.0,-2423,0,0,0.0,12.1,0.0,0,0,0,0.125,12.1,0.0,-1496,0,0,0.0,12.15,0.0,0,0,0,0.0,12.15,0.0,0,0,0,0.0,12.1,0.0,0,0,0,0.0,12.200000000000001,0.0,0,0,0,kReverse,kOff,-83.55,2.16,2.91,0.07714844,-1.0477905,0.26330566,25.23,0.0,55.0,0.022201538,1.5643463,
148.089478,true,true,true,0.0,12.1,0.0,-2423,0,0,0.0,12.1,0.0,0,0,0,0.125,12.1,0.0,-1496,0,0,0.0,12.15,0.0,0,0,0,0.0,12.15,0.0,0,0,0,0.0,12.1,0.0,0,0,0,0.0,12.200000000000001,0.0,0,0,0,kReverse,kOff,-83.56,2.14,2.89,0.07824707,-0.98986816,0.23956299,25.23,0.0,56.0,0.022766113,1.5665131,
148.114355,true,true,true,0.0,12.1,0.0,-2423,0,0,0.0,12.1,0.0,0,0,0,0.125,12.1,0.0,-1496,0,0,0.0,12.15,0.0,0,0,0,0.0,12.15,0.0,0,0,0,0.0,12.1,0.0,0,0,0,0.0,12.200000000000001,0.0,0,0,0,kReverse,kOff,-83.55,2.12,2.87,0.10021973,-1.2155762,0.20037842,25.23,0.0,62.0,0.024169922,1.5713654,
148.13347199999998,true,true,true,0.0,12.1,0.0,-2423,0,0,0.0,12.1,0.0,0,0,0,0.125,12.1,0.0,-1496,0,0,0.0,12.15,0.0,0,0,0,0.0,12.15,0.0,0,0,0,0.0,12.1,0.0,0,0,0,0.0,12.200000000000001,0.0,0,0,0,kReverse,kOff,-83.55,2.1,2.86,0.11651611,-1.3668823,0.12188721,25.23,0.0,62.0,0.025024414,1.573883,
148.16200899999998,true,true,true,0.0,12.1,0.0,-2423,0,0,0.0,12.1,0.0,0,0,0,0.125,12.1,0.0,-1496,0,0,0.0,12.15,0.0,0,0,0,0.0,12.15,0.0,0,0,0,0.0,12.1,0.0,0,0,0,0.0,12.200000000000001,0.0,0,0,0,kReverse,kOff,-83.56,2.12,2.87,0.16143799,-1.6248779,0.037109375,25.23,0.0,83.0,0.026992798,1.5785522,
148.185308,true,true,true,0.0,12.1,0.0,-2423,0,0,0.0,12.1,0.0,0,0,0,0.125,12.1,0.0,-1496,0,0,0.0,12.15,0.0,0,0,0,0.0,12.15,0.0,0,0,0,0.0,12.1,0.0,0,0,0,0.0,12.200000000000001,0.0,0,0,0,kReverse,kOff,-83.54,2.16,2.92,0.09753418,-1.2355347,-0.08831787,25.23,0.0,23.0,0.029327393,1.5823822,
148.206345,true,true,true,0.0,12.1,0.0,-2423,0,0,0.0,12.1,0.0,0,0,0,0.125,12.1,0.0,-1496,0,0,0.0,12.15,0.0,0,0,0,0.0,12.15,0.0,0,0,0,0.0,12.1,0.0,0,0,0,0.0,12.200000000000001,0.0,0,0,0,kReverse,kOff,-83.54,2.18,2.93,0.047668457,-0.9795532,-0.14398193,25.23,0.0,-19.0,0.030532837,1.583847,
148.22787899999997,true,true,true,0.0,12.1,0.0,-2423,0,0,0.0,12.1,0.0,0,0,0,0.125,12.1,0.0,-1496,0,0,0.0,12.15,0.0,0,0,0,0.0,12.15,0.0,0,0,0,0.0,12.1,0.0,0,0,0,0.0,12.200000000000001,0.0,0,0,0,kReverse,kOff,-83.54,2.15,2.91,-0.028625488,-0.5718994,-0.15808105,25.23,0.0,-76.0,0.032714844,1.5857391,
148.26117299999999,true,true,true,0.0,12.1,0.0,-2423,0,0,0.0,12.1,0.0,0,0,0,0.125,12.1,0.0,-1496,0,0,0.0,12.15,0.0,0,0,0,0.0,12.15,0.0,0,0,0,0.0,12.1,0.0,0,0,0,0.0,12.200000000000001,0.0,0,0,0,kReverse,kOff,-83.52,2.15,2.91,-0.05834961,-0.6226196,-0.17028809,25.23,0.0,-109.0,0.03364563,1.5862274,
