timer,lineLeft,lineCenter,lineRight,LeftFrontCurrent,LeftFrontVoltage,LeftFrontValue,LeftFrontPosition,LeftFrontVelocity,LeftFrontFaults,LeftRearCurrent,LeftRearVoltage,LeftRearValue,LeftRearPosition,LeftRearVelocity,LeftRearFaults,RightFrontCurrent,RightFrontVoltage,RightFrontValue,RightFrontPosition,RightFrontVelocity,RightFrontFaults,RightRearCurrent,RightRearVoltage,RightRearValue,RightRearPosition,RightRearVelocity,RightRearFaults,LiftCurrent,LiftVoltage,LiftValue,LiftPosition,LiftVelocity,LiftFaults,WristCurrent,WristVoltage,WristValue,WristPosition,WristVelocity,WristFaults,RollerCurrent,RollerVoltage,RollerValue,RollerPosition,RollerVelocity,RollerFaults,PushersState,PivotsState,navx_Pitch,navx_Roll,navx_Yaw,navx_XAcc,navx_YAcc,navx_ZAcc,navx_Temp,navx_Bar,navx_Alt,navx_XDis,navx_YDis,
231.414551,true,true,true,0.0,12.700000000000001,0.0,637,0,0,0.0,12.700000000000001,0.0,0,0,0,0.125,12.65,0.0,1667,0,0,0.0,12.700000000000001,0.0,0,0,0,0.0,12.700000000000001,0.0,0,0,0,0.0,12.65,0.0,0,0,0,0.0,12.75,0.0,0,0,0,kReverse,kOff,-84.07,1.68,1.78,0.027709961,-0.97991943,0.0982666,25.66,0.0,-1.0,-1.131012,2.8459473,
231.44555799999998,true,true,true,0.0,12.700000000000001,0.0,637,0,0,0.0,12.700000000000001,0.0,0,0,0,0.125,12.65,0.0,1667,0,0,0.0,12.700000000000001,0.0,0,0,0,0.0,12.700000000000001,0.0,0,0,0,0.0,12.65,0.0,0,0,0,0.0,12.75,0.0,0,0,0,kReverse,kOff,-84.07,1.69,1.79,0.031066895,-0.9779663,0.099731445,25.66,0.0,2.0,-1.131012,2.8459473,
231.474561,true,true,true,0.0,12.700000000000001,0.0,637,0,0,0.0,12.700000000000001,0.0,0,0,0,0.125,12.65,0.0,1667,0,0,0.0,12.700000000000001,0.0,0,0,0,0.0,12.700000000000001,0.0,0,0,0,0.0,12.65,0.0,0,0,0,0.0,12.75,0.0,0,0,0,kReverse,kOff,-84.07,1.69,1.79,0.029052734,-0.98065186,0.097229004,25.66,0.0,0.0,-1.131012,2.8459473,
231.49994199999998,true,true,true,0.0,12.700000000000001,0.0,637,0,0,0.0,12.700000000000001,0.0,0,0,0,0.125,12.65,0.0,1667,0,0,0.0,12.700000000000001,0.0,0,0,0,0.0,12.700000000000001,0.0,0,0,0,0.0,12.65,0.0,0,0,0,0.0,12.75,0.0,0,0,0,kReverse,kOff,-84.07,1.69,1.79,0.031066895,-0.98205566,0.09753418,25.69,0.0,1.0,-1.131012,2.8459473,
231.526019,true,true,true,0.0,12.700000000000001,0.0,637,0,0,0.0,12.700000000000001,0.0,0,0,0,0.125,12.65,0.0,1667,0,0,0.0,12.700000000000001,0.0,0,0,0,0.0,12.700000000000001,0.0,0,0,0,0.0,12.700000000000001,0.0,0,0,0,0.0,12.75,0.0,0,0,0,kReverse,kOff,-84.07,1.68,1.78,0.026184082,-0.98028564,0.095825195,25.69,0.0,-2.0,-1.131012,2.8459473,
231.55164,true,true,true,0.0,12.700000000000001,0.0,637,0,0,0.0,12.700000000000001,0.0,0,0,0,0.125,12.700000000000001,0.0,1667,0,0,0.0,12.75,0.0,0,0,0,0.0,12.700000000000001,0.0,0,0,0,0.0,12.700000000000001,0.0,0,0,0,0.0,12.75,0.0,0,0,0,kReverse,kOff,-84.07,1.68,1.78,0.028503418,-0.9788208,0.09838867,25.69,0.0,0.0,-1.131012,2.8459473,
231.571565,true,true,true,0.0,12.700000000000001,0.0,637,0,0,0.0,12.700000000000001,0.0,0,0,0,0.125,12.700000000000001,0.0,1667,0,0,0.0,12.75,0.0,0,0,0,0.0,12.700000000000001,0.0,0,0,0,0.0,12.700000000000001,0.0,0,0,0,0.0,12.75,0.0,0,0,0,kReverse,kOff,-84.07,1.68,1.78,0.026977539,-0.9822998,0.1026001,25.69,0.0,-1.0,-1.131012,2.8459473,
231.59188999999998,true,true,true,0.0,12.700000000000001,0.0,637,0,0,0.0,12.700000000000001,0.0,0,0,0,0.125,12.700000000000001,0.0,1667,0,0,0.0,12.75,0.0,0,0,0,0.0,12.700000000000001,0.0,0,0,0,0.0,12.700000000000001,0.0,0,0,0,0.0,12.75,0.0,0,0,0,kReverse,kOff,-84.07,1.69,1.79,0.028137207,-0.9827881,0.09881592,25.69,0.0,-1.0,-1.131012,2.8459473,
231.61654199999998,true,true,true,0.0,12.700000000000001,0.0,637,0,0,0.0,12.700000000000001,0.0,0,0,0,0.125,12.700000000000001,0.0,1667,0,0,0.0,12.75,0.0,0,0,0,0.0,12.700000000000001,0.0,0,0,0,0.0,12.700000000000001,0.0,0,0,0,0.0,12.75,0.0,0,0,0,kReverse,kOff,-84.07,1.68,1.78,0.030395508,-0.97888184,0.10015869,25.69,0.0,1.0,-1.131012,2.8459473,
231.641568,true,true,true,0.0,12.700000000000001,0.0,637,0,0,0.0,12.700000000000001,0.0,0,0,0,0.125,12.700000000000001,0.0,1667,0,0,0.0,12.75,0.0,0,0,0,0.0,12.700000000000001,0.0,0,0,0,0.0,12.700000000000001,0.0,0,0,0,0.0,12.75,0.0,0,0,0,kReverse,kOff,-84.07,1.69,1.79,0.02911377,-0.98065186,0.097473145,25.69,0.0,0.0,-1.131012,2.8459473,
231.663794,true,true,true,0.0,12.700000000000001,0.0,637,0,0,0.0,12.700000000000001,0.0,0,0,0,0.125,12.700000000000001,0.0,1667,0,0,0.0,12.75,0.0,0,0,0,0.0,12.700000000000001,0.0,0,0,0,0.0,12.700000000000001,0.0,0,0,0,0.0,12.75,0.0,0,0,0,kReverse,kOff,-84.07,1.68,1.78,0.028381348,-0.98205566,0.103393555,25.69,0.0,0.0,-1.131012,2.8459473,
231.686065,true,true,true,0.0,12.700000000000001,0.0,637,0,0,0.0,12.700000000000001,0.0,0,0,0,0.125,12.700000000000001,0.0,1667,0,0,0.0,12.75,0.0,0,0,0,0.0,12.700000000000001,0.0,0,0,0,0.0,12.700000000000001,0.0,0,0,0,0.0,12.75,0.0,0,0,0,kReverse,kOff,-84.06,1.68,1.78,0.029907227,-0.97991943,0.09741211,25.69,0.0,0.0,-1.131012,2.8459473,
231.708079,true,true,true,0.0,12.700000000000001,0.0,637,0,0,0.0,12.700000000000001,0.0,0,0,0,0.125,12.65,0.0,1667,0,0,0.0,12.700000000000001,0.0,0,0,0,0.0,12.700000000000001,0.0,0,0,0,0.0,12.700000000000001,0.0,0,0,0,0.0,12.75,0.0,0,0,0,kReverse,kOff,-84.06,1.68,1.78,0.028625488,-0.9833374,0.099609375,25.69,0.0,0.0,-1.131012,2.8459473,
231.728457,true,true,true,0.0,12.700000000000001,0.0,637,0,0,0.0,12.700000000000001,0.0,0,0,0,0.125,12.65,0.0,1667,0,0,0.0,12.700000000000001,0.0,0,0,0,0.0,12.700000000000001,0.0,0,0,0,0.0,12.700000000000001,0.0,0,0,0,0.0,12.75,0.0,0,0,0,kReverse,kOff,-84.06,1.68,1.78,0.02935791,-0.98114014,0.10058594,25.69,0.0,0.0,-1.131012,2.8459473,
231.748671,true,true,true,0.0,12.700000000000001,0.0,637,0,0,0.0,12.700000000000001,0.0,0,0,0,0.125,12.65,0.0,1667,0,0,0.0,12.700000000000001,0.0,0,0,0,0.0,12.700000000000001,0.0,0,0,0,0.0,12.700000000000001,0.0,0,0,0,0.0,12.75,0.0,0,0,0,kReverse,kOff,-84.06,1.68,1.78,0.032287598,-0.9819946,0.09906006,25.69,0.0,3.0,-1.131012,2.8459473,
231.770487,true,true,true,0.0,12.700000000000001,0.0,637,0,0,0.0,12.700000000000001,0.0,0,0,0,0.125,12.65,0.0,1667,0,0,0.0,12.700000000000001,0.0,0,0,0,0.0,12.700000000000001,0.0,0,0,0,0.0,12.700000000000001,0.0,0,0,0,0.0,12.75,0.0,0,0,0,kReverse,kOff,-84.07,1.68,1.78,0.026611328,-0.9784546,0.098083496,25.69,0.0,-2.0,-1.131012,2.8459473,
231.79482299999998,true,true,true,0.0,12.700000000000001,0.0,637,0,0,0.0,12.700000000000001,0.0,0,0,0,0.125,12.65,0.0,1667,0,0,0.0,12.700000000000001,0.0,0,0,0,0.0,12.700000000000001,0.0,0,0,0,0.0,12.700000000000001,0.0,0,0,0,0.0,12.75,0.0,0,0,0,kReverse,kOff,-84.07,1.68,1.78,0.02935791,-0.9805298,0.09869385,25.69,0.0,0.0,-1.131012,2.8459473,
231.813492,true,true,true,0.0,12.700000000000001,0.0,637,0,0,0.0,12.700000000000001,0.0,0,0,0,0.125,12.65,0.0,1667,0,0,0.0,12.700000000000001,0.0,0,0,0,0.0,12.700000000000001,0.0,0,0,0,0.0,12.700000000000001,0.0,0,0,0,0.0,12.75,0.0,0,0,0,kReverse,kOff,-84.07,1.68,1.78,0.030700684,-0.9801636,0.10101318,25.69,0.0,1.0,-1.131012,2.8459473,
231.836449,true,true,true,0.0,12.700000000000001,0.0,637,0,0,0.0,12.700000000000001,0.0,0,0,0,0.125,12.65,0.0,1667,0,0,0.0,12.700000000000001,0.0,0,0,0,0.0,12.700000000000001,0.0,0,0,0,0.0,12.700000000000001,0.0,0,0,0,0.0,12.75,0.0,0,0,0,kReverse,kOff,-84.06,1.68,1.78,0.029663086,-0.9844971,0.09643555,25.69,0.0,0.0,-1.131012,2.8459473,
231.861919,true,true,true,0.0,12.700000000000001,0.0,637,0,0,0.0,12.700000000000001,0.0,0,0,0,0.125,12.65,0.0,1667,0,0,0.0,12.700000000000001,0.0,0,0,0,0.0,12.700000000000001,0.0,0,0,0,0.0,12.700000000000001,0.0,0,0,0,0.0,12.75,0.0,0,0,0,kReverse,kOff,-84.06,1.68,1.78,0.029296875,-0.98132324,0.10089111,25.69,0.0,0.0,-1.131012,2.8459473,
231.881666,true,true,true,0.0,12.700000000000001,0.0,637,0,0,0.0,12.700000000000001,0.0,0,0,0,0.125,12.65,0.0,1667,0,0,0.0,12.700000000000001,0.0,0,0,0,0.0,12.700000000000001,0.0,0,0,0,0.0,12.700000000000001,0.0,0,0,0,0.0,12.75,0.0,0,0,0,kReverse,kOff,-84.06,1.68,1.78,0.03149414,-0.9802246,0.09436035,25.69,0.0,2.0,-1.131012,2.8459473,
231.89986499999998,true,true,true,0.0,12.700000000000001,0.0,637,0,0,0.0,12.700000000000001,0.0,0,0,0,0.125,12.65,0.0,1667,0,0,0.0,12.700000000000001,0.0,0,0,0,0.0,12.700000000000001,0.0,0,0,0,0.0,12.700000000000001,0.0,0,0,0,0.0,12.75,0.0,0,0,0,kReverse,kOff,-84.06,1.69,1.79,0.02960205,-0.980896,0.093933105,25.69,0.0,0.0,-1.131012,2.8459473,
231.923364,true,true,true,0.0,12.700000000000001,0.0,637,0,0,0.0,12.700000000000001,0.0,0,0,0,0.125,12.65,0.0,1667,0,0,0.0,12.700000000000001,0.0,0,0,0,0.0,12.700000000000001,0.0,0,0,0,0.0,12.700000000000001,0.0,0,0,0,0.0,12.75,0.0,0,0,0,kReverse,kOff,-84.06,1.68,1.78,0.027526855,-0.97888184,0.099853516,25.69,0.0,-1.0,-1.131012,2.8459473,
231.943557,true,true,true,0.0,12.700000000000001,0.0,637,0,0,0.0,12.700000000000001,0.0,0,0,0,0.125,12.65,0.0,1667,0,0,0.0,12.700000000000001,0.0,0,0,0,0.0,12.700000000000001,0.0,0,0,0,0.0,12.700000000000001,0.0,0,0,0,0.0,12.75,0.0,0,0,0,kReverse,kOff,-84.06,1.68,1.78,0.02935791,-0.98168945,0.09460449,25.69,0.0,0.0,-1.131012,2.8459473,
231.966087,true,true,true,0.0,12.700000000000001,0.0,637,0,0,0.0,12.700000000000001,0.0,0,0,0,0.125,12.65,0.0,1667,0,0,0.0,12.700000000000001,0.0,0,0,0,0.0,12.700000000000001,0.0,0,0,0,0.0,12.700000000000001,0.0,0,0,0,0.0,12.75,0.0,0,0,0,kReverse,kOff,-84.07,1.68,1.78,0.030822754,-0.9814453,0.09918213,25.69,0.0,1.0,-1.131012,2.8459473,
231.98809699999998,true,true,true,0.0,12.700000000000001,0.0,637,0,0,0.0,12.700000000000001,0.0,0,0,0,0.125,12.65,0.0,1667,0,0,0.0,12.700000000000001,0.0,0,0,0,0.0,12.700000000000001,0.0,0,0,0,0.0,12.700000000000001,0.0,0,0,0,0.0,12.75,0.0,0,0,0,kReverse,kOff,-84.07,1.68,1.78,0.028259277,-0.98010254,0.10217285,25.69,0.0,0.0,-1.131012,2.8459473,
232.009511,true,true,true,0.0,12.700000000000001,0.0,637,0,0,0.0,12.700000000000001,0.0,0,0,0,0.125,12.65,0.0,1667,0,0,0.0,12.75,0.0,0,0,0,0.0,12.700000000000001,0.0,0,0,0,0.0,12.700000000000001,0.0,0,0,0,0.0,12.75,0.0,0,0,0,kReverse,kOff,-84.07,1.68,1.78,0.030090332,-0.9766846,0.09741211,25.71,0.0,1.0,-1.131012,2.8459473,
232.034756,true,true,true,0.0,12.700000000000001,0.0,637,0,0,0.0,12.700000000000001,0.0,0,0,0,0.125,12.700000000000001,0.0,1667,0,0,0.0,12.75,0.0,0,0,0,0.0,12.700000000000001,0.0,0,0,0,0.0,12.700000000000001,0.0,0,0,0,0.0,12.75,0.0,0,0,0,kReverse,kOff,-84.07,1.68,1.78,0.030883789,-0.98046875,0.101623535,25.71,0.0,1.0,-1.131012,2.8459473,
232.05420299999997,true,true,true,0.0,12.700000000000001,0.0,637,0,0,0.0,12.700000000000001,0.0,0,0,0,0.125,12.700000000000001,0.0,1667,0,0,0.0,12.75,0.0,0,0,0,0.0,12.700000000000001,0.0,0,0,0,0.0,12.700000000000001,0.0,0,0,0,0.0,12.75,0.0,0,0,0,kReverse,kOff,-84.06,1.68,1.78,0.027709961,-0.98065186,0.10180664,25.71,0.0,-1.0,-1.131012,2.8459473,
232.07544199999998,true,true,true,0.0,12.700000000000001,0.0,637,0,0,0.0,12.700000000000001,0.0,0,0,0,0.125,12.700000000000001,0.0,1667,0,0,0.0,12.75,0.0,0,0,0,0.0,12.700000000000001,0.0,0,0,0,0.0,12.700000000000001,0.0,0,0,0,0.0,12.75,0.0,0,0,0,kReverse,kOff,-84.06,1.69,1.79,0.026306152,-0.9819336,0.09765625,25.71,0.0,-2.0,-1.131012,2.8459473,
232.095324,true,true,true,0.0,12.700000000000001,0.0,637,0,0,0.0,12.700000000000001,0.0,0,0,0,0.125,12.700000000000001,0.0,1667,0,0,0.0,12.75,0.0,0,0,0,0.0,12.700000000000001,0.0,0,0,0,0.0,12.700000000000001,0.0,0,0,0,0.0,12.75,0.0,0,0,0,kReverse,kOff,-84.06,1.68,1.78,0.032043457,-0.9829712,0.101135254,25.71,0.0,2.0,-1.131012,2.8459473,
232.115534,true,true,true,0.0,12.700000000000001,0.0,637,0,0,0.0,12.700000000000001,0.0,0,0,0,0.125,12.700000000000001,0.0,1667,0,0,0.0,12.75,0.0,0,0,0,0.0,12.700000000000001,0.0,0,0,0,0.0,12.700000000000001,0.0,0,0,0,0.0,12.75,0.0,0,0,0,kReverse,kOff,-84.06,1.68,1.78,0.028686523,-0.9815674,0.097961426,25.71,0.0,0.0,-1.131012,2.8459473,
232.133471,true,true,true,0.0,12.700000000000001,0.0,637,0,0,0.0,12.700000000000001,0.0,0,0,0,0.125,12.700000000000001,0.0,1667,0,0,0.0,12.75,0.0,0,0,0,0.0,12.700000000000001,0.0,0,0,0,0.0,12.700000000000001,0.0,0,0,0,0.0,12.75,0.0,0,0,0,kReverse,kOff,-84.06,1.68,1.78,0.028686523,-0.9815674,0.097961426,25.71,0.0,0.0,-1.131012,2.8459473,
232.157032,true,true,true,0.0,12.700000000000001,0.0,637,0,0,0.0,12.700000000000001,0.0,0,0,0,0.125,12.700000000000001,0.0,1667,0,0,0.0,12.75,0.0,0,0,0,0.0,12.700000000000001,0.0,0,0,0,0.0,12.700000000000001,0.0,0,0,0,0.0,12.75,0.0,0,0,0,kReverse,kOff,-84.06,1.68,1.78,0.026489258,-0.97979736,0.09655762,25.71,0.0,-2.0,-1.131012,2.8459473,
232.17684699999998,true,true,true,0.0,12.700000000000001,0.0,637,0,0,0.0,12.700000000000001,0.0,0,0,0,0.125,12.65,0.0,1667,0,0,0.0,12.700000000000001,0.0,0,0,0,0.0,12.700000000000001,0.0,0,0,0,0.0,12.700000000000001,0.0,0,0,0,0.0,12.75,0.0,0,0,0,kReverse,kOff,-84.06,1.68,1.78,0.026062012,-0.98083496,0.09631348,25.71,0.0,-3.0,-1.131012,2.8459473,
232.198454,true,true,true,0.0,12.700000000000001,0.0,637,0,0,0.0,12.700000000000001,0.0,0,0,0,0.125,12.65,0.0,1667,0,0,0.0,12.700000000000001,0.0,0,0,0,0.0,12.700000000000001,0.0,0,0,0,0.0,12.700000000000001,0.0,0,0,0,0.0,12.75,0.0,0,0,0,kReverse,kOff,-84.06,1.68,1.78,0.026062012,-0.98083496,0.09631348,25.71,0.0,-3.0,-1.131012,2.8459473,
232.218303,true,true,true,0.0,12.700000000000001,0.0,637,0,0,0.0,12.700000000000001,0.0,0,0,0,0.125,12.65,0.0,1667,0,0,0.0,12.700000000000001,0.0,0,0,0,0.0,12.700000000000001,0.0,0,0,0,0.0,12.700000000000001,0.0,0,0,0,0.0,12.75,0.0,0,0,0,kReverse,kOff,-84.06,1.68,1.78,0.028686523,-0.9803467,0.09954834,25.71,0.0,0.0,-1.131012,2.8459473,
232.237843,true,true,true,0.0,12.700000000000001,0.0,637,0,0,0.0,12.700000000000001,0.0,0,0,0,0.125,12.65,0.0,1667,0,0,0.0,12.700000000000001,0.0,0,0,0,0.0,12.700000000000001,0.0,0,0,0,0.0,12.700000000000001,0.0,0,0,0,0.0,12.75,0.0,0,0,0,kReverse,kOff,-84.06,1.68,1.78,0.032165527,-0.980896,0.101501465,25.71,0.0,3.0,-1.131012,2.8459473,
232.26007299999998,true,true,true,0.0,12.700000000000001,0.0,637,0,0,0.0,12.700000000000001,0.0,0,0,0,0.125,12.65,0.0,1667,0,0,0.0,12.700000000000001,0.0,0,0,0,0.0,12.700000000000001,0.0,0,0,0,0.0,12.700000000000001,0.0,0,0,0,0.0,12.75,0.0,0,0,0,kReverse,kOff,-84.06,1.68,1.78,0.030273438,-0.9805298,0.09588623,25.71,0.0,1.0,-1.131012,2.8459473,
232.28585999999999,true,true,true,0.0,12.700000000000001,0.0,637,0,0,0.0,12.700000000000001,0.0,0,0,0,0.125,12.65,0.0,1667,0,0,0.0,12.700000000000001,0.0,0,0,0,0.0,12.700000000000001,0.0,0,0,0,0.0,12.700000000000001,0.0,0,0,0,0.0,12.75,0.0,0,0,0,kReverse,kOff,-84.06,1.68,1.78,0.029663086,-0.9807739,0.09875488,25.71,0.0,0.0,-1.131012,2.8459473,
232.30844199999999,true,true,true,0.0,12.700000000000001,0.0,637,0,0,0.0,12.700000000000001,0.0,0,0,0,0.125,12.65,0.0,1667,0,0,0.0,12.700000000000001,0.0,0,0,0,0.0,12.700000000000001,0.0,0,0,0,0.0,12.700000000000001,0.0,0,0,0,0.0,12.75,0.0,0,0,0,kReverse,kOff,-84.06,1.69,1.79,0.028198242,-0.9793091,0.09552002,25.71,0.0,0.0,-1.131012,2.8459473,
232.329848,true,true,true,0.0,12.700000000000001,0.0,637,0,0,0.0,12.700000000000001,0.0,0,0,0,0.125,12.65,0.0,1667,0,0,0.0,12.75,0.0,0,0,0,0.0,12.700000000000001,0.0,0,0,0,0.0,12.700000000000001,0.0,0,0,0,0.0,12.75,0.0,0,0,0,kReverse,kOff,-84.06,1.68,1.78,0.028015137,-0.9800415,0.0947876,25.71,0.0,-1.0,-1.131012,2.8459473,
232.35187,true,true,true,0.0,12.700000000000001,0.0,637,0,0,0.0,12.700000000000001,0.0,0,0,0,0.125,12.65,0.0,1667,0,0,0.0,12.75,0.0,0,0,0,0.0,12.700000000000001,0.0,0,0,0,0.0,12.700000000000001,0.0,0,0,0,0.0,12.75,0.0,0,0,0,kReverse,kOff,-84.06,1.68,1.78,0.028686523,-0.98413086,0.09741211,25.71,0.0,0.0,-1.131012,2.8459473,
232.37182099999998,true,true,true,0.0,12.700000000000001,0.0,637,0,0,0.0,12.700000000000001,0.0,0,0,0,0.125,12.65,0.0,1667,0,0,0.0,12.75,0.0,0,0,0,0.0,12.700000000000001,0.0,0,0,0,0.0,12.700000000000001,0.0,0,0,0,0.0,12.75,0.0,0,0,0,kReverse,kOff,-84.07,1.68,1.78,0.027770996,-0.9801636,0.10296631,25.71,0.0,-1.0,-1.131012,2.8459473,
232.399771,true,true,true,0.0,12.700000000000001,0.0,637,0,0,0.0,12.700000000000001,0.0,0,0,0,0.125,12.65,0.0,1667,0,0,0.0,12.75,0.0,0,0,0,0.0,12.700000000000001,0.0,0,0,0,0.0,12.700000000000001,0.0,0,0,0,0.0,12.75,0.0,0,0,0,kReverse,kOff,-84.06,1.69,1.79,0.029846191,-0.9796753,0.10284424,25.71,0.0,0.0,-1.131012,2.8459473,
232.421538,true,true,true,0.0,12.700000000000001,0.0,637,0,0,0.0,12.700000000000001,0.0,0,0,0,0.125,12.65,0.0,1667,0,0,0.0,12.75,0.0,0,0,0,0.0,12.700000000000001,0.0,0,0,0,0.0,12.700000000000001,0.0,0,0,0,0.0,12.75,0.0,0,0,0,kReverse,kOff,-84.06,1.68,1.78,0.028869629,-0.9805298,0.10144043,25.71,0.0,0.0,-1.131012,2.8459473,
232.44259699999998,true,true,true,0.0,12.700000000000001,0.0,637,0,0,0.0,12.700000000000001,0.0,0,0,0,0.125,12.65,0.0,1667,0,0,0.0,12.75,0.0,0,0,0,0.0,12.700000000000001,0.0,0,0,0,0.0,12.700000000000001,0.0,0,0,0,0.0,12.75,0.0,0,0,0,kReverse,kOff,-84.06,1.68,1.78,0.030151367,-0.98291016,0.09710693,25.71,0.0,1.0,-1.131012,2.8459473,
232.46382999999997,true,true,true,0.0,12.700000000000001,0.0,637,0,0,0.0,12.700000000000001,0.0,0,0,0,0.125,12.65,0.0,1667,0,0,0.0,12.75,0.0,0,0,0,0.0,12.700000000000001,0.0,0,0,0,0.0,12.700000000000001,0.0,0,0,0,0.0,12.75,0.0,0,0,0,kReverse,kOff,-84.06,1.68,1.78,0.029418945,-0.9813843,0.095458984,25.71,0.0,0.0,-1.131012,2.8459473,
232.48534099999998,true,true,true,0.0,12.700000000000001,0.0,637,0,0,0.125,12.700000000000001,0.0,0,0,0,0.125,12.65,0.0,1667,0,0,0.0,12.75,0.0,0,0,0,0.0,12.700000000000001,0.0,0,0,0,0.0,12.700000000000001,0.0,0,0,0,0.0,12.75,0.0,0,0,0,kReverse,kOff,-84.06,1.68,1.78,0.029296875,-0.9807129,0.099121094,25.71,0.0,0.0,-1.131012,2.8459473,
232.507239,true,true,true,0.0,12.700000000000001,0.0,637,0,0,0.0,12.700000000000001,0.0,0,0,0,0.125,12.700000000000001,0.0,1667,0,0,0.0,12.75,0.0,0,0,0,0.0,12.700000000000001,0.0,0,0,0,0.0,12.700000000000001,0.0,0,0,0,0.0,12.75,0.0,0,0,0,kReverse,kOff,-84.06,1.68,1.78,0.027648926,-0.98046875,0.09509277,25.71,0.0,-1.0,-1.131012,2.8459473,
232.52869199999998,true,true,true,0.0,12.700000000000001,0.0,637,0,0,0.0,12.700000000000001,0.0,0,0,0,0.125,12.700000000000001,0.0,1667,0,0,0.0,12.75,0.0,0,0,0,0.0,12.700000000000001,0.0,0,0,0,0.0,12.700000000000001,0.0,0,0,0,0.0,12.75,0.0,0,0,0,kReverse,kOff,-84.06,1.68,1.78,0.029968262,-0.98272705,0.09979248,25.7,0.0,0.0,-1.131012,2.8459473,
232.54784099999998,true,true,true,0.0,12.700000000000001,0.0,637,0,0,0.0,12.700000000000001,0.0,0,0,0,0.125,12.700000000000001,0.0,1667,0,0,0.0,12.75,0.0,0,0,0,0.0,12.700000000000001,0.0,0,0,0,0.0,12.700000000000001,0.0,0,0,0,0.0,12.75,0.0,0,0,0,kReverse,kOff,-84.06,1.69,1.78,0.02734375,-0.98010254,0.090270996,25.7,0.0,-1.0,-1.131012,2.8459473,
232.57791999999998,true,true,true,0.0,12.700000000000001,0.0,637,0,0,0.0,12.700000000000001,0.0,0,0,0,0.125,12.700000000000001,0.0,1667,0,0,0.0,12.75,0.0,0,0,0,0.0,12.700000000000001,0.0,0,0,0,0.0,12.700000000000001,0.0,0,0,0,0.0,12.75,0.0,0,0,0,kReverse,kOff,-84.06,1.69,1.78,0.02923584,-0.98083496,0.09967041,25.7,0.0,0.0,-1.131012,2.8459473,
232.60147499999997,true,true,true,0.0,12.700000000000001,0.0,637,0,0,0.0,12.700000000000001,0.0,0,0,0,0.125,12.700000000000001,0.0,1667,0,0,0.0,12.75,0.0,0,0,0,0.0,12.700000000000001,0.0,0,0,0,0.0,12.700000000000001,0.0,0,0,0,0.0,12.75,0.0,0,0,0,kReverse,kOff,-84.06,1.69,1.78,0.028320312,-0.9812622,0.09454346,25.7,0.0,0.0,-1.131012,2.8459473,
232.6246,true,true,true,0.0,12.700000000000001,0.0,637,0,0,0.0,12.700000000000001,0.0,0,0,0,0.125,12.700000000000001,0.0,1667,0,0,0.0,12.75,0.0,0,0,0,0.0,12.700000000000001,0.0,0,0,0,0.0,12.700000000000001,0.0,0,0,0,0.0,12.75,0.0,0,0,0,kReverse,kOff,-84.06,1.68,1.78,0.02734375,-0.98114014,0.09686279,25.7,0.0,-1.0,-1.131012,2.8459473,
232.644546,true,true,true,0.0,12.700000000000001,0.0,637,0,0,0.0,12.700000000000001,0.0,0,0,0,0.125,12.700000000000001,0.0,1667,0,0,0.0,12.75,0.0,0,0,0,0.0,12.700000000000001,0.0,0,0,0,0.0,12.700000000000001,0.0,0,0,0,0.0,12.75,0.0,0,0,0,kReverse,kOff,-84.06,1.68,1.78,0.030029297,-0.98101807,0.09887695,25.7,0.0,0.0,-1.131012,2.8459473,
232.66644699999998,true,true,true,0.0,12.700000000000001,0.0,637,0,0,0.0,12.700000000000001,0.0,0,0,0,0.125,12.65,0.0,1667,0,0,0.0,12.75,0.0,0,0,0,0.0,12.700000000000001,0.0,0,0,0,0.0,12.700000000000001,0.0,0,0,0,0.0,12.75,0.0,0,0,0,kReverse,kOff,-84.06,1.68,1.78,0.026184082,-0.98205566,0.09820557,25.7,0.0,-2.0,-1.131012,2.8459473,
232.685397,true,true,true,0.0,12.700000000000001,0.0,637,0,0,0.0,12.700000000000001,0.0,0,0,0,0.125,12.65,0.0,1667,0,0,0.0,12.75,0.0,0,0,0,0.0,12.700000000000001,0.0,0,0,0,0.0,12.700000000000001,0.0,0,0,0,0.0,12.75,0.0,0,0,0,kReverse,kOff,-84.06,1.68,1.78,0.028198242,-0.98095703,0.1026001,25.7,0.0,0.0,-1.131012,2.8459473,
232.70512200000002,true,true,true,0.0,12.700000000000001,0.0,637,0,0,0.0,12.700000000000001,0.0,0,0,0,0.125,12.65,0.0,1667,0,0,0.0,12.75,0.0,0,0,0,0.0,12.700000000000001,0.0,0,0,0,0.0,12.700000000000001,0.0,0,0,0,0.0,12.75,0.0,0,0,0,kReverse,kOff,-84.06,1.68,1.78,0.026489258,-0.98028564,0.10107422,25.7,0.0,-2.0,-1.131012,2.8459473,
232.725077,true,true,true,0.0,12.700000000000001,0.0,637,0,0,0.0,12.700000000000001,0.0,0,0,0,0.125,12.65,0.0,1667,0,0,0.0,12.75,0.0,0,0,0,0.0,12.700000000000001,0.0,0,0,0,0.0,12.700000000000001,0.0,0,0,0,0.0,12.75,0.0,0,0,0,kReverse,kOff,-84.06,1.68,1.78,0.028137207,-0.97924805,0.09686279,25.7,0.0,0.0,-1.131012,2.8459473,
232.74366899999998,true,true,true,0.0,12.700000000000001,0.0,637,0,0,0.0,12.700000000000001,0.0,0,0,0,0.125,12.65,0.0,1667,0,0,0.0,12.75,0.0,0,0,0,0.0,12.700000000000001,0.0,0,0,0,0.0,12.700000000000001,0.0,0,0,0,0.0,12.75,0.0,0,0,0,kReverse,kOff,-84.06,1.68,1.78,0.028137207,-0.9812012,0.0982666,25.7,0.0,0.0,-1.131012,2.8459473,
232.765289,true,true,true,0.0,12.700000000000001,0.0,637,0,0,0.0,12.700000000000001,0.0,0,0,0,0.125,12.65,0.0,1667,0,0,0.0,12.75,0.0,0,0,0,0.0,12.700000000000001,0.0,0,0,0,0.0,12.700000000000001,0.0,0,0,0,0.0,12.75,0.0,0,0,0,kReverse,kOff,-84.06,1.68,1.77,0.02935791,-0.9818115,0.09564209,25.7,0.0,0.0,-1.131012,2.8459473,
232.78590499999999,true,true,true,0.0,12.700000000000001,0.0,637,0,0,0.0,12.700000000000001,0.0,0,0,0,0.125,12.65,0.0,1667,0,0,0.0,12.75,0.0,0,0,0,0.0,12.700000000000001,0.0,0,0,0,0.0,12.700000000000001,0.0,0,0,0,0.0,12.75,0.0,0,0,0,kReverse,kOff,-84.06,1.68,1.77,0.02758789,-0.98223877,0.09680176,25.7,0.0,-1.0,-1.131012,2.8459473,
232.806462,true,true,true,0.0,12.700000000000001,0.0,637,0,0,0.0,12.700000000000001,0.0,0,0,0,0.125,12.65,0.0,1667,0,0,0.0,12.75,0.0,0,0,0,0.0,12.700000000000001,0.0,0,0,0,0.0,12.700000000000001,0.0,0,0,0,0.0,12.75,0.0,0,0,0,kReverse,kOff,-84.06,1.68,1.77,0.026184082,-0.9817505,0.09716797,25.7,0.0,-2.0,-1.131012,2.8459473,
232.827579,true,true,true,0.0,12.700000000000001,0.0,637,0,0,0.0,12.700000000000001,0.0,0,0,0,0.125,12.700000000000001,0.0,1667,0,0,0.0,12.75,0.0,0,0,0,0.0,12.700000000000001,0.0,0,0,0,0.0,12.700000000000001,0.0,0,0,0,0.0,12.75,0.0,0,0,0,kReverse,kOff,-84.06,1.68,1.77,0.030090332,-0.9800415,0.099975586,25.7,0.0,1.0,-1.131012,2.8459473,
232.84802,true,true,true,0.125,12.700000000000001,0.0,637,0,0,0.0,12.700000000000001,0.0,0,0,0,0.125,12.700000000000001,0.0,1667,0,0,0.0,12.75,0.0,0,0,0,0.0,12.700000000000001,0.0,0,0,0,0.0,12.700000000000001,0.0,0,0,0,0.0,12.75,0.0,0,0,0,kReverse,kOff,-84.06,1.68,1.78,0.028381348,-0.97961426,0.100097656,25.7,0.0,0.0,-1.131012,2.8459473,
232.86803999999998,true,true,true,0.125,12.700000000000001,0.0,637,0,0,0.0,12.700000000000001,0.0,0,0,0,0.125,12.700000000000001,0.0,1667,0,0,0.0,12.75,0.0,0,0,0,0.0,12.700000000000001,0.0,0,0,0,0.0,12.700000000000001,0.0,0,0,0,0.0,12.75,0.0,0,0,0,kReverse,kOff,-84.06,1.68,1.78,0.027404785,-0.9827881,0.10089111,25.7,0.0,-1.0,-1.131012,2.8459473,
232.88912,true,true,true,0.0,12.700000000000001,0.0,637,0,0,0.0,12.700000000000001,0.0,0,0,0,0.125,12.700000000000001,0.0,1667,0,0,0.0,12.75,0.0,0,0,0,0.0,12.700000000000001,0.0,0,0,0,0.0,12.700000000000001,0.0,0,0,0,0.0,12.75,0.0,0,0,0,kReverse,kOff,-84.05,1.68,1.78,0.028564453,-0.98114014,0.09674072,25.7,0.0,0.0,-1.131012,2.8459473,
232.90955499999998,true,true,true,0.0,12.700000000000001,0.0,637,0,0,0.0,12.700000000000001,0.0,0,0,0,0.125,12.700000000000001,0.0,1667,0,0,0.0,12.75,0.0,0,0,0,0.0,12.700000000000001,0.0,0,0,0,0.0,12.700000000000001,0.0,0,0,0,0.0,12.75,0.0,0,0,0,kReverse,kOff,-84.05,1.68,1.78,0.026550293,-0.98101807,0.0970459,25.7,0.0,-2.0,-1.131012,2.8459473,
232.92934899999997,true,true,true,0.0,12.700000000000001,0.0,637,0,0,0.0,12.700000000000001,0.0,0,0,0,0.125,12.700000000000001,0.0,1667,0,0,0.0,12.75,0.0,0,0,0,0.0,12.700000000000001,0.0,0,0,0,0.0,12.700000000000001,0.0,0,0,0,0.0,12.75,0.0,0,0,0,kReverse,kOff,-84.05,1.68,1.78,0.027160645,-0.9848633,0.098083496,25.7,0.0,-2.0,-1.131012,2.8459473,
232.950275,true,true,true,0.0,12.700000000000001,0.0,637,0,0,0.0,12.700000000000001,0.0,0,0,0,0.125,12.700000000000001,0.0,1667,0,0,0.0,12.75,0.0,0,0,0,0.0,12.700000000000001,0.0,0,0,0,0.0,12.700000000000001,0.0,0,0,0,0.0,12.75,0.0,0,0,0,kReverse,kOff,-84.06,1.68,1.77,0.030090332,-0.9805298,0.0960083,25.7,0.0,1.0,-1.131012,2.8459473,
232.971971,true,true,true,0.0,12.700000000000001,0.0,637,0,0,0.0,12.700000000000001,0.0,0,0,0,0.125,12.700000000000001,0.0,1667,0,0,0.0,12.700000000000001,0.0,0,0,0,0.0,12.700000000000001,0.0,0,0,0,0.0,12.700000000000001,0.0,0,0,0,0.0,12.75,0.0,0,0,0,kReverse,kOff,-84.06,1.68,1.77,0.03326416,-0.9824829,0.10046387,25.7,0.0,4.0,-1.131012,2.8459473,
232.99930799999998,true,true,true,0.0,12.700000000000001,0.0,637,0,0,0.0,12.700000000000001,0.0,0,0,0,0.125,12.700000000000001,0.0,1667,0,0,0.0,12.700000000000001,0.0,0,0,0,0.0,12.700000000000001,0.0,0,0,0,0.0,12.700000000000001,0.0,0,0,0,0.0,12.75,0.0,0,0,0,kReverse,kOff,-84.06,1.69,1.78,0.028625488,-0.9810791,0.09832764,25.7,0.0,0.0,-1.131012,2.8459473,
233.02041,true,true,true,0.0,12.700000000000001,0.0,637,0,0,0.0,12.700000000000001,0.0,0,0,0,0.125,12.700000000000001,0.0,1667,0,0,0.0,12.700000000000001,0.0,0,0,0,0.0,12.700000000000001,0.0,0,0,0,0.0,12.700000000000001,0.0,0,0,0,0.0,12.75,0.0,0,0,0,kReverse,kOff,-84.06,1.69,1.78,0.028747559,-0.97906494,0.099731445,25.71,0.0,0.0,-1.131012,2.8459473,
233.040568,true,true,true,0.0,12.700000000000001,0.0,637,0,0,0.0,12.700000000000001,0.0,0,0,0,0.125,12.700000000000001,0.0,1667,0,0,0.0,12.700000000000001,0.0,0,0,0,0.0,12.700000000000001,0.0,0,0,0,0.0,12.700000000000001,0.0,0,0,0,0.0,12.75,0.0,0,0,0,kReverse,kOff,-84.06,1.69,1.78,0.028259277,-0.9804077,0.10076904,25.71,0.0,0.0,-1.131012,2.8459473,
233.06240899999997,true,true,true,0.0,12.700000000000001,0.0,637,0,0,0.0,12.700000000000001,0.0,0,0,0,0.125,12.700000000000001,0.0,1667,0,0,0.0,12.700000000000001,0.0,0,0,0,0.0,12.700000000000001,0.0,0,0,0,0.0,12.700000000000001,0.0,0,0,0,0.0,12.75,0.0,0,0,0,kReverse,kOff,-84.06,1.69,1.78,0.028381348,-0.97857666,0.09259033,25.71,0.0,0.0,-1.131012,2.8459473,
233.079285,true,true,true,0.0,12.700000000000001,0.0,637,0,0,0.0,12.700000000000001,0.0,0,0,0,0.125,12.700000000000001,0.0,1667,0,0,0.0,12.700000000000001,0.0,0,0,0,0.0,12.700000000000001,0.0,0,0,0,0.0,12.700000000000001,0.0,0,0,0,0.0,12.75,0.0,0,0,0,kReverse,kOff,-84.06,1.69,1.78,0.031555176,-0.9804077,0.099975586,25.71,0.0,2.0,-1.131012,2.8459473,
233.10308799999999,true,true,true,0.0,12.700000000000001,0.0,637,0,0,0.0,12.700000000000001,0.0,0,0,0,0.125,12.700000000000001,0.0,1667,0,0,0.0,12.700000000000001,0.0,0,0,0,0.0,12.700000000000001,0.0,0,0,0,0.0,12.700000000000001,0.0,0,0,0,0.0,12.75,0.0,0,0,0,kReverse,kOff,-84.06,1.69,1.78,0.027832031,-0.9783325,0.10064697,25.71,0.0,-1.0,-1.131012,2.8459473,
233.12440899999999,true,true,true,0.0,12.700000000000001,0.0,637,0,0,0.0,12.700000000000001,0.0,0,0,0,0.125,12.700000000000001,0.0,1667,0,0,0.0,12.700000000000001,0.0,0,0,0,0.0,12.700000000000001,0.0,0,0,0,0.0,12.700000000000001,0.0,0,0,0,0.0,12.75,0.0,0,0,0,kReverse,kOff,-84.06,1.69,1.78,0.029724121,-0.982605,0.099243164,25.71,0.0,0.0,-1.131012,2.8459473,
233.142452,true,true,true,0.0,12.700000000000001,0.0,637,0,0,0.0,12.700000000000001,0.0,0,0,0,0.125,12.65,0.0,1667,0,0,0.0,12.75,0.0,0,0,0,0.0,12.700000000000001,0.0,0,0,0,0.0,12.700000000000001,0.0,0,0,0,0.0,12.75,0.0,0,0,0,kReverse,kOff,-84.06,1.69,1.78,0.028869629,-0.9824829,0.10095215,25.71,0.0,0.0,-1.131012,2.8459473,
233.16445299999998,true,true,true,0.0,12.700000000000001,0.0,637,0,0,0.0,12.700000000000001,0.0,0,0,0,0.125,12.65,0.0,1667,0,0,0.0,12.75,0.0,0,0,0,0.0,12.700000000000001,0.0,0,0,0,0.0,12.700000000000001,0.0,0,0,0,0.0,12.75,0.0,0,0,0,kReverse,kOff,-84.06,1.69,1.78,0.027526855,-0.9835205,0.09399414,25.71,0.0,-1.0,-1.131012,2.8459473,
233.183867,true,true,true,0.0,12.700000000000001,0.0,637,0,0,0.0,12.700000000000001,0.0,0,0,0,0.125,12.65,0.0,1667,0,0,0.0,12.75,0.0,0,0,0,0.0,12.700000000000001,0.0,0,0,0,0.0,12.700000000000001,0.0,0,0,0,0.0,12.75,0.0,0,0,0,kReverse,kOff,-84.06,1.69,1.78,0.028869629,-0.980896,0.09552002,25.71,0.0,0.0,-1.131012,2.8459473,
233.204932,true,true,true,0.0,12.700000000000001,0.0,637,0,0,0.0,12.700000000000001,0.0,0,0,0,0.125,12.65,0.0,1667,0,0,0.0,12.75,0.0,0,0,0,0.0,12.700000000000001,0.0,0,0,0,0.0,12.700000000000001,0.0,0,0,0,0.0,12.75,0.0,0,0,0,kReverse,kOff,-84.06,1.69,1.78,0.030273438,-0.97924805,0.10076904,25.71,0.0,1.0,-1.131012,2.8459473,
233.226571,true,true,true,0.0,12.700000000000001,0.0,637,0,0,0.0,12.700000000000001,0.0,0,0,0,0.125,12.65,0.0,1667,0,0,0.0,12.75,0.0,0,0,0,0.0,12.700000000000001,0.0,0,0,0,0.0,12.700000000000001,0.0,0,0,0,0.0,12.75,0.0,0,0,0,kReverse,kOff,-84.06,1.69,1.78,0.029968262,-0.9833374,0.09918213,25.71,0.0,0.0,-1.131012,2.8459473,
233.24784,true,true,true,0.0,12.700000000000001,0.0,637,0,0,0.0,12.700000000000001,0.0,0,0,0,0.125,12.65,0.0,1667,0,0,0.0,12.75,0.0,0,0,0,0.0,12.700000000000001,0.0,0,0,0,0.0,12.700000000000001,0.0,0,0,0,0.0,12.75,0.0,0,0,0,kReverse,kOff,-84.06,1.69,1.78,0.028137207,-0.982605,0.095214844,25.71,0.0,-1.0,-1.131012,2.8459473,
233.26969799999998,true,true,true,0.0,12.700000000000001,0.0,637,0,0,0.0,12.700000000000001,0.0,0,0,0,0.125,12.65,0.0,1667,0,0,0.0,12.75,0.0,0,0,0,0.0,12.700000000000001,0.0,0,0,0,0.0,12.700000000000001,0.0,0,0,0,0.0,12.75,0.0,0,0,0,kReverse,kOff,-84.06,1.69,1.78,0.030395508,-0.9812622,0.0970459,25.71,0.0,1.0,-1.131012,2.8459473,
233.29212699999997,true,true,true,0.0,12.700000000000001,0.0,637,0,0,0.0,12.700000000000001,0.0,0,0,0,0.125,12.65,0.0,1667,0,0,0.0,12.75,0.0,0,0,0,0.0,12.700000000000001,0.0,0,0,0,0.0,12.700000000000001,0.0,0,0,0,0.0,12.75,0.0,0,0,0,kReverse,kOff,-84.06,1.69,1.78,0.030822754,-0.9804077,0.09661865,25.71,0.0,1.0,-1.131012,2.8459473,
233.313356,true,true,true,0.0,12.700000000000001,0.0,637,0,0,0.125,12.700000000000001,0.0,0,0,0,0.125,12.65,0.0,1667,0,0,0.0,12.75,0.0,0,0,0,0.0,12.700000000000001,0.0,0,0,0,0.0,12.700000000000001,0.0,0,0,0,0.0,12.75,0.0,0,0,0,kReverse,kOff,-84.06,1.69,1.78,0.029968262,-0.9824219,0.09552002,25.71,0.0,0.0,-1.131012,2.8459473,
233.33471,true,true,true,0.0,12.700000000000001,0.0,637,0,0,0.0,12.700000000000001,0.0,0,0,0,0.125,12.65,0.0,1667,0,0,0.0,12.75,0.0,0,0,0,0.0,12.700000000000001,0.0,0,0,0,0.0,12.700000000000001,0.0,0,0,0,0.0,12.75,0.0,0,0,0,kReverse,kOff,-84.06,1.69,1.78,0.02960205,-0.980896,0.09442139,25.71,0.0,0.0,-1.131012,2.8459473,
233.355203,true,true,true,0.0,12.700000000000001,0.0,637,0,0,0.0,12.700000000000001,0.0,0,0,0,0.125,12.65,0.0,1667,0,0,0.0,12.75,0.0,0,0,0,0.0,12.700000000000001,0.0,0,0,0,0.0,12.700000000000001,0.0,0,0,0,0.0,12.75,0.0,0,0,0,kReverse,kOff,-84.06,1.69,1.78,0.027404785,-0.9794922,0.09515381,25.71,0.0,-1.0,-1.131012,2.8459473,
233.377163,true,true,true,0.0,12.700000000000001,0.0,637,0,0,0.0,12.700000000000001,0.0,0,0,0,0.125,12.65,0.0,1667,0,0,0.0,12.75,0.0,0,0,0,0.0,12.700000000000001,0.0,0,0,0,0.0,12.700000000000001,0.0,0,0,0,0.0,12.75,0.0,0,0,0,kReverse,kOff,-84.06,1.69,1.78,0.030944824,-0.982605,0.0914917,25.71,0.0,1.0,-1.131012,2.8459473,
233.40084699999997,true,true,true,0.0,12.700000000000001,0.0,637,0,0,0.0,12.700000000000001,0.0,0,0,0,0.125,12.65,0.0,1667,0,0,0.0,12.75,0.0,0,0,0,0.0,12.700000000000001,0.0,0,0,0,0.0,12.700000000000001,0.0,0,0,0,0.0,12.75,0.0,0,0,0,kReverse,kOff,-84.06,1.69,1.78,0.026550293,-0.98236084,0.09802246,25.71,0.0,-2.0,-1.131012,2.8459473,
233.42464999999999,true,true,true,0.0,12.700000000000001,0.0,637,0,0,0.0,12.700000000000001,0.0,0,0,0,0.125,12.65,0.0,1667,0,0,0.0,12.75,0.0,0,0,0,0.0,12.700000000000001,0.0,0,0,0,0.0,12.700000000000001,0.0,0,0,0,0.0,12.75,0.0,0,0,0,kReverse,kOff,-84.06,1.69,1.78,0.029724121,-0.98254395,0.09625244,25.71,0.0,0.0,-1.131012,2.8459473,
233.444033,true,true,true,0.0,12.700000000000001,0.0,637,0,0,0.0,12.700000000000001,0.0,0,0,0,0.125,12.65,0.0,1667,0,0,0.0,12.75,0.0,0,0,0,0.0,12.700000000000001,0.0,0,0,0,0.0,12.700000000000001,0.0,0,0,0,0.0,12.75,0.0,0,0,0,kReverse,kOff,-84.06,1.69,1.78,0.029541016,-0.9786377,0.10321045,25.71,0.0,0.0,-1.131012,2.8459473,
233.466341,true,true,true,0.0,12.700000000000001,0.0,637,0,0,0.125,12.700000000000001,0.0,0,0,0,0.125,12.700000000000001,0.0,1667,0,0,0.0,12.75,0.0,0,0,0,0.0,12.700000000000001,0.0,0,0,0,0.0,12.700000000000001,0.0,0,0,0,0.0,12.75,0.0,0,0,0,kReverse,kOff,-84.05,1.69,1.78,0.028930664,-0.98028564,0.097961426,25.71,0.0,0.0,-1.131012,2.8459473,
233.485712,true,true,true,0.0,12.700000000000001,0.0,637,0,0,0.0,12.700000000000001,0.0,0,0,0,0.125,12.700000000000001,0.0,1667,0,0,0.0,12.75,0.0,0,0,0,0.0,12.700000000000001,0.0,0,0,0,0.0,12.700000000000001,0.0,0,0,0,0.0,12.75,0.0,0,0,0,kReverse,kOff,-84.05,1.69,1.78,0.028686523,-0.9788208,0.09692383,25.71,0.0,0.0,-1.131012,2.8459473,
233.50648199999998,true,true,true,0.0,12.700000000000001,0.0,637,0,0,0.0,12.700000000000001,0.0,0,0,0,0.125,12.700000000000001,0.0,1667,0,0,0.0,12.75,0.0,0,0,0,0.0,12.700000000000001,0.0,0,0,0,0.0,12.700000000000001,0.0,0,0,0,0.0,12.75,0.0,0,0,0,kReverse,kOff,-84.05,1.69,1.78,0.029724121,-0.9807129,0.09643555,25.71,0.0,0.0,-1.131012,2.8459473,
233.527014,true,true,true,0.0,12.700000000000001,0.0,637,0,0,0.0,12.700000000000001,0.0,0,0,0,0.125,12.700000000000001,0.0,1667,0,0,0.0,12.75,0.0,0,0,0,0.0,12.700000000000001,0.0,0,0,0,0.0,12.700000000000001,0.0,0,0,0,0.0,12.75,0.0,0,0,0,kReverse,kOff,-84.05,1.69,1.78,0.02947998,-0.98254395,0.09802246,25.71,0.0,0.0,-1.131012,2.8459473,
233.54834199999996,true,true,true,0.0,12.700000000000001,0.0,637,0,0,0.125,12.700000000000001,0.0,0,0,0,0.125,12.700000000000001,0.0,1667,0,0,0.0,12.75,0.0,0,0,0,0.0,12.700000000000001,0.0,0,0,0,0.0,12.700000000000001,0.0,0,0,0,0.0,12.75,0.0,0,0,0,kReverse,kOff,-84.06,1.69,1.78,0.029968262,-0.9807129,0.0970459,25.71,0.0,0.0,-1.131012,2.8459473,
233.56965399999999,true,true,true,0.0,12.700000000000001,0.0,637,0,0,0.125,12.700000000000001,0.0,0,0,0,0.125,12.700000000000001,0.0,1667,0,0,0.0,12.75,0.0,0,0,0,0.0,12.700000000000001,0.0,0,0,0,0.0,12.700000000000001,0.0,0,0,0,0.0,12.75,0.0,0,0,0,kReverse,kOff,-84.06,1.69,1.78,0.028137207,-0.98236084,0.09692383,25.71,0.0,-1.0,-1.131012,2.8459473,
233.589609,true,true,true,0.0,12.700000000000001,0.0,637,0,0,0.125,12.700000000000001,0.0,0,0,0,0.125,12.700000000000001,0.0,1667,0,0,0.0,12.75,0.0,0,0,0,0.0,12.700000000000001,0.0,0,0,0,0.0,12.700000000000001,0.0,0,0,0,0.0,12.75,0.0,0,0,0,kReverse,kOff,-84.06,1.69,1.78,0.029785156,-0.9819336,0.09509277,25.71,0.0,0.0,-1.131012,2.8459473,
233.61386899999997,true,true,true,0.0,12.700000000000001,0.0,637,0,0,0.0,12.700000000000001,0.0,0,0,0,0.125,12.65,0.0,1667,0,0,0.0,12.75,0.0,0,0,0,0.0,12.700000000000001,0.0,0,0,0,0.0,12.700000000000001,0.0,0,0,0,0.0,12.75,0.0,0,0,0,kReverse,kOff,-84.06,1.69,1.78,0.029174805,-0.98046875,0.095581055,25.71,0.0,0.0,-1.131012,2.8459473,
233.64502599999997,true,true,true,0.0,12.700000000000001,0.0,637,0,0,0.0,12.700000000000001,0.0,0,0,0,0.125,12.65,0.0,1667,0,0,0.0,12.75,0.0,0,0,0,0.0,12.700000000000001,0.0,0,0,0,0.0,12.700000000000001,0.0,0,0,0,0.0,12.75,0.0,0,0,0,kReverse,kOff,-84.06,1.69,1.78,0.028198242,-0.9835205,0.10223389,25.71,0.0,0.0,-1.131012,2.8459473,
233.674644,true,true,true,0.25,12.700000000000001,0.0,639,0,0,0.375,12.700000000000001,0.0,0,0,0,0.5,12.65,0.0,1670,0,0,0.25,12.75,0.0,0,0,0,0.0,12.700000000000001,0.0,0,0,0,0.0,12.700000000000001,0.0,0,0,0,0.0,12.75,0.0,0,0,0,kReverse,kOff,-84.06,1.69,1.78,0.032226562,-0.9909668,0.10015869,25.71,0.0,2.0,-1.131012,2.8459473,
233.699984,true,true,true,1.375,12.700000000000001,0.0,646,1,0,1.125,12.700000000000001,0.0,0,0,0,1.875,12.65,0.0,1679,2,0,1.375,12.75,0.0,0,0,0,0.0,12.700000000000001,0.0,0,0,0,0.0,12.700000000000001,0.0,0,0,0,0.0,12.75,0.0,0,0,0,kReverse,kOff,-84.04,1.71,1.8,0.08117676,-1.0875244,0.19567871,25.71,0.0,49.0,-1.1309814,2.846222,
233.727136,true,true,true,2.625,12.700000000000001,0.0,656,6,0,2.75,12.700000000000001,0.0,0,0,0,2.75,12.65,0.0,1691,8,0,2.75,12.75,0.0,0,0,0,0.0,12.700000000000001,0.0,0,0,0,0.0,12.700000000000001,0.0,0,0,0,0.0,12.75,0.0,0,0,0,kReverse,kOff,-83.88,1.77,1.86,0.0793457,-1.0736084,0.47369385,25.71,0.0,51.0,-1.131073,2.8463898,
233.74841199999997,true,true,true,3.25,12.700000000000001,0.0,661,13,0,4.375,12.700000000000001,0.0,0,0,0,4.125,12.65,0.0,1694,16,0,4.125,12.75,0.0,0,0,0,0.0,12.700000000000001,0.0,0,0,0,0.0,12.700000000000001,0.0,0,0,0,0.0,12.75,0.0,0,0,0,kReverse,kOff,-83.78,1.73,1.85,-0.11663818,-1.0264893,0.043151855,25.71,0.0,-148.0,-1.1312103,2.846695,
233.772389,true,true,true,3.0,12.700000000000001,0.0,661,19,0,3.0,12.700000000000001,0.0,0,0,0,2.625,12.450000000000001,0.0,1694,26,0,3.375,12.5,0.0,0,0,0,0.0,12.450000000000001,0.0,0,0,0,0.0,12.5,0.0,0,0,0,0.0,12.55,0.0,0,0,0,kReverse,kOff,-83.63,1.75,1.87,0.17437744,-0.99993896,0.032409668,25.71,0.0,142.0,-1.131485,2.8478394,
233.79509299999998,true,true,true,0.5,12.450000000000001,0.0,654,20,0,1.5,12.450000000000001,0.0,0,0,0,1.125,12.450000000000001,0.0,1690,24,0,2.0,12.5,0.0,0,0,0,0.0,12.450000000000001,0.0,0,0,0,0.0,12.5,0.0,0,0,0,0.0,12.55,0.0,0,0,0,kReverse,kOff,-83.43,1.83,1.94,0.30041504,-1.7123413,-0.171875,25.71,0.0,239.0,-1.1312866,2.8482056,
233.81740299999998,true,true,true,0.125,12.450000000000001,0.0,651,13,0,0.375,12.450000000000001,0.0,0,0,0,0.25,12.450000000000001,0.0,1687,16,0,0.375,12.5,0.0,0,0,0,0.0,12.450000000000001,0.0,0,0,0,0.0,12.5,0.0,0,0,0,0.0,12.55,0.0,0,0,0,kReverse,kOff,-83.7,1.92,2.03,-0.1987915,-1.1942749,-0.27770996,25.71,0.0,-245.0,-1.1311035,2.8480377,
233.837199,true,true,true,0.0,12.450000000000001,0.0,649,2,0,0.125,12.450000000000001,0.0,0,0,0,0.125,12.450000000000001,0.0,1687,6,0,0.0,12.5,0.0,0,0,0,0.0,12.450000000000001,0.0,0,0,0,0.0,12.5,0.0,0,0,0,0.0,12.55,0.0,0,0,0,kReverse,kOff,-83.93,1.64,1.76,-0.07324219,-1.0344238,0.21850586,25.71,0.0,-100.0,-1.1312866,2.8474731,
233.85978199999997,true,true,true,0.0,12.450000000000001,0.0,647,-6,0,0.125,12.450000000000001,0.0,0,0,0,0.125,12.450000000000001,0.0,1686,-3,0,0.0,12.5,0.0,0,0,0,0.0,12.450000000000001,0.0,0,0,0,0.0,12.5,0.0,0,0,0,0.0,12.55,0.0,0,0,0,kReverse,kOff,-84.08,1.67,1.78,0.11791992,-1.0422363,0.023742676,25.71,0.0,85.0,-1.1314392,2.84729,
233.88193399999997,true,true,true,0.0,12.450000000000001,0.0,647,-11,0,0.0,12.450000000000001,0.0,0,0,0,0.125,12.450000000000001,0.0,1686,-7,0,0.0,12.5,0.0,0,0,0,0.0,12.450000000000001,0.0,0,0,0,0.0,12.5,0.0,0,0,0,0.0,12.55,0.0,0,0,0,kReverse,kOff,-84.46,1.78,1.87,-0.12957764,-0.9779053,0.27697754,25.71,0.0,-157.0,-1.1315765,2.8472137,
233.900506,true,true,true,0.0,12.450000000000001,0.0,647,-11,0,0.0,12.450000000000001,0.0,0,0,0,0.125,12.450000000000001,0.0,1686,-7,0,0.0,12.5,0.0,0,0,0,0.0,12.450000000000001,0.0,0,0,0,0.0,12.5,0.0,0,0,0,0.0,12.55,0.0,0,0,0,kReverse,kOff,-84.47,1.73,1.81,-1.8310547E-4,-0.97558594,0.29925537,25.71,0.0,-26.0,-1.1317902,2.8475647,
233.92284199999997,true,true,true,0.0,12.450000000000001,0.0,647,-9,0,0.0,12.450000000000001,0.0,0,0,0,0.125,12.450000000000001,0.0,1686,-6,0,0.0,12.5,0.0,0,0,0,0.0,12.450000000000001,0.0,0,0,0,0.0,12.5,0.0,0,0,0,0.0,12.55,0.0,0,0,0,kReverse,kOff,-84.2,1.81,1.89,0.09887695,-0.979126,0.21252441,25.71,0.0,69.0,-1.131897,2.8487854,
233.94450499999996,true,true,true,0.0,12.65,0.0,647,-6,0,0.0,12.65,0.0,0,0,0,0.125,12.65,0.0,1685,-3,0,0.0,12.700000000000001,0.0,0,0,0,0.0,12.65,0.0,0,0,0,0.0,12.65,0.0,0,0,0,0.0,12.75,0.0,0,0,0,kReverse,kOff,-84.0,1.84,1.93,0.027893066,-0.97369385,0.15960693,25.71,0.0,-2.0,-1.1318359,2.849594,
233.964277,true,true,true,0.0,12.65,0.0,647,-3,0,0.0,12.65,0.0,0,0,0,0.125,12.65,0.0,1685,-2,0,0.0,12.700000000000001,0.0,0,0,0,0.0,12.65,0.0,0,0,0,0.0,12.65,0.0,0,0,0,0.0,12.75,0.0,0,0,0,kReverse,kOff,-83.88,1.79,1.89,-0.06756592,-0.963501,-0.015014648,25.71,0.0,-99.0,-1.1318512,2.8503723,
233.984841,true,true,true,0.0,12.65,0.0,647,-1,0,0.0,12.65,0.0,0,0,0,0.125,12.65,0.0,1685,-1,0,0.0,12.700000000000001,0.0,0,0,0,0.0,12.65,0.0,0,0,0,0.0,12.65,0.0,0,0,0,0.0,12.75,0.0,0,0,0,kReverse,kOff,-83.93,1.71,1.82,0.07910156,-0.96417236,0.05267334,25.71,0.0,49.0,-1.1320801,2.8515778,
234.00731399999998,true,true,true,0.0,12.65,0.0,647,0,0,0.0,12.65,0.0,0,0,0,0.125,12.65,0.0,1685,-1,0,0.0,12.700000000000001,0.0,0,0,0,0.0,12.65,0.0,0,0,0,0.0,12.65,0.0,0,0,0,0.0,12.75,0.0,0,0,0,kReverse,kOff,-83.93,1.73,1.84,0.076049805,-0.9649658,0.12487793,25.71,0.0,47.0,-1.1321411,2.8521423,
234.027978,true,true,true,0.0,12.65,0.0,647,0,0,0.0,12.65,0.0,0,0,0,0.125,12.65,0.0,1685,-1,0,0.0,12.700000000000001,0.0,0,0,0,0.0,12.65,0.0,0,0,0,0.0,12.65,0.0,0,0,0,0.0,12.75,0.0,0,0,0,kReverse,kOff,-83.99,1.77,1.86,0.004760742,-0.9713745,0.11065674,25.71,0.0,-25.0,-1.1322021,2.8533478,
234.04923399999998,true,true,true,0.0,12.65,0.0,647,0,0,0.0,12.65,0.0,0,0,0,0.125,12.65,0.0,1685,0,0,0.0,12.700000000000001,0.0,0,0,0,0.0,12.65,0.0,0,0,0,0.0,12.65,0.0,0,0,0,0.0,12.75,0.0,0,0,0,kReverse,kOff,-84.0,1.75,1.85,0.03277588,-0.98083496,0.13452148,25.71,0.0,3.0,-1.1322479,2.8539886,
234.070417,true,true,true,0.0,12.65,0.0,647,0,0,0.0,12.65,0.0,0,0,0,0.125,12.65,0.0,1685,0,0,0.0,12.700000000000001,0.0,0,0,0,0.0,12.65,0.0,0,0,0,0.0,12.65,0.0,0,0,0,0.0,12.75,0.0,0,0,0,kReverse,kOff,-83.98,1.77,1.86,0.039794922,-0.963562,0.04296875,25.71,0.0,9.0,-1.1322937,2.8552551,
234.097977,true,true,true,0.0,12.65,0.0,647,0,0,0.0,12.700000000000001,0.0,0,0,0,0.125,12.65,0.0,1685,0,0,0.0,12.700000000000001,0.0,0,0,0,0.0,12.700000000000001,0.0,0,0,0,0.0,12.65,0.0,0,0,0,0.0,12.75,0.0,0,0,0,kReverse,kOff,-83.98,1.76,1.85,-0.0078125,-0.9747925,0.041870117,25.71,0.0,-38.0,-1.1323242,2.8558044,
234.120261,true,true,true,0.0,12.65,0.0,647,0,0,0.0,12.700000000000001,0.0,0,0,0,0.125,12.65,0.0,1685,0,0,0.0,12.700000000000001,0.0,0,0,0,0.0,12.700000000000001,0.0,0,0,0,0.0,12.65,0.0,0,0,0,0.0,12.75,0.0,0,0,0,kReverse,kOff,-84.07,1.72,1.81,0.05041504,-0.98272705,0.05609131,25.71,0.0,20.0,-1.1325073,2.8566132,
234.13690899999997,true,true,true,0.125,12.65,0.0,647,0,0,0.0,12.700000000000001,0.0,0,0,0,0.125,12.65,0.0,1685,0,0,0.0,12.700000000000001,0.0,0,0,0,0.0,12.700000000000001,0.0,0,0,0,0.0,12.65,0.0,0,0,0,0.0,12.75,0.0,0,0,0,kReverse,kOff,-84.11,1.74,1.83,0.07867432,-0.98535156,0.12426758,25.71,0.0,48.0,-1.1325531,2.856964,
234.16153699999998,true,true,true,0.5,12.65,0.0,650,0,0,0.5,12.700000000000001,0.0,0,0,0,0.625,12.65,0.0,1686,0,0,0.25,12.700000000000001,0.0,0,0,0,0.0,12.700000000000001,0.0,0,0,0,0.0,12.65,0.0,0,0,0,0.0,12.75,0.0,0,0,0,kReverse,kOff,-84.12,1.77,1.86,-0.009094238,-1.045044,0.1184082,25.71,0.0,-41.0,-1.1325989,2.857788,
234.181935,true,true,true,1.5,12.65,0.0,658,2,0,1.5,12.700000000000001,0.0,0,0,0,2.875,12.65,0.0,1691,1,0,1.375,12.700000000000001,0.0,0,0,0,0.0,12.700000000000001,0.0,0,0,0,0.0,12.65,0.0,0,0,0,0.0,12.75,0.0,0,0,0,kReverse,kOff,-84.08,1.79,1.89,0.08795166,-1.3626709,-0.014221191,25.71,0.0,42.0,-1.1326141,2.858139,
234.205809,true,true,true,5.375,12.65,0.0,666,7,0,4.375,12.700000000000001,0.0,0,0,0,6.625,12.65,0.0,1699,4,0,4.125,12.700000000000001,0.0,0,0,0,0.0,12.700000000000001,0.0,0,0,0,0.0,12.65,0.0,0,0,0,0.0,12.75,0.0,0,0,0,kReverse,kOff,-83.72,1.76,1.87,-0.048828125,-1.1019897,0.67962646,25.71,0.0,-72.0,-1.1331787,2.859375,
234.22644699999998,true,true,true,9.75,12.65,0.0,678,14,0,8.5,12.700000000000001,0.0,0,0,0,11.375,12.65,0.0,1708,10,0,8.625,12.700000000000001,0.0,0,0,0,0.0,12.700000000000001,0.0,0,0,0,0.0,12.65,0.0,0,0,0,0.0,12.75,0.0,0,0,0,kReverse,kOff,-83.73,1.69,1.83,-0.12554932,-0.579895,0.49542236,25.71,0.0,-133.0,-1.1337128,2.8609467,
234.248291,true,true,true,13.625,12.65,0.0,698,25,0,13.0,12.700000000000001,0.0,0,0,0,15.625,12.65,0.0,1721,18,0,13.125,12.700000000000001,0.0,0,0,0,0.0,12.700000000000001,0.0,0,0,0,0.0,11.100000000000001,0.0,0,0,0,0.0,11.15,0.0,0,0,0,kReverse,kOff,-83.37,1.7,1.85,0.20007324,-0.868042,-0.21490479,25.71,0.0,167.0,-1.1346741,2.8643036,
234.269199,true,true,true,14.75,11.0,0.0,726,42,0,15.375,10.9,0.0,0,0,0,17.25,10.8,0.0,1745,30,0,16.25,11.05,0.0,0,0,0,0.0,11.100000000000001,0.0,0,0,0,0.0,11.100000000000001,0.0,0,0,0,0.0,11.15,0.0,0,0,0,kReverse,kOff,-83.28,1.81,1.97,0.025146484,-0.6671753,-0.359375,25.71,0.0,-5.0,-1.134964,2.8653564,
234.28950999999998,true,true,true,13.75,11.0,0.0,754,61,0,16.125,10.9,0.0,0,0,0,16.625,10.8,0.0,1766,46,0,16.25,11.05,0.0,0,0,0,0.0,11.100000000000001,0.0,0,0,0,0.0,11.100000000000001,0.0,0,0,0,0.0,11.15,0.0,0,0,0,kReverse,kOff,-83.43,1.74,1.91,0.05340576,-1.1168823,0.38891602,25.71,0.0,26.0,-1.1357727,2.8668976,
234.311451,true,true,true,12.75,11.0,0.0,783,83,0,15.125,10.9,0.0,0,0,0,16.5,10.8,0.0,1812,80,0,16.75,11.05,0.0,0,0,0,0.0,11.100000000000001,0.0,0,0,0,0.0,11.100000000000001,0.0,0,0,0,0.0,11.15,0.0,0,0,0,kReverse,kOff,-83.56,1.74,1.9,0.14379883,-1.249939,0.24816895,25.71,0.0,108.0,-1.1361237,2.867981,
234.33928,true,true,true,12.75,11.0,0.0,847,123,0,15.125,10.9,0.0,0,0,0,16.5,10.8,0.0,1840,95,0,16.5,11.05,0.0,0,0,0,0.0,11.100000000000001,0.0,0,0,0,0.0,11.100000000000001,0.0,0,0,0,0.0,11.15,0.0,0,0,0,kReverse,kOff,-83.69,1.94,2.09,0.07849121,-0.9711304,-0.14733887,25.71,0.0,39.0,-1.136322,2.8697662,
234.36359399999998,true,true,true,12.5,11.0,0.0,879,138,0,15.0,10.9,0.0,0,0,0,16.0,10.8,0.0,1868,108,0,16.25,11.05,0.0,0,0,0,0.0,11.100000000000001,0.0,0,0,0,0.0,11.100000000000001,0.0,0,0,0,0.0,11.15,0.0,0,0,0,kReverse,kOff,-83.71,1.95,2.09,0.048034668,-1.1051025,-0.056518555,25.71,0.0,6.0,-1.136322,2.8702393,
234.385728,true,true,true,12.25,11.0,0.0,911,148,0,15.125,10.9,0.0,0,0,0,15.25,10.8,0.0,1894,118,0,16.375,11.05,0.0,0,0,0,0.0,11.100000000000001,0.0,0,0,0,0.0,11.100000000000001,0.0,0,0,0,0.0,11.15,0.0,0,0,0,kReverse,kOff,-83.81,1.83,1.97,0.04333496,-0.94659424,0.29437256,25.71,0.0,17.0,-1.1364899,2.8716888,
234.408863,true,true,true,10.0,11.0,0.0,941,154,0,14.25,10.9,0.0,0,0,0,14.125,10.8,0.0,1920,125,0,13.125,11.05,0.0,0,0,0,0.0,11.75,0.0,0,0,0,0.0,11.75,0.0,0,0,0,0.0,11.850000000000001,0.0,0,0,0,kReverse,kOff,-83.68,1.93,2.06,0.103271484,-1.248169,-0.028259277,25.71,0.0,57.0,-1.1365051,2.873764,
234.43629499999997,true,true,true,3.375,11.75,0.0,964,148,0,7.0,11.7,0.0,0,0,0,5.375,11.7,0.0,1947,127,0,8.75,11.75,0.0,0,0,0,0.0,11.75,0.0,0,0,0,0.0,11.75,0.0,0,0,0,0.0,11.850000000000001,0.0,0,0,0,kReverse,kOff,-83.68,1.92,2.05,-0.006225586,-0.9500122,-0.045532227,25.71,0.0,-41.0,-1.1364594,2.8745575,
234.45506699999999,true,true,true,0.75,11.75,0.0,957,129,0,3.125,11.7,0.0,0,0,0,2.125,11.7,0.0,1940,114,0,4.5,11.75,0.0,0,0,0,0.0,11.75,0.0,0,0,0,0.0,11.75,0.0,0,0,0,0.0,11.850000000000001,0.0,0,0,0,kReverse,kOff,-83.73,1.79,1.9,0.10839844,-0.7897339,-0.08477783,25.71,0.0,80.0,-1.1364746,2.8766174,
234.483432,true,true,true,0.5,11.75,0.0,949,99,0,1.0,11.7,0.0,0,0,0,0.25,11.7,0.0,1935,90,0,0.875,11.75,0.0,0,0,0,0.0,11.75,0.0,0,0,0,0.0,11.75,0.0,0,0,0,0.0,11.850000000000001,0.0,0,0,0,kReverse,kOff,-84.22,1.79,1.89,7.324219E-4,-1.1167603,0.10284424,25.71,0.0,-34.0,-1.1364594,2.8771973,
234.507777,true,true,true,0.0,11.75,0.0,944,61,0,0.0,11.7,0.0,0,0,0,0.125,11.7,0.0,1933,59,0,0.0,11.75,0.0,0,0,0,0.0,11.75,0.0,0,0,0,0.0,11.75,0.0,0,0,0,0.0,11.850000000000001,0.0,0,0,0,kReverse,kOff,-84.13,1.77,1.88,-0.075927734,-0.8121948,0.41357422,25.71,0.0,-95.0,-1.1365662,2.877472,
234.529731,true,true,true,0.0,11.75,0.0,941,26,0,0.0,11.7,0.0,0,0,0,0.125,11.7,0.0,1933,7,0,0.0,11.75,0.0,0,0,0,0.0,11.75,0.0,0,0,0,0.0,11.75,0.0,0,0,0,0.0,11.850000000000001,0.0,0,0,0,kReverse,kOff,-84.29,1.76,1.87,-0.002746582,-1.1692505,-0.04736328,25.71,0.0,-41.0,-1.1368561,2.8784943,
234.549229,true,true,true,0.0,11.75,0.0,940,-1,0,0.0,11.7,0.0,0,0,0,0.125,11.7,0.0,1933,-5,0,0.0,11.75,0.0,0,0,0,0.0,11.75,0.0,0,0,0,0.0,11.75,0.0,0,0,0,0.0,11.850000000000001,0.0,0,0,0,kReverse,kOff,-84.31,1.78,1.87,0.064697266,-1.0164795,0.26672363,25.74,0.0,35.0,-1.1369934,2.8789825,
234.572285,true,true,true,0.0,11.75,0.0,940,-15,0,0.0,11.7,0.0,0,0,0,0.125,12.55,0.0,1932,-9,0,0.0,12.6,0.0,0,0,0,0.0,12.55,0.0,0,0,0,0.0,12.55,0.0,0,0,0,0.0,12.65,0.0,0,0,0,kReverse,kOff,-84.16,1.82,1.92,0.057556152,-1.0252686,0.18640137,25.74,0.0,26.0,-1.1371307,2.8808136,
234.595313,true,true,true,0.0,12.55,0.0,940,-13,0,0.0,12.6,0.0,0,0,0,0.125,12.55,0.0,1931,-6,0,0.0,12.6,0.0,0,0,0,0.0,12.55,0.0,0,0,0,0.0,12.55,0.0,0,0,0,0.0,12.65,0.0,0,0,0,kReverse,kOff,-84.13,1.81,1.91,0.051696777,-1.0890503,0.1609497,25.74,0.0,17.0,-1.137146,2.8819427,
234.62109999999998,true,true,true,0.0,12.55,0.0,940,-7,0,0.0,12.6,0.0,0,0,0,0.125,12.55,0.0,1930,-3,0,0.0,12.6,0.0,0,0,0,0.0,12.55,0.0,0,0,0,0.0,12.55,0.0,0,0,0,0.0,12.65,0.0,0,0,0,kReverse,kOff,-83.97,1.82,1.92,0.0056762695,-0.8903198,0.066589355,25.74,0.0,-23.0,-1.1371307,2.8843536,
234.643476,true,true,true,0.0,12.55,0.0,940,-3,0,0.0,12.6,0.0,0,0,0,0.125,12.55,0.0,1929,-3,0,0.0,12.6,0.0,0,0,0,0.0,12.55,0.0,0,0,0,0.0,12.55,0.0,0,0,0,0.0,12.65,0.0,0,0,0,kReverse,kOff,-84.01,1.79,1.89,-0.03479004,-0.991272,-0.03857422,25.74,0.0,-68.0,-1.1371918,2.8854675,
234.666553,true,true,true,0.0,12.55,0.0,940,-1,0,0.0,12.6,0.0,0,0,0,0.125,12.55,0.0,1929,-3,0,0.0,12.6,0.0,0,0,0,0.0,12.55,0.0,0,0,0,0.0,12.55,0.0,0,0,0,0.0,12.65,0.0,0,0,0,kReverse,kOff,-84.08,1.75,1.86,0.06072998,-0.91485596,0.22418213,25.74,0.0,34.0,-1.1374207,2.8876038,
234.686895,true,true,true,0.0,12.55,0.0,940,0,0,0.0,12.6,0.0,0,0,0,0.125,12.55,0.0,1929,-3,0,0.0,12.6,0.0,0,0,0,0.0,12.55,0.0,0,0,0,0.0,12.55,0.0,0,0,0,0.0,12.65,0.0,0,0,0,kReverse,kOff,-84.01,1.79,1.89,0.074523926,-0.9888916,0.1887207,25.74,0.0,44.0,-1.1374664,2.8888702,
234.709366,true,true,true,0.0,12.55,0.0,940,0,0,0.0,12.6,0.0,0,0,0,0.125,12.55,0.0,1929,-3,0,0.0,12.6,0.0,0,0,0,0.0,12.55,0.0,0,0,0,0.0,12.55,0.0,0,0,0,0.0,12.65,0.0,0,0,0,kReverse,kOff,-83.96,1.8,1.9,0.014953613,-0.9619751,0.09753418,25.74,0.0,-15.0,-1.137497,2.891449,
234.729438,true,true,true,0.0,12.55,0.0,940,0,0,0.0,12.6,0.0,0,0,0,0.125,12.55,0.0,1929,-1,0,0.0,12.6,0.0,0,0,0,0.0,12.6,0.0,0,0,0,0.0,12.6,0.0,0,0,0,0.0,12.65,0.0,0,0,0,kReverse,kOff,-83.96,1.8,1.9,0.014953613,-0.9619751,0.09753418,25.74,0.0,-15.0,-1.137497,2.891449,
234.755876,true,true,true,0.0,12.6,0.0,940,0,0,0.0,12.6,0.0,0,0,0,0.125,12.6,0.0,1929,0,0,0.0,12.6,0.0,0,0,0,0.0,12.6,0.0,0,0,0,0.0,12.6,0.0,0,0,0,0.0,12.65,0.0,0,0,0,kReverse,kOff,-83.94,1.79,1.9,0.0107421875,-0.99005127,0.07940674,25.74,0.0,-20.0,-1.137497,2.8954468,
234.77850999999998,true,true,true,0.0,12.6,0.0,940,0,0,0.0,12.6,0.0,0,0,0,0.125,12.6,0.0,1929,0,0,0.0,12.6,0.0,0,0,0,0.0,12.6,0.0,0,0,0,0.0,12.6,0.0,0,0,0,0.0,12.65,0.0,0,0,0,kReverse,kOff,-83.94,1.79,1.9,0.0107421875,-0.99005127,0.07940674,25.74,0.0,-20.0,-1.137497,2.8954468,
234.79933499999999,true,true,true,0.0,12.6,0.0,940,0,0,0.0,12.6,0.0,0,0,0,0.125,12.6,0.0,1929,0,0,0.0,12.6,0.0,0,0,0,0.0,12.6,0.0,0,0,0,0.0,12.6,0.0,0,0,0,0.0,12.65,0.0,0,0,0,kReverse,kOff,-83.96,1.77,1.87,0.06262207,-0.9941406,0.08795166,25.74,0.0,31.0,-1.1376648,2.8980408,
234.818977,true,true,true,0.0,12.6,0.0,940,0,0,0.0,12.6,0.0,0,0,0,0.125,12.6,0.0,1929,0,0,0.0,12.6,0.0,0,0,0,0.0,12.6,0.0,0,0,0,0.0,12.6,0.0,0,0,0,0.0,12.65,0.0,0,0,0,kReverse,kOff,-83.96,1.77,1.87,0.06262207,-0.9941406,0.08795166,25.74,0.0,31.0,-1.1376648,2.8980408,
234.85201999999998,true,true,true,0.0,12.6,0.0,940,0,0,0.0,12.6,0.0,0,0,0,0.125,12.6,0.0,1929,0,0,0.0,12.6,0.0,0,0,0,0.0,12.6,0.0,0,0,0,0.0,12.6,0.0,0,0,0,0.0,12.65,0.0,0,0,0,kReverse,kOff,-83.97,1.79,1.89,-0.0026855469,-1.0006104,0.06829834,25.74,0.0,-34.0,-1.1376648,2.8980255,
234.87862399999997,true,true,true,0.0,12.6,0.0,940,0,0,0.0,12.6,0.0,0,0,0,0.125,12.6,0.0,1929,0,0,0.0,12.6,0.0,0,0,0,0.0,12.6,0.0,0,0,0,0.0,12.6,0.0,0,0,0,0.0,12.65,0.0,0,0,0,kReverse,kOff,-83.99,1.77,1.87,0.029663086,-0.96917725,0.09906006,25.74,0.0,0.0,-1.1377869,2.8979187,
234.89946899999998,true,true,true,0.0,12.6,0.0,940,0,0,0.0,12.6,0.0,0,0,0,0.125,12.6,0.0,1929,0,0,0.0,12.6,0.0,0,0,0,0.0,12.6,0.0,0,0,0,0.0,12.6,0.0,0,0,0,0.0,12.65,0.0,0,0,0,kReverse,kOff,-83.99,1.78,1.88,0.021362305,-0.9802246,0.087524414,25.74,0.0,-9.0,-1.1377869,2.8979187,
234.927561,true,true,true,0.0,12.6,0.0,940,0,0,0.0,12.6,0.0,0,0,0,0.125,12.6,0.0,1929,0,0,0.0,12.6,0.0,0,0,0,0.0,12.6,0.0,0,0,0,0.0,12.6,0.0,0,0,0,0.0,12.65,0.0,0,0,0,kReverse,kOff,-83.99,1.77,1.88,0.029907227,-0.96099854,0.080200195,25.74,0.0,0.0,-1.1377869,2.8979187,
234.94818099999998,true,true,true,0.0,12.6,0.0,940,0,0,0.0,12.6,0.0,0,0,0,0.125,12.6,0.0,1929,0,0,0.0,12.6,0.0,0,0,0,0.0,12.6,0.0,0,0,0,0.0,12.6,0.0,0,0,0,0.0,12.65,0.0,0,0,0,kReverse,kOff,-83.99,1.78,1.88,0.04058838,-0.9805908,0.08862305,25.74,0.0,9.0,-1.1377869,2.8979187,
234.96989,true,true,true,0.0,12.6,0.0,940,0,0,0.0,12.6,0.0,0,0,0,0.125,12.6,0.0,1929,0,0,0.0,12.6,0.0,0,0,0,0.0,12.6,0.0,0,0,0,0.0,12.6,0.0,0,0,0,0.0,12.65,0.0,0,0,0,kReverse,kOff,-84.0,1.78,1.88,0.03387451,-0.9789429,0.08001709,25.74,0.0,2.0,-1.1377869,2.8979187,
234.996142,true,true,true,0.0,12.6,0.0,940,0,0,0.0,12.6,0.0,0,0,0,0.125,12.6,0.0,1929,0,0,0.0,12.6,0.0,0,0,0,0.0,12.6,0.0,0,0,0,0.0,12.6,0.0,0,0,0,0.0,12.65,0.0,0,0,0,kReverse,kOff,-84.03,1.77,1.87,0.011779785,-0.9736328,0.08984375,25.74,0.0,-18.0,-1.1377869,2.8979187,
235.017439,true,true,true,0.0,12.6,0.0,940,0,0,0.0,12.6,0.0,0,0,0,0.125,12.6,0.0,1929,0,0,0.0,12.6,0.0,0,0,0,0.0,12.6,0.0,0,0,0,0.0,12.6,0.0,0,0,0,0.0,12.65,0.0,0,0,0,kReverse,kOff,-84.03,1.76,1.86,0.03552246,-0.98687744,0.09338379,25.74,0.0,4.0,-1.1377869,2.8979187,
235.041519,true,true,true,0.0,12.6,0.0,940,0,0,0.0,12.6,0.0,0,0,0,0.125,12.6,0.0,1929,0,0,0.0,12.6,0.0,0,0,0,0.0,12.6,0.0,0,0,0,0.0,12.6,0.0,0,0,0,0.0,12.65,0.0,0,0,0,kReverse,kOff,-84.03,1.77,1.87,0.041503906,-0.965271,0.111572266,25.74,0.0,11.0,-1.1377869,2.8979187,
235.06513999999999,true,true,true,0.0,12.6,0.0,940,0,0,0.125,12.6,0.0,0,0,0,0.125,12.6,0.0,1929,0,0,0.0,12.65,0.0,0,0,0,0.0,12.6,0.0,0,0,0,0.0,12.6,0.0,0,0,0,0.0,12.65,0.0,0,0,0,kReverse,kOff,-84.02,1.78,1.88,0.031921387,-0.9824829,0.115600586,25.74,0.0,1.0,-1.1377869,2.8979187,
235.085957,true,true,true,0.0,12.6,0.0,940,0,0,0.125,12.6,0.0,0,0,0,0.125,12.6,0.0,1929,0,0,0.0,12.65,0.0,0,0,0,0.0,12.6,0.0,0,0,0,0.0,12.6,0.0,0,0,0,0.0,12.65,0.0,0,0,0,kReverse,kOff,-84.02,1.76,1.87,0.034362793,-0.979126,0.11450195,25.74,0.0,4.0,-1.1377869,2.8979187,
235.10616799999997,true,true,true,0.0,12.6,0.0,940,0,0,0.125,12.6,0.0,0,0,0,0.125,12.6,0.0,1929,0,0,0.0,12.65,0.0,0,0,0,0.0,12.6,0.0,0,0,0,0.0,12.6,0.0,0,0,0,0.0,12.65,0.0,0,0,0,kReverse,kOff,-84.01,1.76,1.87,0.026733398,-0.9819336,0.11279297,25.74,0.0,-3.0,-1.1377869,2.8979187,
235.126165,true,true,true,0.0,12.6,0.0,940,0,0,0.125,12.6,0.0,0,0,0,0.125,12.6,0.0,1929,0,0,0.0,12.65,0.0,0,0,0,0.0,12.6,0.0,0,0,0,0.0,12.6,0.0,0,0,0,0.0,12.65,0.0,0,0,0,kReverse,kOff,-84.01,1.77,1.87,0.020019531,-0.98187256,0.09680176,25.74,0.0,-10.0,-1.1377869,2.8979187,
235.147786,true,true,true,0.0,12.6,0.0,940,0,0,0.125,12.6,0.0,0,0,0,0.125,12.6,0.0,1929,0,0,0.0,12.65,0.0,0,0,0,0.0,12.6,0.0,0,0,0,0.0,12.6,0.0,0,0,0,0.0,12.65,0.0,0,0,0,kReverse,kOff,-84.01,1.76,1.86,0.030700684,-0.9727783,0.09802246,25.74,0.0,0.0,-1.1377869,2.8979187,
235.17005099999997,true,true,true,0.0,12.6,0.0,940,0,0,0.0,12.6,0.0,0,0,0,0.125,12.6,0.0,1929,0,0,0.0,12.65,0.0,0,0,0,0.0,12.6,0.0,0,0,0,0.0,12.6,0.0,0,0,0,0.0,12.65,0.0,0,0,0,kReverse,kOff,-84.0,1.76,1.87,0.026000977,-0.9816284,0.08843994,25.74,0.0,-4.0,-1.1377869,2.8979187,
235.194902,true,true,true,0.0,12.6,0.0,940,0,0,0.0,12.6,0.0,0,0,0,0.125,12.6,0.0,1929,0,0,0.0,12.65,0.0,0,0,0,0.0,12.6,0.0,0,0,0,0.0,12.6,0.0,0,0,0,0.0,12.65,0.0,0,0,0,kReverse,kOff,-84.01,1.76,1.87,0.033935547,-0.97717285,0.09674072,25.74,0.0,3.0,-1.1377869,2.8979187,
235.217788,true,true,true,0.0,12.6,0.0,940,0,0,0.0,12.6,0.0,0,0,0,0.125,12.6,0.0,1929,0,0,0.0,12.65,0.0,0,0,0,0.0,12.6,0.0,0,0,0,0.0,12.6,0.0,0,0,0,0.0,12.65,0.0,0,0,0,kReverse,kOff,-84.02,1.75,1.86,0.036010742,-0.9812012,0.09680176,25.74,0.0,5.0,-1.1377869,2.8979187,
235.24241,true,true,true,0.0,12.6,0.0,940,0,0,0.125,12.6,0.0,0,0,0,0.125,12.6,0.0,1929,0,0,0.0,12.65,0.0,0,0,0,0.0,12.6,0.0,0,0,0,0.0,12.6,0.0,0,0,0,0.0,12.65,0.0,0,0,0,kReverse,kOff,-84.02,1.76,1.86,0.030273438,-0.9790039,0.10217285,25.74,0.0,0.0,-1.1377869,2.8979187,
235.26366399999998,true,true,true,0.0,12.6,0.0,940,0,0,0.0,12.6,0.0,0,0,0,0.125,12.6,0.0,1929,0,0,0.0,12.65,0.0,0,0,0,0.0,12.6,0.0,0,0,0,0.0,12.6,0.0,0,0,0,0.0,12.65,0.0,0,0,0,kReverse,kOff,-84.02,1.76,1.86,0.026916504,-0.98461914,0.09814453,25.74,0.0,-3.0,-1.1377869,2.8979187,
235.286327,true,true,true,0.0,12.6,0.0,940,0,0,0.0,12.6,0.0,0,0,0,0.125,12.6,0.0,1929,0,0,0.0,12.65,0.0,0,0,0,0.0,12.6,0.0,0,0,0,0.0,12.6,0.0,0,0,0,0.0,12.65,0.0,0,0,0,kReverse,kOff,-84.03,1.75,1.86,0.03656006,-0.9781494,0.10473633,25.74,0.0,6.0,-1.1377869,2.8979187,
235.30718099999999,true,true,true,0.0,12.6,0.0,940,0,0,0.0,12.6,0.0,0,0,0,0.125,12.6,0.0,1929,0,0,0.0,12.65,0.0,0,0,0,0.0,12.6,0.0,0,0,0,0.0,12.6,0.0,0,0,0,0.0,12.65,0.0,0,0,0,kReverse,kOff,-84.02,1.76,1.86,0.026306152,-0.9831543,0.09472656,25.74,0.0,-4.0,-1.1377869,2.8979187,
235.32862699999998,true,true,true,0.0,12.6,0.0,940,0,0,0.125,12.6,0.0,0,0,0,0.125,12.6,0.0,1929,0,0,0.0,12.65,0.0,0,0,0,0.0,12.6,0.0,0,0,0,0.0,12.6,0.0,0,0,0,0.0,12.65,0.0,0,0,0,kReverse,kOff,-84.02,1.76,1.86,0.024963379,-0.9818115,0.10479736,25.74,0.0,-5.0,-1.1377869,2.8979187,
235.349226,true,true,true,0.0,12.6,0.0,940,0,0,0.0,12.6,0.0,0,0,0,0.125,12.6,0.0,1929,0,0,0.0,12.65,0.0,0,0,0,0.0,12.6,0.0,0,0,0,0.0,12.6,0.0,0,0,0,0.0,12.65,0.0,0,0,0,kReverse,kOff,-84.02,1.75,1.85,0.028625488,-0.982605,0.09832764,25.74,0.0,-1.0,-1.1377869,2.8979187,
235.37002999999999,true,true,true,0.0,12.6,0.0,940,0,0,0.0,12.6,0.0,0,0,0,0.125,12.6,0.0,1929,0,0,0.0,12.65,0.0,0,0,0,0.0,12.6,0.0,0,0,0,0.0,12.6,0.0,0,0,0,0.0,12.65,0.0,0,0,0,kReverse,kOff,-84.02,1.75,1.85,0.035461426,-0.98010254,0.10656738,25.74,0.0,5.0,-1.1377869,2.8979187,
235.400814,true,true,true,0.0,12.6,0.0,940,0,0,0.0,12.6,0.0,0,0,0,0.125,12.6,0.0,1929,0,0,0.0,12.65,0.0,0,0,0,0.0,12.6,0.0,0,0,0,0.0,12.6,0.0,0,0,0,0.0,12.65,0.0,0,0,0,kReverse,kOff,-84.02,1.75,1.85,0.034362793,-0.9766846,0.099243164,25.74,0.0,4.0,-1.1377869,2.8979187,
235.42248999999998,true,true,true,0.0,12.6,0.0,940,0,0,0.0,12.6,0.0,0,0,0,0.125,12.6,0.0,1929,0,0,0.0,12.65,0.0,0,0,0,0.0,12.6,0.0,0,0,0,0.0,12.6,0.0,0,0,0,0.0,12.65,0.0,0,0,0,kReverse,kOff,-84.02,1.76,1.86,0.035217285,-0.98223877,0.09539795,25.74,0.0,4.0,-1.1377869,2.8979187,
235.44197499999999,true,true,true,0.0,12.6,0.0,940,0,0,0.0,12.6,0.0,0,0,0,0.125,12.6,0.0,1929,0,0,0.0,12.65,0.0,0,0,0,0.0,12.6,0.0,0,0,0,0.0,12.6,0.0,0,0,0,0.0,12.65,0.0,0,0,0,kReverse,kOff,-84.02,1.76,1.86,0.025756836,-0.98095703,0.09466553,25.74,0.0,-4.0,-1.1377869,2.8979187,
235.46562999999998,true,true,true,0.0,12.6,0.0,940,0,0,0.0,12.6,0.0,0,0,0,0.125,12.6,0.0,1929,0,0,0.0,12.65,0.0,0,0,0,0.0,12.6,0.0,0,0,0,0.0,12.6,0.0,0,0,0,0.0,12.65,0.0,0,0,0,kReverse,kOff,-84.03,1.75,1.85,0.032165527,-0.9836426,0.09716797,25.74,0.0,1.0,-1.1377869,2.8979187,
235.48657999999998,true,true,true,0.0,12.6,0.0,940,0,0,0.0,12.6,0.0,0,0,0,0.125,12.6,0.0,1929,0,0,0.0,12.65,0.0,0,0,0,0.0,12.6,0.0,0,0,0,0.0,12.6,0.0,0,0,0,0.0,12.65,0.0,0,0,0,kReverse,kOff,-84.03,1.75,1.85,0.025756836,-0.98028564,0.095947266,25.74,0.0,-4.0,-1.1377869,2.8979187,
235.508082,true,true,true,0.0,12.6,0.0,940,0,0,0.0,12.6,0.0,0,0,0,0.125,12.6,0.0,1929,0,0,0.0,12.65,0.0,0,0,0,0.0,12.6,0.0,0,0,0,0.0,12.6,0.0,0,0,0,0.0,12.65,0.0,0,0,0,kReverse,kOff,-84.02,1.75,1.85,0.02557373,-0.9835205,0.093933105,25.74,0.0,-4.0,-1.1377869,2.8979187,
235.528462,true,true,true,0.0,12.6,0.0,940,0,0,0.0,12.6,0.0,0,0,0,0.125,12.6,0.0,1929,0,0,0.0,12.65,0.0,0,0,0,0.0,12.6,0.0,0,0,0,0.0,12.6,0.0,0,0,0,0.0,12.700000000000001,0.0,0,0,0,kReverse,kOff,-84.02,1.75,1.85,0.03253174,-0.980896,0.10192871,25.74,0.0,2.0,-1.1377869,2.8979187,
