timer,lineLeft,lineCenter,lineRight,driverLeftX,driverLeftY,driverRightX,driverRightY,driverA,driverB,driverX,driverY,operatorLeftX,operatorLeftY,operatorRightX,operatorRightY,operatorA,operatorB,operatorX,operatorY,LeftFrontCurrent,LeftFrontVoltage,LeftFrontValue,LeftFrontPosition,LeftFrontVelocity,LeftFrontFaults,LeftRearCurrent,LeftRearVoltage,LeftRearValue,LeftRearPosition,LeftRearVelocity,LeftRearFaults,RightFrontCurrent,RightFrontVoltage,RightFrontValue,RightFrontPosition,RightFrontVelocity,RightFrontFaults,RightRearCurrent,RightRearVoltage,RightRearValue,RightRearPosition,RightRearVelocity,RightRearFaults,LiftCurrent,LiftVoltage,LiftValue,LiftPosition,LiftVelocity,LiftFaults,RollerCurrent,RollerVoltage,RollerValue,RollerPosition,RollerVelocity,RollerFaults,PushersState,navx_Pitch,navx_Roll,navx_Yaw,navx_XAcc,navx_YAcc,navx_ZAcc,navx_Temp,navx_Bar,navx_Alt,navx_XDis,navx_YDis,
118.26382299999999,true,true,true,0.0,-0.0078125,0.0,-0.0078125,false,false,false,false,0.0,-0.0078125,0.0,-0.0078125,false,false,false,false,0.0,12.8,0.0,2226,0,0,0.125,12.8,0.0,0,0,0,0.0,12.8,0.0,0,0,0,0.0,12.8,0.0,0,0,0,0.0,12.9,0.0,2,0,0,0.0,4.0,0.0,0,0,0,kReverse,0.0,0.0,0.0,0.0,0.0,0.0,0.0,0.0,0.0,0.0,0.0,
118.38438299999999,true,true,true,0.0,-0.0078125,0.0,-0.0078125,false,false,false,false,0.0,-0.0078125,0.0,-0.0078125,false,false,false,false,0.0,12.8,0.0,2226,0,0,0.125,12.8,0.0,0,0,0,0.0,12.8,0.0,0,0,0,0.0,12.8,0.0,0,0,0,0.0,12.9,0.0,2,0,0,0.0,4.0,0.0,0,0,0,kReverse,0.0,0.0,0.0,0.0,0.0,0.0,0.0,0.0,0.0,0.0,0.0,
118.484586,true,true,true,0.0,-0.0078125,0.0,-0.0078125,false,false,false,false,0.0,-0.0078125,0.0,-0.0078125,false,false,false,false,0.0,12.8,0.0,2226,0,0,0.125,12.8,0.0,0,0,0,0.0,12.8,0.0,0,0,0,0.0,12.8,0.0,0,0,0,0.0,12.9,0.0,2,0,0,0.0,4.0,0.0,0,0,0,kReverse,0.0,0.0,0.0,0.0,0.0,0.0,0.0,0.0,0.0,0.0,0.0,
118.542689,true,true,true,0.0,-0.0078125,0.0,-0.0078125,false,false,false,false,0.0,-0.0078125,0.0,-0.0078125,false,false,false,false,0.0,12.8,0.0,2226,0,0,0.125,12.8,0.0,0,0,0,0.0,12.8,0.0,0,0,0,0.0,12.8,0.0,0,0,0,0.0,12.9,0.0,2,0,0,0.0,4.0,0.0,0,0,0,kReverse,0.0,0.0,0.0,0.0,0.0,0.0,0.0,0.0,0.0,0.0,0.0,
118.67882699999998,true,true,true,0.0,-0.0078125,1.0,-0.0078125,false,false,false,false,0.0,-0.0078125,0.0,-0.0078125,false,false,false,false,5.375,12.8,0.0,2227,1,0,5.375,12.85,0.0,0,0,0,6.75,12.8,0.0,0,0,0,0.0,12.8,0.0,0,0,0,0.0,12.9,0.0,2,0,0,0.0,4.0,0.0,0,0,0,kReverse,0.0,0.0,0.0,0.0,0.0,0.0,0.0,0.0,0.0,0.0,0.0,
118.883696,true,true,true,0.0,-0.0078125,0.0,-0.0078125,false,false,false,false,0.0,-0.0078125,0.0,-0.0078125,false,false,false,false,16.25,10.600000000000001,0.0,2377,98,0,25.0,10.7,0.0,0,0,0,12.75,10.850000000000001,0.0,0,0,0,0.0,10.850000000000001,0.0,0,0,0,0.0,10.95,0.0,2,0,0,0.0,4.0,0.0,0,0,0,kReverse,0.0,0.0,0.0,0.0,0.0,0.0,0.0,0.0,0.0,0.0,0.0,
119.08200899999999,true,true,true,0.0,-0.0078125,0.0,-0.0078125,false,false,false,false,0.0,-0.0078125,0.0,-0.0078125,false,false,false,false,0.0,12.65,0.0,2531,54,0,0.125,12.65,0.0,0,0,0,0.0,12.65,0.0,0,0,0,0.0,12.65,0.0,0,0,0,0.0,12.75,0.0,2,0,0,0.0,4.0,0.0,0,0,0,kReverse,0.0,0.0,0.0,0.0,0.0,0.0,0.0,0.0,0.0,0.0,0.0,
119.19416899999999,true,true,true,0.0,-0.0078125,0.0,-0.0078125,false,false,false,false,0.0,-0.0078125,0.0,-0.0078125,false,false,false,false,0.0,12.75,0.0,2581,50,0,0.0,12.75,0.0,0,0,0,0.0,12.75,0.0,0,0,0,0.0,12.75,0.0,0,0,0,0.0,12.8,0.0,2,0,0,0.0,4.0,0.0,0,0,0,kReverse,0.0,0.0,0.0,0.0,0.0,0.0,0.0,0.0,0.0,0.0,0.0,
119.28259599999998,true,true,true,0.0,-0.0078125,0.0,-0.0078125,false,false,false,false,0.0,-0.0078125,0.0,-0.0078125,false,false,false,false,0.0,12.75,0.0,2596,23,0,0.125,12.75,0.0,0,0,0,0.0,12.75,0.0,0,0,0,0.0,12.75,0.0,0,0,0,0.0,12.8,0.0,2,0,0,0.0,4.0,0.0,0,0,0,kReverse,0.0,0.0,0.0,0.0,0.0,0.0,0.0,0.0,0.0,0.0,0.0,
119.330964,true,true,true,0.0,-0.0078125,0.0,-0.0078125,false,false,false,false,0.0,-0.0078125,0.0,-0.0078125,false,false,false,false,0.0,12.75,0.0,2596,3,0,0.125,12.75,0.0,0,0,0,0.0,12.75,0.0,0,0,0,0.0,12.75,0.0,0,0,0,0.0,12.8,0.0,2,0,0,0.0,4.0,0.0,0,0,0,kReverse,0.0,0.0,0.0,0.0,0.0,0.0,0.0,0.0,0.0,0.0,0.0,
119.38400499999999,true,true,true,0.0,-0.0078125,0.0,-0.0078125,false,false,false,false,0.0,-0.0078125,0.0,-0.0078125,false,false,false,false,0.0,12.75,0.0,2596,0,0,0.125,12.75,0.0,0,0,0,0.0,12.75,0.0,0,0,0,0.0,12.75,0.0,0,0,0,0.0,12.8,0.0,2,0,0,0.0,4.0,0.0,0,0,0,kReverse,0.0,0.0,0.0,0.0,0.0,0.0,0.0,0.0,0.0,0.0,0.0,
119.44277799999999,true,true,true,0.0,-0.0078125,0.0,-0.0078125,false,false,false,false,0.0,-0.0078125,0.0,-0.0078125,false,false,false,false,0.0,12.75,0.0,2596,0,0,0.125,12.8,0.0,0,0,0,0.0,12.75,0.0,0,0,0,0.0,12.75,0.0,0,0,0,0.0,12.85,0.0,2,0,0,0.0,4.0,0.0,0,0,0,kReverse,0.0,0.0,0.0,0.0,0.0,0.0,0.0,0.0,0.0,0.0,0.0,
119.53705799999999,true,true,true,0.0,-0.0078125,0.0,-0.0078125,false,false,false,false,0.0,-0.0078125,0.0,-0.0078125,false,false,false,false,0.0,12.75,0.0,2596,0,0,0.125,12.8,0.0,0,0,0,0.0,12.75,0.0,0,0,0,0.0,12.75,0.0,0,0,0,0.0,12.85,0.0,2,0,0,0.0,4.0,0.0,0,0,0,kReverse,0.0,0.0,0.0,0.0,0.0,0.0,0.0,0.0,0.0,0.0,0.0,
119.60155499999999,true,true,true,0.0,-0.0078125,0.0,-0.0078125,false,false,false,false,0.0,-0.0078125,0.0,-0.0078125,false,false,false,false,0.0,12.8,0.0,2596,0,0,0.125,12.8,0.0,0,0,0,0.0,12.8,0.0,0,0,0,0.0,12.75,0.0,0,0,0,0.0,12.85,0.0,2,0,0,0.0,4.0,0.0,0,0,0,kReverse,0.0,0.0,0.0,0.0,0.0,0.0,0.0,0.0,0.0,0.0,0.0,
119.712697,true,true,true,0.0,-0.0078125,0.0,-0.0078125,false,false,false,false,0.0,-0.0078125,0.0,-0.0078125,false,false,false,false,0.0,12.8,0.0,2596,0,0,0.125,12.8,0.0,0,0,0,0.0,12.8,0.0,0,0,0,0.0,12.75,0.0,0,0,0,0.0,12.85,0.0,2,0,0,0.0,4.0,0.0,0,0,0,kReverse,0.0,0.0,0.0,0.0,0.0,0.0,0.0,0.0,0.0,0.0,0.0,
119.87745899999999,true,true,true,0.0,-0.0078125,0.0,1.0,false,false,false,false,0.0,-0.0078125,0.0,-0.0078125,false,false,false,false,0.0,12.8,0.0,2596,0,0,0.125,12.8,0.0,0,0,0,0.0,12.8,0.0,0,0,0,0.0,12.8,0.0,0,0,0,0.0,12.9,0.0,2,0,0,0.0,4.0,0.0,0,0,0,kReverse,0.0,0.0,0.0,0.0,0.0,0.0,0.0,0.0,0.0,0.0,0.0,
120.05446299999998,true,true,true,0.0,-0.0078125,0.0,-0.0078125,false,false,false,false,0.0,-0.0078125,0.0,-0.0078125,false,false,false,false,0.0,12.8,0.0,2596,0,0,0.125,12.8,0.0,0,0,0,0.0,12.8,0.0,0,0,0,0.0,12.8,0.0,0,0,0,0.0,12.9,0.0,2,0,0,0.0,4.0,0.0,0,0,0,kReverse,0.0,0.0,0.0,0.0,0.0,0.0,0.0,0.0,0.0,0.0,0.0,
120.25729399999999,true,true,true,0.0,1.0,0.0,-0.0078125,false,false,false,false,0.0,-0.0078125,0.0,-0.0078125,false,false,false,false,0.0,12.8,0.0,2596,0,0,0.125,12.8,0.0,0,0,0,0.0,12.8,0.0,0,0,0,0.0,12.8,0.0,0,0,0,0.0,12.9,0.0,2,0,0,0.0,4.0,0.0,0,0,0,kReverse,0.0,0.0,0.0,0.0,0.0,0.0,0.0,0.0,0.0,0.0,0.0,
120.378964,true,true,true,0.0,-0.0078125,0.0,-0.0078125,false,false,false,false,0.0,-0.0078125,0.0,-0.0078125,false,false,false,false,14.375,12.8,0.0,2498,-97,0,19.5,12.8,0.0,0,0,0,12.125,11.55,0.0,0,0,0,0.0,11.600000000000001,0.0,0,0,0,0.0,11.7,0.0,2,0,0,0.0,4.0,0.0,0,0,0,kReverse,0.0,0.0,0.0,0.0,0.0,0.0,0.0,0.0,0.0,0.0,0.0,
120.47790699999999,true,true,true,0.0,-0.0078125,0.0,-0.0078125,false,false,false,false,0.0,-0.0078125,0.0,-0.0078125,false,false,false,false,0.0,11.55,0.0,2381,-115,0,0.125,11.600000000000001,0.0,0,0,0,0.0,11.55,0.0,0,0,0,0.0,11.600000000000001,0.0,0,0,0,0.0,11.7,0.0,2,0,0,0.0,4.0,0.0,0,0,0,kReverse,0.0,0.0,0.0,0.0,0.0,0.0,0.0,0.0,0.0,0.0,0.0,
120.52484899999999,true,true,true,0.0,-0.0078125,0.0,-0.0078125,false,false,false,false,0.0,-0.0078125,0.0,-0.0078125,false,false,false,false,0.0,11.55,0.0,2348,-96,0,0.125,11.600000000000001,0.0,0,0,0,0.0,11.55,0.0,0,0,0,0.0,11.600000000000001,0.0,0,0,0,0.0,11.7,0.0,2,0,0,0.0,4.0,0.0,0,0,0,kReverse,0.0,0.0,0.0,0.0,0.0,0.0,0.0,0.0,0.0,0.0,0.0,
120.586951,true,true,true,0.0,-0.0078125,0.0,-0.0078125,false,false,false,false,0.0,-0.0078125,0.0,-0.0078125,false,false,false,false,0.0,12.75,0.0,2294,-70,0,0.125,12.75,0.0,0,0,0,0.0,12.75,0.0,0,0,0,0.0,12.75,0.0,0,0,0,0.0,12.8,0.0,2,0,0,0.0,4.0,0.0,0,0,0,kReverse,0.0,0.0,0.0,0.0,0.0,0.0,0.0,0.0,0.0,0.0,0.0,
120.76435,true,true,true,0.0,1.0,0.0,-0.0078125,false,false,false,false,0.0,-0.0078125,0.0,-0.0078125,false,false,false,false,6.875,12.75,0.0,2249,-13,0,8.5,12.8,0.0,0,0,0,10.125,12.75,0.0,0,0,0,0.0,12.75,0.0,0,0,0,0.0,12.85,0.0,2,0,0,0.0,4.0,0.0,0,0,0,kReverse,0.0,0.0,0.0,0.0,0.0,0.0,0.0,0.0,0.0,0.0,0.0,
120.968803,true,true,true,0.0,1.0,0.0,-0.0078125,false,false,false,false,0.0,-0.0078125,0.0,-0.0078125,false,false,false,false,13.875,10.9,0.0,2041,-149,0,18.625,11.0,0.0,0,0,0,24.125,10.850000000000001,0.0,0,0,0,0.0,11.15,0.0,0,0,0,0.0,11.2,0.0,2,0,0,0.0,4.0,0.0,0,0,0,kReverse,0.0,0.0,0.0,0.0,0.0,0.0,0.0,0.0,0.0,0.0,0.0,
121.140575,true,true,true,0.0,-0.0078125,0.0,-0.0078125,false,false,false,false,0.0,-0.0078125,0.0,-0.0078125,false,false,false,false,10.875,11.0,0.0,1769,-155,0,15.625,11.0,0.0,0,0,0,10.0,10.9,0.0,0,0,0,0.0,11.05,0.0,0,0,0,0.0,11.15,0.0,2,0,0,0.0,4.0,0.0,0,0,0,kReverse,0.0,0.0,0.0,0.0,0.0,0.0,0.0,0.0,0.0,0.0,0.0,
121.309833,true,true,true,0.0,-0.0078125,0.0,-0.0078125,false,false,false,false,0.0,-0.0078125,0.0,-0.0078125,false,false,false,false,0.0,12.6,0.0,1584,-99,0,0.125,12.6,0.0,0,0,0,0.0,12.6,0.0,0,0,0,0.0,12.6,0.0,0,0,0,0.0,12.65,0.0,2,0,0,0.0,4.0,0.0,0,0,0,kReverse,0.0,0.0,0.0,0.0,0.0,0.0,0.0,0.0,0.0,0.0,0.0,
121.430252,true,true,true,0.0,0.6220472455024719,0.0,-0.0078125,false,false,false,false,0.0,-0.0078125,0.0,-0.0078125,false,false,false,false,0.0,12.65,0.0,1512,-58,0,0.125,12.700000000000001,0.0,0,0,0,0.0,12.65,0.0,0,0,0,0.0,12.65,0.0,0,0,0,0.0,12.75,0.0,2,0,0,0.0,4.0,0.0,0,0,0,kReverse,0.0,0.0,0.0,0.0,0.0,0.0,0.0,0.0,0.0,0.0,0.0,
121.48218399999999,true,true,true,0.0,1.0,0.0,-0.0078125,false,false,false,false,0.0,-0.0078125,0.0,-0.0078125,false,false,false,false,3.0,12.65,0.0,1494,-49,0,4.0,12.700000000000001,0.0,0,0,0,5.625,12.65,0.0,0,0,0,0.0,12.65,0.0,0,0,0,0.0,12.75,0.0,2,0,0,0.0,4.0,0.0,0,0,0,kReverse,0.0,0.0,0.0,0.0,0.0,0.0,0.0,0.0,0.0,0.0,0.0,
121.57153499999998,true,true,true,0.0,1.0,0.0,-0.0078125,false,false,false,false,0.0,-0.0078125,0.0,-0.0078125,false,false,false,false,16.625,11.2,0.0,1408,-86,0,19.75,11.3,0.0,0,0,0,26.875,11.4,0.0,0,0,0,0.0,11.45,0.0,0,0,0,0.0,11.55,0.0,2,0,0,0.0,4.0,0.0,0,0,0,kReverse,0.0,0.0,0.0,0.0,0.0,0.0,0.0,0.0,0.0,0.0,0.0,
121.77908799999999,true,true,true,0.0,1.0,0.0,-0.0078125,false,false,false,false,0.0,-0.0078125,0.0,-0.0078125,false,false,false,false,15.25,10.65,0.0,1114,-140,0,20.625,10.8,0.0,0,0,0,21.5,10.65,0.0,0,0,0,0.0,10.9,0.0,0,0,0,0.0,11.0,0.0,2,0,0,0.0,4.0,0.0,0,0,0,kReverse,0.0,0.0,0.0,0.0,0.0,0.0,0.0,0.0,0.0,0.0,0.0,
121.947068,true,true,true,0.0,0.07086614519357681,0.0,-0.0078125,false,false,false,false,0.0,-0.0078125,0.0,-0.0078125,false,false,false,false,12.75,10.850000000000001,0.0,819,-163,0,18.875,10.9,0.0,0,0,0,20.875,10.850000000000001,0.0,0,0,0,0.0,11.0,0.0,0,0,0,0.0,11.05,0.0,2,0,0,0.0,4.0,0.0,0,0,0,kReverse,0.0,0.0,0.0,0.0,0.0,0.0,0.0,0.0,0.0,0.0,0.0,
122.116289,true,true,true,0.0,-0.0078125,-0.9765625,-0.1484375,false,false,false,false,0.0,-0.0078125,0.0,-0.0078125,false,false,false,false,0.0,12.55,0.0,645,-92,0,2.375,12.55,0.0,0,0,0,6.625,12.55,0.0,0,0,0,0.0,12.55,0.0,0,0,0,0.0,12.6,0.0,2,0,0,0.0,4.0,0.0,0,0,0,kReverse,0.0,0.0,0.0,0.0,0.0,0.0,0.0,0.0,0.0,0.0,0.0,
122.235621,true,true,true,0.0,-0.0078125,-1.0,-0.2109375,false,false,false,false,0.0,-0.0078125,0.0,-0.0078125,false,false,false,false,12.125,11.05,0.0,487,-141,0,16.625,11.2,0.0,0,0,0,19.625,11.15,0.0,0,0,0,0.0,11.25,0.0,0,0,0,0.0,11.350000000000001,0.0,2,0,0,0.0,4.0,0.0,0,0,0,kReverse,0.0,0.0,0.0,0.0,0.0,0.0,0.0,0.0,0.0,0.0,0.0,
122.29885499999999,true,true,true,0.0,-0.0078125,-1.0,-0.2109375,false,false,false,false,0.0,-0.0078125,0.0,-0.0078125,false,false,false,false,12.875,11.05,0.0,388,-157,0,17.5,11.2,0.0,0,0,0,21.625,11.15,0.0,0,0,0,0.0,11.25,0.0,0,0,0,0.0,11.350000000000001,0.0,2,0,0,0.0,4.0,0.0,0,0,0,kReverse,0.0,0.0,0.0,0.0,0.0,0.0,0.0,0.0,0.0,0.0,0.0,
122.401012,true,true,true,-1.0,-1.0,-1.0,-0.1484375,false,false,false,false,0.0,-0.0078125,0.0,-0.0078125,false,false,false,false,10.875,10.9,0.0,186,-169,0,10.875,10.850000000000001,0.0,0,0,0,54.875,10.9,0.0,0,0,0,0.0,11.05,0.0,0,0,0,0.0,11.15,0.0,2,0,0,0.0,4.0,0.0,0,0,0,kReverse,0.0,0.0,0.0,0.0,0.0,0.0,0.0,0.0,0.0,0.0,0.0,
122.54944499999999,true,true,true,-1.0,-1.0,0.0,-0.0078125,false,false,false,false,0.0,-0.0078125,0.0,-0.0078125,false,false,false,false,0.0,11.100000000000001,0.0,0,-121,0,0.125,11.100000000000001,0.0,0,0,0,42.0,10.75,0.0,0,0,0,0.0,11.05,0.0,0,0,0,0.0,11.15,0.0,2,0,0,0.0,4.0,0.0,0,0,0,kReverse,0.0,0.0,0.0,0.0,0.0,0.0,0.0,0.0,0.0,0.0,0.0,
122.71109,true,true,true,-1.0,-1.0,0.0,-0.0078125,false,false,false,false,0.0,-0.0078125,0.0,-0.0078125,false,false,false,false,17.625,11.2,0.0,22,56,0,23.125,11.2,0.0,0,0,0,26.625,11.100000000000001,0.0,0,0,0,0.0,11.3,0.0,0,0,0,0.0,11.4,0.0,2,0,0,0.0,4.0,0.0,0,0,0,kReverse,0.0,0.0,0.0,0.0,0.0,0.0,0.0,0.0,0.0,0.0,0.0,
122.864916,true,true,true,-1.0,-1.0,0.0,-0.0078125,false,false,false,false,0.0,-0.0078125,0.0,-0.0078125,false,false,false,false,14.0,10.850000000000001,0.0,262,175,0,19.25,11.0,0.0,0,0,0,21.875,10.850000000000001,0.0,0,0,0,0.0,11.0,0.0,0,0,0,0.0,11.100000000000001,0.0,2,0,0,0.0,4.0,0.0,0,0,0,kReverse,0.0,0.0,0.0,0.0,0.0,0.0,0.0,0.0,0.0,0.0,0.0,
122.975619,true,true,true,-1.0,-1.0,0.0,-0.0078125,false,false,false,false,0.0,-0.0078125,0.0,-0.0078125,false,false,false,false,13.375,11.0,0.0,458,196,0,18.125,11.100000000000001,0.0,0,0,0,18.5,11.100000000000001,0.0,0,0,0,0.0,11.2,0.0,0,0,0,0.0,11.3,0.0,2,0,0,0.0,4.0,0.0,0,0,0,kReverse,0.0,0.0,0.0,0.0,0.0,0.0,0.0,0.0,0.0,0.0,0.0,
123.10210799999999,true,true,true,-1.0,-1.0,-0.5078125,-0.0078125,false,false,false,false,0.0,-0.0078125,0.0,-0.0078125,false,false,false,false,12.125,11.0,0.0,692,198,0,16.25,11.3,0.0,0,0,0,14.375,11.3,0.0,0,0,0,0.0,11.4,0.0,0,0,0,0.0,11.5,0.0,2,0,0,0.0,4.0,0.0,0,0,0,kReverse,0.0,0.0,0.0,0.0,0.0,0.0,0.0,0.0,0.0,0.0,0.0,
123.263742,true,true,true,-1.0,-0.78125,-1.0,-0.0078125,false,false,false,false,0.0,-0.0078125,0.0,-0.0078125,false,false,false,false,5.25,11.7,0.0,1028,207,0,6.0,11.8,0.0,0,0,0,13.5,11.75,0.0,0,0,0,0.0,11.850000000000001,0.0,0,0,0,0.0,11.95,0.0,2,0,0,0.0,4.0,0.0,0,0,0,kReverse,0.0,0.0,0.0,0.0,0.0,0.0,0.0,0.0,0.0,0.0,0.0,
123.43989599999999,true,true,true,-0.078125,0.5196850299835205,0.0,-0.0078125,false,false,false,false,0.0,-0.0078125,0.0,-0.0078125,false,false,false,false,1.0,11.55,0.0,1222,54,0,2.75,11.600000000000001,0.0,0,0,0,28.375,11.350000000000001,0.0,0,0,0,0.0,11.55,0.0,0,0,0,0.0,11.65,0.0,2,0,0,0.0,4.0,0.0,0,0,0,kReverse,0.0,0.0,0.0,0.0,0.0,0.0,0.0,0.0,0.0,0.0,0.0,
123.637108,true,true,true,0.0,1.0,0.0,-0.0078125,false,false,false,false,0.0,-0.0078125,0.0,-0.0078125,false,false,false,false,2.875,12.0,0.0,1134,-68,0,4.875,12.0,0.0,0,0,0,10.5,11.95,0.0,0,0,0,0.0,12.0,0.0,0,0,0,0.0,12.1,0.0,2,0,0,0.0,4.0,0.0,0,0,0,kReverse,0.0,0.0,0.0,0.0,0.0,0.0,0.0,0.0,0.0,0.0,0.0,
123.7802,true,true,true,0.0,1.0,0.0,-0.0078125,false,false,false,false,0.0,-0.0078125,0.0,-0.0078125,false,false,false,false,15.125,10.9,0.0,952,-144,0,20.375,11.05,0.0,0,0,0,11.5,11.05,0.0,0,0,0,0.0,11.100000000000001,0.0,0,0,0,0.0,11.2,0.0,2,0,0,0.0,4.0,0.0,0,0,0,kReverse,0.0,0.0,0.0,0.0,0.0,0.0,0.0,0.0,0.0,0.0,0.0,
123.95847099999999,true,true,true,0.0,1.0,0.0,-0.0078125,false,false,false,false,0.0,-0.0078125,0.0,-0.0078125,false,false,false,false,15.25,11.2,0.0,607,-164,0,20.5,11.3,0.0,0,0,0,7.75,11.25,0.0,0,0,0,0.0,11.350000000000001,0.0,0,0,0,0.0,11.4,0.0,2,0,0,0.0,4.0,0.0,0,0,0,kReverse,0.0,0.0,0.0,0.0,0.0,0.0,0.0,0.0,0.0,0.0,0.0,
124.103882,true,true,true,0.0,1.0,0.0,-0.0078125,false,false,false,false,0.0,-0.0078125,0.0,-0.0078125,false,false,false,false,14.0,11.15,0.0,370,-171,0,19.0,11.25,0.0,0,0,0,9.125,11.3,0.0,0,0,0,0.0,11.350000000000001,0.0,0,0,0,0.0,11.4,0.0,2,0,0,0.0,4.0,0.0,0,0,0,kReverse,0.0,0.0,0.0,0.0,0.0,0.0,0.0,0.0,0.0,0.0,0.0,
124.256149,true,true,true,0.0,1.0,0.0,-0.0078125,false,false,false,false,0.0,-0.0078125,0.0,-0.0078125,false,false,false,false,15.625,11.05,0.0,142,-161,0,20.625,11.2,0.0,0,0,0,9.0,11.15,0.0,0,0,0,0.0,11.25,0.0,0,0,0,0.0,11.350000000000001,0.0,2,0,0,0.0,4.0,0.0,0,0,0,kReverse,0.0,0.0,0.0,0.0,0.0,0.0,0.0,0.0,0.0,0.0,0.0,
124.33369499999999,true,true,true,0.0,0.07086614519357681,0.0,-0.0078125,false,false,false,false,0.0,-0.0078125,0.0,-0.0078125,false,false,false,false,13.875,11.05,0.0,20,-152,0,20.0,11.2,0.0,0,0,0,9.25,11.15,0.0,0,0,0,0.0,11.25,0.0,0,0,0,0.0,11.350000000000001,0.0,2,0,0,0.0,4.0,0.0,0,0,0,kReverse,0.0,0.0,0.0,0.0,0.0,0.0,0.0,0.0,0.0,0.0,0.0,
124.38797799999999,true,true,true,0.0,0.0,0.0,-0.0078125,false,false,false,false,0.0,-0.0078125,0.0,-0.0078125,false,false,false,false,1.0,12.450000000000001,0.0,-64,-147,0,3.5,12.5,0.0,0,0,0,2.5,12.450000000000001,0.0,0,0,0,0.0,12.450000000000001,0.0,0,0,0,0.0,12.55,0.0,2,0,0,0.0,4.0,0.0,0,0,0,kReverse,0.0,0.0,0.0,0.0,0.0,0.0,0.0,0.0,0.0,0.0,0.0,
124.442999,true,true,true,0.0,-0.0078125,0.0,-0.0078125,false,false,false,false,0.0,-0.0078125,0.0,-0.0078125,false,false,false,false,0.0,12.450000000000001,0.0,-109,-129,0,0.5,12.5,0.0,0,0,0,0.0,12.450000000000001,0.0,0,0,0,0.0,12.450000000000001,0.0,0,0,0,0.0,12.55,0.0,2,0,0,0.0,4.0,0.0,0,0,0,kReverse,0.0,0.0,0.0,0.0,0.0,0.0,0.0,0.0,0.0,0.0,0.0,
124.58296399999999,true,true,true,0.0,1.0,0.0,-0.0078125,false,false,false,false,0.0,-0.0078125,0.0,-0.0078125,false,false,false,false,0.0,12.6,0.0,-212,-65,0,0.125,12.6,0.0,0,0,0,0.0,12.6,0.0,0,0,0,0.0,12.6,0.0,0,0,0,0.0,12.700000000000001,0.0,2,0,0,0.0,4.0,0.0,0,0,0,kReverse,0.0,0.0,0.0,0.0,0.0,0.0,0.0,0.0,0.0,0.0,0.0,
124.732081,true,true,true,0.0,1.0,0.0,-0.0078125,false,false,false,false,0.0,-0.0078125,0.0,-0.0078125,false,false,false,false,15.5,10.9,0.0,-339,-100,0,20.25,10.8,0.0,0,0,0,15.125,11.0,0.0,0,0,0,0.0,11.05,0.0,0,0,0,0.0,11.15,0.0,2,0,0,0.0,4.0,0.0,0,0,0,kReverse,0.0,0.0,0.0,0.0,0.0,0.0,0.0,0.0,0.0,0.0,0.0,
124.822098,true,true,true,0.0,1.0,0.0,-0.0078125,false,false,false,false,0.0,-0.0078125,0.0,-0.0078125,false,false,false,false,14.875,10.9,0.0,-457,-144,0,19.75,10.8,0.0,0,0,0,16.5,11.0,0.0,0,0,0,0.0,11.05,0.0,0,0,0,0.0,11.15,0.0,2,0,0,0.0,4.0,0.0,0,0,0,kReverse,0.0,0.0,0.0,0.0,0.0,0.0,0.0,0.0,0.0,0.0,0.0,
124.89223199999999,true,true,true,0.0,1.0,0.0,-0.0078125,false,false,false,false,0.0,-0.0078125,0.0,-0.0078125,false,false,false,false,14.75,11.05,0.0,-582,-156,0,19.625,11.05,0.0,0,0,0,12.0,11.05,0.0,0,0,0,0.0,11.2,0.0,0,0,0,0.0,11.3,0.0,2,0,0,0.0,4.0,0.0,0,0,0,kReverse,0.0,0.0,0.0,0.0,0.0,0.0,0.0,0.0,0.0,0.0,0.0,
124.95754999999998,true,true,true,0.0,1.0,0.0,-0.0078125,false,false,false,false,0.0,-0.0078125,0.0,-0.0078125,false,false,false,false,14.25,11.05,0.0,-681,-160,0,19.125,11.05,0.0,0,0,0,10.125,11.05,0.0,0,0,0,0.0,11.2,0.0,0,0,0,0.0,11.3,0.0,2,0,0,0.0,4.0,0.0,0,0,0,kReverse,0.0,0.0,0.0,0.0,0.0,0.0,0.0,0.0,0.0,0.0,0.0,
125.09872499999999,true,true,true,0.0,1.0,0.0,-0.0078125,false,false,false,false,0.0,-0.0078125,0.0,-0.0078125,false,false,false,false,13.625,11.05,0.0,-920,-172,0,18.625,11.2,0.0,0,0,0,11.875,11.3,0.0,0,0,0,0.0,11.3,0.0,0,0,0,0.0,11.350000000000001,0.0,2,0,0,0.0,4.0,0.0,0,0,0,kReverse,0.0,0.0,0.0,0.0,0.0,0.0,0.0,0.0,0.0,0.0,0.0,
125.21966799999998,true,true,true,0.36220473051071167,-0.6796875,0.0,-0.0078125,false,false,false,false,0.0,-0.0078125,0.0,-0.0078125,false,false,false,false,14.5,11.0,0.0,-1121,-165,0,18.5,11.100000000000001,0.0,0,0,0,12.75,11.15,0.0,0,0,0,0.0,11.2,0.0,0,0,0,0.0,11.3,0.0,2,0,0,0.0,4.0,0.0,0,0,0,kReverse,0.0,0.0,0.0,0.0,0.0,0.0,0.0,0.0,0.0,0.0,0.0,
125.303049,true,true,true,0.4173228442668915,-1.0,0.9055117964744568,-0.0078125,false,false,false,false,0.0,-0.0078125,0.0,-0.0078125,false,false,false,false,2.25,11.0,0.0,-1216,-127,0,2.75,11.100000000000001,0.0,0,0,0,4.875,11.15,0.0,0,0,0,0.0,11.2,0.0,0,0,0,0.0,11.3,0.0,2,0,0,0.0,4.0,0.0,0,0,0,kReverse,0.0,0.0,0.0,0.0,0.0,0.0,0.0,0.0,0.0,0.0,0.0,
125.362079,true,true,true,0.3385826647281647,-1.0,1.0,-0.0078125,false,false,false,false,0.0,-0.0078125,0.0,-0.0078125,false,false,false,false,30.25,9.7,0.0,-1241,-64,0,34.5,9.8,0.0,0,0,0,0.125,10.100000000000001,0.0,0,0,0,0.0,10.05,0.0,0,0,0,0.0,10.15,0.0,2,0,0,0.0,4.0,0.0,0,0,0,kReverse,0.0,0.0,0.0,0.0,0.0,0.0,0.0,0.0,0.0,0.0,0.0,
125.45465,true,true,true,0.27559053897857666,-0.7578125,1.0,-0.0078125,false,false,false,false,0.0,-0.0078125,0.0,-0.0078125,false,false,false,false,35.0,9.7,0.0,-1098,143,0,46.5,9.8,0.0,0,0,0,0.0,10.100000000000001,0.0,0,0,0,0.0,10.05,0.0,0,0,0,0.0,10.15,0.0,2,0,0,0.0,4.0,0.0,0,0,0,kReverse,0.0,0.0,0.0,0.0,0.0,0.0,0.0,0.0,0.0,0.0,0.0,
125.55053899999999,true,true,true,0.0,-0.03125,1.0,-0.0078125,false,false,false,false,0.0,-0.0078125,0.0,-0.0078125,false,false,false,false,26.5,10.3,0.0,-755,340,0,36.625,10.4,0.0,0,0,0,0.0,10.65,0.0,0,0,0,0.0,10.600000000000001,0.0,0,0,0,0.0,10.7,0.0,2,0,0,0.0,4.0,0.0,0,0,0,kReverse,0.0,0.0,0.0,0.0,0.0,0.0,0.0,0.0,0.0,0.0,0.0,
125.60189499999998,true,true,true,0.0,-0.0078125,1.0,-0.0078125,false,false,false,false,0.0,-0.0078125,0.0,-0.0078125,false,false,false,false,16.125,10.3,0.0,-613,361,0,22.875,10.4,0.0,0,0,0,13.875,10.65,0.0,0,0,0,0.0,10.600000000000001,0.0,0,0,0,0.0,10.7,0.0,2,0,0,0.0,4.0,0.0,0,0,0,kReverse,0.0,0.0,0.0,0.0,0.0,0.0,0.0,0.0,0.0,0.0,0.0,
125.66694799999999,true,true,true,0.0,-0.0078125,1.0,-0.0078125,false,false,false,false,0.0,-0.0078125,0.0,-0.0078125,false,false,false,false,15.0,11.15,0.0,-407,272,0,19.625,11.2,0.0,0,0,0,12.375,11.3,0.0,0,0,0,0.0,11.350000000000001,0.0,0,0,0,0.0,11.4,0.0,2,0,0,0.0,4.0,0.0,0,0,0,kReverse,0.0,0.0,0.0,0.0,0.0,0.0,0.0,0.0,0.0,0.0,0.0,
125.786605,true,true,true,0.0,-0.0078125,1.0,-0.0078125,false,false,false,false,0.0,-0.0078125,0.0,-0.0078125,false,false,false,false,12.75,11.15,0.0,-192,215,0,16.25,11.2,0.0,0,0,0,10.5,11.3,0.0,0,0,0,0.0,11.350000000000001,0.0,0,0,0,0.0,11.4,0.0,2,0,0,0.0,4.0,0.0,0,0,0,kReverse,0.0,0.0,0.0,0.0,0.0,0.0,0.0,0.0,0.0,0.0,0.0,
125.92211499999999,true,true,true,0.0,-0.0078125,1.0,-0.0078125,false,false,false,false,0.0,-0.0078125,0.0,-0.0078125,false,false,false,false,13.0,11.350000000000001,0.0,158,221,0,17.25,11.45,0.0,0,0,0,8.125,11.4,0.0,0,0,0,0.0,11.5,0.0,0,0,0,0.0,11.600000000000001,0.0,2,0,0,0.0,4.0,0.0,0,0,0,kReverse,0.0,0.0,0.0,0.0,0.0,0.0,0.0,0.0,0.0,0.0,0.0,
126.098798,true,true,true,0.0,-0.0078125,-0.015625,-0.0078125,false,false,false,false,0.0,-0.0078125,0.0,-0.0078125,false,false,false,false,11.75,11.4,0.0,530,235,0,12.375,11.4,0.0,0,0,0,6.375,11.4,0.0,0,0,0,0.0,11.5,0.0,0,0,0,0.0,11.600000000000001,0.0,2,0,0,0.0,4.0,0.0,0,0,0,kReverse,0.0,0.0,0.0,0.0,0.0,0.0,0.0,0.0,0.0,0.0,0.0,
126.291909,true,true,true,0.0,-0.0078125,-0.90625,-0.0078125,false,false,false,false,0.0,-0.0078125,0.0,-0.0078125,false,false,false,false,0.0,12.55,0.0,848,125,0,0.125,12.55,0.0,0,0,0,0.0,12.55,0.0,0,0,0,0.0,12.4,0.0,0,0,0,0.0,12.5,0.0,2,0,0,0.0,4.0,0.0,0,0,0,kReverse,0.0,0.0,0.0,0.0,0.0,0.0,0.0,0.0,0.0,0.0,0.0,
126.436332,true,true,true,0.0,-0.0078125,-1.0,-0.0078125,false,false,false,false,0.0,-0.0078125,0.0,-0.0078125,false,false,false,false,6.25,12.35,0.0,951,45,0,13.375,10.8,0.0,0,0,0,14.875,10.65,0.0,0,0,0,0.0,10.9,0.0,0,0,0,0.0,10.9,0.0,2,0,0,0.0,4.0,0.0,0,0,0,kReverse,0.0,0.0,0.0,0.0,0.0,0.0,0.0,0.0,0.0,0.0,0.0,
126.602138,true,true,true,0.0,-0.0078125,-1.0,-0.0078125,false,false,false,false,0.0,-0.0078125,0.0,-0.0078125,false,false,false,false,15.625,10.5,0.0,863,-87,0,19.875,10.8,0.0,0,0,0,17.25,10.65,0.0,0,0,0,0.0,10.9,0.0,0,0,0,0.0,10.9,0.0,2,0,0,0.0,4.0,0.0,0,0,0,kReverse,0.0,0.0,0.0,0.0,0.0,0.0,0.0,0.0,0.0,0.0,0.0,
126.722947,true,true,true,0.0,-0.0078125,-1.0,-0.0078125,false,false,false,false,0.0,-0.0078125,0.0,-0.0078125,false,false,false,false,17.0,10.850000000000001,0.0,680,-130,0,21.0,10.9,0.0,0,0,0,19.625,10.9,0.0,0,0,0,0.0,11.0,0.0,0,0,0,0.0,11.100000000000001,0.0,2,0,0,0.0,4.0,0.0,0,0,0,kReverse,0.0,0.0,0.0,0.0,0.0,0.0,0.0,0.0,0.0,0.0,0.0,
126.892825,true,true,true,0.0,-0.0078125,-1.0,-0.0078125,false,false,false,false,0.0,-0.0078125,0.0,-0.0078125,false,false,false,false,14.25,10.850000000000001,0.0,404,-178,0,18.5,10.9,0.0,0,0,0,11.125,10.850000000000001,0.0,0,0,0,0.0,11.05,0.0,0,0,0,0.0,11.100000000000001,0.0,2,0,0,0.0,4.0,0.0,0,0,0,kReverse,0.0,0.0,0.0,0.0,0.0,0.0,0.0,0.0,0.0,0.0,0.0,
127.076572,true,true,true,0.0,-0.0078125,0.0,-0.0078125,false,false,false,false,0.0,-0.0078125,0.0,-0.0078125,false,false,false,false,14.875,11.05,0.0,126,-154,0,16.0,11.15,0.0,0,0,0,6.0,11.15,0.0,0,0,0,0.0,11.2,0.0,0,0,0,0.0,11.3,0.0,2,0,0,0.0,4.0,0.0,0,0,0,kReverse,0.0,0.0,0.0,0.0,0.0,0.0,0.0,0.0,0.0,0.0,0.0,
127.19518299999999,true,true,true,0.0,0.0,0.0,-0.0078125,false,false,false,false,0.0,-0.0078125,0.0,-0.0078125,false,false,false,false,0.0,12.35,0.0,-34,-127,0,0.125,12.35,0.0,0,0,0,0.0,12.35,0.0,0,0,0,0.0,12.35,0.0,0,0,0,0.0,12.35,0.0,2,0,0,0.0,4.0,0.0,0,0,0,kReverse,0.0,0.0,0.0,0.0,0.0,0.0,0.0,0.0,0.0,0.0,0.0,
127.370678,true,true,true,0.0,1.0,0.0,-0.0078125,false,false,false,false,0.0,-0.0078125,0.0,-0.0078125,false,false,false,false,0.0,12.6,0.0,-162,-59,0,0.125,12.6,0.0,0,0,0,0.0,12.6,0.0,0,0,0,0.0,12.6,0.0,0,0,0,0.0,12.65,0.0,2,0,0,0.0,4.0,0.0,0,0,0,kReverse,0.0,0.0,0.0,0.0,0.0,0.0,0.0,0.0,0.0,0.0,0.0,
127.52348199999999,true,true,true,0.0,1.0,0.0,-0.0078125,false,false,false,false,0.0,-0.0078125,0.0,-0.0078125,false,false,false,false,14.125,10.850000000000001,0.0,-302,-115,0,18.875,10.95,0.0,0,0,0,18.625,10.9,0.0,0,0,0,0.0,11.05,0.0,0,0,0,0.0,11.100000000000001,0.0,2,0,0,0.0,4.0,0.0,0,0,0,kReverse,0.0,0.0,0.0,0.0,0.0,0.0,0.0,0.0,0.0,0.0,0.0,
127.687991,true,true,true,0.0,1.0,0.0,-0.0078125,false,false,false,false,0.0,-0.0078125,0.0,-0.0078125,false,false,false,false,14.375,11.0,0.0,-614,-170,0,18.875,11.05,0.0,0,0,0,16.125,11.0,0.0,0,0,0,0.0,11.100000000000001,0.0,0,0,0,0.0,11.2,0.0,2,0,0,0.0,4.0,0.0,0,0,0,kReverse,0.0,0.0,0.0,0.0,0.0,0.0,0.0,0.0,0.0,0.0,0.0,
127.74340199999999,true,true,true,0.0,1.0,0.0,-0.0078125,false,false,false,false,0.0,-0.0078125,0.0,-0.0078125,false,false,false,false,14.125,11.0,0.0,-680,-166,0,18.5,10.9,0.0,0,0,0,16.5,11.05,0.0,0,0,0,0.0,11.15,0.0,0,0,0,0.0,11.2,0.0,2,0,0,0.0,4.0,0.0,0,0,0,kReverse,0.0,0.0,0.0,0.0,0.0,0.0,0.0,0.0,0.0,0.0,0.0,
127.814376,true,true,true,0.0,1.0,0.0,-0.0078125,false,false,false,false,0.0,-0.0078125,0.0,-0.0078125,false,false,false,false,13.25,10.9,0.0,-819,-173,0,17.875,10.9,0.0,0,0,0,17.875,11.05,0.0,0,0,0,0.0,11.15,0.0,0,0,0,0.0,11.2,0.0,2,0,0,0.0,4.0,0.0,0,0,0,kReverse,0.0,0.0,0.0,0.0,0.0,0.0,0.0,0.0,0.0,0.0,0.0,
127.974985,true,true,true,0.0,1.0,0.0,-0.0078125,false,false,false,false,0.0,-0.0078125,0.0,-0.0078125,false,false,false,false,13.25,10.850000000000001,0.0,-1092,-175,0,17.875,10.9,0.0,0,0,0,21.375,10.9,0.0,0,0,0,0.0,11.0,0.0,0,0,0,0.0,11.15,0.0,2,0,0,0.0,4.0,0.0,0,0,0,kReverse,0.0,0.0,0.0,0.0,0.0,0.0,0.0,0.0,0.0,0.0,0.0,
128.126579,true,true,true,0.0,1.0,0.0,-0.0078125,false,false,false,false,0.0,-0.0078125,0.0,-0.0078125,false,false,false,false,12.375,10.850000000000001,0.0,-1376,-181,0,17.0,10.9,0.0,0,0,0,21.125,10.850000000000001,0.0,0,0,0,0.0,11.0,0.0,0,0,0,0.0,11.05,0.0,2,0,0,0.0,4.0,0.0,0,0,0,kReverse,0.0,0.0,0.0,0.0,0.0,0.0,0.0,0.0,0.0,0.0,0.0,
128.320536,true,true,true,0.0,1.0,0.0,-0.0078125,false,false,false,false,0.0,-0.0078125,0.0,-0.0078125,false,false,false,false,11.25,11.100000000000001,0.0,-1767,-201,0,15.375,11.05,0.0,0,0,0,19.625,11.05,0.0,0,0,0,0.0,11.15,0.0,0,0,0,0.0,11.25,0.0,2,0,0,0.0,4.0,0.0,0,0,0,kReverse,0.0,0.0,0.0,0.0,0.0,0.0,0.0,0.0,0.0,0.0,0.0,
128.494915,true,true,true,0.0,1.0,0.0,-0.0078125,false,false,false,false,0.0,-0.0078125,0.0,-0.0078125,false,false,false,false,10.5,11.05,0.0,-2092,-205,0,14.75,11.15,0.0,0,0,0,18.875,11.05,0.0,0,0,0,0.0,11.15,0.0,0,0,0,0.0,11.3,0.0,2,0,0,0.0,4.0,0.0,0,0,0,kReverse,0.0,0.0,0.0,0.0,0.0,0.0,0.0,0.0,0.0,0.0,0.0,
128.64781299999999,true,true,true,0.0,1.0,0.0,-0.0078125,false,false,false,false,0.0,-0.0078125,0.0,-0.0078125,false,false,false,false,10.0,11.2,0.0,-2432,-213,0,14.0,11.2,0.0,0,0,0,17.5,11.2,0.0,0,0,0,0.0,11.3,0.0,0,0,0,0.0,11.350000000000001,0.0,2,0,0,0.0,4.0,0.0,0,0,0,kReverse,0.0,0.0,0.0,0.0,0.0,0.0,0.0,0.0,0.0,0.0,0.0,
128.91472399999998,true,true,true,0.0,-0.2734375,0.0,-0.0078125,false,false,false,false,0.0,-0.0078125,0.0,-0.0078125,false,false,false,false,10.125,11.4,0.0,-3035,-246,0,14.375,11.5,0.0,0,0,0,11.5,11.45,0.0,0,0,0,0.0,11.55,0.0,0,0,0,0.0,11.600000000000001,0.0,2,0,0,0.0,4.0,0.0,0,0,0,kReverse,0.0,0.0,0.0,0.0,0.0,0.0,0.0,0.0,0.0,0.0,0.0,
128.97091199999997,true,true,true,0.0,-0.0078125,0.0,-0.0078125,false,false,false,false,0.0,-0.0078125,0.0,-0.0078125,false,false,false,false,5.875,11.4,0.0,-3146,-199,0,9.125,11.5,0.0,0,0,0,9.0,11.45,0.0,0,0,0,0.0,11.55,0.0,0,0,0,0.0,11.600000000000001,0.0,2,0,0,0.0,4.0,0.0,0,0,0,kReverse,0.0,0.0,0.0,0.0,0.0,0.0,0.0,0.0,0.0,0.0,0.0,
129.100696,true,true,true,0.0,-0.0078125,0.0,-0.0078125,false,false,false,false,0.0,-0.0078125,0.0,-0.0078125,false,false,false,false,0.0,12.55,0.0,-3261,-91,0,0.125,12.55,0.0,0,0,0,0.0,12.55,0.0,0,0,0,0.0,12.55,0.0,0,0,0,0.0,12.6,0.0,2,0,0,0.0,4.0,0.0,0,0,0,kReverse,0.0,0.0,0.0,0.0,0.0,0.0,0.0,0.0,0.0,0.0,0.0,
129.244353,true,true,true,0.0,-0.0078125,0.0,-0.0078125,false,false,false,false,0.0,-0.0078125,0.0,-0.0078125,false,false,false,false,0.0,12.6,0.0,-3427,-123,0,0.125,12.6,0.0,0,0,0,0.0,12.6,0.0,0,0,0,0.0,12.6,0.0,0,0,0,0.0,12.65,0.0,2,0,0,0.0,4.0,0.0,0,0,0,kReverse,0.0,0.0,0.0,0.0,0.0,0.0,0.0,0.0,0.0,0.0,0.0,
129.37645999999998,true,true,true,0.0,-0.0078125,0.0,-0.0078125,false,false,false,false,0.0,-0.0078125,0.0,-0.0078125,false,false,false,false,0.0,12.6,0.0,-3545,-75,0,0.125,12.65,0.0,0,0,0,0.0,12.6,0.0,0,0,0,0.0,12.6,0.0,0,0,0,0.0,12.700000000000001,0.0,2,0,0,0.0,4.0,0.0,0,0,0,kReverse,0.0,0.0,0.0,0.0,0.0,0.0,0.0,0.0,0.0,0.0,0.0,
129.54431699999998,true,true,true,0.0,-0.0078125,0.0,-0.0078125,false,false,false,false,0.0,-0.0078125,0.0,-0.0078125,false,false,false,false,0.0,12.65,0.0,-3587,-9,0,0.125,12.65,0.0,0,0,0,0.0,12.65,0.0,0,0,0,0.0,12.65,0.0,0,0,0,0.0,12.75,0.0,2,0,0,0.0,4.0,0.0,0,0,0,kReverse,0.0,0.0,0.0,0.0,0.0,0.0,0.0,0.0,0.0,0.0,0.0,
129.667169,true,true,true,0.0,-0.0078125,0.0,-0.0078125,false,false,false,false,0.0,-0.0078125,0.0,-0.0078125,false,false,false,false,0.0,12.65,0.0,-3587,0,0,0.125,12.65,0.0,0,0,0,0.0,12.65,0.0,0,0,0,0.0,12.65,0.0,0,0,0,0.0,12.75,0.0,2,0,0,0.0,4.0,0.0,0,0,0,kReverse,0.0,0.0,0.0,0.0,0.0,0.0,0.0,0.0,0.0,0.0,0.0,
129.742447,true,true,true,0.0,-0.0078125,0.0,-0.0078125,false,false,false,false,0.0,-0.0078125,0.0,-0.0078125,false,false,false,false,0.0,12.65,0.0,-3580,7,0,0.125,12.65,0.0,0,0,0,0.0,12.65,0.0,0,0,0,0.0,12.65,0.0,0,0,0,0.0,12.75,0.0,2,0,0,0.0,4.0,0.0,0,0,0,kReverse,0.0,0.0,0.0,0.0,0.0,0.0,0.0,0.0,0.0,0.0,0.0,
129.820575,true,true,true,0.0,-0.0078125,0.0,-0.0078125,false,false,false,false,0.0,-0.0078125,0.0,-0.0078125,false,false,false,false,0.0,12.65,0.0,-3561,22,0,0.125,12.65,0.0,0,0,0,0.0,12.65,0.0,0,0,0,0.0,12.65,0.0,0,0,0,0.0,12.75,0.0,2,0,0,0.0,4.0,0.0,0,0,0,kReverse,0.0,0.0,0.0,0.0,0.0,0.0,0.0,0.0,0.0,0.0,0.0,
129.87926099999999,true,true,true,0.0,-0.0078125,0.0,-0.0078125,false,false,false,false,0.0,-0.0078125,0.0,-0.0078125,false,false,false,false,0.0,12.65,0.0,-3542,29,0,0.125,12.65,0.0,0,0,0,0.0,12.65,0.0,0,0,0,0.0,12.65,0.0,0,0,0,0.0,12.75,0.0,2,0,0,0.0,4.0,0.0,0,0,0,kReverse,0.0,0.0,0.0,0.0,0.0,0.0,0.0,0.0,0.0,0.0,0.0,
129.94763999999998,true,true,true,0.0,-0.0078125,0.0,-0.0078125,false,false,false,false,0.0,-0.0078125,0.0,-0.0078125,false,false,false,false,0.0,12.65,0.0,-3516,33,0,0.125,12.65,0.0,0,0,0,0.0,12.65,0.0,0,0,0,0.0,12.65,0.0,0,0,0,0.0,12.75,0.0,2,0,0,0.0,4.0,0.0,0,0,0,kReverse,0.0,0.0,0.0,0.0,0.0,0.0,0.0,0.0,0.0,0.0,0.0,
130.099674,true,true,true,0.0,-0.0078125,0.0,-0.0078125,false,false,false,false,0.0,-0.0078125,0.0,-0.0078125,false,false,false,false,0.0,12.65,0.0,-3487,20,0,0.125,12.700000000000001,0.0,0,0,0,0.0,12.65,0.0,0,0,0,0.0,12.65,0.0,0,0,0,0.0,12.75,0.0,2,0,0,0.0,4.0,0.0,0,0,0,kReverse,0.0,0.0,0.0,0.0,0.0,0.0,0.0,0.0,0.0,0.0,0.0,
130.25759399999998,true,true,true,0.0,-0.0078125,0.0,-0.0078125,false,false,false,false,0.0,-0.0078125,0.0,-0.0078125,false,false,false,false,0.0,12.700000000000001,0.0,-3474,4,0,0.125,12.700000000000001,0.0,0,0,0,0.0,12.700000000000001,0.0,0,0,0,0.0,12.65,0.0,0,0,0,0.0,12.75,0.0,2,0,0,0.0,4.0,0.0,0,0,0,kReverse,0.0,0.0,0.0,0.0,0.0,0.0,0.0,0.0,0.0,0.0,0.0,
130.43979199999998,true,true,true,0.0,-0.0078125,1.0,0.07086614519357681,false,false,false,false,0.0,-0.0078125,0.0,-0.0078125,false,false,false,false,0.0,12.700000000000001,0.0,-3474,0,0,9.125,12.700000000000001,0.0,0,0,0,5.5,12.700000000000001,0.0,0,0,0,0.0,12.700000000000001,0.0,0,0,0,0.0,12.8,0.0,2,0,0,0.0,4.0,0.0,0,0,0,kReverse,0.0,0.0,0.0,0.0,0.0,0.0,0.0,0.0,0.0,0.0,0.0,
130.56156,true,true,true,0.0,-0.0078125,1.0,0.07874015718698502,false,false,false,false,0.0,-0.0078125,0.0,-0.0078125,false,false,false,false,23.5,11.0,0.0,-3398,68,0,29.875,11.25,0.0,0,0,0,10.5,11.100000000000001,0.0,0,0,0,0.0,11.25,0.0,0,0,0,0.0,11.3,0.0,2,0,0,0.0,4.0,0.0,0,0,0,kReverse,0.0,0.0,0.0,0.0,0.0,0.0,0.0,0.0,0.0,0.0,0.0,
130.63723499999998,true,true,true,0.0,-0.0078125,1.0,0.07874015718698502,false,false,false,false,0.0,-0.0078125,0.0,-0.0078125,false,false,false,false,19.625,10.65,0.0,-3342,87,0,25.75,10.600000000000001,0.0,0,0,0,26.75,10.5,0.0,0,0,0,0.0,10.7,0.0,0,0,0,0.0,10.8,0.0,2,0,0,0.0,4.0,0.0,0,0,0,kReverse,0.0,0.0,0.0,0.0,0.0,0.0,0.0,0.0,0.0,0.0,0.0,
130.682257,true,true,true,0.0,-0.0078125,1.0,0.07874015718698502,false,false,false,false,0.0,-0.0078125,0.0,-0.0078125,false,false,false,false,15.0,10.65,0.0,-3285,113,0,20.5,10.600000000000001,0.0,0,0,0,35.875,10.5,0.0,0,0,0,0.0,10.7,0.0,0,0,0,0.0,10.8,0.0,2,0,0,0.0,4.0,0.0,0,0,0,kReverse,0.0,0.0,0.0,0.0,0.0,0.0,0.0,0.0,0.0,0.0,0.0,
130.777038,true,true,true,0.0,-0.0078125,1.0,0.07874015718698502,false,false,false,false,0.0,-0.0078125,0.0,-0.0078125,false,false,false,false,8.25,10.65,0.0,-3061,224,0,12.0,10.600000000000001,0.0,0,0,0,36.875,10.8,0.0,0,0,0,0.0,11.05,0.0,0,0,0,0.0,11.15,0.0,2,0,0,0.0,4.0,0.0,0,0,0,kReverse,0.0,0.0,0.0,0.0,0.0,0.0,0.0,0.0,0.0,0.0,0.0,
130.951166,true,true,true,0.0,-0.0078125,1.0,0.07874015718698502,false,false,false,false,0.0,-0.0078125,0.0,-0.0078125,false,false,false,false,8.0,10.9,0.0,-2623,239,0,11.5,10.850000000000001,0.0,0,0,0,39.625,10.8,0.0,0,0,0,0.0,11.0,0.0,0,0,0,0.0,11.05,0.0,2,0,0,0.0,4.0,0.0,0,0,0,kReverse,0.0,0.0,0.0,0.0,0.0,0.0,0.0,0.0,0.0,0.0,0.0,
131.036534,true,true,true,0.0,-0.0078125,0.0,-0.0078125,false,false,false,false,0.0,-0.0078125,0.0,-0.0078125,false,false,false,false,8.125,10.9,0.0,-2424,244,0,11.5,10.850000000000001,0.0,0,0,0,39.375,10.8,0.0,0,0,0,0.0,11.0,0.0,0,0,0,0.0,11.05,0.0,2,0,0,0.0,4.0,0.0,0,0,0,kReverse,0.0,0.0,0.0,0.0,0.0,0.0,0.0,0.0,0.0,0.0,0.0,
131.143889,true,true,true,0.0,-0.59375,0.0,-0.0078125,false,false,false,false,0.0,-0.0078125,0.0,-0.0078125,false,false,false,false,0.0,12.55,0.0,-2235,191,0,0.125,12.55,0.0,0,0,0,0.0,12.55,0.0,0,0,0,0.0,12.55,0.0,0,0,0,0.0,12.6,0.0,2,0,0,0.0,4.0,0.0,0,0,0,kReverse,0.0,0.0,0.0,0.0,0.0,0.0,0.0,0.0,0.0,0.0,0.0,
131.19179699999998,true,true,true,0.0,-0.9921875,0.0,-0.0078125,false,false,false,false,0.0,-0.0078125,0.0,-0.0078125,false,false,false,false,0.625,12.55,0.0,-2157,140,0,1.25,12.55,0.0,0,0,0,0.375,12.55,0.0,0,0,0,0.0,12.55,0.0,0,0,0,0.0,12.6,0.0,2,0,0,0.0,4.0,0.0,0,0,0,kReverse,0.0,0.0,0.0,0.0,0.0,0.0,0.0,0.0,0.0,0.0,0.0,
131.287274,true,true,true,0.0,-1.0,0.0,-0.0078125,false,false,false,false,0.0,-0.0078125,0.0,-0.0078125,false,false,false,false,11.125,11.2,0.0,-1998,157,0,15.25,11.3,0.0,0,0,0,18.25,11.3,0.0,0,0,0,0.0,11.350000000000001,0.0,0,0,0,0.0,11.45,0.0,2,0,0,0.0,4.0,0.0,0,0,0,kReverse,0.0,0.0,0.0,0.0,0.0,0.0,0.0,0.0,0.0,0.0,0.0,
131.46953299999998,true,true,true,0.0,-1.0,0.0,-0.0078125,false,false,false,false,0.0,-0.0078125,0.0,-0.0078125,false,false,false,false,14.0,11.3,0.0,-1598,199,0,18.375,11.25,0.0,0,0,0,5.25,11.350000000000001,0.0,0,0,0,0.0,11.4,0.0,0,0,0,0.0,11.5,0.0,2,0,0,0.0,4.0,0.0,0,0,0,kReverse,0.0,0.0,0.0,0.0,0.0,0.0,0.0,0.0,0.0,0.0,0.0,
131.644646,true,true,true,0.0,-0.921875,0.0,-0.0078125,false,false,false,false,0.0,-0.0078125,0.0,-0.0078125,false,false,false,false,10.75,11.5,0.0,-1238,232,0,14.75,11.600000000000001,0.0,0,0,0,8.5,11.65,0.0,0,0,0,0.0,11.65,0.0,0,0,0,0.0,11.75,0.0,2,0,0,0.0,4.0,0.0,0,0,0,kReverse,0.0,0.0,0.0,0.0,0.0,0.0,0.0,0.0,0.0,0.0,0.0,
131.721775,true,true,true,0.0,-0.015625,0.0,-0.0078125,false,false,false,false,0.0,-0.0078125,0.0,-0.0078125,false,false,false,false,10.625,11.5,0.0,-1051,233,0,14.375,11.600000000000001,0.0,0,0,0,10.625,11.65,0.0,0,0,0,0.0,11.65,0.0,0,0,0,0.0,12.200000000000001,0.0,2,0,0,0.0,4.0,0.0,0,0,0,kReverse,0.0,0.0,0.0,0.0,0.0,0.0,0.0,0.0,0.0,0.0,0.0,
131.844451,true,true,true,0.0,-0.0078125,0.0,-0.0078125,false,false,false,false,0.0,-0.0078125,0.0,-0.0078125,false,false,false,false,0.0,12.1,0.0,-810,196,0,0.25,12.05,0.0,0,0,0,0.0,12.05,0.0,0,0,0,0.0,12.05,0.0,0,0,0,0.0,12.200000000000001,0.0,2,0,0,0.0,4.0,0.0,0,0,0,kReverse,0.0,0.0,0.0,0.0,0.0,0.0,0.0,0.0,0.0,0.0,0.0,
131.90203,true,true,true,0.0,0.07874015718698502,0.0,-0.0078125,false,false,false,false,0.0,-0.0078125,0.0,-0.0078125,false,false,false,false,0.0,12.1,0.0,-722,157,0,0.125,12.05,0.0,0,0,0,0.0,12.6,0.0,0,0,0,0.0,12.6,0.0,0,0,0,0.0,12.65,0.0,2,0,0,0.0,4.0,0.0,0,0,0,kReverse,0.0,0.0,0.0,0.0,0.0,0.0,0.0,0.0,0.0,0.0,0.0,
132.049038,true,true,true,0.0,1.0,0.0,-0.0078125,false,false,false,false,0.0,-0.0078125,0.0,-0.0078125,false,false,false,false,0.0,12.6,0.0,-447,178,0,0.125,12.6,0.0,0,0,0,0.0,12.6,0.0,0,0,0,0.0,11.5,0.0,0,0,0,0.0,11.600000000000001,0.0,2,0,0,0.0,4.0,0.0,0,0,0,kReverse,0.0,0.0,0.0,0.0,0.0,0.0,0.0,0.0,0.0,0.0,0.0,
132.198704,true,true,true,0.0,0.4173228442668915,0.0,-0.0078125,false,false,false,false,0.0,-0.0078125,0.0,-0.0078125,false,false,false,false,11.875,11.3,0.0,-450,-52,0,15.875,11.350000000000001,0.0,0,0,0,15.75,11.350000000000001,0.0,0,0,0,0.0,11.5,0.0,0,0,0,0.0,11.600000000000001,0.0,2,0,0,0.0,4.0,0.0,0,0,0,kReverse,0.0,0.0,0.0,0.0,0.0,0.0,0.0,0.0,0.0,0.0,0.0,
132.26695999999998,true,true,true,0.0,-0.0078125,0.0,-0.0078125,false,false,false,false,0.0,-0.0078125,0.0,-0.0078125,false,false,false,false,3.75,11.600000000000001,0.0,-590,-166,0,8.0,11.600000000000001,0.0,0,0,0,16.125,11.55,0.0,0,0,0,0.0,11.600000000000001,0.0,0,0,0,0.0,11.7,0.0,2,0,0,0.0,4.0,0.0,0,0,0,kReverse,0.0,0.0,0.0,0.0,0.0,0.0,0.0,0.0,0.0,0.0,0.0,
132.33752299999998,true,true,true,0.0,-0.0078125,0.0,-0.0078125,false,false,false,false,0.0,-0.0078125,0.0,-0.0078125,false,false,false,false,0.0,11.600000000000001,0.0,-667,-149,0,0.75,11.600000000000001,0.0,0,0,0,1.25,11.55,0.0,0,0,0,0.0,11.600000000000001,0.0,0,0,0,0.0,11.7,0.0,2,0,0,0.0,4.0,0.0,0,0,0,kReverse,0.0,0.0,0.0,0.0,0.0,0.0,0.0,0.0,0.0,0.0,0.0,
132.39795999999998,true,true,true,0.0,-0.0078125,0.0,-0.0078125,false,false,false,false,0.0,-0.0078125,0.0,-0.0078125,false,false,false,false,0.0,12.6,0.0,-705,-81,0,0.125,12.6,0.0,0,0,0,0.0,12.6,0.0,0,0,0,0.0,12.6,0.0,0,0,0,0.0,12.65,0.0,2,0,0,0.0,4.0,0.0,0,0,0,kReverse,0.0,0.0,0.0,0.0,0.0,0.0,0.0,0.0,0.0,0.0,0.0,
132.442305,true,true,true,0.0,-0.0078125,0.0,-0.0078125,false,false,false,false,0.0,-0.0078125,0.0,-0.0078125,false,false,false,false,0.0,12.6,0.0,-718,-51,0,0.125,12.6,0.0,0,0,0,0.0,12.6,0.0,0,0,0,0.0,12.6,0.0,0,0,0,0.0,12.65,0.0,2,0,0,0.0,4.0,0.0,0,0,0,kReverse,0.0,0.0,0.0,0.0,0.0,0.0,0.0,0.0,0.0,0.0,0.0,
132.587652,true,true,true,0.0,-0.0078125,0.0,-0.0078125,false,false,false,false,0.0,-0.0078125,0.0,-0.0078125,false,false,false,false,0.0,12.65,0.0,-729,-2,0,0.125,12.65,0.0,0,0,0,0.0,12.65,0.0,0,0,0,0.0,12.6,0.0,0,0,0,0.0,12.700000000000001,0.0,2,0,0,0.0,4.0,0.0,0,0,0,kReverse,0.0,0.0,0.0,0.0,0.0,0.0,0.0,0.0,0.0,0.0,0.0,
132.677043,true,true,true,0.0,-0.0078125,0.0,-0.0078125,false,false,false,false,0.0,-0.0078125,0.0,-0.0078125,false,false,false,false,0.0,12.65,0.0,-738,-10,0,0.125,12.65,0.0,0,0,0,0.0,12.65,0.0,0,0,0,0.0,12.6,0.0,0,0,0,0.0,12.700000000000001,0.0,2,0,0,0.0,4.0,0.0,0,0,0,kReverse,0.0,0.0,0.0,0.0,0.0,0.0,0.0,0.0,0.0,0.0,0.0,
132.752715,true,true,true,0.0,-0.0078125,0.3779527544975281,-0.0078125,false,false,false,false,0.0,-0.0078125,0.0,-0.0078125,false,false,false,false,0.0,12.65,0.0,-750,-15,0,0.125,12.65,0.0,0,0,0,0.0,12.65,0.0,0,0,0,0.0,12.65,0.0,0,0,0,0.0,12.75,0.0,2,0,0,0.0,4.0,0.0,0,0,0,kReverse,0.0,0.0,0.0,0.0,0.0,0.0,0.0,0.0,0.0,0.0,0.0,
132.806934,true,true,true,0.0,-0.0078125,0.7559055089950562,-0.0078125,false,false,false,false,0.0,-0.0078125,0.0,-0.0078125,false,false,false,false,1.125,12.65,0.0,-750,-5,0,1.375,12.65,0.0,0,0,0,1.125,12.65,0.0,0,0,0,0.0,12.65,0.0,0,0,0,0.0,12.75,0.0,2,0,0,0.0,4.0,0.0,0,0,0,kReverse,0.0,0.0,0.0,0.0,0.0,0.0,0.0,0.0,0.0,0.0,0.0,
132.882527,true,true,true,0.0,-0.0078125,1.0,-0.0078125,false,false,false,false,0.0,-0.0078125,0.0,-0.0078125,false,false,false,false,8.875,11.75,0.0,-725,25,0,11.0,11.850000000000001,0.0,0,0,0,13.25,11.8,0.0,0,0,0,0.0,11.850000000000001,0.0,0,0,0,0.0,11.9,0.0,2,0,0,0.0,4.0,0.0,0,0,0,kReverse,0.0,0.0,0.0,0.0,0.0,0.0,0.0,0.0,0.0,0.0,0.0,
133.006027,true,true,true,0.0,-0.0078125,0.7165354490280151,-0.0078125,false,false,false,false,0.0,-0.0078125,0.0,-0.0078125,false,false,false,false,20.125,11.75,0.0,-642,75,0,25.875,11.850000000000001,0.0,0,0,0,28.25,11.8,0.0,0,0,0,0.0,11.05,0.0,0,0,0,0.0,11.15,0.0,2,0,0,0.0,4.0,0.0,0,0,0,kReverse,0.0,0.0,0.0,0.0,0.0,0.0,0.0,0.0,0.0,0.0,0.0,
133.17470699999998,true,true,true,0.0,-0.0078125,0.0,-0.0078125,false,false,false,false,0.0,-0.0078125,0.0,-0.0078125,false,false,false,false,7.625,11.05,0.0,-467,111,0,7.375,11.95,0.0,0,0,0,13.375,11.95,0.0,0,0,0,0.0,11.95,0.0,0,0,0,0.0,12.05,0.0,2,0,0,0.0,4.0,0.0,0,0,0,kReverse,0.0,0.0,0.0,0.0,0.0,0.0,0.0,0.0,0.0,0.0,0.0,
133.31596299999998,true,true,true,0.0,-0.0078125,0.5905511975288391,-0.0078125,false,false,false,false,0.0,-0.0078125,0.0,-0.0078125,false,false,false,false,0.0,12.0,0.0,-353,73,0,0.125,11.95,0.0,0,0,0,0.375,11.95,0.0,0,0,0,0.0,11.95,0.0,0,0,0,0.0,12.6,0.0,2,0,0,0.0,4.0,0.0,0,0,0,kReverse,0.0,0.0,0.0,0.0,0.0,0.0,0.0,0.0,0.0,0.0,0.0,
133.442154,true,true,true,0.0,-0.0078125,0.4645669162273407,-0.0078125,false,false,false,false,0.0,-0.0078125,0.0,-0.0078125,false,false,false,false,2.625,12.450000000000001,0.0,-285,47,0,2.5,12.450000000000001,0.0,0,0,0,2.625,12.5,0.0,0,0,0,0.0,12.450000000000001,0.0,0,0,0,0.0,12.6,0.0,2,0,0,0.0,4.0,0.0,0,0,0,kReverse,0.0,0.0,0.0,0.0,0.0,0.0,0.0,0.0,0.0,0.0,0.0,
133.560448,true,true,true,0.0,-0.0078125,0.0,-0.0078125,false,false,false,false,0.0,-0.0078125,0.0,-0.0078125,false,false,false,false,6.75,11.95,0.0,-258,27,0,6.875,11.95,0.0,0,0,0,6.375,12.0,0.0,0,0,0,0.0,12.0,0.0,0,0,0,0.0,12.1,0.0,2,0,0,0.0,4.0,0.0,0,0,0,kReverse,0.0,0.0,0.0,0.0,0.0,0.0,0.0,0.0,0.0,0.0,0.0,
133.677695,true,true,true,0.0,-0.0078125,0.0,-0.0078125,false,false,false,false,0.0,-0.0078125,0.0,-0.0078125,false,false,false,false,0.0,12.6,0.0,-255,0,0,0.125,12.65,0.0,0,0,0,0.0,12.65,0.0,0,0,0,0.0,12.6,0.0,0,0,0,0.0,12.700000000000001,0.0,2,0,0,0.0,4.0,0.0,0,0,0,kReverse,0.0,0.0,0.0,0.0,0.0,0.0,0.0,0.0,0.0,0.0,0.0,
133.725315,true,true,true,0.0,-0.0078125,0.0,-0.0078125,false,false,false,false,0.0,-0.0078125,0.0,-0.0078125,false,false,false,false,0.0,12.6,0.0,-262,-10,0,0.125,12.65,0.0,0,0,0,0.0,12.65,0.0,0,0,0,0.0,12.6,0.0,0,0,0,0.0,12.700000000000001,0.0,2,0,0,0.0,4.0,0.0,0,0,0,kReverse,0.0,0.0,0.0,0.0,0.0,0.0,0.0,0.0,0.0,0.0,0.0,
133.78087599999998,true,true,true,0.0,-0.0078125,0.08661417663097382,-0.0078125,false,false,false,false,0.0,-0.0078125,0.0,-0.0078125,false,false,false,false,0.0,12.6,0.0,-262,-7,0,0.125,12.65,0.0,0,0,0,0.0,12.65,0.0,0,0,0,0.0,12.6,0.0,0,0,0,0.0,12.700000000000001,0.0,2,0,0,0.0,4.0,0.0,0,0,0,kReverse,0.0,0.0,0.0,0.0,0.0,0.0,0.0,0.0,0.0,0.0,0.0,
133.921413,true,true,true,0.0,-0.0078125,0.007874015718698502,-0.0078125,false,false,false,false,0.0,-0.0078125,0.0,-0.0078125,false,false,false,false,0.0,12.65,0.0,-262,0,0,0.125,12.65,0.0,0,0,0,0.0,12.65,0.0,0,0,0,0.0,12.65,0.0,0,0,0,0.0,12.75,0.0,2,0,0,0.0,4.0,0.0,0,0,0,kReverse,0.0,0.0,0.0,0.0,0.0,0.0,0.0,0.0,0.0,0.0,0.0,
134.09190399999997,true,true,true,0.0,-0.0078125,0.0,-0.0078125,false,false,false,false,0.0,-0.0078125,0.0,-0.0078125,false,false,false,false,0.0,12.65,0.0,-262,0,0,0.125,12.700000000000001,0.0,0,0,0,0.0,12.65,0.0,0,0,0,0.0,12.65,0.0,0,0,0,0.0,12.75,0.0,2,0,0,0.0,4.0,0.0,0,0,0,kReverse,0.0,0.0,0.0,0.0,0.0,0.0,0.0,0.0,0.0,0.0,0.0,
134.291113,true,true,true,0.0,-0.0078125,0.6535432934761047,-0.0078125,false,false,false,false,0.0,-0.0078125,0.0,-0.0078125,false,false,false,false,0.0,12.65,0.0,-262,0,0,0.125,12.700000000000001,0.0,0,0,0,0.0,12.65,0.0,0,0,0,0.0,12.1,0.0,0,0,0,0.0,12.200000000000001,0.0,2,0,0,0.0,4.0,0.0,0,0,0,kReverse,0.0,0.0,0.0,0.0,0.0,0.0,0.0,0.0,0.0,0.0,0.0,
134.44518599999998,true,true,true,0.0,-0.0078125,0.4960629940032959,-0.0078125,false,false,false,false,0.0,-0.0078125,0.0,-0.0078125,false,false,false,false,15.125,11.95,0.0,-213,44,0,18.875,12.05,0.0,0,0,0,19.375,12.05,0.0,0,0,0,0.0,12.1,0.0,0,0,0,0.0,11.65,0.0,2,0,0,0.0,4.0,0.0,0,0,0,kReverse,0.0,0.0,0.0,0.0,0.0,0.0,0.0,0.0,0.0,0.0,0.0,
134.586085,true,true,true,0.0,-0.0078125,1.0,-0.0078125,false,false,false,false,0.0,-0.0078125,0.0,-0.0078125,false,false,false,false,6.375,11.55,0.0,-140,44,0,8.5,11.600000000000001,0.0,0,0,0,8.5,11.55,0.0,0,0,0,0.0,11.55,0.0,0,0,0,0.0,11.65,0.0,2,0,0,0.0,4.0,0.0,0,0,0,kReverse,0.0,0.0,0.0,0.0,0.0,0.0,0.0,0.0,0.0,0.0,0.0,
134.755666,true,true,true,0.0,-0.0078125,1.0,-0.0078125,false,false,false,false,0.0,-0.0078125,0.0,-0.0078125,false,false,false,false,22.625,10.25,0.0,-17,90,0,28.125,10.5,0.0,0,0,0,28.625,10.3,0.0,0,0,0,0.0,10.55,0.0,0,0,0,0.0,10.600000000000001,0.0,2,0,0,0.0,4.0,0.0,0,0,0,kReverse,0.0,0.0,0.0,0.0,0.0,0.0,0.0,0.0,0.0,0.0,0.0,
134.870104,true,true,true,0.0,-0.0078125,0.0,-0.0078125,false,false,false,false,0.0,-0.0078125,0.0,-0.0078125,false,false,false,false,16.625,10.350000000000001,0.0,136,132,0,23.25,10.5,0.0,0,0,0,28.5,10.350000000000001,0.0,0,0,0,0.0,10.55,0.0,0,0,0,0.0,10.65,0.0,2,0,0,0.0,4.0,0.0,0,0,0,kReverse,0.0,0.0,0.0,0.0,0.0,0.0,0.0,0.0,0.0,0.0,0.0,
134.921815,true,true,true,0.0,-0.0078125,0.0,-0.0078125,false,false,false,false,0.0,-0.0078125,0.0,-0.0078125,false,false,false,false,6.375,10.350000000000001,0.0,191,140,0,8.875,10.5,0.0,0,0,0,10.375,10.350000000000001,0.0,0,0,0,0.0,10.55,0.0,0,0,0,0.0,10.65,0.0,2,0,0,0.0,4.0,0.0,0,0,0,kReverse,0.0,0.0,0.0,0.0,0.0,0.0,0.0,0.0,0.0,0.0,0.0,
134.966808,true,true,true,0.0,-0.0078125,0.0,-0.0078125,false,false,false,false,0.0,-0.0078125,0.0,-0.0078125,false,false,false,false,0.0,12.55,0.0,244,109,0,0.125,12.55,0.0,0,0,0,0.0,12.55,0.0,0,0,0,0.0,12.55,0.0,0,0,0,0.0,12.6,0.0,2,0,0,0.0,4.0,0.0,0,0,0,kReverse,0.0,0.0,0.0,0.0,0.0,0.0,0.0,0.0,0.0,0.0,0.0,
135.094312,true,true,true,0.0,-0.0078125,0.0,-0.0078125,false,false,false,false,0.0,-0.0078125,0.0,-0.0078125,false,false,false,false,0.0,12.55,0.0,301,47,0,0.125,12.55,0.0,0,0,0,0.0,12.55,0.0,0,0,0,0.0,12.55,0.0,0,0,0,0.0,12.65,0.0,2,0,0,0.0,4.0,0.0,0,0,0,kReverse,0.0,0.0,0.0,0.0,0.0,0.0,0.0,0.0,0.0,0.0,0.0,
135.174389,true,true,true,0.0,-0.2890625,0.0,-0.0078125,false,false,false,false,0.0,-0.0078125,0.0,-0.0078125,false,false,false,false,0.0,12.6,0.0,334,44,0,0.125,12.6,0.0,0,0,0,0.0,12.6,0.0,0,0,0,0.0,12.6,0.0,0,0,0,0.0,12.65,0.0,2,0,0,0.0,4.0,0.0,0,0,0,kReverse,0.0,0.0,0.0,0.0,0.0,0.0,0.0,0.0,0.0,0.0,0.0,
135.258715,true,true,true,0.0,-0.3828125,0.0,-0.0078125,false,false,false,false,0.0,-0.0078125,0.0,-0.0078125,false,false,false,false,0.0,12.6,0.0,347,19,0,1.25,12.6,0.0,0,0,0,2.625,12.4,0.0,0,0,0,0.0,12.4,0.0,0,0,0,0.0,12.5,0.0,2,0,0,0.0,4.0,0.0,0,0,0,kReverse,0.0,0.0,0.0,0.0,0.0,0.0,0.0,0.0,0.0,0.0,0.0,
135.32391,true,true,true,0.0,-0.3828125,0.0,-0.0078125,false,false,false,false,0.0,-0.0078125,0.0,-0.0078125,false,false,false,false,3.0,12.4,0.0,362,23,0,5.25,12.4,0.0,0,0,0,4.375,12.4,0.0,0,0,0,0.0,12.4,0.0,0,0,0,0.0,12.5,0.0,2,0,0,0.0,4.0,0.0,0,0,0,kReverse,0.0,0.0,0.0,0.0,0.0,0.0,0.0,0.0,0.0,0.0,0.0,
135.38232399999998,true,true,true,0.0,-0.1640625,0.0,-0.0078125,false,false,false,false,0.0,-0.0078125,0.0,-0.0078125,false,false,false,false,3.875,12.4,0.0,374,21,0,5.25,12.4,0.0,0,0,0,3.5,12.4,0.0,0,0,0,0.0,12.4,0.0,0,0,0,0.0,12.5,0.0,2,0,0,0.0,4.0,0.0,0,0,0,kReverse,0.0,0.0,0.0,0.0,0.0,0.0,0.0,0.0,0.0,0.0,0.0,
135.538182,true,true,true,0.0,-0.0078125,-0.0234375,-0.0078125,false,false,false,false,0.0,-0.0078125,0.0,-0.0078125,false,false,false,false,1.25,12.450000000000001,0.0,398,15,0,1.25,12.5,0.0,0,0,0,0.25,12.450000000000001,0.0,0,0,0,0.0,12.450000000000001,0.0,0,0,0,0.0,12.55,0.0,2,0,0,0.0,4.0,0.0,0,0,0,kReverse,0.0,0.0,0.0,0.0,0.0,0.0,0.0,0.0,0.0,0.0,0.0,
135.740816,true,true,true,0.0,-0.0078125,-0.578125,-0.0078125,false,false,false,false,0.0,-0.0078125,0.0,-0.0078125,false,false,false,false,0.0,12.65,0.0,395,-5,0,1.625,12.55,0.0,0,0,0,1.875,12.55,0.0,0,0,0,0.0,12.55,0.0,0,0,0,0.0,12.6,0.0,2,0,0,0.0,4.0,0.0,0,0,0,kReverse,0.0,0.0,0.0,0.0,0.0,0.0,0.0,0.0,0.0,0.0,0.0,
135.881902,true,true,true,0.0,-0.0078125,0.0,-0.0078125,false,false,false,false,0.0,-0.0078125,0.0,-0.0078125,false,false,false,false,3.875,12.450000000000001,0.0,339,-49,0,4.5,12.55,0.0,0,0,0,5.0,12.55,0.0,0,0,0,0.0,12.55,0.0,0,0,0,0.0,12.6,0.0,2,0,0,0.0,4.0,0.0,0,0,0,kReverse,0.0,0.0,0.0,0.0,0.0,0.0,0.0,0.0,0.0,0.0,0.0,
136.014813,true,true,true,0.0,-0.0078125,0.0,-0.0078125,false,false,false,false,0.0,-0.0078125,0.0,-0.0078125,false,false,false,false,0.0,12.55,0.0,338,4,0,0.125,12.55,0.0,0,0,0,0.0,12.55,0.0,0,0,0,0.0,12.55,0.0,0,0,0,0.0,12.6,0.0,2,0,0,0.0,4.0,0.0,0,0,0,kReverse,0.0,0.0,0.0,0.0,0.0,0.0,0.0,0.0,0.0,0.0,0.0,
136.10388999999998,true,true,true,0.0,-0.0078125,0.0,-0.0078125,false,false,false,false,0.0,-0.0078125,0.0,-0.0078125,false,false,false,false,0.0,12.65,0.0,338,2,0,0.125,12.65,0.0,0,0,0,0.0,12.65,0.0,0,0,0,0.0,12.65,0.0,0,0,0,0.0,12.75,0.0,2,0,0,0.0,4.0,0.0,0,0,0,kReverse,0.0,0.0,0.0,0.0,0.0,0.0,0.0,0.0,0.0,0.0,0.0,
136.161059,true,true,true,0.0,-0.0078125,0.0,-0.0078125,false,false,false,false,0.0,-0.0078125,0.0,-0.0078125,false,false,false,false,0.0,12.65,0.0,338,0,0,0.125,12.65,0.0,0,0,0,0.0,12.65,0.0,0,0,0,0.0,12.65,0.0,0,0,0,0.0,12.75,0.0,2,0,0,0.0,4.0,0.0,0,0,0,kReverse,0.0,0.0,0.0,0.0,0.0,0.0,0.0,0.0,0.0,0.0,0.0,
136.260763,true,true,true,0.0,-0.0078125,0.0,-0.0078125,false,false,false,false,0.0,-0.0078125,0.0,-0.0078125,false,false,false,false,0.0,12.65,0.0,338,0,0,0.125,12.700000000000001,0.0,0,0,0,0.0,12.700000000000001,0.0,0,0,0,0.0,12.65,0.0,0,0,0,0.0,12.75,0.0,2,0,0,0.0,4.0,0.0,0,0,0,kReverse,0.0,0.0,0.0,0.0,0.0,0.0,0.0,0.0,0.0,0.0,0.0,
136.416533,true,true,true,0.0,-0.0078125,0.0,-0.0078125,false,false,false,false,0.0,-0.0078125,0.0,-0.0078125,false,false,false,false,0.0,12.700000000000001,0.0,338,0,0,0.125,12.700000000000001,0.0,0,0,0,0.0,12.700000000000001,0.0,0,0,0,0.0,12.700000000000001,0.0,0,0,0,0.0,12.75,0.0,2,0,0,0.0,4.0,0.0,0,0,0,kReverse,0.0,0.0,0.0,0.0,0.0,0.0,0.0,0.0,0.0,0.0,0.0,
136.543269,true,true,true,0.0,-0.0078125,0.0,-0.0078125,false,false,false,false,0.0,-0.0078125,0.0,-0.0078125,false,false,false,false,0.0,12.700000000000001,0.0,338,0,0,0.125,12.700000000000001,0.0,0,0,0,0.0,12.700000000000001,0.0,0,0,0,0.0,12.700000000000001,0.0,0,0,0,0.0,12.8,0.0,2,0,0,0.0,4.0,0.0,0,0,0,kReverse,0.0,0.0,0.0,0.0,0.0,0.0,0.0,0.0,0.0,0.0,0.0,
136.623386,true,true,true,0.0,-0.0078125,0.0,-0.0078125,false,false,false,false,0.0,-0.0078125,0.0,-0.0078125,false,false,false,false,0.0,12.700000000000001,0.0,338,0,0,0.125,12.75,0.0,0,0,0,0.0,12.700000000000001,0.0,0,0,0,0.0,12.700000000000001,0.0,0,0,0,0.0,12.8,0.0,2,0,0,0.0,4.0,0.0,0,0,0,kReverse,0.0,0.0,0.0,0.0,0.0,0.0,0.0,0.0,0.0,0.0,0.0,
136.68625699999998,true,true,true,0.0,-0.0078125,0.0,-0.0078125,false,false,false,false,0.0,-0.0078125,0.0,-0.0078125,false,false,false,false,0.0,12.700000000000001,0.0,338,0,0,0.125,12.75,0.0,0,0,0,0.0,12.700000000000001,0.0,0,0,0,0.0,12.700000000000001,0.0,0,0,0,0.0,12.8,0.0,2,0,0,0.0,4.0,0.0,0,0,0,kReverse,0.0,0.0,0.0,0.0,0.0,0.0,0.0,0.0,0.0,0.0,0.0,
136.778734,true,true,true,0.0,-0.0078125,0.0,-0.0078125,false,false,false,false,0.0,-0.0078125,0.0,-0.0078125,false,false,false,false,0.0,12.700000000000001,0.0,338,0,0,0.125,12.75,0.0,0,0,0,0.0,12.75,0.0,0,0,0,0.0,12.700000000000001,0.0,0,0,0,0.0,12.8,0.0,2,0,0,0.0,4.0,0.0,0,0,0,kReverse,0.0,0.0,0.0,0.0,0.0,0.0,0.0,0.0,0.0,0.0,0.0,
136.87887,true,true,true,0.0,-0.0078125,0.0,-0.0078125,false,false,false,false,0.0,-0.0078125,0.0,-0.0078125,false,false,false,false,0.0,12.700000000000001,0.0,338,0,0,0.125,12.75,0.0,0,0,0,0.0,12.75,0.0,0,0,0,0.0,12.700000000000001,0.0,0,0,0,0.0,12.8,0.0,2,0,0,0.0,4.0,0.0,0,0,0,kReverse,0.0,0.0,0.0,0.0,0.0,0.0,0.0,0.0,0.0,0.0,0.0,
136.958901,true,true,true,0.0,-0.0078125,0.0,-0.0078125,false,false,false,false,0.0,-0.0078125,0.0,-0.0078125,false,false,false,false,0.0,12.700000000000001,0.0,338,0,0,0.125,12.75,0.0,0,0,0,0.0,12.75,0.0,0,0,0,0.0,12.700000000000001,0.0,0,0,0,0.0,12.8,0.0,2,0,0,0.0,4.0,0.0,0,0,0,kReverse,0.0,0.0,0.0,0.0,0.0,0.0,0.0,0.0,0.0,0.0,0.0,
137.04724299999998,true,true,true,0.0,-0.0078125,0.0,-0.0078125,false,false,false,false,0.0,-0.0078125,0.0,-0.0078125,false,false,false,false,0.0,12.75,0.0,338,0,0,0.125,12.75,0.0,0,0,0,0.0,12.75,0.0,0,0,0,0.0,12.75,0.0,0,0,0,0.0,12.8,0.0,2,0,0,0.0,4.0,0.0,0,0,0,kReverse,0.0,0.0,0.0,0.0,0.0,0.0,0.0,0.0,0.0,0.0,0.0,
137.106695,true,true,true,0.0,-0.0078125,0.0,-0.0078125,false,false,false,false,0.0,-0.0078125,0.0,-0.0078125,false,false,false,false,0.0,12.75,0.0,338,0,0,0.125,12.75,0.0,0,0,0,0.0,12.75,0.0,0,0,0,0.0,12.75,0.0,0,0,0,0.0,12.8,0.0,2,0,0,0.0,4.0,0.0,0,0,0,kReverse,0.0,0.0,0.0,0.0,0.0,0.0,0.0,0.0,0.0,0.0,0.0,
137.1979,true,true,true,0.0,-0.0078125,0.0,-0.0078125,false,false,false,false,0.0,-0.0078125,0.0,-0.0078125,false,false,false,false,0.0,12.75,0.0,338,0,0,0.125,12.75,0.0,0,0,0,0.0,12.75,0.0,0,0,0,0.0,12.75,0.0,0,0,0,0.0,12.8,0.0,2,0,0,0.0,4.0,0.0,0,0,0,kReverse,0.0,0.0,0.0,0.0,0.0,0.0,0.0,0.0,0.0,0.0,0.0,
137.308654,true,true,true,0.0,-0.0078125,0.0,-0.0078125,false,false,false,false,0.0,-0.0078125,0.0,-0.0078125,false,false,false,false,0.0,12.75,0.0,338,0,0,0.125,12.75,0.0,0,0,0,0.0,12.75,0.0,0,0,0,0.0,12.75,0.0,0,0,0,0.0,12.8,0.0,2,0,0,0.0,4.0,0.0,0,0,0,kReverse,0.0,0.0,0.0,0.0,0.0,0.0,0.0,0.0,0.0,0.0,0.0,
137.372451,true,true,true,0.0,-0.0078125,0.0,-0.0078125,false,false,false,false,0.0,-0.0078125,0.0,-0.0078125,false,false,false,false,0.0,12.75,0.0,338,0,0,0.125,12.75,0.0,0,0,0,0.0,12.75,0.0,0,0,0,0.0,12.75,0.0,0,0,0,0.0,12.8,0.0,2,0,0,0.0,4.0,0.0,0,0,0,kReverse,0.0,0.0,0.0,0.0,0.0,0.0,0.0,0.0,0.0,0.0,0.0,
137.492699,true,true,true,0.0,-0.0078125,0.0,-0.0078125,false,false,false,false,0.0,-0.0078125,0.0,-0.0078125,false,false,false,false,0.0,12.75,0.0,338,0,0,0.125,12.75,0.0,0,0,0,0.0,12.75,0.0,0,0,0,0.0,12.75,0.0,0,0,0,0.0,12.8,0.0,2,0,0,0.0,4.0,0.0,0,0,0,kReverse,0.0,0.0,0.0,0.0,0.0,0.0,0.0,0.0,0.0,0.0,0.0,
137.576233,true,true,true,0.0,-0.0078125,0.0,-0.0078125,false,false,false,false,0.0,-0.0078125,0.0,-0.0078125,false,false,false,false,0.0,12.75,0.0,338,0,0,0.125,12.75,0.0,0,0,0,0.0,12.75,0.0,0,0,0,0.0,12.75,0.0,0,0,0,0.0,12.8,0.0,2,0,0,0.0,4.0,0.0,0,0,0,kReverse,0.0,0.0,0.0,0.0,0.0,0.0,0.0,0.0,0.0,0.0,0.0,
137.61991,true,true,true,0.0,-0.0078125,0.0,-0.0078125,false,false,false,false,0.0,-0.0078125,0.0,-0.0078125,false,false,false,false,0.0,12.75,0.0,338,0,0,0.125,12.75,0.0,0,0,0,0.0,12.75,0.0,0,0,0,0.0,12.75,0.0,0,0,0,0.0,12.8,0.0,2,0,0,0.0,4.0,0.0,0,0,0,kReverse,0.0,0.0,0.0,0.0,0.0,0.0,0.0,0.0,0.0,0.0,0.0,
137.73048699999998,true,true,true,0.0,-0.0078125,0.0,-0.0078125,false,false,false,false,0.0,-0.0078125,0.0,-0.0078125,false,false,false,false,0.0,12.75,0.0,338,0,0,0.125,12.75,0.0,0,0,0,0.0,12.75,0.0,0,0,0,0.0,12.75,0.0,0,0,0,0.0,12.8,0.0,2,0,0,0.0,4.0,0.0,0,0,0,kReverse,0.0,0.0,0.0,0.0,0.0,0.0,0.0,0.0,0.0,0.0,0.0,
137.91662399999998,true,true,true,0.0,-0.09375,0.0,-0.0078125,false,false,false,false,0.0,-0.0078125,0.0,-0.0078125,false,false,false,false,0.0,12.75,0.0,338,0,0,0.125,12.75,0.0,0,0,0,0.0,12.75,0.0,0,0,0,0.0,12.75,0.0,0,0,0,0.0,12.8,0.0,2,0,0,0.0,4.0,0.0,0,0,0,kReverse,0.0,0.0,0.0,0.0,0.0,0.0,0.0,0.0,0.0,0.0,0.0,
138.141301,true,true,true,0.0,-0.171875,0.0,-0.0078125,false,false,false,false,0.0,-0.0078125,0.0,-0.0078125,false,false,false,false,0.0,12.75,0.0,338,0,0,0.25,12.75,0.0,0,0,0,0.125,12.75,0.0,0,0,0,0.0,12.75,0.0,0,0,0,0.0,12.8,0.0,2,0,0,0.0,4.0,0.0,0,0,0,kReverse,0.0,0.0,0.0,0.0,0.0,0.0,0.0,0.0,0.0,0.0,0.0,
138.32216999999997,true,true,true,0.0,-0.0078125,0.0,-0.0078125,false,false,false,false,0.0,-0.0078125,0.0,-0.0078125,false,false,false,false,0.0,12.6,0.0,374,25,0,1.25,12.65,0.0,0,0,0,0.75,12.65,0.0,0,0,0,0.0,12.65,0.0,0,0,0,0.0,12.75,0.0,2,0,0,0.0,4.0,0.0,0,0,0,kReverse,0.0,0.0,0.0,0.0,0.0,0.0,0.0,0.0,0.0,0.0,0.0,
138.498901,true,true,true,0.0,-0.0078125,0.0,-0.0078125,false,false,false,false,0.0,-0.0078125,0.0,-0.0078125,false,false,false,false,0.0,12.75,0.0,366,-10,0,0.125,12.75,0.0,0,0,0,0.0,12.75,0.0,0,0,0,0.0,12.75,0.0,0,0,0,0.0,12.85,0.0,2,0,0,0.0,4.0,0.0,0,0,0,kReverse,0.0,0.0,0.0,0.0,0.0,0.0,0.0,0.0,0.0,0.0,0.0,
138.650125,true,true,true,0.0,-0.0078125,0.0,-0.0078125,false,false,false,false,0.0,-0.0078125,0.0,-0.0078125,false,false,false,false,0.0,12.75,0.0,363,0,0,0.125,12.8,0.0,0,0,0,0.0,12.75,0.0,0,0,0,0.0,12.75,0.0,0,0,0,0.0,12.85,0.0,2,0,0,0.0,4.0,0.0,0,0,0,kReverse,0.0,0.0,0.0,0.0,0.0,0.0,0.0,0.0,0.0,0.0,0.0,
138.816658,true,true,true,0.0,-0.0078125,0.0,-0.0078125,false,false,false,false,0.0,-0.0078125,0.0,-0.0078125,false,false,false,false,0.0,12.75,0.0,363,0,0,0.125,12.8,0.0,0,0,0,0.0,12.75,0.0,0,0,0,0.0,12.75,0.0,0,0,0,0.0,12.85,0.0,2,0,0,0.0,4.0,0.0,0,0,0,kReverse,0.0,0.0,0.0,0.0,0.0,0.0,0.0,0.0,0.0,0.0,0.0,
138.978827,true,true,true,0.0,-0.3671875,0.0,-0.0078125,false,false,false,false,0.0,-0.0078125,0.0,-0.0078125,false,false,false,false,0.0,12.75,0.0,363,0,0,0.125,12.8,0.0,0,0,0,0.0,12.75,0.0,0,0,0,0.0,12.75,0.0,0,0,0,0.0,12.85,0.0,2,0,0,0.0,4.0,0.0,0,0,0,kReverse,0.0,0.0,0.0,0.0,0.0,0.0,0.0,0.0,0.0,0.0,0.0,
139.143571,true,true,true,0.0,-0.453125,0.0,-0.0078125,false,false,false,false,0.0,-0.0078125,0.0,-0.0078125,false,false,false,false,3.0,12.5,0.0,394,22,0,4.25,12.55,0.0,0,0,0,3.625,12.5,0.0,0,0,0,0.0,12.55,0.0,0,0,0,0.0,12.6,0.0,2,0,0,0.0,4.0,0.0,0,0,0,kReverse,0.0,0.0,0.0,0.0,0.0,0.0,0.0,0.0,0.0,0.0,0.0,
139.35101799999998,true,true,true,0.0,-0.515625,0.0,-0.0078125,false,false,false,false,0.0,-0.0078125,0.0,-0.0078125,false,false,false,false,4.5,12.200000000000001,0.0,458,39,0,6.125,12.200000000000001,0.0,0,0,0,5.875,12.15,0.0,0,0,0,0.0,12.25,0.0,0,0,0,0.0,12.35,0.0,2,0,0,0.0,4.0,0.0,0,0,0,kReverse,0.0,0.0,0.0,0.0,0.0,0.0,0.0,0.0,0.0,0.0,0.0,
139.533815,true,true,true,0.0,-0.515625,0.0,-0.0078125,false,false,false,false,0.0,-0.0078125,0.0,-0.0078125,false,false,false,false,4.25,12.1,0.0,566,71,0,5.875,12.200000000000001,0.0,0,0,0,5.375,12.200000000000001,0.0,0,0,0,0.0,12.200000000000001,0.0,0,0,0,0.0,12.25,0.0,2,0,0,0.0,4.0,0.0,0,0,0,kReverse,0.0,0.0,0.0,0.0,0.0,0.0,0.0,0.0,0.0,0.0,0.0,
139.690284,true,true,true,0.0,-0.515625,0.0,-0.0078125,false,false,false,false,0.0,-0.0078125,0.0,-0.0078125,false,false,false,false,3.5,12.200000000000001,0.0,723,102,0,5.125,12.25,0.0,0,0,0,4.625,12.25,0.0,0,0,0,0.0,12.200000000000001,0.0,0,0,0,0.0,12.35,0.0,2,0,0,0.0,4.0,0.0,0,0,0,kReverse,0.0,0.0,0.0,0.0,0.0,0.0,0.0,0.0,0.0,0.0,0.0,
139.82077999999998,true,true,true,0.0,-0.515625,0.0,-0.0078125,false,false,false,false,0.0,-0.0078125,0.0,-0.0078125,false,false,false,false,2.875,12.25,0.0,861,116,0,4.625,12.3,0.0,0,0,0,4.875,12.25,0.0,0,0,0,0.0,12.3,0.0,0,0,0,0.0,12.4,0.0,2,0,0,0.0,4.0,0.0,0,0,0,kReverse,0.0,0.0,0.0,0.0,0.0,0.0,0.0,0.0,0.0,0.0,0.0,
139.874667,true,true,true,0.0,-0.515625,0.0,-0.0078125,false,false,false,false,0.0,-0.0078125,0.0,-0.0078125,false,false,false,false,2.75,12.25,0.0,934,122,0,4.25,12.3,0.0,0,0,0,4.625,12.25,0.0,0,0,0,0.0,12.3,0.0,0,0,0,0.0,12.4,0.0,2,0,0,0.0,4.0,0.0,0,0,0,kReverse,0.0,0.0,0.0,0.0,0.0,0.0,0.0,0.0,0.0,0.0,0.0,
139.925089,true,true,true,0.0,-0.515625,0.0,-0.0078125,false,false,false,false,0.0,-0.0078125,0.0,-0.0078125,false,false,false,false,2.625,12.3,0.0,1036,127,0,4.0,12.4,0.0,0,0,0,4.5,12.35,0.0,0,0,0,0.0,12.35,0.0,0,0,0,0.0,12.450000000000001,0.0,2,0,0,0.0,4.0,0.0,0,0,0,kReverse,0.0,0.0,0.0,0.0,0.0,0.0,0.0,0.0,0.0,0.0,0.0,
