timer,lineLeft,lineCenter,lineRight,driverLeftX,driverLeftY,driverRightX,driverRightY,driverA,driverB,driverX,driverY,operatorLeftX,operatorLeftY,operatorRightX,operatorRightY,operatorA,operatorB,operatorX,operatorY,LeftFrontCurrent,LeftFrontVoltage,LeftFrontValue,LeftFrontPosition,LeftFrontVelocity,LeftFrontFaults,LeftRearCurrent,LeftRearVoltage,LeftRearValue,LeftRearPosition,LeftRearVelocity,LeftRearFaults,RightFrontCurrent,RightFrontVoltage,RightFrontValue,RightFrontPosition,RightFrontVelocity,RightFrontFaults,RightRearCurrent,RightRearVoltage,RightRearValue,RightRearPosition,RightRearVelocity,RightRearFaults,LiftCurrent,LiftVoltage,LiftValue,LiftPosition,LiftVelocity,LiftFaults,RollerCurrent,RollerVoltage,RollerValue,RollerPosition,RollerVelocity,RollerFaults,PushersState,navx_Pitch,navx_Roll,navx_Yaw,navx_XAcc,navx_YAcc,navx_ZAcc,navx_Temp,navx_Bar,navx_Alt,navx_XDis,navx_YDis,
167.272659,true,true,true,0.0,-0.0078125,0.0,-0.0078125,false,false,false,false,0.0,-0.0078125,0.0,-0.0078125,false,false,false,false,0.0,12.4,0.0,6341,0,0,0.0,12.450000000000001,0.0,0,0,0,0.0,12.4,0.0,0,0,0,0.0,12.4,0.0,0,0,0,0.0,12.5,0.0,3,0,0,0.0,4.0,0.0,0,0,0,kReverse,0.0,0.0,0.0,0.0,0.0,0.0,0.0,0.0,0.0,0.0,0.0,
167.382476,true,true,true,0.0,-0.0078125,0.0,-0.0078125,false,false,false,false,0.0,-0.0078125,0.0,-0.0078125,false,false,false,false,0.0,12.4,0.0,6341,0,0,0.0,12.450000000000001,0.0,0,0,0,0.0,12.4,0.0,0,0,0,0.0,12.4,0.0,0,0,0,0.0,12.5,0.0,3,0,0,0.0,4.0,0.0,0,0,0,kReverse,0.0,0.0,0.0,0.0,0.0,0.0,0.0,0.0,0.0,0.0,0.0,
167.43988700000003,true,true,true,0.0,-0.0078125,0.0,-0.0078125,false,false,false,false,0.0,-0.0078125,0.0,-0.0078125,false,false,false,false,0.0,12.4,0.0,6341,0,0,0.0,12.450000000000001,0.0,0,0,0,0.0,12.4,0.0,0,0,0,0.0,12.4,0.0,0,0,0,0.0,12.5,0.0,3,0,0,0.0,4.0,0.0,0,0,0,kReverse,0.0,0.0,0.0,0.0,0.0,0.0,0.0,0.0,0.0,0.0,0.0,
167.53730199999998,true,true,true,0.0,-0.0078125,0.0,-0.0078125,false,false,false,false,0.0,-0.0078125,0.0,-0.0078125,false,false,false,false,0.0,12.4,0.0,6341,0,0,0.125,12.450000000000001,0.0,0,0,0,0.0,12.4,0.0,0,0,0,0.0,12.4,0.0,0,0,0,0.0,12.5,0.0,3,0,0,0.0,4.0,0.0,0,0,0,kReverse,0.0,0.0,0.0,0.0,0.0,0.0,0.0,0.0,0.0,0.0,0.0,
167.697211,true,true,true,0.0,-0.0078125,0.0,-0.0078125,false,false,false,false,0.0,-0.0078125,0.0,-0.0078125,false,false,false,false,0.0,12.4,0.0,6341,0,0,0.0,12.450000000000001,0.0,0,0,0,0.0,12.4,0.0,0,0,0,0.0,12.4,0.0,0,0,0,0.0,12.5,0.0,3,0,0,0.0,4.0,0.0,0,0,0,kReverse,0.0,0.0,0.0,0.0,0.0,0.0,0.0,0.0,0.0,0.0,0.0,
167.76934599999998,true,true,true,0.0,-0.0078125,0.0,-0.0078125,false,false,false,false,0.0,-0.0078125,0.0,-0.0078125,false,false,false,false,0.0,12.4,0.0,6341,0,0,0.125,12.450000000000001,0.0,0,0,0,0.0,12.4,0.0,0,0,0,0.0,12.4,0.0,0,0,0,0.0,12.5,0.0,3,0,0,0.0,4.0,0.0,0,0,0,kReverse,0.0,0.0,0.0,0.0,0.0,0.0,0.0,0.0,0.0,0.0,0.0,
167.87631100000002,true,true,true,0.0,-0.0078125,0.0,-0.0078125,false,false,false,false,0.0,-0.0078125,0.0,-0.0078125,false,false,false,false,0.0,12.4,0.0,6341,0,0,0.0,12.450000000000001,0.0,0,0,0,0.0,12.4,0.0,0,0,0,0.0,12.4,0.0,0,0,0,0.0,12.5,0.0,3,0,0,0.0,4.0,0.0,0,0,0,kReverse,0.0,0.0,0.0,0.0,0.0,0.0,0.0,0.0,0.0,0.0,0.0,
167.93604200000001,true,true,true,0.14173229038715363,-0.1640625,0.0,-0.0078125,false,false,false,false,0.0,-0.0078125,0.0,-0.0078125,false,false,false,false,0.0,12.4,0.0,6341,0,0,0.0,12.450000000000001,0.0,0,0,0,0.0,12.4,0.0,0,0,0,0.0,12.4,0.0,0,0,0,0.0,12.5,0.0,3,0,0,0.0,4.0,0.0,0,0,0,kReverse,0.0,0.0,0.0,0.0,0.0,0.0,0.0,0.0,0.0,0.0,0.0,
167.99817800000002,true,true,true,0.5590550899505615,-1.0,0.0,-0.0078125,false,false,false,false,0.0,-0.0078125,0.0,-0.0078125,false,false,false,false,0.0,12.4,0.0,6343,2,0,0.375,12.450000000000001,0.0,0,0,0,0.125,12.4,0.0,0,0,0,0.0,12.4,0.0,0,0,0,0.0,12.5,0.0,3,0,0,0.0,4.0,0.0,0,0,0,kReverse,0.0,0.0,0.0,0.0,0.0,0.0,0.0,0.0,0.0,0.0,0.0,
168.14282500000002,true,true,true,0.023622047156095505,-0.0078125,0.0,-0.0078125,false,false,false,false,0.0,-0.0078125,0.0,-0.0078125,false,false,false,false,14.75,11.55,0.0,6456,98,0,19.875,11.850000000000001,0.0,0,0,0,27.75,11.75,0.0,0,0,0,0.0,11.850000000000001,0.0,0,0,0,0.0,11.9,0.0,3,0,0,0.0,4.0,0.0,0,0,0,kReverse,0.0,0.0,0.0,0.0,0.0,0.0,0.0,0.0,0.0,0.0,0.0,
168.205586,true,true,true,0.0,0.913385808467865,0.0,-0.0078125,false,false,false,false,0.0,-0.0078125,0.0,-0.0078125,false,false,false,false,1.625,12.15,0.0,6526,119,0,5.875,12.1,0.0,0,0,0,2.875,12.1,0.0,0,0,0,0.0,12.1,0.0,0,0,0,0.0,12.200000000000001,0.0,3,0,0,0.0,4.0,0.0,0,0,0,kReverse,0.0,0.0,0.0,0.0,0.0,0.0,0.0,0.0,0.0,0.0,0.0,
168.289087,true,true,true,0.0,1.0,0.0,-0.0078125,false,false,false,false,0.0,-0.0078125,0.0,-0.0078125,false,false,false,false,10.125,12.15,0.0,6544,38,0,13.0,12.1,0.0,0,0,0,21.75,12.1,0.0,0,0,0,0.0,12.1,0.0,0,0,0,0.0,12.200000000000001,0.0,3,0,0,0.0,4.0,0.0,0,0,0,kReverse,0.0,0.0,0.0,0.0,0.0,0.0,0.0,0.0,0.0,0.0,0.0,
168.414642,true,true,true,0.0,1.0,0.0,-0.0078125,false,false,false,false,0.0,-0.0078125,0.0,-0.0078125,false,false,false,false,12.25,10.9,0.0,6389,-142,0,16.25,10.95,0.0,0,0,0,33.25,10.850000000000001,0.0,0,0,0,0.0,11.05,0.0,0,0,0,0.0,11.100000000000001,0.0,3,0,0,0.0,4.0,0.0,0,0,0,kReverse,0.0,0.0,0.0,0.0,0.0,0.0,0.0,0.0,0.0,0.0,0.0,
168.467176,true,true,true,0.0,1.0,0.0,-0.0078125,false,false,false,false,0.0,-0.0078125,0.0,-0.0078125,false,false,false,false,15.75,10.9,0.0,6308,-143,0,20.875,10.95,0.0,0,0,0,30.75,10.850000000000001,0.0,0,0,0,0.0,11.05,0.0,0,0,0,0.0,11.100000000000001,0.0,3,0,0,0.0,4.0,0.0,0,0,0,kReverse,0.0,0.0,0.0,0.0,0.0,0.0,0.0,0.0,0.0,0.0,0.0,
168.52251500000003,true,true,true,0.0,0.6377952694892883,0.0,-0.0078125,false,false,false,false,0.0,-0.0078125,0.0,-0.0078125,false,false,false,false,13.75,10.5,0.0,6218,-144,0,18.5,10.75,0.0,0,0,0,28.0,10.55,0.0,0,0,0,0.0,10.7,0.0,0,0,0,0.0,10.850000000000001,0.0,3,0,0,0.0,4.0,0.0,0,0,0,kReverse,0.0,0.0,0.0,0.0,0.0,0.0,0.0,0.0,0.0,0.0,0.0,
168.66327900000002,true,true,true,0.0,-0.0078125,1.0,-0.0078125,false,false,false,false,0.0,-0.0078125,0.0,-0.0078125,false,false,false,false,4.875,11.600000000000001,0.0,6041,-118,0,7.5,11.7,0.0,0,0,0,8.125,11.600000000000001,0.0,0,0,0,0.0,11.7,0.0,0,0,0,0.0,11.8,0.0,3,0,0,0.0,4.0,0.0,0,0,0,kReverse,0.0,0.0,0.0,0.0,0.0,0.0,0.0,0.0,0.0,0.0,0.0,
168.835768,true,true,true,0.0,-0.0078125,1.0,-0.0078125,false,false,false,false,0.0,-0.0078125,0.0,-0.0078125,false,false,false,false,12.625,11.25,0.0,5981,-6,0,16.875,11.3,0.0,0,0,0,11.75,11.3,0.0,0,0,0,0.0,11.350000000000001,0.0,0,0,0,0.0,11.4,0.0,3,0,0,0.0,4.0,0.0,0,0,0,kReverse,0.0,0.0,0.0,0.0,0.0,0.0,0.0,0.0,0.0,0.0,0.0,
168.989815,true,true,true,0.0,-0.0078125,1.0,-0.0078125,false,false,false,false,0.0,-0.0078125,0.0,-0.0078125,false,false,false,false,18.75,10.2,0.0,6133,115,0,25.125,10.45,0.0,0,0,0,33.125,10.15,0.0,0,0,0,0.0,10.5,0.0,0,0,0,0.0,10.55,0.0,3,0,0,0.0,4.0,0.0,0,0,0,kReverse,0.0,0.0,0.0,0.0,0.0,0.0,0.0,0.0,0.0,0.0,0.0,
169.075424,true,true,true,0.0,-0.0078125,1.0,-0.0078125,false,false,false,false,0.0,-0.0078125,0.0,-0.0078125,false,false,false,false,20.875,10.2,0.0,6217,107,0,28.625,10.45,0.0,0,0,0,34.0,10.15,0.0,0,0,0,0.0,10.5,0.0,0,0,0,0.0,10.55,0.0,3,0,0,0.0,4.0,0.0,0,0,0,kReverse,0.0,0.0,0.0,0.0,0.0,0.0,0.0,0.0,0.0,0.0,0.0,
169.142313,true,true,true,0.0,-0.0078125,-0.0078125,-0.0078125,false,false,false,false,0.0,-0.0078125,0.0,-0.0078125,false,false,false,false,22.25,10.2,0.0,6275,99,0,28.625,10.15,0.0,0,0,0,35.0,10.15,0.0,0,0,0,0.0,10.350000000000001,0.0,0,0,0,0.0,10.45,0.0,2,-1,0,0.0,4.0,0.0,0,0,0,kReverse,0.0,0.0,0.0,0.0,0.0,0.0,0.0,0.0,0.0,0.0,0.0,
169.215093,true,true,true,0.0,-0.0078125,-1.0,-0.0078125,false,false,false,false,0.0,-0.0078125,0.0,-0.0078125,false,false,false,false,3.375,10.100000000000001,0.0,6336,80,0,2.75,10.15,0.0,0,0,0,6.25,10.15,0.0,0,0,0,0.0,10.350000000000001,0.0,0,0,0,0.0,10.45,0.0,2,-1,0,0.0,4.0,0.0,0,0,0,kReverse,0.0,0.0,0.0,0.0,0.0,0.0,0.0,0.0,0.0,0.0,0.0,
169.318626,true,true,true,0.0,-0.0078125,-1.0,-0.0078125,false,false,false,false,0.0,-0.0078125,0.0,-0.0078125,false,false,false,false,16.75,10.15,0.0,6318,-18,0,22.625,10.15,0.0,0,0,0,31.5,10.100000000000001,0.0,0,0,0,0.0,10.4,0.0,0,0,0,0.0,10.5,0.0,2,0,0,0.0,4.0,0.0,0,0,0,kReverse,0.0,0.0,0.0,0.0,0.0,0.0,0.0,0.0,0.0,0.0,0.0,
169.389701,true,true,true,0.0,-0.0078125,-1.0,-0.0078125,false,false,false,false,0.0,-0.0078125,0.0,-0.0078125,false,false,false,false,17.875,10.15,0.0,6249,-80,0,22.5,10.15,0.0,0,0,0,29.75,10.100000000000001,0.0,0,0,0,0.0,10.4,0.0,0,0,0,0.0,10.5,0.0,2,0,0,0.0,4.0,0.0,0,0,0,kReverse,0.0,0.0,0.0,0.0,0.0,0.0,0.0,0.0,0.0,0.0,0.0,
169.451854,true,true,true,0.0,-0.0078125,-0.125,-0.0078125,false,false,false,false,0.0,-0.0078125,0.0,-0.0078125,false,false,false,false,18.625,10.15,0.0,6193,-95,0,23.25,10.15,0.0,0,0,0,32.375,10.100000000000001,0.0,0,0,0,0.0,10.4,0.0,0,0,0,0.0,10.5,0.0,2,0,0,0.0,4.0,0.0,0,0,0,kReverse,0.0,0.0,0.0,0.0,0.0,0.0,0.0,0.0,0.0,0.0,0.0,
169.543968,true,true,true,0.0,-0.0078125,0.0,-0.0078125,false,false,false,false,0.0,-0.0078125,0.0,-0.0078125,false,false,false,false,0.0,10.350000000000001,0.0,6124,-69,0,0.625,10.4,0.0,0,0,0,0.75,10.45,0.0,0,0,0,0.0,10.5,0.0,0,0,0,0.0,10.65,0.0,2,0,0,0.0,4.0,0.0,0,0,0,kReverse,0.0,0.0,0.0,0.0,0.0,0.0,0.0,0.0,0.0,0.0,0.0,
169.72583799999998,true,true,true,0.0,-0.0078125,0.15748031437397003,-0.0078125,false,false,false,false,0.0,-0.0078125,0.0,-0.0078125,false,false,false,false,0.0,12.25,0.0,6096,-5,0,0.0,12.25,0.0,0,0,0,0.0,12.25,0.0,0,0,0,0.0,12.25,0.0,0,0,0,0.0,12.35,0.0,2,0,0,0.0,4.0,0.0,0,0,0,kReverse,0.0,0.0,0.0,0.0,0.0,0.0,0.0,0.0,0.0,0.0,0.0,
169.835687,true,true,true,0.0,-0.0078125,0.0,-0.0078125,false,false,false,false,0.0,-0.0078125,0.0,-0.0078125,false,false,false,false,0.0,12.25,0.0,6104,8,0,0.25,12.25,0.0,0,0,0,0.125,12.25,0.0,0,0,0,0.0,12.25,0.0,0,0,0,0.0,12.35,0.0,2,0,0,0.0,4.0,0.0,0,0,0,kReverse,0.0,0.0,0.0,0.0,0.0,0.0,0.0,0.0,0.0,0.0,0.0,
169.92155799999998,true,true,true,0.0,-0.0078125,0.0,-0.0078125,false,false,false,false,0.0,-0.0078125,0.0,-0.0078125,false,false,false,false,0.0,12.25,0.0,6111,10,0,0.125,12.25,0.0,0,0,0,0.0,12.25,0.0,0,0,0,0.0,12.25,0.0,0,0,0,0.0,12.35,0.0,2,0,0,0.0,4.0,0.0,0,0,0,kReverse,0.0,0.0,0.0,0.0,0.0,0.0,0.0,0.0,0.0,0.0,0.0,
169.980803,true,true,true,0.0,-0.0078125,0.0,-0.0078125,false,false,false,false,0.0,-0.0078125,0.0,-0.0078125,false,false,false,false,0.0,12.3,0.0,6111,1,0,0.0,12.35,0.0,0,0,0,0.0,12.35,0.0,0,0,0,0.0,12.3,0.0,0,0,0,0.0,12.4,0.0,2,0,0,0.0,4.0,0.0,0,0,0,kReverse,0.0,0.0,0.0,0.0,0.0,0.0,0.0,0.0,0.0,0.0,0.0,
170.078834,true,true,true,0.0,-0.0078125,0.0,-0.0078125,false,false,false,false,0.0,-0.0078125,0.0,-0.0078125,false,false,false,false,0.0,12.3,0.0,6111,0,0,0.125,12.35,0.0,0,0,0,0.0,12.35,0.0,0,0,0,0.0,12.3,0.0,0,0,0,0.0,12.4,0.0,2,0,0,0.0,4.0,0.0,0,0,0,kReverse,0.0,0.0,0.0,0.0,0.0,0.0,0.0,0.0,0.0,0.0,0.0,
170.176286,true,true,true,0.0,-0.0078125,0.0,-0.0078125,false,false,false,false,0.0,-0.0078125,0.0,-0.0078125,false,false,false,false,0.0,12.35,0.0,6111,0,0,0.125,12.35,0.0,0,0,0,0.0,12.35,0.0,0,0,0,0.0,12.35,0.0,0,0,0,0.0,12.4,0.0,2,0,0,0.0,4.0,0.0,0,0,0,kReverse,0.0,0.0,0.0,0.0,0.0,0.0,0.0,0.0,0.0,0.0,0.0,
170.299626,true,true,true,0.0,0.9842519760131836,0.0,-0.0078125,false,false,false,false,0.0,-0.0078125,0.0,-0.0078125,false,false,false,false,0.0,12.35,0.0,6111,0,0,0.125,12.35,0.0,0,0,0,0.0,12.35,0.0,0,0,0,0.0,12.35,0.0,0,0,0,0.0,12.4,0.0,2,0,0,0.0,4.0,0.0,0,0,0,kReverse,0.0,0.0,0.0,0.0,0.0,0.0,0.0,0.0,0.0,0.0,0.0,
170.359632,true,true,true,0.0,1.0,0.0,-0.0078125,false,false,false,false,0.0,-0.0078125,0.0,-0.0078125,false,false,false,false,19.125,12.35,0.0,6101,-10,0,14.25,12.35,0.0,0,0,0,43.5,12.35,0.0,0,0,0,0.0,12.35,0.0,0,0,0,0.0,12.4,0.0,2,0,0,0.0,4.0,0.0,0,0,0,kReverse,0.0,0.0,0.0,0.0,0.0,0.0,0.0,0.0,0.0,0.0,0.0,
170.469872,true,true,true,0.0,1.0,0.0,-0.0078125,false,false,false,false,0.0,-0.0078125,0.0,-0.0078125,false,false,false,false,27.625,9.05,0.0,5845,-238,0,34.0,9.15,0.0,0,0,0,62.625,8.95,0.0,0,0,0,0.0,9.4,0.0,0,0,0,0.0,9.45,0.0,2,0,0,0.0,4.0,0.0,0,0,0,kReverse,0.0,0.0,0.0,0.0,0.0,0.0,0.0,0.0,0.0,0.0,0.0,
170.566187,true,true,true,0.0,1.0,0.0,-0.0078125,false,false,false,false,0.0,-0.0078125,0.0,-0.0078125,false,false,false,false,27.625,9.05,0.0,5544,-301,0,34.25,9.15,0.0,0,0,0,57.75,8.95,0.0,0,0,0,0.0,9.4,0.0,0,0,0,0.0,9.45,0.0,2,0,0,0.0,4.0,0.0,0,0,0,kReverse,0.0,0.0,0.0,0.0,0.0,0.0,0.0,0.0,0.0,0.0,0.0,
170.622643,true,true,true,0.0,1.0,0.0,-0.0078125,false,false,false,false,0.0,-0.0078125,0.0,-0.0078125,false,false,false,false,27.75,9.15,0.0,5362,-302,0,34.5,9.25,0.0,0,0,0,55.625,9.100000000000001,0.0,0,0,0,0.0,9.45,0.0,0,0,0,0.0,9.55,0.0,2,0,0,0.0,4.0,0.0,0,0,0,kReverse,0.0,0.0,0.0,0.0,0.0,0.0,0.0,0.0,0.0,0.0,0.0,
170.698688,true,true,true,0.0,1.0,0.0,-0.0078125,false,false,false,false,0.0,-0.0078125,0.0,-0.0078125,false,false,false,false,26.875,9.15,0.0,5180,-302,0,32.875,9.25,0.0,0,0,0,57.375,9.100000000000001,0.0,0,0,0,0.0,9.45,0.0,0,0,0,0.0,9.55,0.0,2,0,0,0.0,4.0,0.0,0,0,0,kReverse,0.0,0.0,0.0,0.0,0.0,0.0,0.0,0.0,0.0,0.0,0.0,
170.800231,true,true,true,0.0,1.0,0.0,-0.0078125,false,false,false,false,0.0,-0.0078125,0.0,-0.0078125,false,false,false,false,25.5,9.15,0.0,4801,-319,0,31.75,9.3,0.0,0,0,0,52.875,9.100000000000001,0.0,0,0,0,0.0,9.5,0.0,0,0,0,0.0,9.600000000000001,0.0,2,0,0,0.0,4.0,0.0,0,0,0,kReverse,0.0,0.0,0.0,0.0,0.0,0.0,0.0,0.0,0.0,0.0,0.0,
170.916344,true,true,true,0.0,1.0,0.0,-0.0078125,false,false,false,false,0.0,-0.0078125,0.0,-0.0078125,false,false,false,false,28.625,9.15,0.0,4484,-317,0,35.625,9.25,0.0,0,0,0,47.875,9.15,0.0,0,0,0,0.0,9.5,0.0,0,0,0,0.0,9.55,0.0,2,0,0,0.0,4.0,0.0,0,0,0,kReverse,0.0,0.0,0.0,0.0,0.0,0.0,0.0,0.0,0.0,0.0,0.0,
170.97985,true,true,true,0.0,1.0,0.0,-0.0078125,false,false,false,false,0.0,-0.0078125,0.0,-0.0078125,false,false,false,false,25.625,9.15,0.0,4292,-313,0,31.75,9.25,0.0,0,0,0,39.375,9.15,0.0,0,0,0,0.0,9.5,0.0,0,0,0,0.0,9.55,0.0,2,0,0,0.0,4.0,0.0,0,0,0,kReverse,0.0,0.0,0.0,0.0,0.0,0.0,0.0,0.0,0.0,0.0,0.0,
171.039497,true,true,true,0.0,1.0,0.0,-0.0078125,false,false,false,false,0.0,-0.0078125,0.0,-0.0078125,false,false,false,false,27.0,9.15,0.0,4094,-331,0,33.125,9.25,0.0,0,0,0,41.625,9.15,0.0,0,0,0,0.0,9.5,0.0,0,0,0,0.0,9.55,0.0,2,0,0,0.0,4.0,0.0,0,0,0,kReverse,0.0,0.0,0.0,0.0,0.0,0.0,0.0,0.0,0.0,0.0,0.0,
171.100843,true,true,true,0.0,1.0,0.0,-0.0078125,false,false,false,false,0.0,-0.0078125,0.0,-0.0078125,false,false,false,false,25.0,9.4,0.0,3892,-331,0,32.625,9.5,0.0,0,0,0,39.875,9.45,0.0,0,0,0,0.0,9.7,0.0,0,0,0,0.0,9.8,0.0,2,0,0,0.0,4.0,0.0,0,0,0,kReverse,0.0,0.0,0.0,0.0,0.0,0.0,0.0,0.0,0.0,0.0,0.0,
171.160891,true,true,true,0.0,1.0,0.0,-0.0078125,false,false,false,false,0.0,-0.0078125,0.0,-0.0078125,false,false,false,false,23.5,9.4,0.0,3682,-343,0,27.125,9.5,0.0,0,0,0,37.375,9.45,0.0,0,0,0,0.0,9.7,0.0,0,0,0,0.0,9.8,0.0,2,0,0,0.0,4.0,0.0,0,0,0,kReverse,0.0,0.0,0.0,0.0,0.0,0.0,0.0,0.0,0.0,0.0,0.0,
171.304236,true,true,true,0.0,1.0,0.0,-0.0078125,false,false,false,false,0.0,-0.0078125,0.0,-0.0078125,false,false,false,false,11.5,10.4,0.0,2958,-468,0,17.375,10.5,0.0,0,0,0,33.625,10.4,0.0,0,0,0,0.0,10.55,0.0,0,0,0,0.0,10.65,0.0,2,0,0,0.0,4.0,0.0,0,0,0,kReverse,0.0,0.0,0.0,0.0,0.0,0.0,0.0,0.0,0.0,0.0,0.0,
171.443481,true,true,true,0.0,1.0,0.0,-0.0078125,false,false,false,false,0.0,-0.0078125,0.0,-0.0078125,false,false,false,false,11.0,10.65,0.0,2289,-475,0,16.0,10.75,0.0,0,0,0,38.375,10.65,0.0,0,0,0,0.0,10.8,0.0,0,0,0,0.0,10.9,0.0,2,0,0,0.0,4.0,0.0,0,0,0,kReverse,0.0,0.0,0.0,0.0,0.0,0.0,0.0,0.0,0.0,0.0,0.0,
171.582153,true,true,true,0.0,1.0,0.0,-0.0078125,false,false,false,false,0.0,-0.0078125,0.0,-0.0078125,false,false,false,false,16.5,10.25,0.0,1645,-449,256,22.875,10.4,0.0,0,0,0,17.75,10.4,0.0,0,0,0,0.0,10.5,0.0,0,0,0,0.0,10.600000000000001,0.0,0,-2,0,0.0,4.0,0.0,0,0,0,kReverse,0.0,0.0,0.0,0.0,0.0,0.0,0.0,0.0,0.0,0.0,0.0,
171.660326,true,true,true,0.0,0.4566929042339325,0.0,-0.0078125,false,false,false,false,0.0,-0.0078125,0.0,-0.0078125,false,false,false,false,11.625,10.25,0.0,1369,-447,256,15.5,10.4,0.0,0,0,0,31.375,10.4,0.0,0,0,0,0.0,10.5,0.0,0,0,0,0.0,10.600000000000001,0.0,0,0,0,0.0,4.0,0.0,0,0,0,kReverse,0.0,0.0,0.0,0.0,0.0,0.0,0.0,0.0,0.0,0.0,0.0,
171.756406,true,true,true,0.0,-0.015625,0.0,-0.0078125,false,false,false,false,0.0,-0.0078125,0.0,-0.0078125,false,false,false,false,0.0,12.35,0.0,905,-464,256,0.125,12.3,0.0,0,0,0,1.375,12.3,0.0,0,0,0,0.0,12.25,0.0,0,0,0,0.0,12.35,0.0,0,0,0,0.0,4.0,0.0,0,0,0,kReverse,0.0,0.0,0.0,0.0,0.0,0.0,0.0,0.0,0.0,0.0,0.0,
171.815863,true,true,true,0.0,-0.015625,0.0,-0.0078125,false,false,false,false,0.0,-0.0078125,0.0,-0.0078125,false,false,false,false,0.0,12.35,0.0,702,-368,0,0.5,12.3,0.0,0,0,0,0.25,12.3,0.0,0,0,0,0.0,12.25,0.0,0,0,0,0.0,12.35,0.0,4,4,0,0.0,4.0,0.0,0,0,0,kReverse,0.0,0.0,0.0,0.0,0.0,0.0,0.0,0.0,0.0,0.0,0.0,
171.865006,true,true,true,0.0,-0.015625,0.0,-0.0078125,false,false,false,false,0.0,-0.0078125,0.0,-0.0078125,false,false,false,false,0.0,12.25,0.0,536,-295,0,0.0,12.25,0.0,0,0,0,0.0,12.25,0.0,2,2,0,0.0,12.25,0.0,0,0,0,0.0,12.35,0.0,4,4,0,0.0,4.0,0.0,0,0,0,kReverse,0.0,0.0,0.0,0.0,0.0,0.0,0.0,0.0,0.0,0.0,0.0,
171.96949300000003,true,true,true,0.0,-0.015625,0.0,-0.0078125,false,false,false,false,0.0,-0.0078125,0.0,-0.0078125,false,false,false,false,0.0,12.25,0.0,331,-205,0,0.125,12.25,0.0,0,0,0,0.0,12.25,0.0,2,0,0,0.0,12.25,0.0,0,0,0,0.0,12.35,0.0,4,0,0,0.0,4.0,0.0,0,0,0,kReverse,0.0,0.0,0.0,0.0,0.0,0.0,0.0,0.0,0.0,0.0,0.0,
172.131745,true,true,true,0.0,-0.015625,0.0,-0.0078125,false,false,false,false,0.0,-0.0078125,0.0,-0.0078125,false,false,false,false,0.0,12.25,0.0,116,-124,0,0.0,12.3,0.0,0,0,0,0.0,12.3,0.0,2,0,0,0.0,12.25,0.0,0,0,0,0.0,12.35,0.0,4,0,0,0.0,4.0,0.0,0,0,0,kReverse,0.0,0.0,0.0,0.0,0.0,0.0,0.0,0.0,0.0,0.0,0.0,
172.302196,true,true,true,0.0,-0.015625,-0.0859375,-0.0078125,false,false,false,false,0.0,-0.0078125,0.0,-0.0078125,false,false,false,false,0.0,12.3,0.0,-6,-54,0,0.125,12.35,0.0,0,0,0,0.0,12.35,0.0,2,0,0,0.0,12.3,0.0,0,0,0,0.0,12.4,0.0,4,0,0,0.0,4.0,0.0,0,0,0,kReverse,0.0,0.0,0.0,0.0,0.0,0.0,0.0,0.0,0.0,0.0,0.0,
172.41726200000002,true,true,true,0.0,-0.015625,-1.0,-0.0078125,false,false,false,false,0.0,-0.0078125,0.0,-0.0078125,false,false,false,false,0.0,12.3,0.0,-26,-20,0,0.125,12.35,0.0,0,0,0,0.0,12.3,0.0,2,0,0,0.0,12.3,0.0,0,0,0,0.0,12.4,0.0,4,0,0,0.0,4.0,0.0,0,0,0,kReverse,0.0,0.0,0.0,0.0,0.0,0.0,0.0,0.0,0.0,0.0,0.0,
172.584863,true,true,true,0.0,-0.015625,-1.0,-0.0078125,false,false,false,false,0.0,-0.0078125,0.0,-0.0078125,false,false,false,false,10.375,10.850000000000001,0.0,-152,-111,0,14.125,10.95,0.0,0,0,0,28.125,11.0,0.0,2,0,0,0.0,11.100000000000001,0.0,0,0,0,0.0,11.15,0.0,4,0,0,0.0,4.0,0.0,0,0,0,kReverse,0.0,0.0,0.0,0.0,0.0,0.0,0.0,0.0,0.0,0.0,0.0,
172.679441,true,true,true,0.0,-0.015625,-1.0,-0.0078125,false,false,false,false,0.0,-0.0078125,0.0,-0.0078125,false,false,false,false,11.0,10.75,0.0,-296,-178,0,15.0,10.8,0.0,0,0,0,28.0,10.7,0.0,2,0,0,0.0,10.850000000000001,0.0,0,0,0,0.0,10.95,0.0,4,0,0,0.0,4.0,0.0,0,0,0,kReverse,0.0,0.0,0.0,0.0,0.0,0.0,0.0,0.0,0.0,0.0,0.0,
172.75278899999998,true,true,true,0.0,-0.015625,0.0,-0.0078125,false,false,false,false,0.0,-0.0078125,0.0,-0.0078125,false,false,false,false,10.875,10.75,0.0,-440,-182,0,15.0,10.8,0.0,0,0,0,27.75,10.7,0.0,2,0,0,0.0,10.850000000000001,0.0,0,0,0,0.0,10.95,0.0,4,0,0,0.0,4.0,0.0,0,0,0,kReverse,0.0,0.0,0.0,0.0,0.0,0.0,0.0,0.0,0.0,0.0,0.0,
172.80025,true,true,true,0.0,-0.015625,0.0,-0.0078125,false,false,false,false,0.0,-0.0078125,0.0,-0.0078125,false,false,false,false,5.5,10.75,0.0,-508,-177,0,7.125,10.8,0.0,0,0,0,7.125,10.7,0.0,2,0,0,0.0,12.200000000000001,0.0,0,0,0,0.0,12.25,0.0,4,0,0,0.0,4.0,0.0,0,0,0,kReverse,0.0,0.0,0.0,0.0,0.0,0.0,0.0,0.0,0.0,0.0,0.0,
172.918609,true,true,true,0.0,-0.015625,-0.4453125,-0.0078125,false,false,false,false,0.0,-0.0078125,0.0,-0.0078125,false,false,false,false,0.0,12.200000000000001,0.0,-642,-106,0,0.125,12.200000000000001,0.0,0,0,0,0.0,12.200000000000001,0.0,2,0,0,0.0,12.200000000000001,0.0,0,0,0,0.0,12.25,0.0,4,0,0,0.0,4.0,0.0,0,0,0,kReverse,0.0,0.0,0.0,0.0,0.0,0.0,0.0,0.0,0.0,0.0,0.0,
173.004069,true,true,true,0.0,-0.015625,-1.0,-0.0078125,false,false,false,false,0.0,-0.0078125,0.0,-0.0078125,false,false,false,false,2.125,11.95,0.0,-715,-73,0,3.75,12.05,0.0,0,0,0,4.0,12.0,0.0,2,0,0,0.0,12.05,0.0,0,0,0,0.0,12.1,0.0,4,0,0,0.0,4.0,0.0,0,0,0,kReverse,0.0,0.0,0.0,0.0,0.0,0.0,0.0,0.0,0.0,0.0,0.0,
173.059239,true,true,true,0.0,-0.015625,-1.0,-0.0078125,false,false,false,false,0.0,-0.0078125,0.0,-0.0078125,false,false,false,false,12.625,11.95,0.0,-740,-68,0,12.125,12.05,0.0,0,0,0,26.0,12.0,0.0,2,0,0,0.0,12.05,0.0,0,0,0,0.0,12.1,0.0,4,0,0,0.0,4.0,0.0,0,0,0,kReverse,0.0,0.0,0.0,0.0,0.0,0.0,0.0,0.0,0.0,0.0,0.0,
173.135863,true,true,true,0.0,-0.015625,-1.0,-0.0078125,false,false,false,false,0.0,-0.0078125,0.0,-0.0078125,false,false,false,false,8.75,11.95,0.0,-862,-136,0,12.625,12.05,0.0,0,0,0,29.375,10.8,0.0,2,0,0,0.0,10.9,0.0,0,0,0,0.0,11.0,0.0,4,0,0,0.0,4.0,0.0,0,0,0,kReverse,0.0,0.0,0.0,0.0,0.0,0.0,0.0,0.0,0.0,0.0,0.0,
173.233127,true,true,true,0.0,-0.015625,0.0,-0.0078125,false,false,false,false,0.0,-0.0078125,0.0,-0.0078125,false,false,false,false,8.375,10.850000000000001,0.0,-1078,-216,0,12.125,10.95,0.0,0,0,0,30.875,10.8,0.0,2,0,0,0.0,10.9,0.0,0,0,0,0.0,11.0,0.0,4,0,0,0.0,4.0,0.0,0,0,0,kReverse,0.0,0.0,0.0,0.0,0.0,0.0,0.0,0.0,0.0,0.0,0.0,
173.286065,true,true,true,0.0,-0.015625,0.0,-0.0078125,false,false,false,false,0.0,-0.0078125,0.0,-0.0078125,false,false,false,false,2.0,10.850000000000001,0.0,-1190,-198,0,5.125,10.95,0.0,0,0,0,7.625,10.8,0.0,2,0,0,0.0,10.9,0.0,0,0,0,0.0,11.0,0.0,4,0,0,0.0,4.0,0.0,0,0,0,kReverse,0.0,0.0,0.0,0.0,0.0,0.0,0.0,0.0,0.0,0.0,0.0,
173.362946,true,true,true,0.0,-0.015625,0.0,-0.0078125,false,false,false,false,0.0,-0.0078125,0.0,-0.0078125,false,false,false,false,0.0,12.200000000000001,0.0,-1296,-139,0,0.125,12.200000000000001,0.0,0,0,0,0.0,12.200000000000001,0.0,2,0,0,0.0,12.200000000000001,0.0,0,0,0,0.0,12.3,0.0,4,0,0,0.0,4.0,0.0,0,0,0,kReverse,0.0,0.0,0.0,0.0,0.0,0.0,0.0,0.0,0.0,0.0,0.0,
173.47340100000002,true,true,true,0.0,-0.015625,0.0,-0.0078125,false,false,false,false,0.0,-0.0078125,0.0,-0.0078125,false,false,false,false,0.0,12.3,0.0,-1385,-89,0,0.125,12.3,0.0,0,0,0,0.0,12.3,0.0,2,0,0,0.0,12.3,0.0,0,0,0,0.0,12.35,0.0,4,0,0,0.0,4.0,0.0,0,0,0,kReverse,0.0,0.0,0.0,0.0,0.0,0.0,0.0,0.0,0.0,0.0,0.0,
173.637157,true,true,true,0.0,1.0,0.0,-0.0078125,false,false,false,false,0.0,-0.0078125,0.0,-0.0078125,false,false,false,false,0.0,12.35,0.0,-1447,-29,0,0.125,12.35,0.0,0,0,0,0.0,12.35,0.0,2,0,0,0.0,12.35,0.0,0,0,0,0.0,12.4,0.0,4,0,0,0.0,4.0,0.0,0,0,0,kReverse,0.0,0.0,0.0,0.0,0.0,0.0,0.0,0.0,0.0,0.0,0.0,
173.783248,true,true,true,0.0,1.0,0.0,-0.0078125,false,false,false,false,0.0,-0.0078125,0.0,-0.0078125,false,false,false,false,16.75,10.0,0.0,-1772,-297,0,21.875,10.100000000000001,0.0,0,0,0,43.25,9.95,0.0,2,0,0,0.0,10.2,0.0,0,0,0,0.0,10.3,0.0,4,0,0,0.0,4.0,0.0,0,0,0,kReverse,0.0,0.0,0.0,0.0,0.0,0.0,0.0,0.0,0.0,0.0,0.0,
173.900226,true,true,true,0.0,1.0,0.0,-0.0078125,false,false,false,false,0.0,-0.0078125,0.0,-0.0078125,false,false,false,false,19.25,10.0,0.0,-2248,-397,0,25.25,10.100000000000001,0.0,0,0,0,41.5,9.95,0.0,2,0,0,0.0,10.2,0.0,0,0,0,0.0,10.3,0.0,4,0,0,0.0,4.0,0.0,0,0,0,kReverse,0.0,0.0,0.0,0.0,0.0,0.0,0.0,0.0,0.0,0.0,0.0,
174.035346,true,true,true,0.0,1.0,0.0,-0.0078125,false,false,false,false,0.0,-0.0078125,0.0,-0.0078125,false,false,false,false,15.25,9.850000000000001,0.0,-2738,-410,0,21.25,9.9,0.0,0,0,0,53.5,9.75,0.0,2,0,0,0.0,10.05,0.0,0,0,0,0.0,10.15,0.0,4,0,0,0.0,4.0,0.0,0,0,0,kReverse,0.0,0.0,0.0,0.0,0.0,0.0,0.0,0.0,0.0,0.0,0.0,
174.14013500000001,true,true,true,0.0,-0.0078125,0.0,-0.0078125,false,false,false,false,0.0,-0.0078125,0.0,-0.0078125,false,false,false,false,18.375,9.75,0.0,-3214,-393,0,24.375,9.850000000000001,0.0,0,0,0,50.75,9.65,0.0,2,0,0,0.0,9.95,0.0,0,0,0,0.0,10.05,0.0,4,0,0,0.0,4.0,0.0,0,0,0,kReverse,0.0,0.0,0.0,0.0,0.0,0.0,0.0,0.0,0.0,0.0,0.0,
174.263801,true,true,true,0.0,-0.0078125,0.0,-0.0078125,false,false,false,false,0.0,-0.0078125,0.0,-0.0078125,false,false,false,false,0.0,12.200000000000001,0.0,-3540,-255,0,0.125,12.200000000000001,0.0,0,0,0,0.0,12.200000000000001,0.0,2,0,0,0.0,12.200000000000001,0.0,0,0,0,0.0,12.25,0.0,4,0,0,0.0,4.0,0.0,0,0,0,kReverse,0.0,0.0,0.0,0.0,0.0,0.0,0.0,0.0,0.0,0.0,0.0,
174.40009400000002,true,true,true,0.0,-0.0078125,0.0,-0.0078125,false,false,false,false,0.0,-0.0078125,0.0,-0.0078125,false,false,false,false,0.0,12.200000000000001,0.0,-3751,-136,0,0.125,12.200000000000001,0.0,0,0,0,0.0,12.200000000000001,0.0,2,0,0,0.0,12.25,0.0,0,0,0,0.0,12.35,0.0,4,0,0,0.0,4.0,0.0,0,0,0,kReverse,0.0,0.0,0.0,0.0,0.0,0.0,0.0,0.0,0.0,0.0,0.0,
174.57346299999998,true,true,true,0.0,-0.0078125,0.0,-0.0078125,false,false,false,false,0.0,-0.0078125,0.0,-0.0078125,false,false,false,false,0.0,12.25,0.0,-3855,-52,0,0.0,12.3,0.0,0,0,0,0.0,12.25,0.0,2,0,0,0.0,12.3,0.0,0,0,0,0.0,12.4,0.0,4,0,0,0.0,4.0,0.0,0,0,0,kReverse,0.0,0.0,0.0,0.0,0.0,0.0,0.0,0.0,0.0,0.0,0.0,
174.687012,true,true,true,0.0,0.4881889820098877,0.0,-0.0078125,false,false,false,false,0.0,-0.0078125,0.0,-0.0078125,false,false,false,false,0.0,12.3,0.0,-3875,-13,0,0.0,12.35,0.0,0,0,0,0.0,12.3,0.0,2,0,0,0.0,12.3,0.0,0,0,0,0.0,12.4,0.0,4,0,0,0.0,4.0,0.0,0,0,0,kReverse,0.0,0.0,0.0,0.0,0.0,0.0,0.0,0.0,0.0,0.0,0.0,
174.746536,true,true,true,-0.0078125,1.0,0.0,-0.0078125,false,false,false,false,0.0,-0.0078125,0.0,-0.0078125,false,false,false,false,3.75,11.850000000000001,0.0,-3880,-6,0,4.25,11.850000000000001,0.0,0,0,0,5.375,11.850000000000001,0.0,2,0,0,0.0,11.9,0.0,0,0,0,0.0,12.0,0.0,4,0,0,0.0,4.0,0.0,0,0,0,kReverse,0.0,0.0,0.0,0.0,0.0,0.0,0.0,0.0,0.0,0.0,0.0,
174.80250400000003,true,true,true,-0.0078125,1.0,0.0,-0.0078125,false,false,false,false,0.0,-0.0078125,0.0,-0.0078125,false,false,false,false,12.25,11.850000000000001,0.0,-3905,-30,0,14.875,11.850000000000001,0.0,0,0,0,27.25,11.850000000000001,0.0,2,0,0,0.0,11.9,0.0,0,0,0,0.0,12.0,0.0,4,0,0,0.0,4.0,0.0,0,0,0,kReverse,0.0,0.0,0.0,0.0,0.0,0.0,0.0,0.0,0.0,0.0,0.0,
174.913464,true,true,true,-0.0078125,0.913385808467865,0.0,-0.0078125,false,false,false,false,0.0,-0.0078125,0.0,-0.0078125,false,false,false,false,11.375,10.600000000000001,0.0,-4061,-156,0,15.5,10.8,0.0,0,0,0,27.0,10.8,0.0,2,0,0,0.0,10.9,0.0,0,0,0,0.0,10.95,0.0,4,0,0,0.0,4.0,0.0,0,0,0,kReverse,0.0,0.0,0.0,0.0,0.0,0.0,0.0,0.0,0.0,0.0,0.0,
174.98313700000003,true,true,true,-0.0078125,0.14173229038715363,0.0,-0.0078125,false,false,false,false,0.0,-0.0078125,0.0,-0.0078125,false,false,false,false,20.625,10.600000000000001,0.0,-4259,-235,0,27.0,10.8,0.0,0,0,0,53.875,10.8,0.0,2,0,0,0.0,10.9,0.0,0,0,0,0.0,10.95,0.0,4,0,0,0.0,4.0,0.0,0,0,0,kReverse,0.0,0.0,0.0,0.0,0.0,0.0,0.0,0.0,0.0,0.0,0.0,
175.042688,true,true,true,-0.0078125,-0.0234375,0.0,-0.0078125,false,false,false,false,0.0,-0.0078125,0.0,-0.0078125,false,false,false,false,1.625,10.600000000000001,0.0,-4422,-273,0,7.375,10.8,0.0,0,0,0,5.5,10.8,0.0,2,0,0,0.0,10.9,0.0,0,0,0,0.0,10.95,0.0,4,0,0,0.0,4.0,0.0,0,0,0,kReverse,0.0,0.0,0.0,0.0,0.0,0.0,0.0,0.0,0.0,0.0,0.0,
175.145685,true,true,true,-0.0078125,-0.0234375,0.0,-0.0078125,false,false,false,false,0.0,-0.0078125,0.0,-0.0078125,false,false,false,false,0.0,12.200000000000001,0.0,-4610,-188,0,0.125,12.200000000000001,0.0,0,0,0,0.0,12.200000000000001,0.0,2,0,0,0.0,12.200000000000001,0.0,0,0,0,0.0,12.25,0.0,4,0,0,0.0,4.0,0.0,0,0,0,kReverse,0.0,0.0,0.0,0.0,0.0,0.0,0.0,0.0,0.0,0.0,0.0,
175.256973,true,true,true,-0.0078125,-0.0234375,0.0,-0.0078125,false,false,false,false,0.0,-0.0078125,0.0,-0.0078125,false,false,false,false,0.0,12.3,0.0,-4739,-129,0,0.125,12.3,0.0,0,0,0,0.0,12.3,0.0,2,0,0,0.0,12.3,0.0,0,0,0,0.0,12.35,0.0,4,0,0,0.0,4.0,0.0,0,0,0,kReverse,0.0,0.0,0.0,0.0,0.0,0.0,0.0,0.0,0.0,0.0,0.0,
175.354165,true,true,true,-0.0078125,0.31496062874794006,0.0,-0.0078125,false,false,false,false,0.0,-0.0078125,0.0,-0.0078125,false,false,false,false,0.0,12.3,0.0,-4824,-85,0,0.125,12.3,0.0,0,0,0,0.0,12.3,0.0,2,0,0,0.0,12.3,0.0,0,0,0,0.0,12.35,0.0,4,0,0,0.0,4.0,0.0,0,0,0,kReverse,0.0,0.0,0.0,0.0,0.0,0.0,0.0,0.0,0.0,0.0,0.0,
175.417024,true,true,true,-0.0078125,0.9448819160461426,0.0,-0.0078125,false,false,false,false,0.0,-0.0078125,0.0,-0.0078125,false,false,false,false,1.625,12.15,0.0,-4858,-63,0,2.25,12.200000000000001,0.0,0,0,0,2.625,12.200000000000001,0.0,2,0,0,0.0,12.200000000000001,0.0,0,0,0,0.0,12.25,0.0,4,0,0,0.0,4.0,0.0,0,0,0,kReverse,0.0,0.0,0.0,0.0,0.0,0.0,0.0,0.0,0.0,0.0,0.0,
175.491607,true,true,true,-0.015625,1.0,0.0,-0.0078125,false,false,false,false,0.0,-0.0078125,0.0,-0.0078125,false,false,false,false,14.75,12.15,0.0,-4887,-40,0,14.75,12.200000000000001,0.0,0,0,0,23.125,12.200000000000001,0.0,2,0,0,0.0,12.200000000000001,0.0,0,0,0,0.0,12.25,0.0,4,0,0,0.0,4.0,0.0,0,0,0,kReverse,0.0,0.0,0.0,0.0,0.0,0.0,0.0,0.0,0.0,0.0,0.0,
175.550709,true,true,true,-0.0234375,1.0,0.0,-0.0078125,false,false,false,false,0.0,-0.0078125,0.0,-0.0078125,false,false,false,false,10.25,10.7,0.0,-4958,-88,0,14.0,10.8,0.0,0,0,0,30.375,10.8,0.0,2,0,0,0.0,10.9,0.0,0,0,0,0.0,11.0,0.0,4,0,0,0.0,4.0,0.0,0,0,0,kReverse,0.0,0.0,0.0,0.0,0.0,0.0,0.0,0.0,0.0,0.0,0.0,
175.60992199999998,true,true,true,-0.0234375,0.18110236525535583,0.0,-0.0078125,false,false,false,false,0.0,-0.0078125,0.0,-0.0078125,false,false,false,false,10.375,10.7,0.0,-5072,-168,0,14.25,10.8,0.0,0,0,0,25.875,10.8,0.0,2,0,0,0.0,10.9,0.0,0,0,0,0.0,11.0,0.0,4,0,0,0.0,4.0,0.0,0,0,0,kReverse,0.0,0.0,0.0,0.0,0.0,0.0,0.0,0.0,0.0,0.0,0.0,
175.714472,true,true,true,-0.0234375,-0.0078125,0.0,-0.0078125,false,false,false,false,0.0,-0.0078125,0.0,-0.0078125,false,false,false,false,0.0,12.200000000000001,0.0,-5245,-173,0,0.625,12.15,0.0,0,0,0,0.625,12.15,0.0,2,0,0,0.0,12.15,0.0,0,0,0,0.0,12.25,0.0,4,0,0,0.0,4.0,0.0,0,0,0,kReverse,0.0,0.0,0.0,0.0,0.0,0.0,0.0,0.0,0.0,0.0,0.0,
175.80102499999998,true,true,true,-0.0234375,-0.0078125,0.0,-0.0078125,false,false,false,false,0.0,-0.0078125,0.0,-0.0078125,false,false,false,false,0.0,12.200000000000001,0.0,-5345,-131,0,0.125,12.15,0.0,0,0,0,0.0,12.15,0.0,2,0,0,0.0,12.15,0.0,0,0,0,0.0,12.25,0.0,4,0,0,0.0,4.0,0.0,0,0,0,kReverse,0.0,0.0,0.0,0.0,0.0,0.0,0.0,0.0,0.0,0.0,0.0,
175.96367600000002,true,true,true,-0.0234375,-0.0078125,0.0,-0.0078125,false,false,false,false,0.0,-0.0078125,0.0,-0.0078125,false,false,false,false,0.0,12.3,0.0,-5469,-52,0,0.125,12.35,0.0,0,0,0,0.0,12.3,0.0,2,0,0,0.0,12.3,0.0,0,0,0,0.0,12.4,0.0,4,0,0,0.0,4.0,0.0,0,0,0,kReverse,0.0,0.0,0.0,0.0,0.0,0.0,0.0,0.0,0.0,0.0,0.0,
176.078663,true,true,true,-0.0234375,0.5826771855354309,0.0,-0.0078125,false,false,false,false,0.0,-0.0078125,0.0,-0.0078125,false,false,false,false,0.0,12.35,0.0,-5482,-13,0,0.125,12.35,0.0,0,0,0,0.0,12.35,0.0,2,0,0,0.0,12.35,0.0,0,0,0,0.0,12.4,0.0,4,0,0,0.0,4.0,0.0,0,0,0,kReverse,0.0,0.0,0.0,0.0,0.0,0.0,0.0,0.0,0.0,0.0,0.0,
176.12884599999998,true,true,true,-0.0234375,0.07874015718698502,0.0,-0.0078125,false,false,false,false,0.0,-0.0078125,0.0,-0.0078125,false,false,false,false,3.875,12.35,0.0,-5488,-7,0,4.125,12.35,0.0,0,0,0,6.375,12.35,0.0,2,0,0,0.0,12.35,0.0,0,0,0,0.0,12.4,0.0,4,0,0,0.0,4.0,0.0,0,0,0,kReverse,0.0,0.0,0.0,0.0,0.0,0.0,0.0,0.0,0.0,0.0,0.0,
176.225361,true,true,true,-0.0234375,-0.0078125,0.0,-0.0078125,false,false,false,false,0.0,-0.0078125,0.0,-0.0078125,false,false,false,false,0.0,12.25,0.0,-5505,-17,0,0.125,12.25,0.0,0,0,0,0.375,12.25,0.0,2,0,0,0.0,12.25,0.0,0,0,0,0.0,12.35,0.0,4,0,0,0.0,4.0,0.0,0,0,0,kReverse,0.0,0.0,0.0,0.0,0.0,0.0,0.0,0.0,0.0,0.0,0.0,
176.31198999999998,true,true,true,-0.0234375,-0.0078125,0.0,-0.0078125,false,false,false,false,0.0,-0.0078125,0.0,-0.0078125,false,false,false,false,0.0,12.25,0.0,-5505,-1,0,0.125,12.25,0.0,0,0,0,0.0,12.25,0.0,2,0,0,0.0,12.25,0.0,0,0,0,0.0,12.35,0.0,4,0,0,0.0,4.0,0.0,0,0,0,kReverse,0.0,0.0,0.0,0.0,0.0,0.0,0.0,0.0,0.0,0.0,0.0,
176.371349,true,true,true,-0.0234375,-0.0078125,0.0,-0.0078125,false,false,false,false,0.0,-0.0078125,0.0,-0.0078125,false,false,false,false,0.0,12.35,0.0,-5505,0,0,0.125,12.35,0.0,0,0,0,0.0,12.35,0.0,2,0,0,0.0,12.35,0.0,0,0,0,0.0,12.4,0.0,4,0,0,0.0,4.0,0.0,0,0,0,kReverse,0.0,0.0,0.0,0.0,0.0,0.0,0.0,0.0,0.0,0.0,0.0,
176.44737700000002,true,true,true,-0.0234375,0.4566929042339325,0.0,-0.0078125,false,false,false,false,0.0,-0.0078125,0.0,-0.0078125,false,false,false,false,0.0,12.35,0.0,-5505,0,0,0.125,12.35,0.0,0,0,0,0.0,12.35,0.0,2,0,0,0.0,12.35,0.0,0,0,0,0.0,12.4,0.0,4,0,0,0.0,4.0,0.0,0,0,0,kReverse,0.0,0.0,0.0,0.0,0.0,0.0,0.0,0.0,0.0,0.0,0.0,
176.56586000000001,true,true,true,-0.0234375,-0.03125,0.0,-0.0078125,false,false,false,false,0.0,-0.0078125,0.0,-0.0078125,false,false,false,false,3.75,12.0,0.0,-5523,-18,0,5.5,12.0,0.0,0,0,0,5.625,11.95,0.0,2,0,0,0.0,12.0,0.0,0,0,0,0.0,12.1,0.0,4,0,0,0.0,4.0,0.0,0,0,0,kReverse,0.0,0.0,0.0,0.0,0.0,0.0,0.0,0.0,0.0,0.0,0.0,
176.73639300000002,true,true,true,-0.0234375,0.5118110179901123,0.0,-0.0078125,false,false,false,false,0.0,-0.0078125,0.0,-0.0078125,false,false,false,false,0.0,12.35,0.0,-5524,7,0,0.125,12.35,0.0,0,0,0,0.0,12.35,0.0,2,0,0,0.0,12.35,0.0,0,0,0,0.0,12.4,0.0,4,0,0,0.0,4.0,0.0,0,0,0,kReverse,0.0,0.0,0.0,0.0,0.0,0.0,0.0,0.0,0.0,0.0,0.0,
176.835507,true,true,true,-0.0234375,-0.0546875,0.0,-0.0078125,false,false,false,false,0.0,-0.0078125,0.0,-0.0078125,false,false,false,false,3.125,11.8,0.0,-5538,-14,0,4.875,11.850000000000001,0.0,0,0,0,7.375,11.75,0.0,2,0,0,0.0,11.850000000000001,0.0,0,0,0,0.0,11.9,0.0,4,0,0,0.0,4.0,0.0,0,0,0,kReverse,0.0,0.0,0.0,0.0,0.0,0.0,0.0,0.0,0.0,0.0,0.0,
176.914728,true,true,true,-0.0234375,-0.0546875,0.0,-0.0078125,false,false,false,false,0.0,-0.0078125,0.0,-0.0078125,false,false,false,false,0.0,11.8,0.0,-5566,-35,0,0.625,11.850000000000001,0.0,0,0,0,1.25,11.75,0.0,2,0,0,0.0,11.850000000000001,0.0,0,0,0,0.0,11.9,0.0,4,0,0,0.0,4.0,0.0,0,0,0,kReverse,0.0,0.0,0.0,0.0,0.0,0.0,0.0,0.0,0.0,0.0,0.0,
177.042354,true,true,true,-0.0234375,-0.0546875,0.0,-0.0078125,false,false,false,false,0.0,-0.0078125,0.0,-0.0078125,false,false,false,false,0.0,12.35,0.0,-5570,0,0,0.125,12.35,0.0,0,0,0,0.0,12.35,0.0,2,0,0,0.0,12.35,0.0,0,0,0,0.0,12.4,0.0,4,0,0,0.0,4.0,0.0,0,0,0,kReverse,0.0,0.0,0.0,0.0,0.0,0.0,0.0,0.0,0.0,0.0,0.0,
177.215132,true,true,true,-0.0234375,-0.0546875,0.0,-0.0078125,false,false,false,false,0.0,-0.0078125,0.0,-0.0078125,false,false,false,false,0.0,12.35,0.0,-5570,0,0,0.125,12.4,0.0,0,0,0,0.0,12.35,0.0,2,0,0,0.0,12.35,0.0,0,0,0,0.0,12.450000000000001,0.0,4,0,0,0.0,4.0,0.0,0,0,0,kReverse,0.0,0.0,0.0,0.0,0.0,0.0,0.0,0.0,0.0,0.0,0.0,
177.299124,true,true,true,-0.0234375,-0.0546875,0.0,-0.0078125,false,false,false,false,0.0,-0.0078125,0.0,-0.0078125,false,false,false,false,0.0,12.35,0.0,-5570,0,0,0.125,12.4,0.0,0,0,0,0.0,12.4,0.0,2,0,0,0.0,12.4,0.0,0,0,0,0.0,12.450000000000001,0.0,4,0,0,0.0,4.0,0.0,0,0,0,kReverse,0.0,0.0,0.0,0.0,0.0,0.0,0.0,0.0,0.0,0.0,0.0,
177.39650400000002,true,true,true,-0.0234375,-0.0546875,0.0,-0.0078125,false,false,false,false,0.0,-0.0078125,0.0,-0.0078125,false,false,false,false,0.0,12.4,0.0,-5570,0,0,0.125,12.4,0.0,0,0,0,0.0,12.4,0.0,2,0,0,0.0,12.4,0.0,0,0,0,0.0,12.450000000000001,0.0,4,0,0,0.0,4.0,0.0,0,0,0,kReverse,0.0,0.0,0.0,0.0,0.0,0.0,0.0,0.0,0.0,0.0,0.0,
177.552343,true,true,true,-0.0234375,-0.0546875,0.0,-0.0078125,false,false,false,false,0.0,-0.0078125,0.0,-0.0078125,false,false,false,false,0.0,12.4,0.0,-5570,0,0,0.125,12.4,0.0,0,0,0,0.0,12.4,0.0,2,0,0,0.0,12.4,0.0,0,0,0,0.0,12.450000000000001,0.0,4,0,0,0.0,4.0,0.0,0,0,0,kReverse,0.0,0.0,0.0,0.0,0.0,0.0,0.0,0.0,0.0,0.0,0.0,
177.693965,true,true,true,-0.0234375,-0.0546875,0.0,-0.0078125,false,false,false,false,0.0,-0.0078125,0.0,-0.0078125,false,false,false,false,0.0,12.4,0.0,-5570,0,0,0.125,12.4,0.0,0,0,0,0.0,12.4,0.0,2,0,0,0.0,12.4,0.0,0,0,0,0.0,12.450000000000001,0.0,4,0,0,0.0,4.0,0.0,0,0,0,kReverse,0.0,0.0,0.0,0.0,0.0,0.0,0.0,0.0,0.0,0.0,0.0,
177.81522700000002,true,true,true,-0.0234375,-0.0546875,0.0,-0.0078125,false,false,false,false,0.0,-0.0078125,0.0,-0.0078125,false,false,false,false,0.0,12.4,0.0,-5570,0,0,0.125,12.4,0.0,0,0,0,0.0,12.4,0.0,2,0,0,0.0,12.4,0.0,0,0,0,0.0,12.450000000000001,0.0,4,0,0,0.0,4.0,0.0,0,0,0,kReverse,0.0,0.0,0.0,0.0,0.0,0.0,0.0,0.0,0.0,0.0,0.0,
177.909817,true,true,true,-0.0234375,-0.0546875,0.0,-0.0078125,false,false,false,false,0.0,-0.0078125,0.0,-0.0078125,false,false,false,false,0.0,12.4,0.0,-5571,-1,0,0.125,12.4,0.0,0,0,0,0.0,12.4,0.0,2,0,0,0.0,12.4,0.0,0,0,0,0.0,12.450000000000001,0.0,4,0,0,0.0,4.0,0.0,0,0,0,kReverse,0.0,0.0,0.0,0.0,0.0,0.0,0.0,0.0,0.0,0.0,0.0,
178.052142,true,true,true,-0.0234375,-0.0546875,0.0,-0.0078125,false,false,false,false,0.0,-0.0078125,0.0,-0.0078125,false,false,false,false,0.0,12.4,0.0,-5571,0,0,0.125,12.4,0.0,0,0,0,0.0,12.4,0.0,2,0,0,0.0,12.4,0.0,0,0,0,0.0,12.450000000000001,0.0,4,0,0,0.0,4.0,0.0,0,0,0,kReverse,0.0,0.0,0.0,0.0,0.0,0.0,0.0,0.0,0.0,0.0,0.0,
178.252014,true,true,true,-0.0234375,-0.0546875,0.0,-0.0078125,false,false,false,false,0.0,-0.0078125,0.0,-0.0078125,false,false,false,false,0.0,12.4,0.0,-5571,0,0,0.125,12.4,0.0,0,0,0,0.0,12.4,0.0,2,0,0,0.0,12.4,0.0,0,0,0,0.0,12.450000000000001,0.0,4,0,0,0.0,4.0,0.0,0,0,0,kReverse,0.0,0.0,0.0,0.0,0.0,0.0,0.0,0.0,0.0,0.0,0.0,
178.391138,true,true,true,-0.0234375,-0.0546875,0.0,-0.0078125,false,false,false,false,0.0,-0.0078125,0.0,-0.0078125,false,false,false,false,0.0,12.4,0.0,-5571,0,0,0.125,12.4,0.0,0,0,0,0.0,12.4,0.0,2,0,0,0.0,12.4,0.0,0,0,0,0.0,12.450000000000001,0.0,4,0,0,0.0,4.0,0.0,0,0,0,kReverse,0.0,0.0,0.0,0.0,0.0,0.0,0.0,0.0,0.0,0.0,0.0,
178.462979,true,true,true,-0.0234375,-0.0546875,0.0,-0.0078125,false,false,false,false,0.0,-0.0078125,0.0,-0.0078125,false,false,false,false,0.0,12.4,0.0,-5571,0,0,0.125,12.4,0.0,0,0,0,0.0,12.4,0.0,2,0,0,0.0,12.4,0.0,0,0,0,0.0,12.450000000000001,0.0,4,0,0,0.0,4.0,0.0,0,0,0,kReverse,0.0,0.0,0.0,0.0,0.0,0.0,0.0,0.0,0.0,0.0,0.0,
178.52378,true,true,true,-0.0234375,-0.0546875,0.0,-0.0078125,false,false,false,false,0.0,-0.0078125,0.0,-0.0078125,false,false,false,false,0.0,12.4,0.0,-5571,0,0,0.125,12.4,0.0,0,0,0,0.0,12.4,0.0,2,0,0,0.0,12.4,0.0,0,0,0,0.0,12.450000000000001,0.0,4,0,0,0.0,4.0,0.0,0,0,0,kReverse,0.0,0.0,0.0,0.0,0.0,0.0,0.0,0.0,0.0,0.0,0.0,
178.634008,true,true,true,-0.0234375,-0.0546875,0.0,-0.0078125,false,false,false,false,0.0,-0.0078125,0.0,-0.0078125,false,false,false,false,0.0,12.4,0.0,-5571,0,0,0.125,12.4,0.0,0,0,0,0.0,12.4,0.0,2,0,0,0.0,12.4,0.0,0,0,0,0.0,12.450000000000001,0.0,4,0,0,0.0,4.0,0.0,0,0,0,kReverse,0.0,0.0,0.0,0.0,0.0,0.0,0.0,0.0,0.0,0.0,0.0,
178.75619500000002,true,true,true,-0.0234375,-0.0546875,0.0,-0.0078125,false,false,false,false,0.0,-0.0078125,0.0,-0.0078125,false,false,false,false,0.0,12.4,0.0,-5571,0,0,0.125,12.4,0.0,0,0,0,0.0,12.4,0.0,2,0,0,0.0,12.4,0.0,0,0,0,0.0,12.450000000000001,0.0,4,0,0,0.0,4.0,0.0,0,0,0,kReverse,0.0,0.0,0.0,0.0,0.0,0.0,0.0,0.0,0.0,0.0,0.0,
178.852189,true,true,true,-0.0234375,-0.0546875,0.0,-0.0078125,false,false,false,false,0.0,-0.0078125,0.0,-0.0078125,false,false,false,false,0.0,12.4,0.0,-5571,0,0,0.125,12.4,0.0,0,0,0,0.0,12.4,0.0,2,0,0,0.0,12.4,0.0,0,0,0,0.0,12.450000000000001,0.0,4,0,0,0.0,4.0,0.0,0,0,0,kReverse,0.0,0.0,0.0,0.0,0.0,0.0,0.0,0.0,0.0,0.0,0.0,
178.932399,true,true,true,-0.0234375,-0.0546875,0.0,-0.0078125,false,false,false,false,0.0,-0.0078125,0.0,-0.0078125,false,false,false,false,0.0,12.4,0.0,-5571,0,0,0.125,12.4,0.0,0,0,0,0.0,12.4,0.0,2,0,0,0.0,12.4,0.0,0,0,0,0.0,12.450000000000001,0.0,4,0,0,0.0,4.0,0.0,0,0,0,kReverse,0.0,0.0,0.0,0.0,0.0,0.0,0.0,0.0,0.0,0.0,0.0,
179.01168600000003,true,true,true,-0.0234375,-0.0546875,0.0,-0.0078125,false,false,false,false,0.0,-0.0078125,0.0,-0.0078125,false,false,false,false,0.0,12.4,0.0,-5571,0,0,0.125,12.4,0.0,0,0,0,0.0,12.4,0.0,2,0,0,0.0,12.4,0.0,0,0,0,0.0,12.450000000000001,0.0,4,0,0,0.0,4.0,0.0,0,0,0,kReverse,0.0,0.0,0.0,0.0,0.0,0.0,0.0,0.0,0.0,0.0,0.0,
179.060799,true,true,true,-0.0234375,-0.0546875,0.0,-0.0078125,false,false,false,false,0.0,-0.0078125,0.0,-0.0078125,false,false,false,false,0.0,12.4,0.0,-5571,0,0,0.125,12.4,0.0,0,0,0,0.0,12.4,0.0,2,0,0,0.0,12.4,0.0,0,0,0,0.0,12.450000000000001,0.0,4,0,0,0.0,4.0,0.0,0,0,0,kReverse,0.0,0.0,0.0,0.0,0.0,0.0,0.0,0.0,0.0,0.0,0.0,
179.150071,true,true,true,-0.0234375,-0.0546875,0.0,-0.0078125,false,false,false,false,0.0,-0.0078125,0.0,-0.0078125,false,false,false,false,0.0,12.4,0.0,-5571,0,0,0.125,12.4,0.0,0,0,0,0.0,12.4,0.0,2,0,0,0.0,12.4,0.0,0,0,0,0.0,12.450000000000001,0.0,4,0,0,0.0,4.0,0.0,0,0,0,kReverse,0.0,0.0,0.0,0.0,0.0,0.0,0.0,0.0,0.0,0.0,0.0,
179.24634700000001,true,true,true,-0.0234375,-0.0546875,0.0,-0.0078125,false,false,false,false,0.0,-0.0078125,0.0,-0.0078125,false,false,false,false,0.0,12.4,0.0,-5571,0,0,0.125,12.4,0.0,0,0,0,0.0,12.4,0.0,2,0,0,0.0,12.4,0.0,0,0,0,0.0,12.450000000000001,0.0,4,0,0,0.0,4.0,0.0,0,0,0,kReverse,0.0,0.0,0.0,0.0,0.0,0.0,0.0,0.0,0.0,0.0,0.0,
179.303555,true,true,true,-0.0234375,-0.0546875,0.0,-0.0078125,false,false,false,false,0.0,-0.0078125,0.0,-0.0078125,false,false,false,false,0.0,12.4,0.0,-5571,0,0,0.125,12.4,0.0,0,0,0,0.0,12.4,0.0,2,0,0,0.0,12.4,0.0,0,0,0,0.0,12.450000000000001,0.0,4,0,0,0.0,4.0,0.0,0,0,0,kReverse,0.0,0.0,0.0,0.0,0.0,0.0,0.0,0.0,0.0,0.0,0.0,
179.39201,true,true,true,-0.0234375,-0.0546875,0.0,-0.0078125,false,false,false,false,0.0,-0.0078125,0.0,-0.0078125,false,false,false,false,0.0,12.4,0.0,-5571,0,0,0.125,12.4,0.0,0,0,0,0.0,12.4,0.0,2,0,0,0.0,12.4,0.0,0,0,0,0.0,12.5,0.0,4,0,0,0.0,4.0,0.0,0,0,0,kReverse,0.0,0.0,0.0,0.0,0.0,0.0,0.0,0.0,0.0,0.0,0.0,
179.522688,true,true,true,-0.0234375,-0.0546875,0.0,-0.0078125,false,false,false,false,0.0,-0.0078125,0.0,-0.0078125,false,false,false,false,0.0,12.4,0.0,-5571,0,0,0.125,12.4,0.0,0,0,0,0.0,12.4,0.0,2,0,0,0.0,12.4,0.0,0,0,0,0.0,12.5,0.0,4,0,0,0.0,4.0,0.0,0,0,0,kReverse,0.0,0.0,0.0,0.0,0.0,0.0,0.0,0.0,0.0,0.0,0.0,
179.62373000000002,true,true,true,-0.0234375,-0.0546875,0.0,-0.0078125,false,false,false,false,0.0,-0.0078125,0.0,-0.0078125,false,false,false,false,0.0,12.4,0.0,-5571,0,0,0.125,12.4,0.0,0,0,0,0.0,12.4,0.0,2,0,0,0.0,12.4,0.0,0,0,0,0.0,12.450000000000001,0.0,4,0,0,0.0,4.0,0.0,0,0,0,kReverse,0.0,0.0,0.0,0.0,0.0,0.0,0.0,0.0,0.0,0.0,0.0,
179.680609,true,true,true,-0.0234375,-0.0546875,0.0,-0.0078125,false,false,false,false,0.0,-0.0078125,0.0,-0.0078125,false,false,false,false,0.0,12.4,0.0,-5571,0,0,0.0,12.4,0.0,0,0,0,0.0,12.4,0.0,2,0,0,0.0,12.4,0.0,0,0,0,0.0,12.450000000000001,0.0,4,0,0,0.0,4.0,0.0,0,0,0,kReverse,0.0,0.0,0.0,0.0,0.0,0.0,0.0,0.0,0.0,0.0,0.0,
179.74362100000002,true,true,true,-0.0234375,-0.0546875,0.0,-0.0078125,false,false,false,false,0.0,-0.0078125,0.0,-0.0078125,false,false,false,false,0.0,12.4,0.0,-5571,0,0,0.125,12.4,0.0,0,0,0,0.0,12.4,0.0,2,0,0,0.0,12.4,0.0,0,0,0,0.0,12.5,0.0,4,0,0,0.0,4.0,0.0,0,0,0,kReverse,0.0,0.0,0.0,0.0,0.0,0.0,0.0,0.0,0.0,0.0,0.0,
179.859052,true,true,true,-0.0234375,-0.0546875,0.0,-0.0078125,false,false,false,false,0.0,-0.0078125,0.0,-0.0078125,false,false,false,false,0.0,12.4,0.0,-5571,0,0,0.125,12.4,0.0,0,0,0,0.0,12.4,0.0,2,0,0,0.0,12.4,0.0,0,0,0,0.0,12.5,0.0,4,0,0,0.0,4.0,0.0,0,0,0,kReverse,0.0,0.0,0.0,0.0,0.0,0.0,0.0,0.0,0.0,0.0,0.0,
179.94517199999999,true,true,true,-0.0234375,-0.0546875,0.0,-0.0078125,false,false,false,false,0.0,-0.0078125,0.0,-0.0078125,false,false,false,false,0.0,12.4,0.0,-5571,0,0,0.125,12.450000000000001,0.0,0,0,0,0.0,12.4,0.0,2,0,0,0.0,12.4,0.0,0,0,0,0.0,12.5,0.0,4,0,0,0.0,4.0,0.0,0,0,0,kReverse,0.0,0.0,0.0,0.0,0.0,0.0,0.0,0.0,0.0,0.0,0.0,
180.014918,true,true,true,-0.0234375,-0.0546875,0.0,-0.0078125,false,false,false,false,0.0,-0.0078125,0.0,-0.0078125,false,false,false,false,0.0,12.4,0.0,-5571,0,0,0.0,12.4,0.0,0,0,0,0.0,12.4,0.0,2,0,0,0.0,12.4,0.0,0,0,0,0.0,12.5,0.0,4,0,0,0.0,4.0,0.0,0,0,0,kReverse,0.0,0.0,0.0,0.0,0.0,0.0,0.0,0.0,0.0,0.0,0.0,
180.162135,true,true,true,-0.0234375,-0.0546875,0.0,-0.0078125,false,false,false,false,0.0,-0.0078125,0.0,-0.0078125,false,false,false,false,0.0,12.4,0.0,-5571,0,0,0.125,12.4,0.0,0,0,0,0.0,12.4,0.0,2,0,0,0.0,12.4,0.0,0,0,0,0.0,12.5,0.0,4,0,0,0.0,4.0,0.0,0,0,0,kReverse,0.0,0.0,0.0,0.0,0.0,0.0,0.0,0.0,0.0,0.0,0.0,
180.218598,true,true,true,-0.0234375,-0.0546875,0.0,-0.0078125,false,false,false,false,0.0,-0.0078125,0.0,-0.0078125,false,false,false,false,0.0,12.4,0.0,-5571,0,0,0.125,12.450000000000001,0.0,0,0,0,0.0,12.4,0.0,2,0,0,0.0,12.4,0.0,0,0,0,0.0,12.5,0.0,4,0,0,0.0,4.0,0.0,0,0,0,kReverse,0.0,0.0,0.0,0.0,0.0,0.0,0.0,0.0,0.0,0.0,0.0,
180.27580600000002,true,true,true,-0.0234375,-0.0546875,0.0,-0.0078125,false,false,false,false,0.0,-0.0078125,0.0,-0.0078125,false,false,false,false,0.0,12.4,0.0,-5571,0,0,0.125,12.450000000000001,0.0,0,0,0,0.0,12.4,0.0,2,0,0,0.0,12.4,0.0,0,0,0,0.0,12.5,0.0,4,0,0,0.0,4.0,0.0,0,0,0,kReverse,0.0,0.0,0.0,0.0,0.0,0.0,0.0,0.0,0.0,0.0,0.0,
180.418597,true,true,true,-0.0234375,-0.0546875,0.0,-0.0078125,false,false,false,false,0.0,-0.0078125,0.0,-0.0078125,false,false,false,false,0.0,12.4,0.0,-5571,0,0,0.125,12.450000000000001,0.0,0,0,0,0.0,12.4,0.0,2,0,0,0.0,12.4,0.0,0,0,0,0.0,12.5,0.0,4,0,0,0.0,4.0,0.0,0,0,0,kReverse,0.0,0.0,0.0,0.0,0.0,0.0,0.0,0.0,0.0,0.0,0.0,
180.476759,true,true,true,-0.0234375,-0.0546875,0.0,-0.0078125,false,false,false,false,0.0,-0.0078125,0.0,-0.0078125,false,false,false,false,0.0,12.4,0.0,-5571,0,0,0.125,12.450000000000001,0.0,0,0,0,0.0,12.4,0.0,2,0,0,0.0,12.4,0.0,0,0,0,0.0,12.5,0.0,4,0,0,0.0,4.0,0.0,0,0,0,kReverse,0.0,0.0,0.0,0.0,0.0,0.0,0.0,0.0,0.0,0.0,0.0,
180.55895900000002,true,true,true,-0.0234375,-0.0546875,0.0,-0.0078125,false,false,false,false,0.0,-0.0078125,0.0,-0.0078125,false,false,false,false,0.0,12.4,0.0,-5571,0,0,0.125,12.450000000000001,0.0,0,0,0,0.0,12.4,0.0,2,0,0,0.0,12.4,0.0,0,0,0,0.0,12.5,0.0,4,0,0,0.0,4.0,0.0,0,0,0,kReverse,0.0,0.0,0.0,0.0,0.0,0.0,0.0,0.0,0.0,0.0,0.0,
180.726829,true,true,true,-0.0234375,-0.0546875,0.0,-0.0078125,false,false,false,false,0.0,-0.0078125,0.0,-0.0078125,false,false,false,false,0.0,12.4,0.0,-5571,0,0,0.125,12.450000000000001,0.0,0,0,0,0.0,12.4,0.0,2,0,0,0.0,12.4,0.0,0,0,0,0.0,12.5,0.0,4,0,0,0.0,4.0,0.0,0,0,0,kReverse,0.0,0.0,0.0,0.0,0.0,0.0,0.0,0.0,0.0,0.0,0.0,
180.91431599999999,true,true,true,-0.0234375,-0.0546875,0.0,-0.0078125,false,false,false,false,0.0,-0.0078125,0.0,-0.0078125,false,false,false,false,0.0,12.4,0.0,-5571,0,0,0.125,12.450000000000001,0.0,0,0,0,0.0,12.4,0.0,2,0,0,0.0,12.4,0.0,0,0,0,0.0,12.5,0.0,4,0,0,0.0,4.0,0.0,0,0,0,kReverse,0.0,0.0,0.0,0.0,0.0,0.0,0.0,0.0,0.0,0.0,0.0,
181.047104,true,true,true,-0.0234375,-0.0546875,0.0,-0.0078125,false,false,false,false,0.0,-0.0078125,0.0,-0.0078125,false,false,false,false,0.0,12.4,0.0,-5571,0,0,0.125,12.450000000000001,0.0,0,0,0,0.0,12.4,0.0,2,0,0,0.0,12.4,0.0,0,0,0,0.0,12.5,0.0,4,0,0,0.0,4.0,0.0,0,0,0,kReverse,0.0,0.0,0.0,0.0,0.0,0.0,0.0,0.0,0.0,0.0,0.0,
181.138605,true,true,true,-0.0234375,-0.0546875,0.0,-0.0078125,false,false,false,false,0.0,-0.0078125,0.0,-0.0078125,false,false,false,false,0.0,12.4,0.0,-5571,0,0,0.125,12.450000000000001,0.0,0,0,0,0.0,12.4,0.0,2,0,0,0.0,12.4,0.0,0,0,0,0.0,12.5,0.0,4,0,0,0.0,4.0,0.0,0,0,0,kReverse,0.0,0.0,0.0,0.0,0.0,0.0,0.0,0.0,0.0,0.0,0.0,
181.25272099999998,true,true,true,-0.0234375,-0.0546875,0.0,-0.0078125,false,false,false,false,0.0,-0.0078125,0.0,-0.0078125,false,false,false,false,0.0,12.4,0.0,-5571,0,0,0.0,12.450000000000001,0.0,0,0,0,0.0,12.4,0.0,2,0,0,0.0,12.4,0.0,0,0,0,0.0,12.5,0.0,4,0,0,0.0,4.0,0.0,0,0,0,kReverse,0.0,0.0,0.0,0.0,0.0,0.0,0.0,0.0,0.0,0.0,0.0,
181.34833600000002,true,true,true,-0.0234375,-0.0546875,0.0,-0.0078125,false,false,false,false,0.0,-0.0078125,0.0,-0.0078125,false,false,false,false,0.0,12.4,0.0,-5571,0,0,0.125,12.450000000000001,0.0,0,0,0,0.0,12.4,0.0,2,0,0,0.0,12.4,0.0,0,0,0,0.0,12.5,0.0,4,0,0,0.0,4.0,0.0,0,0,0,kReverse,0.0,0.0,0.0,0.0,0.0,0.0,0.0,0.0,0.0,0.0,0.0,
181.434215,true,true,true,-0.0234375,-0.0546875,0.0,-0.0078125,false,false,false,false,0.0,-0.0078125,0.0,-0.0078125,false,false,false,false,0.0,12.4,0.0,-5571,0,0,0.125,12.450000000000001,0.0,0,0,0,0.0,12.4,0.0,2,0,0,0.0,12.4,0.0,0,0,0,0.0,12.5,0.0,4,0,0,0.0,4.0,0.0,0,0,0,kReverse,0.0,0.0,0.0,0.0,0.0,0.0,0.0,0.0,0.0,0.0,0.0,
181.525388,true,true,true,-0.0234375,-0.0546875,0.0,-0.0078125,false,false,false,false,0.0,-0.0078125,0.0,-0.0078125,false,false,false,false,0.0,12.4,0.0,-5571,0,0,0.0,12.450000000000001,0.0,0,0,0,0.0,12.4,0.0,2,0,0,0.0,12.4,0.0,0,0,0,0.0,12.5,0.0,4,0,0,0.0,4.0,0.0,0,0,0,kReverse,0.0,0.0,0.0,0.0,0.0,0.0,0.0,0.0,0.0,0.0,0.0,
181.65624,true,true,true,-0.0234375,-0.0546875,0.0,-0.0078125,false,false,false,false,0.0,-0.0078125,0.0,-0.0078125,false,false,false,false,0.0,12.4,0.0,-5571,0,0,0.125,12.450000000000001,0.0,0,0,0,0.0,12.450000000000001,0.0,2,0,0,0.0,12.4,0.0,0,0,0,0.0,12.5,0.0,4,0,0,0.0,4.0,0.0,0,0,0,kReverse,0.0,0.0,0.0,0.0,0.0,0.0,0.0,0.0,0.0,0.0,0.0,
181.751609,true,true,true,-0.0234375,-0.0546875,0.0,-0.0078125,false,false,false,false,0.0,-0.0078125,0.0,-0.0078125,false,false,false,false,0.0,12.4,0.0,-5571,0,0,0.125,12.450000000000001,0.0,0,0,0,0.0,12.450000000000001,0.0,2,0,0,0.0,12.4,0.0,0,0,0,0.0,12.5,0.0,4,0,0,0.0,4.0,0.0,0,0,0,kReverse,0.0,0.0,0.0,0.0,0.0,0.0,0.0,0.0,0.0,0.0,0.0,
181.804293,true,true,true,-0.0234375,-0.0546875,0.0,-0.0078125,false,false,false,false,0.0,-0.0078125,0.0,-0.0078125,false,false,false,false,0.0,12.4,0.0,-5571,0,0,0.125,12.450000000000001,0.0,0,0,0,0.0,12.4,0.0,2,0,0,0.0,12.4,0.0,0,0,0,0.0,12.5,0.0,4,0,0,0.0,4.0,0.0,0,0,0,kReverse,0.0,0.0,0.0,0.0,0.0,0.0,0.0,0.0,0.0,0.0,0.0,
181.862114,true,true,true,-0.0234375,-0.0546875,0.0,-0.0078125,false,false,false,false,0.0,-0.0078125,0.0,-0.0078125,false,false,false,false,0.0,12.4,0.0,-5571,0,0,0.125,12.450000000000001,0.0,0,0,0,0.0,12.4,0.0,2,0,0,0.0,12.4,0.0,0,0,0,0.0,12.5,0.0,4,0,0,0.0,4.0,0.0,0,0,0,kReverse,0.0,0.0,0.0,0.0,0.0,0.0,0.0,0.0,0.0,0.0,0.0,
181.984206,true,true,true,-0.0234375,-0.0546875,0.0,-0.0078125,false,false,false,false,0.0,-0.0078125,0.0,-0.0078125,false,false,false,false,0.0,12.4,0.0,-5571,0,0,0.125,12.450000000000001,0.0,0,0,0,0.0,12.4,0.0,2,0,0,0.0,12.4,0.0,0,0,0,0.0,12.5,0.0,4,0,0,0.0,4.0,0.0,0,0,0,kReverse,0.0,0.0,0.0,0.0,0.0,0.0,0.0,0.0,0.0,0.0,0.0,
182.06133799999998,true,true,true,-0.0234375,-0.0546875,0.0,-0.0078125,false,false,false,false,0.0,-0.0078125,0.0,-0.0078125,false,false,false,false,0.0,12.4,0.0,-5571,0,0,0.125,12.450000000000001,0.0,0,0,0,0.0,12.4,0.0,2,0,0,0.0,12.4,0.0,0,0,0,0.0,12.5,0.0,4,0,0,0.0,4.0,0.0,0,0,0,kReverse,0.0,0.0,0.0,0.0,0.0,0.0,0.0,0.0,0.0,0.0,0.0,
182.117245,true,true,true,-0.0234375,-0.0546875,0.0,-0.0078125,false,false,false,false,0.0,-0.0078125,0.0,-0.0078125,false,false,false,false,0.0,12.4,0.0,-5571,0,0,0.125,12.450000000000001,0.0,0,0,0,0.0,12.4,0.0,2,0,0,0.0,12.4,0.0,0,0,0,0.0,12.5,0.0,4,0,0,0.0,4.0,0.0,0,0,0,kReverse,0.0,0.0,0.0,0.0,0.0,0.0,0.0,0.0,0.0,0.0,0.0,
182.1981,true,true,true,-0.0234375,-0.0546875,0.0,-0.0078125,false,false,false,false,0.0,-0.0078125,0.0,-0.0078125,false,false,false,false,0.0,12.4,0.0,-5571,0,0,0.125,12.450000000000001,0.0,0,0,0,0.0,12.4,0.0,2,0,0,0.0,12.4,0.0,0,0,0,0.0,12.5,0.0,4,0,0,0.0,4.0,0.0,0,0,0,kReverse,0.0,0.0,0.0,0.0,0.0,0.0,0.0,0.0,0.0,0.0,0.0,
182.286732,true,true,true,-0.0234375,-0.0546875,0.0,-0.0078125,false,false,false,false,0.0,-0.0078125,0.0,-0.0078125,false,false,false,false,0.0,12.4,0.0,-5571,0,0,0.125,12.450000000000001,0.0,0,0,0,0.0,12.4,0.0,2,0,0,0.0,12.4,0.0,0,0,0,0.0,12.5,0.0,4,0,0,0.0,4.0,0.0,0,0,0,kReverse,0.0,0.0,0.0,0.0,0.0,0.0,0.0,0.0,0.0,0.0,0.0,
182.359667,true,true,true,-0.0234375,-0.0546875,0.0,-0.0078125,false,false,false,false,0.0,-0.0078125,0.0,-0.0078125,false,false,false,false,0.0,12.4,0.0,-5571,0,0,0.125,12.450000000000001,0.0,0,0,0,0.0,12.4,0.0,2,0,0,0.0,12.4,0.0,0,0,0,0.0,12.5,0.0,4,0,0,0.0,4.0,0.0,0,0,0,kReverse,0.0,0.0,0.0,0.0,0.0,0.0,0.0,0.0,0.0,0.0,0.0,
182.44326,true,true,true,-0.0234375,-0.0546875,0.0,-0.0078125,false,false,false,false,0.0,-0.0078125,0.0,-0.0078125,false,false,false,false,0.0,12.4,0.0,-5571,0,0,0.125,12.450000000000001,0.0,0,0,0,0.0,12.450000000000001,0.0,2,0,0,0.0,12.4,0.0,0,0,0,0.0,12.5,0.0,4,0,0,0.0,4.0,0.0,0,0,0,kReverse,0.0,0.0,0.0,0.0,0.0,0.0,0.0,0.0,0.0,0.0,0.0,
182.57570199999998,true,true,true,-0.0234375,-0.0546875,0.0,-0.0078125,false,false,false,false,0.0,-0.0078125,0.0,-0.0078125,false,false,false,false,0.0,12.4,0.0,-5571,0,0,0.125,12.450000000000001,0.0,0,0,0,0.0,12.450000000000001,0.0,2,0,0,0.0,12.4,0.0,0,0,0,0.0,12.5,0.0,4,0,0,0.0,4.0,0.0,0,0,0,kReverse,0.0,0.0,0.0,0.0,0.0,0.0,0.0,0.0,0.0,0.0,0.0,
182.71379000000002,true,true,true,-0.0234375,-0.0546875,0.0,-0.0078125,false,false,false,false,0.0,-0.0078125,0.0,-0.0078125,false,false,false,false,0.0,12.4,0.0,-5571,0,0,0.125,12.450000000000001,0.0,0,0,0,0.0,12.450000000000001,0.0,2,0,0,0.0,12.4,0.0,0,0,0,0.0,12.5,0.0,4,0,0,0.0,4.0,0.0,0,0,0,kReverse,0.0,0.0,0.0,0.0,0.0,0.0,0.0,0.0,0.0,0.0,0.0,
182.841139,true,true,true,-0.0234375,-0.0546875,0.0,-0.0078125,false,false,false,false,0.0,-0.0078125,0.0,-0.0078125,false,false,false,false,0.0,12.4,0.0,-5571,0,0,0.125,12.450000000000001,0.0,0,0,0,0.0,12.450000000000001,0.0,2,0,0,0.0,12.4,0.0,0,0,0,0.0,12.5,0.0,4,0,0,0.0,4.0,0.0,0,0,0,kReverse,0.0,0.0,0.0,0.0,0.0,0.0,0.0,0.0,0.0,0.0,0.0,
182.893301,true,true,true,-0.0234375,-0.0546875,0.0,-0.0078125,false,false,false,false,0.0,-0.0078125,0.0,-0.0078125,false,false,false,false,0.0,12.4,0.0,-5571,0,0,0.125,12.450000000000001,0.0,0,0,0,0.0,12.450000000000001,0.0,2,0,0,0.0,12.4,0.0,0,0,0,0.0,12.5,0.0,4,0,0,0.0,4.0,0.0,0,0,0,kReverse,0.0,0.0,0.0,0.0,0.0,0.0,0.0,0.0,0.0,0.0,0.0,
183.000698,true,true,true,-0.0234375,-0.0546875,0.0,-0.0078125,false,false,false,false,0.0,-0.0078125,0.0,-0.0078125,false,false,false,false,0.0,12.450000000000001,0.0,-5571,0,0,0.125,12.450000000000001,0.0,0,0,0,0.0,12.450000000000001,0.0,2,0,0,0.0,12.4,0.0,0,0,0,0.0,12.5,0.0,4,0,0,0.0,4.0,0.0,0,0,0,kReverse,0.0,0.0,0.0,0.0,0.0,0.0,0.0,0.0,0.0,0.0,0.0,
183.15772700000002,true,true,true,-0.0234375,-0.0546875,0.0,-0.0078125,false,false,false,false,0.0,-0.0078125,0.0,-0.0078125,false,false,false,false,0.0,12.4,0.0,-5571,0,0,0.125,12.450000000000001,0.0,0,0,0,0.0,12.450000000000001,0.0,2,0,0,0.0,12.4,0.0,0,0,0,0.0,12.5,0.0,4,0,0,0.0,4.0,0.0,0,0,0,kReverse,0.0,0.0,0.0,0.0,0.0,0.0,0.0,0.0,0.0,0.0,0.0,
183.23565200000002,true,true,true,-0.0234375,-0.0546875,0.0,-0.0078125,false,false,false,false,0.0,-0.0078125,0.0,-0.0078125,false,false,false,false,0.0,12.4,0.0,-5571,0,0,0.125,12.450000000000001,0.0,0,0,0,0.0,12.450000000000001,0.0,2,0,0,0.0,12.4,0.0,0,0,0,0.0,12.5,0.0,4,0,0,0.0,4.0,0.0,0,0,0,kReverse,0.0,0.0,0.0,0.0,0.0,0.0,0.0,0.0,0.0,0.0,0.0,
183.36794500000002,true,true,true,-0.0234375,-0.0546875,0.0,-0.0078125,false,false,false,false,0.0,-0.0078125,0.0,-0.0078125,false,false,false,false,0.0,12.4,0.0,-5571,0,0,0.125,12.450000000000001,0.0,0,0,0,0.0,12.450000000000001,0.0,2,0,0,0.0,12.4,0.0,0,0,0,0.0,12.5,0.0,4,0,0,0.0,4.0,0.0,0,0,0,kReverse,0.0,0.0,0.0,0.0,0.0,0.0,0.0,0.0,0.0,0.0,0.0,
183.49726500000003,true,true,true,-0.0234375,-0.0546875,0.0,-0.0078125,false,false,false,false,0.0,-0.0078125,0.0,-0.0078125,false,false,false,false,0.0,12.4,0.0,-5571,0,0,0.125,12.450000000000001,0.0,0,0,0,0.0,12.450000000000001,0.0,2,0,0,0.0,12.4,0.0,0,0,0,0.0,12.5,0.0,4,0,0,0.0,4.0,0.0,0,0,0,kReverse,0.0,0.0,0.0,0.0,0.0,0.0,0.0,0.0,0.0,0.0,0.0,
183.659237,true,true,true,-0.0234375,-0.0546875,0.0,-0.0078125,false,false,false,false,0.0,-0.0078125,0.0,-0.0078125,false,false,false,false,0.0,12.4,0.0,-5571,0,0,0.125,12.450000000000001,0.0,0,0,0,0.0,12.450000000000001,0.0,2,0,0,0.0,12.4,0.0,0,0,0,0.0,12.5,0.0,4,0,0,0.0,4.0,0.0,0,0,0,kReverse,0.0,0.0,0.0,0.0,0.0,0.0,0.0,0.0,0.0,0.0,0.0,
183.816984,true,true,true,-0.0234375,-0.0546875,0.0,-0.0078125,false,false,false,false,0.0,-0.0078125,0.0,-0.0078125,false,false,false,false,0.0,12.450000000000001,0.0,-5571,0,0,0.125,12.450000000000001,0.0,0,0,0,0.0,12.450000000000001,0.0,2,0,0,0.0,12.4,0.0,0,0,0,0.0,12.5,0.0,4,0,0,0.0,4.0,0.0,0,0,0,kReverse,0.0,0.0,0.0,0.0,0.0,0.0,0.0,0.0,0.0,0.0,0.0,
184.03718600000002,true,true,true,-0.0234375,-0.0546875,0.0,-0.0078125,false,false,false,false,0.0,-0.0078125,0.0,-0.0078125,false,false,false,false,0.0,12.450000000000001,0.0,-5571,0,0,0.125,12.450000000000001,0.0,0,0,0,0.0,12.450000000000001,0.0,2,0,0,0.0,12.4,0.0,0,0,0,0.0,12.5,0.0,4,0,0,0.0,4.0,0.0,0,0,0,kReverse,0.0,0.0,0.0,0.0,0.0,0.0,0.0,0.0,0.0,0.0,0.0,
184.15969700000002,true,true,true,-0.0234375,-0.0546875,0.0,-0.0078125,false,false,false,false,0.0,-0.0078125,0.0,-0.0078125,false,false,false,false,0.0,12.450000000000001,0.0,-5571,0,0,0.125,12.450000000000001,0.0,0,0,0,0.0,12.450000000000001,0.0,2,0,0,0.0,12.4,0.0,0,0,0,0.0,12.5,0.0,4,0,0,0.0,4.0,0.0,0,0,0,kReverse,0.0,0.0,0.0,0.0,0.0,0.0,0.0,0.0,0.0,0.0,0.0,
184.21725,true,true,true,-0.0234375,-0.0546875,0.0,-0.0078125,false,false,false,false,0.0,-0.0078125,0.0,-0.0078125,false,false,false,false,0.0,12.4,0.0,-5571,0,0,0.125,12.450000000000001,0.0,0,0,0,0.0,12.450000000000001,0.0,2,0,0,0.0,12.4,0.0,0,0,0,0.0,12.5,0.0,4,0,0,0.0,4.0,0.0,0,0,0,kReverse,0.0,0.0,0.0,0.0,0.0,0.0,0.0,0.0,0.0,0.0,0.0,
184.262995,true,true,true,-0.0234375,-0.0546875,0.0,-0.0078125,false,false,false,false,0.0,-0.0078125,0.0,-0.0078125,false,false,false,false,0.0,12.4,0.0,-5571,0,0,0.125,12.450000000000001,0.0,0,0,0,0.0,12.450000000000001,0.0,2,0,0,0.0,12.4,0.0,0,0,0,0.0,12.5,0.0,4,0,0,0.0,4.0,0.0,0,0,0,kReverse,0.0,0.0,0.0,0.0,0.0,0.0,0.0,0.0,0.0,0.0,0.0,
184.422136,true,true,true,-0.0234375,-0.0546875,0.0,-0.0078125,false,false,false,false,0.0,-0.0078125,0.0,-0.0078125,false,false,false,false,0.0,12.4,0.0,-5571,0,0,0.125,12.450000000000001,0.0,0,0,0,0.0,12.450000000000001,0.0,2,0,0,0.0,12.4,0.0,0,0,0,0.0,12.5,0.0,4,0,0,0.0,4.0,0.0,0,0,0,kReverse,0.0,0.0,0.0,0.0,0.0,0.0,0.0,0.0,0.0,0.0,0.0,
184.53119,true,true,true,-0.0234375,-0.0546875,0.0,-0.0078125,false,false,false,false,0.0,-0.0078125,0.0,-0.0078125,false,false,false,false,0.0,12.450000000000001,0.0,-5571,0,0,0.125,12.450000000000001,0.0,0,0,0,0.0,12.450000000000001,0.0,2,0,0,0.0,12.4,0.0,0,0,0,0.0,12.5,0.0,4,0,0,0.0,4.0,0.0,0,0,0,kReverse,0.0,0.0,0.0,0.0,0.0,0.0,0.0,0.0,0.0,0.0,0.0,
184.62524,true,true,true,-0.0234375,-0.0546875,0.0,-0.0078125,false,false,false,false,0.0,-0.0078125,0.0,-0.0078125,false,false,false,false,0.0,12.450000000000001,0.0,-5571,0,0,0.125,12.450000000000001,0.0,0,0,0,0.0,12.450000000000001,0.0,2,0,0,0.0,12.4,0.0,0,0,0,0.0,12.5,0.0,4,0,0,0.0,4.0,0.0,0,0,0,kReverse,0.0,0.0,0.0,0.0,0.0,0.0,0.0,0.0,0.0,0.0,0.0,
184.721089,true,true,true,-0.0234375,-0.0546875,0.0,-0.0078125,false,false,false,false,0.0,-0.0078125,0.0,-0.0078125,false,false,false,false,0.0,12.450000000000001,0.0,-5571,0,0,0.125,12.450000000000001,0.0,0,0,0,0.0,12.450000000000001,0.0,2,0,0,0.0,12.450000000000001,0.0,0,0,0,0.0,12.5,0.0,4,0,0,0.0,4.0,0.0,0,0,0,kReverse,0.0,0.0,0.0,0.0,0.0,0.0,0.0,0.0,0.0,0.0,0.0,
184.782777,true,true,true,-0.0234375,-0.0546875,0.0,-0.0078125,false,false,false,false,0.0,-0.0078125,0.0,-0.0078125,false,false,false,false,0.0,12.450000000000001,0.0,-5571,0,0,0.125,12.450000000000001,0.0,0,0,0,0.0,12.450000000000001,0.0,2,0,0,0.0,12.450000000000001,0.0,0,0,0,0.0,12.5,0.0,4,0,0,0.0,4.0,0.0,0,0,0,kReverse,0.0,0.0,0.0,0.0,0.0,0.0,0.0,0.0,0.0,0.0,0.0,
184.882045,true,true,true,-0.0234375,-0.0546875,0.0,-0.0078125,false,false,false,false,0.0,-0.0078125,0.0,-0.0078125,false,false,false,false,0.0,12.450000000000001,0.0,-5571,0,0,0.125,12.450000000000001,0.0,0,0,0,0.0,12.450000000000001,0.0,2,0,0,0.0,12.4,0.0,0,0,0,0.0,12.5,0.0,4,0,0,0.0,4.0,0.0,0,0,0,kReverse,0.0,0.0,0.0,0.0,0.0,0.0,0.0,0.0,0.0,0.0,0.0,
184.96347500000002,true,true,true,-0.0234375,-0.0546875,0.0,-0.0078125,false,false,false,false,0.0,-0.0078125,0.0,-0.0078125,false,false,false,false,0.0,12.450000000000001,0.0,-5571,0,0,0.125,12.450000000000001,0.0,0,0,0,0.0,12.450000000000001,0.0,2,0,0,0.0,12.4,0.0,0,0,0,0.0,12.5,0.0,4,0,0,0.0,4.0,0.0,0,0,0,kReverse,0.0,0.0,0.0,0.0,0.0,0.0,0.0,0.0,0.0,0.0,0.0,
185.028547,true,true,true,-0.0234375,-0.0546875,0.0,-0.0078125,false,false,false,false,0.0,-0.0078125,0.0,-0.0078125,false,false,false,false,0.0,12.450000000000001,0.0,-5571,0,0,0.125,12.450000000000001,0.0,0,0,0,0.0,12.450000000000001,0.0,2,0,0,0.0,12.4,0.0,0,0,0,0.0,12.5,0.0,4,0,0,0.0,4.0,0.0,0,0,0,kReverse,0.0,0.0,0.0,0.0,0.0,0.0,0.0,0.0,0.0,0.0,0.0,
