timer,lineLeft,lineCenter,lineRight,driverLeftX,driverLeftY,driverRightX,driverRightY,driverA,driverB,driverX,driverY,operatorLeftX,operatorLeftY,operatorRightX,operatorRightY,operatorA,operatorB,operatorX,operatorY,LeftFrontCurrent,LeftFrontVoltage,LeftFrontValue,LeftFrontPosition,LeftFrontVelocity,LeftFrontFaults,LeftRearCurrent,LeftRearVoltage,LeftRearValue,LeftRearPosition,LeftRearVelocity,LeftRearFaults,RightFrontCurrent,RightFrontVoltage,RightFrontValue,RightFrontPosition,RightFrontVelocity,RightFrontFaults,RightRearCurrent,RightRearVoltage,RightRearValue,RightRearPosition,RightRearVelocity,RightRearFaults,LiftCurrent,LiftVoltage,LiftValue,LiftPosition,LiftVelocity,LiftFaults,RollerCurrent,RollerVoltage,RollerValue,RollerPosition,RollerVelocity,RollerFaults,PushersState,navx_Pitch,navx_Roll,navx_Yaw,navx_XAcc,navx_YAcc,navx_ZAcc,navx_Temp,navx_Bar,navx_Alt,navx_XDis,navx_YDis,
98.90388300000001,true,true,true,0.5354330539703369,-0.6328125,0.0,-0.0078125,false,false,false,false,0.0,-0.0078125,0.0,-0.0078125,false,false,false,false,11.125,11.05,0.0,0,0,0,20.5,11.25,0.0,0,0,0,15.5,11.25,0.0,0,0,0,11.5,11.3,0.0,0,0,0,0.0,11.5,0.0,0,0,0,0.0,4.0,0.0,0,0,0,kReverse,0.0,0.0,0.0,0.0,0.0,0.0,0.0,0.0,0.0,0.0,0.0,
99.105907,true,true,true,0.21259842813014984,-0.15625,0.0,-0.0078125,false,false,false,false,0.0,-0.0078125,0.0,-0.0078125,false,false,false,false,11.875,11.05,0.0,0,0,0,18.625,11.25,0.0,0,0,0,17.75,11.25,0.0,0,0,0,14.25,11.3,0.0,0,0,0,0.0,11.5,0.0,0,0,0,0.0,4.0,0.0,0,0,0,kReverse,0.0,0.0,0.0,0.0,0.0,0.0,0.0,0.0,0.0,0.0,0.0,
99.248712,true,true,true,0.0,-0.203125,0.0,-0.0078125,false,false,false,false,0.0,-0.0078125,0.0,-0.0078125,false,false,false,false,0.0,12.0,0.0,0,0,0,0.25,12.0,0.0,0,0,0,0.0,12.0,0.0,0,0,0,0.0,11.9,0.0,0,0,0,0.0,12.05,0.0,0,0,0,0.0,4.0,0.0,0,0,0,kReverse,0.0,0.0,0.0,0.0,0.0,0.0,0.0,0.0,0.0,0.0,0.0,
99.422312,true,true,true,0.0,-1.0,0.0,-0.0078125,false,false,false,false,0.0,-0.0078125,0.0,-0.0078125,false,false,false,false,0.0,12.6,0.0,0,0,0,0.25,12.6,0.0,0,0,0,2.125,12.6,0.0,0,0,0,0.0,12.6,0.0,0,0,0,0.0,12.65,0.0,0,0,0,0.0,4.0,0.0,0,0,0,kReverse,0.0,0.0,0.0,0.0,0.0,0.0,0.0,0.0,0.0,0.0,0.0,
99.566932,true,true,true,0.0,-1.0,0.0,-0.0078125,false,false,false,false,0.0,-0.0078125,0.0,-0.0078125,false,false,false,false,14.125,11.5,0.0,1,1,0,22.625,11.55,0.0,0,0,0,19.125,11.55,0.0,0,0,0,14.25,11.600000000000001,0.0,0,0,0,0.0,11.7,0.0,0,0,0,0.0,4.0,0.0,0,0,0,kReverse,0.0,0.0,0.0,0.0,0.0,0.0,0.0,0.0,0.0,0.0,0.0,
99.65178900000001,true,true,true,0.0,-1.0,0.0,-0.0078125,false,false,false,false,0.0,-0.0078125,0.0,-0.0078125,false,false,false,false,30.875,9.15,0.0,1,0,0,46.375,9.25,0.0,0,0,0,41.625,9.2,0.0,0,0,0,34.375,9.2,0.0,0,0,0,0.0,9.600000000000001,0.0,0,0,0,0.0,4.0,0.0,0,0,0,kReverse,0.0,0.0,0.0,0.0,0.0,0.0,0.0,0.0,0.0,0.0,0.0,
99.78757,true,true,true,0.0,-1.0,0.0,-0.0078125,false,false,false,false,0.0,-0.0078125,0.0,-0.0078125,false,false,false,false,22.25,9.65,0.0,1,0,0,34.125,9.75,0.0,0,0,0,33.875,9.7,0.0,0,0,0,27.125,9.7,0.0,0,0,0,0.0,10.0,0.0,0,0,0,0.0,4.0,0.0,0,0,0,kReverse,0.0,0.0,0.0,0.0,0.0,0.0,0.0,0.0,0.0,0.0,0.0,
99.96188400000001,true,true,true,0.0,-1.0,0.0,-0.0078125,false,false,false,false,0.0,-0.0078125,0.0,-0.0078125,false,false,false,false,14.0,10.600000000000001,0.0,1,1,0,22.375,10.65,0.0,0,0,0,21.875,10.65,0.0,0,0,0,14.25,10.65,0.0,0,0,0,0.0,10.850000000000001,0.0,0,0,0,0.0,4.0,0.0,0,0,0,kReverse,0.0,0.0,0.0,0.0,0.0,0.0,0.0,0.0,0.0,0.0,0.0,
100.036433,true,true,true,0.0,-1.0,0.0,-0.0078125,false,false,false,false,0.0,-0.0078125,0.0,-0.0078125,false,false,false,false,9.0,10.600000000000001,0.0,1,1,0,16.375,10.65,0.0,0,0,0,12.375,10.65,0.0,0,0,0,8.625,10.65,0.0,0,0,0,0.0,10.850000000000001,0.0,0,0,0,0.0,4.0,0.0,0,0,0,kReverse,0.0,0.0,0.0,0.0,0.0,0.0,0.0,0.0,0.0,0.0,0.0,
100.18678,true,true,true,0.0,-1.0,0.0,-0.0078125,false,false,false,false,0.0,-0.0078125,0.0,-0.0078125,false,false,false,false,9.875,11.15,0.0,1,0,0,9.0,11.2,0.0,0,0,0,7.125,11.15,0.0,0,0,0,3.0,11.15,0.0,0,0,0,0.0,11.350000000000001,0.0,0,1,0,0.0,4.0,0.0,0,0,0,kReverse,0.0,0.0,0.0,0.0,0.0,0.0,0.0,0.0,0.0,0.0,0.0,
100.298204,true,true,true,0.0,-1.0,0.0,-0.0078125,false,false,false,false,0.0,-0.0078125,0.0,-0.0078125,false,false,false,false,9.625,10.9,0.0,1,0,0,12.5,10.9,0.0,0,0,0,10.5,10.9,0.0,0,0,0,8.875,10.95,0.0,0,0,0,0.0,11.15,0.0,0,0,0,0.0,4.0,0.0,0,0,0,kReverse,0.0,0.0,0.0,0.0,0.0,0.0,0.0,0.0,0.0,0.0,0.0,
100.497102,true,true,true,0.3385826647281647,-1.0,0.0,-0.0078125,false,false,false,false,0.0,-0.0078125,0.0,-0.0078125,false,false,false,false,9.75,11.350000000000001,0.0,1,0,0,12.0,11.4,0.0,0,0,0,16.25,11.4,0.0,0,0,0,8.625,11.45,0.0,0,0,0,0.0,11.55,0.0,-2,-2,0,0.0,4.0,0.0,0,0,0,kReverse,0.0,0.0,0.0,0.0,0.0,0.0,0.0,0.0,0.0,0.0,0.0,
100.612935,true,true,true,0.4173228442668915,-1.0,0.0,-0.0078125,false,false,false,false,0.0,-0.0078125,0.0,-0.0078125,false,false,false,false,9.0,11.05,0.0,1,0,0,15.0,11.100000000000001,0.0,0,0,0,17.0,11.05,0.0,0,0,0,9.0,11.100000000000001,0.0,0,0,0,0.0,11.3,0.0,-1,0,0,0.0,4.0,0.0,0,0,0,kReverse,0.0,0.0,0.0,0.0,0.0,0.0,0.0,0.0,0.0,0.0,0.0,
100.74823300000001,true,true,true,0.7322834730148315,-1.0,0.0,-0.0078125,false,false,false,false,0.0,-0.0078125,0.0,-0.0078125,false,false,false,false,14.125,10.55,0.0,1,0,0,21.75,10.65,0.0,0,0,0,20.0,10.65,0.0,0,0,0,11.5,10.65,0.0,0,0,0,0.0,10.850000000000001,0.0,-1,0,0,0.0,4.0,0.0,0,0,0,kReverse,0.0,0.0,0.0,0.0,0.0,0.0,0.0,0.0,0.0,0.0,0.0,
100.91955899999999,true,true,true,0.0,-0.0078125,0.0,-0.0078125,false,false,false,false,0.0,-0.0078125,0.0,-0.0078125,false,false,false,false,10.125,11.0,0.0,1,0,0,17.5,11.05,0.0,0,0,0,16.875,11.05,0.0,0,0,0,9.125,11.05,0.0,0,0,0,0.0,11.25,0.0,-1,0,0,0.0,4.0,0.0,0,0,0,kReverse,0.0,0.0,0.0,0.0,0.0,0.0,0.0,0.0,0.0,0.0,0.0,
101.01716499999999,true,true,true,0.0,-0.0078125,0.0,-0.0078125,false,false,false,false,0.0,-0.0078125,0.0,-0.0078125,false,false,false,false,0.0,11.0,0.0,2,1,0,0.0,11.05,0.0,0,0,0,0.0,11.05,0.0,0,0,0,0.0,11.05,0.0,0,0,0,0.0,11.25,0.0,-1,0,0,0.0,4.0,0.0,0,0,0,kReverse,0.0,0.0,0.0,0.0,0.0,0.0,0.0,0.0,0.0,0.0,0.0,
101.099986,true,true,true,0.0,-0.0078125,0.0,-0.0078125,false,false,false,false,0.0,-0.0078125,0.0,-0.0078125,false,false,false,false,0.0,12.35,0.0,2,0,0,0.0,12.4,0.0,0,0,0,0.0,12.4,0.0,0,0,0,0.0,12.35,0.0,0,0,0,0.0,12.450000000000001,0.0,-1,0,0,0.0,4.0,0.0,0,0,0,kReverse,0.0,0.0,0.0,0.0,0.0,0.0,0.0,0.0,0.0,0.0,0.0,
101.20387699999999,true,true,true,0.0,-0.0078125,0.0,-0.0078125,false,false,false,false,0.0,-0.0078125,0.0,-0.0078125,false,false,false,false,0.0,12.35,0.0,2,0,0,0.0,12.4,0.0,0,0,0,0.0,12.4,0.0,0,0,0,0.0,12.4,0.0,0,0,0,0.0,12.5,0.0,-1,0,0,0.0,4.0,0.0,0,0,0,kReverse,0.0,0.0,0.0,0.0,0.0,0.0,0.0,0.0,0.0,0.0,0.0,
101.318665,true,true,true,0.0,-0.0078125,0.0,-0.0078125,false,false,false,false,0.0,-0.0078125,0.0,-0.0078125,false,false,false,false,0.0,12.4,0.0,2,0,0,0.0,12.4,0.0,0,0,0,0.0,12.4,0.0,0,0,0,0.0,12.4,0.0,0,0,0,0.0,12.5,0.0,-1,0,0,0.0,4.0,0.0,0,0,0,kReverse,0.0,0.0,0.0,0.0,0.0,0.0,0.0,0.0,0.0,0.0,0.0,
101.401417,true,true,true,0.0,-0.0078125,0.0,-0.0078125,false,false,false,false,0.0,-0.0078125,0.0,-0.0078125,false,false,false,false,0.0,12.4,0.0,2,0,0,0.0,12.450000000000001,0.0,0,0,0,0.0,12.450000000000001,0.0,0,0,0,0.0,12.4,0.0,0,0,0,0.0,12.5,0.0,-1,0,0,0.0,4.0,0.0,0,0,0,kReverse,0.0,0.0,0.0,0.0,0.0,0.0,0.0,0.0,0.0,0.0,0.0,
101.520428,true,true,true,0.0,-0.0078125,0.0,-0.0078125,false,false,false,false,0.0,-0.0078125,0.0,-0.0078125,false,false,false,false,0.0,12.4,0.0,2,0,0,0.0,12.450000000000001,0.0,0,0,0,0.0,12.450000000000001,0.0,0,0,0,0.0,12.450000000000001,0.0,0,0,0,0.0,12.5,0.0,-1,0,0,0.0,4.0,0.0,0,0,0,kReverse,0.0,0.0,0.0,0.0,0.0,0.0,0.0,0.0,0.0,0.0,0.0,
101.650711,true,true,true,0.0,-0.0078125,0.0,-0.0078125,false,false,false,false,0.0,-0.0078125,0.0,-0.0078125,false,false,false,false,0.0,12.450000000000001,0.0,2,0,0,0.0,12.450000000000001,0.0,0,0,0,0.0,12.450000000000001,0.0,0,0,0,0.0,12.450000000000001,0.0,0,0,0,0.0,12.5,0.0,-1,0,0,0.0,4.0,0.0,0,0,0,kReverse,0.0,0.0,0.0,0.0,0.0,0.0,0.0,0.0,0.0,0.0,0.0,
101.790545,true,true,true,0.0,-0.0078125,-0.6015625,-0.0078125,false,false,false,false,0.0,-0.0078125,0.0,-0.0078125,false,false,false,false,0.0,12.450000000000001,0.0,1,-1,0,0.0,12.450000000000001,0.0,0,0,0,0.0,12.450000000000001,0.0,0,0,0,0.0,12.450000000000001,0.0,0,0,0,0.0,12.5,0.0,-1,0,0,0.0,4.0,0.0,0,0,0,kReverse,0.0,0.0,0.0,0.0,0.0,0.0,0.0,0.0,0.0,0.0,0.0,
101.91275999999999,true,true,true,0.0,-0.0078125,-1.0,-0.09375,false,false,false,false,0.0,-0.0078125,0.0,-0.0078125,false,false,false,false,0.0,12.4,0.0,1,0,0,0.125,12.4,0.0,0,0,0,4.875,12.4,0.0,0,0,0,1.0,12.4,0.0,0,0,0,0.0,12.450000000000001,0.0,-1,0,0,0.0,4.0,0.0,0,0,0,kReverse,0.0,0.0,0.0,0.0,0.0,0.0,0.0,0.0,0.0,0.0,0.0,
101.977504,true,true,true,0.0,-0.0078125,-1.0,-0.09375,false,false,false,false,0.0,-0.0078125,0.0,-0.0078125,false,false,false,false,11.375,12.4,0.0,0,-1,0,13.75,12.4,0.0,0,0,0,26.0,12.4,0.0,0,0,0,18.75,12.4,0.0,0,0,0,0.0,12.450000000000001,0.0,-1,0,0,0.0,4.0,0.0,0,0,0,kReverse,0.0,0.0,0.0,0.0,0.0,0.0,0.0,0.0,0.0,0.0,0.0,
102.04142,true,true,true,0.0,-0.0078125,-1.0,-0.09375,false,false,false,false,0.0,-0.0078125,0.0,-0.0078125,false,false,false,false,23.0,10.100000000000001,0.0,-1,-1,0,28.875,10.3,0.0,0,0,0,20.125,10.350000000000001,0.0,0,0,0,15.25,10.4,0.0,0,0,0,0.0,10.55,0.0,-1,0,0,0.0,4.0,0.0,0,0,0,kReverse,0.0,0.0,0.0,0.0,0.0,0.0,0.0,0.0,0.0,0.0,0.0,
102.105719,true,true,true,0.0,-0.0078125,-1.0,-0.09375,false,false,false,false,0.0,-0.0078125,0.0,-0.0078125,false,false,false,false,18.125,10.100000000000001,0.0,-20,-19,0,23.625,10.3,0.0,0,0,0,22.5,10.350000000000001,0.0,0,0,0,17.75,10.4,0.0,0,0,0,0.0,10.55,0.0,-1,0,0,0.0,4.0,0.0,0,0,0,kReverse,0.0,0.0,0.0,0.0,0.0,0.0,0.0,0.0,0.0,0.0,0.0,
102.170514,true,true,true,0.0,-0.0078125,-1.0,-0.09375,false,false,false,false,0.0,-0.0078125,0.0,-0.0078125,false,false,false,false,14.875,10.100000000000001,0.0,-68,-64,0,20.25,10.3,0.0,0,0,0,21.375,10.350000000000001,0.0,0,0,0,16.375,10.600000000000001,0.0,0,0,0,0.0,10.850000000000001,0.0,-1,0,0,0.0,4.0,0.0,0,0,0,kReverse,0.0,0.0,0.0,0.0,0.0,0.0,0.0,0.0,0.0,0.0,0.0,
102.299258,true,true,true,0.0,-0.0078125,-1.0,-0.09375,false,false,false,false,0.0,-0.0078125,0.0,-0.0078125,false,false,false,false,12.125,10.65,0.0,-335,-183,0,16.25,10.7,0.0,0,0,0,17.25,10.55,0.0,0,0,0,12.75,10.600000000000001,0.0,0,0,0,0.0,10.850000000000001,0.0,-1,0,0,0.0,4.0,0.0,0,0,0,kReverse,0.0,0.0,0.0,0.0,0.0,0.0,0.0,0.0,0.0,0.0,0.0,
102.470175,true,true,true,0.0,-0.0078125,-0.34375,-0.1015625,false,false,false,false,0.0,-0.0078125,0.0,-0.0078125,false,false,false,false,10.75,10.850000000000001,0.0,-620,-206,0,14.25,11.0,0.0,0,0,0,17.25,10.9,0.0,0,0,0,11.375,11.3,0.0,0,0,0,0.0,11.5,0.0,-1,0,0,0.0,4.0,0.0,0,0,0,kReverse,0.0,0.0,0.0,0.0,0.0,0.0,0.0,0.0,0.0,0.0,0.0,
102.588999,true,true,true,0.0,-0.0078125,0.0,-0.0078125,false,false,false,false,0.0,-0.0078125,0.0,-0.0078125,false,false,false,false,3.375,11.45,0.0,-849,-188,0,5.625,11.4,0.0,0,0,0,6.75,11.4,0.0,0,0,0,5.625,11.3,0.0,0,0,0,0.0,11.5,0.0,-1,0,0,0.0,4.0,0.0,0,0,0,kReverse,0.0,0.0,0.0,0.0,0.0,0.0,0.0,0.0,0.0,0.0,0.0,
102.706037,true,true,true,0.0,-0.0078125,0.0,-0.0078125,false,false,false,false,0.0,-0.0078125,0.0,-0.0078125,false,false,false,false,0.0,12.35,0.0,-1042,-157,0,0.0,12.35,0.0,0,0,0,0.0,12.35,0.0,0,0,0,0.0,12.35,0.0,0,0,0,0.0,12.4,0.0,-1,0,0,0.0,4.0,0.0,0,0,0,kReverse,0.0,0.0,0.0,0.0,0.0,0.0,0.0,0.0,0.0,0.0,0.0,
102.80690399999999,true,true,true,0.0,-0.0078125,0.0,-0.0078125,false,false,false,false,0.0,-0.0078125,0.0,-0.0078125,false,false,false,false,0.0,12.35,0.0,-1168,-126,0,0.0,12.4,0.0,0,0,0,0.0,12.4,0.0,0,0,0,0.0,12.4,0.0,0,0,0,0.0,12.450000000000001,0.0,-1,0,0,0.0,4.0,0.0,0,0,0,kReverse,0.0,0.0,0.0,0.0,0.0,0.0,0.0,0.0,0.0,0.0,0.0,
102.929891,true,true,true,0.0,-0.0078125,0.0,-0.0078125,false,false,false,false,0.0,-0.0078125,0.0,-0.0078125,false,false,false,false,0.0,12.4,0.0,-1278,-88,0,0.0,12.4,0.0,0,0,0,0.0,12.4,0.0,0,0,0,0.0,12.4,0.0,0,0,0,0.0,12.450000000000001,0.0,-1,0,0,0.0,4.0,0.0,0,0,0,kReverse,0.0,0.0,0.0,0.0,0.0,0.0,0.0,0.0,0.0,0.0,0.0,
103.02469,true,true,true,0.0,-0.0078125,0.0,-0.0078125,false,false,false,false,0.0,-0.0078125,0.0,-0.0078125,false,false,false,false,0.0,12.4,0.0,-1335,-57,0,0.0,12.450000000000001,0.0,0,0,0,0.0,12.4,0.0,0,0,0,0.0,12.4,0.0,0,0,0,0.0,12.5,0.0,-1,0,0,0.0,4.0,0.0,0,0,0,kReverse,0.0,0.0,0.0,0.0,0.0,0.0,0.0,0.0,0.0,0.0,0.0,
103.19070699999999,true,true,true,0.0,-0.0078125,0.0,-0.0078125,false,false,false,false,0.0,-0.0078125,0.0,-0.0078125,false,false,false,false,0.0,12.4,0.0,-1367,-8,0,0.0,12.450000000000001,0.0,0,0,0,0.0,12.450000000000001,0.0,0,0,0,0.0,12.4,0.0,0,0,0,0.0,12.5,0.0,-1,0,0,0.0,4.0,0.0,0,0,0,kReverse,0.0,0.0,0.0,0.0,0.0,0.0,0.0,0.0,0.0,0.0,0.0,
103.31166,true,true,true,0.0,-0.0078125,0.0,-0.0078125,false,false,false,false,0.0,-0.0078125,0.0,-0.0078125,false,false,false,false,0.0,12.450000000000001,0.0,-1367,0,0,0.0,12.450000000000001,0.0,0,0,0,0.0,12.450000000000001,0.0,0,0,0,0.0,12.450000000000001,0.0,0,0,0,0.0,12.55,0.0,-1,0,0,0.0,4.0,0.0,0,0,0,kReverse,0.0,0.0,0.0,0.0,0.0,0.0,0.0,0.0,0.0,0.0,0.0,
103.370061,true,true,true,0.0,-0.0078125,0.0,-0.0078125,false,false,false,false,0.0,-0.0078125,0.0,-0.0078125,false,false,false,false,0.0,12.450000000000001,0.0,-1367,0,0,0.0,12.450000000000001,0.0,0,0,0,0.0,12.450000000000001,0.0,0,0,0,0.0,12.450000000000001,0.0,0,0,0,0.0,12.55,0.0,-1,0,0,0.0,4.0,0.0,0,0,0,kReverse,0.0,0.0,0.0,0.0,0.0,0.0,0.0,0.0,0.0,0.0,0.0,
103.447341,true,true,true,0.0,-0.0078125,0.0,-0.0078125,false,false,false,false,0.0,-0.0078125,0.0,-0.0078125,false,false,false,false,0.0,12.450000000000001,0.0,-1367,0,0,0.0,12.450000000000001,0.0,0,0,0,0.0,12.450000000000001,0.0,0,0,0,0.0,12.450000000000001,0.0,0,0,0,0.0,12.55,0.0,-1,0,0,0.0,4.0,0.0,0,0,0,kReverse,0.0,0.0,0.0,0.0,0.0,0.0,0.0,0.0,0.0,0.0,0.0,
103.589209,true,true,true,0.0,-0.0078125,-0.3359375,-0.0078125,false,false,false,false,0.0,-0.0078125,0.0,-0.0078125,false,false,false,false,0.0,12.450000000000001,0.0,-1368,-1,0,0.0,12.450000000000001,0.0,0,0,0,0.125,12.450000000000001,0.0,0,0,0,0.0,12.450000000000001,0.0,0,0,0,0.0,12.4,0.0,-1,0,0,0.0,4.0,0.0,0,0,0,kReverse,0.0,0.0,0.0,0.0,0.0,0.0,0.0,0.0,0.0,0.0,0.0,
103.707356,true,true,true,0.0,-0.0078125,-1.0,-0.0078125,false,false,false,false,0.0,-0.0078125,0.0,-0.0078125,false,false,false,false,1.625,12.3,0.0,-1382,-14,0,3.0,12.35,0.0,0,0,0,6.375,12.35,0.0,0,0,0,2.25,12.35,0.0,0,0,0,0.0,12.4,0.0,-1,0,0,0.0,4.0,0.0,0,0,0,kReverse,0.0,0.0,0.0,0.0,0.0,0.0,0.0,0.0,0.0,0.0,0.0,
103.800452,true,true,true,0.0,-0.0078125,0.0,-0.0078125,false,false,false,false,0.0,-0.0078125,0.0,-0.0078125,false,false,false,false,22.25,9.95,0.0,-1399,-17,0,27.75,10.100000000000001,0.0,0,0,0,19.75,9.95,0.0,0,0,0,20.5,10.0,0.0,0,0,0,0.0,10.350000000000001,0.0,-1,0,0,0.0,4.0,0.0,0,0,0,kReverse,0.0,0.0,0.0,0.0,0.0,0.0,0.0,0.0,0.0,0.0,0.0,
103.871647,true,true,true,0.0,-0.0078125,0.0,-0.0078125,false,false,false,false,0.0,-0.0078125,0.0,-0.0078125,false,false,false,false,3.0,9.95,0.0,-1407,-17,0,7.375,10.100000000000001,0.0,0,0,0,0.0,9.95,0.0,0,0,0,0.0,10.0,0.0,0,0,0,0.0,10.350000000000001,0.0,-1,0,0,0.0,4.0,0.0,0,0,0,kReverse,0.0,0.0,0.0,0.0,0.0,0.0,0.0,0.0,0.0,0.0,0.0,
103.930023,true,true,true,0.0,-0.0078125,0.0,-0.0078125,false,false,false,false,0.0,-0.0078125,0.0,-0.0078125,false,false,false,false,0.0,9.95,0.0,-1406,-1,0,0.0,10.100000000000001,0.0,0,0,0,0.0,9.95,0.0,0,0,0,0.0,10.0,0.0,0,0,0,0.0,12.450000000000001,0.0,-1,0,0,0.0,4.0,0.0,0,0,0,kReverse,0.0,0.0,0.0,0.0,0.0,0.0,0.0,0.0,0.0,0.0,0.0,
104.097787,true,true,true,0.0,-0.0078125,0.24409449100494385,-0.0078125,false,false,false,false,0.0,-0.0078125,0.0,-0.0078125,false,false,false,false,0.0,12.4,0.0,-1410,0,0,0.0,12.450000000000001,0.0,0,0,0,0.375,12.450000000000001,0.0,0,0,0,0.0,12.450000000000001,0.0,0,0,0,0.0,12.5,0.0,-1,0,0,0.0,4.0,0.0,0,0,0,kReverse,0.0,0.0,0.0,0.0,0.0,0.0,0.0,0.0,0.0,0.0,0.0,
104.22533,true,true,true,0.0,-0.0078125,-0.03125,-0.0078125,false,false,false,false,0.0,-0.0078125,0.0,-0.0078125,false,false,false,false,1.5,12.4,0.0,-1395,14,0,2.125,12.450000000000001,0.0,0,0,0,1.5,12.450000000000001,0.0,0,0,0,1.125,12.450000000000001,0.0,0,0,0,0.0,12.5,0.0,-1,0,0,0.0,4.0,0.0,0,0,0,kReverse,0.0,0.0,0.0,0.0,0.0,0.0,0.0,0.0,0.0,0.0,0.0,
104.289211,true,true,true,0.0,-0.0078125,-0.765625,-0.0078125,false,false,false,false,0.0,-0.0078125,0.0,-0.0078125,false,false,false,false,0.125,12.4,0.0,-1391,11,0,0.875,12.4,0.0,0,0,0,0.5,12.35,0.0,0,0,0,0.0,12.35,0.0,0,0,0,0.0,12.450000000000001,0.0,-1,0,0,0.0,4.0,0.0,0,0,0,kReverse,0.0,0.0,0.0,0.0,0.0,0.0,0.0,0.0,0.0,0.0,0.0,
104.364997,true,true,true,0.0,-0.0078125,-1.0,-0.0078125,false,false,false,false,0.0,-0.0078125,0.0,-0.0078125,false,false,false,false,8.0,12.4,0.0,-1410,-19,0,9.125,12.4,0.0,0,0,0,12.125,12.35,0.0,0,0,0,7.0,12.35,0.0,0,0,0,0.0,12.450000000000001,0.0,-1,0,0,0.0,4.0,0.0,0,0,0,kReverse,0.0,0.0,0.0,0.0,0.0,0.0,0.0,0.0,0.0,0.0,0.0,
104.45177199999999,true,true,true,0.0,-0.0078125,-1.0,-0.0078125,false,false,false,false,0.0,-0.0078125,0.0,-0.0078125,false,false,false,false,20.625,10.2,0.0,-1449,-48,0,25.0,10.25,0.0,0,0,0,25.125,10.350000000000001,0.0,0,0,0,20.875,10.3,0.0,0,0,0,0.0,10.45,0.0,-1,0,0,0.0,4.0,0.0,0,0,0,kReverse,0.0,0.0,0.0,0.0,0.0,0.0,0.0,0.0,0.0,0.0,0.0,
104.55289599999999,true,true,true,0.0,-0.0078125,-1.0,-0.0078125,false,false,false,false,0.0,-0.0078125,0.0,-0.0078125,false,false,false,false,16.375,10.2,0.0,-1555,-106,0,20.0,10.25,0.0,0,0,0,20.625,10.350000000000001,0.0,0,0,0,16.25,10.3,0.0,0,0,0,0.0,10.45,0.0,-1,0,0,0.0,4.0,0.0,0,0,0,kReverse,0.0,0.0,0.0,0.0,0.0,0.0,0.0,0.0,0.0,0.0,0.0,
104.695057,true,true,true,0.0,-0.0078125,-1.0,-0.0078125,false,false,false,false,0.0,-0.0078125,0.0,-0.0078125,false,false,false,false,12.5,10.65,0.0,-1831,-182,0,16.5,10.65,0.0,0,0,0,17.75,10.75,0.0,0,0,0,12.875,10.8,0.0,0,0,0,0.0,10.9,0.0,-1,0,0,0.0,4.0,0.0,0,0,0,kReverse,0.0,0.0,0.0,0.0,0.0,0.0,0.0,0.0,0.0,0.0,0.0,
104.836567,true,true,true,0.0,-0.0078125,-1.0,-0.0078125,false,false,false,false,0.0,-0.0078125,0.0,-0.0078125,false,false,false,false,10.25,10.9,0.0,-2074,-205,0,13.75,10.95,0.0,0,0,0,16.0,11.0,0.0,0,0,0,11.375,11.05,0.0,0,0,0,0.0,11.15,0.0,-1,0,0,0.0,4.0,0.0,0,0,0,kReverse,0.0,0.0,0.0,0.0,0.0,0.0,0.0,0.0,0.0,0.0,0.0,
104.958356,true,true,true,0.0,-0.0078125,-1.0,-0.0078125,false,false,false,false,0.0,-0.0078125,0.0,-0.0078125,false,false,false,false,9.375,11.05,0.0,-2381,-220,0,12.875,11.2,0.0,0,0,0,15.625,11.15,0.0,0,0,0,11.125,11.05,0.0,0,0,0,0.0,11.3,0.0,-1,0,0,0.0,4.0,0.0,0,0,0,kReverse,0.0,0.0,0.0,0.0,0.0,0.0,0.0,0.0,0.0,0.0,0.0,
105.077829,true,true,true,0.0,-0.0078125,-1.0,-0.0078125,false,false,false,false,0.0,-0.0078125,0.0,-0.0078125,false,false,false,false,9.875,11.05,0.0,-2651,-225,0,13.375,11.15,0.0,0,0,0,15.25,11.100000000000001,0.0,0,0,0,10.5,11.15,0.0,0,0,0,0.0,11.3,0.0,-1,0,0,0.0,4.0,0.0,0,0,0,kReverse,0.0,0.0,0.0,0.0,0.0,0.0,0.0,0.0,0.0,0.0,0.0,
105.227925,true,true,true,0.0,-0.0078125,-1.0,-0.0078125,false,false,false,false,0.0,-0.0078125,0.0,-0.0078125,false,false,false,false,10.25,11.15,0.0,-3004,-220,0,13.5,11.15,0.0,0,0,0,14.375,11.05,0.0,0,0,0,9.625,11.15,0.0,0,0,0,0.0,11.3,0.0,-1,0,0,0.0,4.0,0.0,0,0,0,kReverse,0.0,0.0,0.0,0.0,0.0,0.0,0.0,0.0,0.0,0.0,0.0,
105.36734799999999,true,true,true,0.0,-0.0078125,-0.9375,-0.0078125,false,false,false,false,0.0,-0.0078125,0.0,-0.0078125,false,false,false,false,9.125,11.15,0.0,-3278,-229,0,11.75,11.3,0.0,0,0,0,12.875,11.3,0.0,0,0,0,8.5,11.3,0.0,0,0,0,0.0,11.4,0.0,-1,0,0,0.0,4.0,0.0,0,0,0,kReverse,0.0,0.0,0.0,0.0,0.0,0.0,0.0,0.0,0.0,0.0,0.0,
105.490231,true,true,true,0.0,-0.0078125,0.0,-0.0078125,false,false,false,false,0.0,-0.0078125,0.0,-0.0078125,false,false,false,false,7.25,11.25,0.0,-3556,-231,0,10.375,11.3,0.0,0,0,0,6.375,11.3,0.0,0,0,0,4.375,11.3,0.0,0,0,0,0.0,11.4,0.0,-1,0,0,0.0,4.0,0.0,0,0,0,kReverse,0.0,0.0,0.0,0.0,0.0,0.0,0.0,0.0,0.0,0.0,0.0,
105.591678,true,true,true,0.0,-0.0078125,0.0,-0.0078125,false,false,false,false,0.0,-0.0078125,0.0,-0.0078125,false,false,false,false,0.0,12.3,0.0,-3790,-190,0,0.0,12.3,0.0,0,0,0,0.0,12.3,0.0,0,0,0,0.0,12.25,0.0,0,0,0,0.0,12.35,0.0,-1,0,0,0.0,4.0,0.0,0,0,0,kReverse,0.0,0.0,0.0,0.0,0.0,0.0,0.0,0.0,0.0,0.0,0.0,
105.702416,true,true,true,0.0,-0.0078125,0.0,-0.0078125,false,false,false,false,0.0,-0.0078125,0.0,-0.0078125,false,false,false,false,0.0,12.4,0.0,-3941,-151,0,0.0,12.4,0.0,0,0,0,0.0,12.4,0.0,0,0,0,0.0,12.4,0.0,0,0,0,0.0,12.450000000000001,0.0,-1,0,0,0.0,4.0,0.0,0,0,0,kReverse,0.0,0.0,0.0,0.0,0.0,0.0,0.0,0.0,0.0,0.0,0.0,
105.79110800000001,true,true,true,0.0,-0.0078125,-0.1015625,-0.0078125,false,false,false,false,0.0,-0.0078125,0.0,-0.0078125,false,false,false,false,0.0,12.4,0.0,-4055,-114,0,0.0,12.4,0.0,0,0,0,0.0,12.4,0.0,0,0,0,0.0,12.4,0.0,0,0,0,0.0,12.450000000000001,0.0,-1,0,0,0.0,4.0,0.0,0,0,0,kReverse,0.0,0.0,0.0,0.0,0.0,0.0,0.0,0.0,0.0,0.0,0.0,
105.86651499999999,true,true,true,0.0,-0.0078125,-0.859375,-0.0078125,false,false,false,false,0.0,-0.0078125,0.0,-0.0078125,false,false,false,false,0.0,12.4,0.0,-4105,-90,0,0.125,12.4,0.0,0,0,0,0.0,12.4,0.0,0,0,0,0.0,12.4,0.0,0,0,0,0.0,12.450000000000001,0.0,-1,0,0,0.0,4.0,0.0,0,0,0,kReverse,0.0,0.0,0.0,0.0,0.0,0.0,0.0,0.0,0.0,0.0,0.0,
105.929234,true,true,true,0.0,-0.0078125,-1.0,-0.0078125,false,false,false,false,0.0,-0.0078125,0.0,-0.0078125,false,false,false,false,9.375,12.4,0.0,-4145,-72,0,9.5,12.4,0.0,0,0,0,14.0,12.4,0.0,0,0,0,14.0,12.4,0.0,0,0,0,0.0,12.450000000000001,0.0,-1,0,0,0.0,4.0,0.0,0,0,0,kReverse,0.0,0.0,0.0,0.0,0.0,0.0,0.0,0.0,0.0,0.0,0.0,
106.02447500000001,true,true,true,0.0,-0.0078125,-1.0,-0.0078125,false,false,false,false,0.0,-0.0078125,0.0,-0.0078125,false,false,false,false,20.875,10.15,0.0,-4213,-68,0,25.5,10.15,0.0,0,0,0,25.625,10.15,0.0,0,0,0,21.0,10.3,0.0,0,0,0,0.0,10.5,0.0,-1,0,0,0.0,4.0,0.0,0,0,0,kReverse,0.0,0.0,0.0,0.0,0.0,0.0,0.0,0.0,0.0,0.0,0.0,
106.11292,true,true,true,0.0,-0.0078125,0.0,-0.0078125,false,false,false,false,0.0,-0.0078125,0.0,-0.0078125,false,false,false,false,16.5,10.15,0.0,-4309,-113,0,20.125,10.15,0.0,0,0,0,19.375,10.15,0.0,0,0,0,17.375,10.3,0.0,0,0,0,0.0,10.5,0.0,-1,0,0,0.0,4.0,0.0,0,0,0,kReverse,0.0,0.0,0.0,0.0,0.0,0.0,0.0,0.0,0.0,0.0,0.0,
106.18754799999999,true,true,true,0.0,-0.0078125,0.0,-0.0078125,false,false,false,false,0.0,-0.0078125,0.0,-0.0078125,false,false,false,false,0.0,12.200000000000001,0.0,-4416,-134,0,2.5,12.25,0.0,0,0,0,0.5,12.200000000000001,0.0,0,0,0,2.0,12.200000000000001,0.0,0,0,0,0.0,12.35,0.0,-1,0,0,0.0,4.0,0.0,0,0,0,kReverse,0.0,0.0,0.0,0.0,0.0,0.0,0.0,0.0,0.0,0.0,0.0,
106.271974,true,true,true,0.0,-0.0078125,0.0,-0.0078125,false,false,false,false,0.0,-0.0078125,0.0,-0.0078125,false,false,false,false,0.0,12.200000000000001,0.0,-4519,-103,0,0.0,12.25,0.0,0,0,0,0.0,12.200000000000001,0.0,0,0,0,0.0,12.200000000000001,0.0,0,0,0,0.0,12.35,0.0,-1,0,0,0.0,4.0,0.0,0,0,0,kReverse,0.0,0.0,0.0,0.0,0.0,0.0,0.0,0.0,0.0,0.0,0.0,
106.364689,true,true,true,0.0,-0.0078125,0.0,-0.0078125,false,false,false,false,0.0,-0.0078125,0.0,-0.0078125,false,false,false,false,0.0,12.4,0.0,-4582,-81,0,0.0,12.4,0.0,0,0,0,0.0,12.4,0.0,0,0,0,0.0,12.4,0.0,0,0,0,0.0,12.450000000000001,0.0,-1,0,0,0.0,4.0,0.0,0,0,0,kReverse,0.0,0.0,0.0,0.0,0.0,0.0,0.0,0.0,0.0,0.0,0.0,
106.422504,true,true,true,0.0,-0.0078125,0.0,-0.0078125,false,false,false,false,0.0,-0.0078125,0.0,-0.0078125,false,false,false,false,0.0,12.4,0.0,-4616,-63,0,0.0,12.4,0.0,0,0,0,0.0,12.4,0.0,0,0,0,0.0,12.4,0.0,0,0,0,0.0,12.450000000000001,0.0,-1,0,0,0.0,4.0,0.0,0,0,0,kReverse,0.0,0.0,0.0,0.0,0.0,0.0,0.0,0.0,0.0,0.0,0.0,
106.46800999999999,true,true,true,0.0,-0.0078125,0.0,-0.0078125,false,false,false,false,0.0,-0.0078125,0.0,-0.0078125,false,false,false,false,0.0,12.4,0.0,-4633,-51,0,0.0,12.4,0.0,0,0,0,0.0,12.4,0.0,0,0,0,0.0,12.4,0.0,0,0,0,0.0,12.450000000000001,0.0,-1,0,0,0.0,4.0,0.0,0,0,0,kReverse,0.0,0.0,0.0,0.0,0.0,0.0,0.0,0.0,0.0,0.0,0.0,
106.584279,true,true,true,0.0,-0.0078125,0.0,-0.0078125,false,false,false,false,0.0,-0.0078125,0.0,-0.0078125,false,false,false,false,0.0,12.4,0.0,-4657,-18,0,0.0,12.4,0.0,0,0,0,0.0,12.4,0.0,0,0,0,0.0,12.4,0.0,0,0,0,0.0,12.450000000000001,0.0,-1,0,0,0.0,4.0,0.0,0,0,0,kReverse,0.0,0.0,0.0,0.0,0.0,0.0,0.0,0.0,0.0,0.0,0.0,
106.66470699999999,true,true,true,0.0,-0.0078125,0.0,-0.0078125,false,false,false,false,0.0,-0.0078125,0.0,-0.0078125,false,false,false,false,0.0,12.4,0.0,-4659,-4,0,0.0,12.450000000000001,0.0,0,0,0,0.0,12.4,0.0,0,0,0,0.0,12.4,0.0,0,0,0,0.0,12.5,0.0,-1,0,0,0.0,4.0,0.0,0,0,0,kReverse,0.0,0.0,0.0,0.0,0.0,0.0,0.0,0.0,0.0,0.0,0.0,
106.717681,true,true,true,0.0,-0.0078125,0.0,-0.0078125,false,false,false,false,0.0,-0.0078125,0.0,-0.0078125,false,false,false,false,0.0,12.4,0.0,-4659,0,0,0.0,12.450000000000001,0.0,0,0,0,0.0,12.4,0.0,0,0,0,0.0,12.4,0.0,0,0,0,0.0,12.5,0.0,-1,0,0,0.0,4.0,0.0,0,0,0,kReverse,0.0,0.0,0.0,0.0,0.0,0.0,0.0,0.0,0.0,0.0,0.0,
106.804331,true,true,true,0.0,-0.0078125,0.6614173054695129,-0.0078125,false,false,false,false,0.0,-0.0078125,0.0,-0.0078125,false,false,false,false,0.0,12.4,0.0,-4659,0,0,0.0,12.450000000000001,0.0,0,0,0,0.0,12.4,0.0,0,0,0,0.0,12.4,0.0,0,0,0,0.0,12.5,0.0,-1,0,0,0.0,4.0,0.0,0,0,0,kReverse,0.0,0.0,0.0,0.0,0.0,0.0,0.0,0.0,0.0,0.0,0.0,
106.903553,true,true,true,0.0,-0.0078125,1.0,-0.0078125,false,false,false,false,0.0,-0.0078125,0.0,-0.0078125,false,false,false,false,2.375,12.4,0.0,-4650,9,0,3.375,12.450000000000001,0.0,0,0,0,3.0,12.4,0.0,0,0,0,1.875,12.4,0.0,0,0,0,0.0,12.5,0.0,-1,0,0,0.0,4.0,0.0,0,0,0,kReverse,0.0,0.0,0.0,0.0,0.0,0.0,0.0,0.0,0.0,0.0,0.0,
106.959886,true,true,true,0.0,-0.0078125,1.0,-0.0078125,false,false,false,false,0.0,-0.0078125,0.0,-0.0078125,false,false,false,false,20.0,12.4,0.0,-4636,21,0,23.5,12.450000000000001,0.0,0,0,0,22.375,12.4,0.0,0,0,0,17.0,12.4,0.0,0,0,0,0.0,12.5,0.0,-1,0,0,0.0,4.0,0.0,0,0,0,kReverse,0.0,0.0,0.0,0.0,0.0,0.0,0.0,0.0,0.0,0.0,0.0,
107.011226,true,true,true,0.0,-0.0078125,1.0,-0.0078125,false,false,false,false,0.0,-0.0078125,0.0,-0.0078125,false,false,false,false,22.375,10.0,0.0,-4617,29,0,31.125,10.100000000000001,0.0,0,0,0,24.375,10.100000000000001,0.0,0,0,0,22.375,10.2,0.0,0,0,0,0.0,10.4,0.0,-1,0,0,0.0,4.0,0.0,0,0,0,kReverse,0.0,0.0,0.0,0.0,0.0,0.0,0.0,0.0,0.0,0.0,0.0,
107.131671,true,true,true,0.0,-0.0078125,1.0,-0.0078125,false,false,false,false,0.0,-0.0078125,0.0,-0.0078125,false,false,false,false,16.0,10.0,0.0,-4553,75,0,23.125,10.850000000000001,0.0,0,0,0,18.75,10.75,0.0,0,0,0,15.875,10.65,0.0,0,0,0,0.0,10.95,0.0,-1,0,0,0.0,4.0,0.0,0,0,0,kReverse,0.0,0.0,0.0,0.0,0.0,0.0,0.0,0.0,0.0,0.0,0.0,
107.249302,true,true,true,0.0,-0.0078125,0.07086614519357681,0.11811023950576782,false,false,false,false,0.0,-0.0078125,0.0,-0.0078125,false,false,false,false,14.125,10.7,0.0,-4398,136,0,21.0,10.850000000000001,0.0,0,0,0,13.0,10.75,0.0,0,0,0,12.0,10.65,0.0,0,0,0,0.0,10.95,0.0,-1,0,0,0.0,4.0,0.0,0,0,0,kReverse,0.0,0.0,0.0,0.0,0.0,0.0,0.0,0.0,0.0,0.0,0.0,
107.33372800000001,true,true,true,0.0,-0.0078125,-0.03125,-0.0078125,false,false,false,false,0.0,-0.0078125,0.0,-0.0078125,false,false,false,false,0.0,12.25,0.0,-4273,157,0,0.25,12.25,0.0,0,0,0,0.0,12.25,0.0,0,0,0,0.0,12.25,0.0,0,0,0,0.0,12.35,0.0,-1,0,0,0.0,4.0,0.0,0,0,0,kReverse,0.0,0.0,0.0,0.0,0.0,0.0,0.0,0.0,0.0,0.0,0.0,
107.444936,true,true,true,0.0,-0.0078125,-0.03125,-0.0078125,false,false,false,false,0.0,-0.0078125,0.0,-0.0078125,false,false,false,false,0.0,12.25,0.0,-4121,127,0,0.0,12.25,0.0,0,0,0,0.0,12.25,0.0,0,0,0,0.0,12.4,0.0,0,0,0,0.0,12.450000000000001,0.0,-1,0,0,0.0,4.0,0.0,0,0,0,kReverse,0.0,0.0,0.0,0.0,0.0,0.0,0.0,0.0,0.0,0.0,0.0,
107.536076,true,true,true,0.0,-0.0078125,0.787401556968689,-0.0078125,false,false,false,false,0.0,-0.0078125,0.0,-0.0078125,false,false,false,false,0.0,12.4,0.0,-4017,104,0,0.125,12.4,0.0,0,0,0,5.625,12.4,0.0,0,0,0,3.875,12.4,0.0,0,0,0,0.0,12.450000000000001,0.0,-1,0,0,0.0,4.0,0.0,0,0,0,kReverse,0.0,0.0,0.0,0.0,0.0,0.0,0.0,0.0,0.0,0.0,0.0,
107.706316,true,true,true,0.0,-0.0078125,0.6299212574958801,-0.0078125,false,false,false,false,0.0,-0.0078125,0.0,-0.0078125,false,false,false,false,14.625,10.7,0.0,-3891,72,0,21.5,11.0,0.0,0,0,0,16.375,10.95,0.0,0,0,0,12.875,11.0,0.0,0,0,0,0.0,11.100000000000001,0.0,-1,0,0,0.0,4.0,0.0,0,0,0,kReverse,0.0,0.0,0.0,0.0,0.0,0.0,0.0,0.0,0.0,0.0,0.0,
107.82778,true,true,true,0.0,-0.0078125,-0.0546875,-0.0078125,false,false,false,false,0.0,-0.0078125,0.0,-0.0078125,false,false,false,false,16.125,10.5,0.0,-3764,111,0,23.875,10.55,0.0,0,0,0,19.625,10.45,0.0,0,0,0,15.375,10.55,0.0,0,0,0,0.0,10.8,0.0,-1,0,0,0.0,4.0,0.0,0,0,0,kReverse,0.0,0.0,0.0,0.0,0.0,0.0,0.0,0.0,0.0,0.0,0.0,
107.88786900000001,true,true,true,0.0,-0.0078125,-0.0546875,-0.0078125,false,false,false,false,0.0,-0.0078125,0.0,-0.0078125,false,false,false,false,2.0,10.5,0.0,-3678,139,0,5.25,10.55,0.0,0,0,0,5.875,10.45,0.0,0,0,0,1.375,10.55,0.0,0,0,0,0.0,10.8,0.0,-1,0,0,0.0,4.0,0.0,0,0,0,kReverse,0.0,0.0,0.0,0.0,0.0,0.0,0.0,0.0,0.0,0.0,0.0,
108.002781,true,true,true,0.0,-0.0078125,-0.0546875,-0.0078125,false,false,false,false,0.0,-0.0078125,0.0,-0.0078125,false,false,false,false,0.0,12.35,0.0,-3549,106,0,0.0,12.35,0.0,0,0,0,0.125,12.35,0.0,0,0,0,0.0,12.35,0.0,0,0,0,0.0,12.4,0.0,-1,0,0,0.0,4.0,0.0,0,0,0,kReverse,0.0,0.0,0.0,0.0,0.0,0.0,0.0,0.0,0.0,0.0,0.0,
108.169878,true,true,true,0.0,-1.0,-0.0546875,-0.0078125,false,false,false,false,0.0,-0.0078125,0.0,-0.0078125,false,false,false,false,0.0,12.4,0.0,-3419,70,0,5.0,12.4,0.0,0,0,0,3.375,12.4,0.0,0,0,0,0.0,12.4,0.0,0,0,0,0.0,12.450000000000001,0.0,-1,0,0,0.0,4.0,0.0,0,0,0,kReverse,0.0,0.0,0.0,0.0,0.0,0.0,0.0,0.0,0.0,0.0,0.0,
108.314217,true,true,true,0.0,-1.0,-0.0546875,-0.0078125,false,false,false,false,0.0,-0.0078125,0.0,-0.0078125,false,false,false,false,11.625,10.2,0.0,-3290,89,0,18.25,10.2,0.0,0,0,0,20.0,10.15,0.0,0,0,0,13.5,10.350000000000001,0.0,0,0,0,0.0,10.5,0.0,-1,0,0,0.0,4.0,0.0,0,0,0,kReverse,0.0,0.0,0.0,0.0,0.0,0.0,0.0,0.0,0.0,0.0,0.0,
108.421931,true,true,true,0.0,-1.0,-0.0546875,-0.0078125,false,false,false,false,0.0,-0.0078125,0.0,-0.0078125,false,false,false,false,14.25,10.75,0.0,-3143,147,0,21.125,10.9,0.0,0,0,0,21.25,10.850000000000001,0.0,0,0,0,17.125,10.850000000000001,0.0,0,0,0,0.0,10.9,0.0,-1,0,0,0.0,4.0,0.0,0,0,0,kReverse,0.0,0.0,0.0,0.0,0.0,0.0,0.0,0.0,0.0,0.0,0.0,
108.510809,true,true,true,0.0,-1.0,-0.0546875,-0.0078125,false,false,false,false,0.0,-0.0078125,0.0,-0.0078125,false,false,false,false,9.875,10.75,0.0,-3012,161,0,15.875,10.9,0.0,0,0,0,17.0,10.850000000000001,0.0,0,0,0,11.875,10.850000000000001,0.0,0,0,0,0.0,10.9,0.0,-1,0,0,0.0,4.0,0.0,0,0,0,kReverse,0.0,0.0,0.0,0.0,0.0,0.0,0.0,0.0,0.0,0.0,0.0,
108.57136299999999,true,true,true,0.0,-1.0,-0.0546875,-0.0078125,false,false,false,false,0.0,-0.0078125,0.0,-0.0078125,false,false,false,false,8.75,10.75,0.0,-2907,171,0,14.375,10.9,0.0,0,0,0,15.125,10.850000000000001,0.0,0,0,0,10.0,11.25,0.0,0,0,0,0.0,11.4,0.0,-1,0,0,0.0,4.0,0.0,0,0,0,kReverse,0.0,0.0,0.0,0.0,0.0,0.0,0.0,0.0,0.0,0.0,0.0,
108.647995,true,true,true,0.0,-1.0,-0.0546875,-0.0078125,false,false,false,false,0.0,-0.0078125,0.0,-0.0078125,false,false,false,false,6.875,11.2,0.0,-2747,197,0,12.0,11.25,0.0,0,0,0,13.0,11.2,0.0,0,0,0,8.25,11.25,0.0,0,0,0,0.0,11.4,0.0,-1,0,0,0.0,4.0,0.0,0,0,0,kReverse,0.0,0.0,0.0,0.0,0.0,0.0,0.0,0.0,0.0,0.0,0.0,
108.764442,true,true,true,0.0,-0.0078125,-0.0546875,-0.0078125,false,false,false,false,0.0,-0.0078125,0.0,-0.0078125,false,false,false,false,2.75,11.45,0.0,-2461,242,0,9.375,11.55,0.0,0,0,0,7.375,11.5,0.0,0,0,0,4.125,11.5,0.0,0,0,0,0.0,11.65,0.0,-1,0,0,0.0,4.0,0.0,0,0,0,kReverse,0.0,0.0,0.0,0.0,0.0,0.0,0.0,0.0,0.0,0.0,0.0,
108.83456299999999,true,true,true,0.0,-0.0078125,-0.0546875,-0.0078125,false,false,false,false,0.0,-0.0078125,0.0,-0.0078125,false,false,false,false,0.0,11.45,0.0,-2312,253,0,0.0,11.55,0.0,0,0,0,0.0,11.5,0.0,0,0,0,0.0,11.5,0.0,0,0,0,0.0,11.65,0.0,-1,0,0,0.0,4.0,0.0,0,0,0,kReverse,0.0,0.0,0.0,0.0,0.0,0.0,0.0,0.0,0.0,0.0,0.0,
108.914728,true,true,true,0.0,-0.0078125,-0.0546875,-0.0078125,false,false,false,false,0.0,-0.0078125,0.0,-0.0078125,false,false,false,false,0.0,12.4,0.0,-2091,221,0,0.125,12.450000000000001,0.0,0,0,0,0.125,12.4,0.0,0,0,0,0.0,12.4,0.0,0,0,0,0.0,12.5,0.0,-1,0,0,0.0,4.0,0.0,0,0,0,kReverse,0.0,0.0,0.0,0.0,0.0,0.0,0.0,0.0,0.0,0.0,0.0,
109.048595,true,true,true,0.0,-0.40625,-0.0546875,-0.0078125,false,false,false,false,0.0,-0.0078125,0.0,-0.0078125,false,false,false,false,0.0,12.4,0.0,-1821,225,0,0.0,12.450000000000001,0.0,0,0,0,0.125,12.4,0.0,0,0,0,0.0,12.4,0.0,0,0,0,0.0,12.5,0.0,-1,0,0,0.0,4.0,0.0,0,0,0,kReverse,0.0,0.0,0.0,0.0,0.0,0.0,0.0,0.0,0.0,0.0,0.0,
109.110607,true,true,true,0.0,-0.96875,-0.0546875,-0.0078125,false,false,false,false,0.0,-0.0078125,0.0,-0.0078125,false,false,false,false,0.0,12.4,0.0,-1696,215,0,0.25,12.450000000000001,0.0,0,0,0,2.125,12.4,0.0,0,0,0,0.0,12.4,0.0,0,0,0,0.0,12.5,0.0,-1,0,0,0.0,4.0,0.0,0,0,0,kReverse,0.0,0.0,0.0,0.0,0.0,0.0,0.0,0.0,0.0,0.0,0.0,
109.184206,true,true,true,0.0,-1.0,-0.0546875,-0.0078125,false,false,false,false,0.0,-0.0078125,0.0,-0.0078125,false,false,false,false,6.125,12.4,0.0,-1537,200,0,8.625,12.450000000000001,0.0,0,0,0,12.625,12.4,0.0,0,0,0,6.625,12.4,0.0,0,0,0,0.0,12.5,0.0,-1,0,0,0.0,4.0,0.0,0,0,0,kReverse,0.0,0.0,0.0,0.0,0.0,0.0,0.0,0.0,0.0,0.0,0.0,
109.242606,true,true,true,0.0,-1.0,-0.0546875,-0.0078125,false,false,false,false,0.0,-0.0078125,0.0,-0.0078125,false,false,false,false,8.25,11.15,0.0,-1409,210,0,13.5,11.2,0.0,0,0,0,17.125,11.05,0.0,0,0,0,12.125,11.2,0.0,0,0,0,0.0,11.350000000000001,0.0,-1,0,0,0.0,4.0,0.0,0,0,0,kReverse,0.0,0.0,0.0,0.0,0.0,0.0,0.0,0.0,0.0,0.0,0.0,
109.30783100000001,true,true,true,0.0,-0.3046875,-0.0546875,-0.0078125,false,false,false,false,0.0,-0.0078125,0.0,-0.0078125,false,false,false,false,8.625,11.15,0.0,-1278,216,0,14.25,11.2,0.0,0,0,0,14.125,11.05,0.0,0,0,0,11.625,11.2,0.0,0,0,0,0.0,11.350000000000001,0.0,-1,0,0,0.0,4.0,0.0,0,0,0,kReverse,0.0,0.0,0.0,0.0,0.0,0.0,0.0,0.0,0.0,0.0,0.0,
109.396293,true,true,true,0.0,-0.0078125,-0.0546875,-0.0078125,false,false,false,false,0.0,-0.0078125,0.0,-0.0078125,false,false,false,false,0.0,12.3,0.0,-1081,197,0,0.25,12.35,0.0,0,0,0,0.125,12.3,0.0,0,0,0,0.0,12.3,0.0,0,0,0,0.0,12.4,0.0,-1,0,0,0.0,4.0,0.0,0,0,0,kReverse,0.0,0.0,0.0,0.0,0.0,0.0,0.0,0.0,0.0,0.0,0.0,
109.48246499999999,true,true,true,0.0,-0.0078125,-0.7578125,-0.0078125,false,false,false,false,0.0,-0.0078125,0.0,-0.0078125,false,false,false,false,0.0,12.3,0.0,-940,176,0,0.0,12.35,0.0,0,0,0,0.125,12.3,0.0,0,0,0,0.0,12.3,0.0,0,0,0,0.0,12.4,0.0,-1,0,0,0.0,4.0,0.0,0,0,0,kReverse,0.0,0.0,0.0,0.0,0.0,0.0,0.0,0.0,0.0,0.0,0.0,
109.539605,true,true,true,0.0,-0.0078125,-1.0,-0.0078125,false,false,false,false,0.0,-0.0078125,0.0,-0.0078125,false,false,false,false,15.0,12.3,0.0,-847,167,0,14.375,11.55,0.0,0,0,0,4.0,11.600000000000001,0.0,0,0,0,1.0,11.600000000000001,0.0,0,0,0,0.0,11.7,0.0,-1,0,0,0.0,4.0,0.0,0,0,0,kReverse,0.0,0.0,0.0,0.0,0.0,0.0,0.0,0.0,0.0,0.0,0.0,
109.651647,true,true,true,0.0,-0.0078125,-1.0,-0.0078125,false,false,false,false,0.0,-0.0078125,0.0,-0.0078125,false,false,false,false,21.375,11.4,0.0,-806,20,0,26.875,11.55,0.0,0,0,0,15.0,11.600000000000001,0.0,0,0,0,10.25,11.600000000000001,0.0,0,0,0,0.0,11.7,0.0,-1,0,0,0.0,4.0,0.0,0,0,0,kReverse,0.0,0.0,0.0,0.0,0.0,0.0,0.0,0.0,0.0,0.0,0.0,
109.724627,true,true,true,0.0,-0.0078125,-1.0,-0.0078125,false,false,false,false,0.0,-0.0078125,0.0,-0.0078125,false,false,false,false,20.5,10.5,0.0,-845,-49,0,26.125,10.55,0.0,0,0,0,15.25,10.65,0.0,0,0,0,10.875,10.65,0.0,0,0,0,0.0,10.850000000000001,0.0,-1,0,0,0.0,4.0,0.0,0,0,0,kReverse,0.0,0.0,0.0,0.0,0.0,0.0,0.0,0.0,0.0,0.0,0.0,
109.786523,true,true,true,0.0,-0.0078125,-1.0,-0.0078125,false,false,false,false,0.0,-0.0078125,0.0,-0.0078125,false,false,false,false,20.5,10.5,0.0,-900,-84,0,26.625,10.55,0.0,0,0,0,15.25,10.65,0.0,0,0,0,10.875,10.65,0.0,0,0,0,0.0,10.850000000000001,0.0,-1,0,0,0.0,4.0,0.0,0,0,0,kReverse,0.0,0.0,0.0,0.0,0.0,0.0,0.0,0.0,0.0,0.0,0.0,
109.85447500000001,true,true,true,0.0,-0.0078125,-1.0,-0.015625,false,false,false,false,0.0,-0.0078125,0.0,-0.0078125,false,false,false,false,17.5,10.55,0.0,-989,-107,0,22.375,10.65,0.0,0,0,0,15.625,10.7,0.0,0,0,0,11.375,10.7,0.0,0,0,0,0.0,10.9,0.0,-1,0,0,0.0,4.0,0.0,0,0,0,kReverse,0.0,0.0,0.0,0.0,0.0,0.0,0.0,0.0,0.0,0.0,0.0,
109.909857,true,true,true,0.0,-0.0078125,-0.484375,-0.015625,false,false,false,false,0.0,-0.0078125,0.0,-0.0078125,false,false,false,false,17.25,10.55,0.0,-1040,-120,0,21.875,10.65,0.0,0,0,0,14.0,10.7,0.0,0,0,0,12.0,10.7,0.0,0,0,0,0.0,10.9,0.0,-1,0,0,0.0,4.0,0.0,0,0,0,kReverse,0.0,0.0,0.0,0.0,0.0,0.0,0.0,0.0,0.0,0.0,0.0,
109.976318,true,true,true,0.0,-0.0078125,0.0,-0.015625,false,false,false,false,0.0,-0.0078125,0.0,-0.0078125,false,false,false,false,2.5,10.55,0.0,-1139,-125,0,6.125,10.65,0.0,0,0,0,2.75,10.7,0.0,0,0,0,0.25,10.7,0.0,0,0,0,0.0,10.9,0.0,-1,0,0,0.0,4.0,0.0,0,0,0,kReverse,0.0,0.0,0.0,0.0,0.0,0.0,0.0,0.0,0.0,0.0,0.0,
110.049628,true,true,true,0.0,-0.0078125,0.0,-0.015625,false,false,false,false,0.0,-0.0078125,0.0,-0.0078125,false,false,false,false,0.0,12.3,0.0,-1201,-110,0,0.625,12.3,0.0,0,0,0,0.125,12.35,0.0,0,0,0,0.0,12.3,0.0,0,0,0,0.0,12.4,0.0,-1,0,0,0.0,4.0,0.0,0,0,0,kReverse,0.0,0.0,0.0,0.0,0.0,0.0,0.0,0.0,0.0,0.0,0.0,
110.153476,true,true,true,0.0,-0.0078125,0.0,-0.015625,false,false,false,false,0.0,-0.0078125,0.0,-0.0078125,false,false,false,false,0.0,12.3,0.0,-1280,-79,0,0.0,12.3,0.0,0,0,0,0.0,12.35,0.0,0,0,0,0.0,12.3,0.0,0,0,0,0.0,12.450000000000001,0.0,-1,0,0,0.0,4.0,0.0,0,0,0,kReverse,0.0,0.0,0.0,0.0,0.0,0.0,0.0,0.0,0.0,0.0,0.0,
110.310057,true,true,true,0.0,-0.0078125,-0.25,-0.015625,false,false,false,false,0.0,-0.0078125,0.0,-0.0078125,false,false,false,false,0.0,12.4,0.0,-1338,-27,0,0.0,12.4,0.0,0,0,0,0.0,12.4,0.0,0,0,0,0.0,12.4,0.0,0,0,0,0.0,12.450000000000001,0.0,-1,0,0,0.0,4.0,0.0,0,0,0,kReverse,0.0,0.0,0.0,0.0,0.0,0.0,0.0,0.0,0.0,0.0,0.0,
110.391272,true,true,true,0.0,-0.0078125,-1.0,-0.015625,false,false,false,false,0.0,-0.0078125,0.0,-0.0078125,false,false,false,false,0.0,12.35,0.0,-1348,-13,0,1.125,12.35,0.0,0,0,0,3.875,12.35,0.0,0,0,0,0.0,12.35,0.0,0,0,0,0.0,12.4,0.0,-1,0,0,0.0,4.0,0.0,0,0,0,kReverse,0.0,0.0,0.0,0.0,0.0,0.0,0.0,0.0,0.0,0.0,0.0,
110.451333,true,true,true,0.0,-0.0078125,-1.0,-0.015625,false,false,false,false,0.0,-0.0078125,0.0,-0.0078125,false,false,false,false,14.75,12.35,0.0,-1359,-17,0,15.0,12.35,0.0,0,0,0,26.25,12.35,0.0,0,0,0,20.125,12.35,0.0,0,0,0,0.0,12.4,0.0,-1,0,0,0.0,4.0,0.0,0,0,0,kReverse,0.0,0.0,0.0,0.0,0.0,0.0,0.0,0.0,0.0,0.0,0.0,
110.548637,true,true,true,0.0,-0.0078125,0.0,-0.015625,false,false,false,false,0.0,-0.0078125,0.0,-0.0078125,false,false,false,false,19.25,10.0,0.0,-1408,-49,0,24.5,10.0,0.0,0,0,0,18.25,10.100000000000001,0.0,0,0,0,18.25,10.0,0.0,0,0,0,0.0,10.4,0.0,-1,0,0,0.0,4.0,0.0,0,0,0,kReverse,0.0,0.0,0.0,0.0,0.0,0.0,0.0,0.0,0.0,0.0,0.0,
110.650126,true,true,true,0.0,-0.0078125,0.0,-0.015625,false,false,false,false,0.0,-0.0078125,0.0,-0.0078125,false,false,false,false,0.0,10.0,0.0,-1475,-67,0,0.125,10.0,0.0,0,0,0,0.0,12.35,0.0,0,0,0,0.0,12.35,0.0,0,0,0,0.0,12.4,0.0,-1,0,0,0.0,4.0,0.0,0,0,0,kReverse,0.0,0.0,0.0,0.0,0.0,0.0,0.0,0.0,0.0,0.0,0.0,
110.748743,true,true,true,0.0,-0.0078125,0.0,-0.015625,false,false,false,false,0.0,-0.0078125,0.0,-0.0078125,false,false,false,false,0.0,12.35,0.0,-1506,-31,0,0.0,12.35,0.0,0,0,0,0.0,12.35,0.0,0,0,0,0.0,12.35,0.0,0,0,0,0.0,12.4,0.0,-1,0,0,0.0,4.0,0.0,0,0,0,kReverse,0.0,0.0,0.0,0.0,0.0,0.0,0.0,0.0,0.0,0.0,0.0,
110.814784,true,true,true,0.0,-0.0078125,-0.859375,-0.015625,false,false,false,false,0.0,-0.0078125,0.0,-0.0078125,false,false,false,false,0.0,12.35,0.0,-1509,-10,0,0.125,12.4,0.0,0,0,0,0.0,12.35,0.0,0,0,0,0.0,12.4,0.0,0,0,0,0.0,12.450000000000001,0.0,-1,0,0,0.0,4.0,0.0,0,0,0,kReverse,0.0,0.0,0.0,0.0,0.0,0.0,0.0,0.0,0.0,0.0,0.0,
110.876196,true,true,true,0.0,-0.0078125,-1.0,-0.015625,false,false,false,false,0.0,-0.0078125,0.0,-0.0078125,false,false,false,false,9.5,12.25,0.0,-1514,-6,0,15.375,12.4,0.0,0,0,0,18.75,12.35,0.0,0,0,0,14.75,12.4,0.0,0,0,0,0.0,12.450000000000001,0.0,-1,0,0,0.0,4.0,0.0,0,0,0,kReverse,0.0,0.0,0.0,0.0,0.0,0.0,0.0,0.0,0.0,0.0,0.0,
111.000861,true,true,true,0.0,-0.0078125,-0.8359375,-0.015625,false,false,false,false,0.0,-0.0078125,0.0,-0.0078125,false,false,false,false,18.125,10.25,0.0,-1589,-64,0,23.625,10.3,0.0,0,0,0,24.25,10.2,0.0,0,0,0,21.375,10.25,0.0,0,0,0,0.0,10.5,0.0,-1,0,0,0.0,4.0,0.0,0,0,0,kReverse,0.0,0.0,0.0,0.0,0.0,0.0,0.0,0.0,0.0,0.0,0.0,
111.063293,true,true,true,0.0,-0.0078125,-0.3203125,-0.015625,false,false,false,false,0.0,-0.0078125,0.0,-0.0078125,false,false,false,false,16.5,10.25,0.0,-1650,-95,0,21.25,10.3,0.0,0,0,0,21.375,10.2,0.0,0,0,0,18.0,10.25,0.0,0,0,0,0.0,10.5,0.0,-1,0,0,0.0,4.0,0.0,0,0,0,kReverse,0.0,0.0,0.0,0.0,0.0,0.0,0.0,0.0,0.0,0.0,0.0,
111.117272,true,true,true,0.0,-0.0078125,0.0,-0.015625,false,false,false,false,0.0,-0.0078125,0.0,-0.0078125,false,false,false,false,7.125,10.25,0.0,-1697,-108,0,6.0,10.3,0.0,0,0,0,3.875,10.2,0.0,0,0,0,4.375,10.25,0.0,0,0,0,0.0,10.5,0.0,-1,0,0,0.0,4.0,0.0,0,0,0,kReverse,0.0,0.0,0.0,0.0,0.0,0.0,0.0,0.0,0.0,0.0,0.0,
111.211125,true,true,true,0.0,-0.0078125,0.0,-0.015625,false,false,false,false,0.0,-0.0078125,0.0,-0.0078125,false,false,false,false,0.0,12.25,0.0,-1806,-88,0,0.125,12.25,0.0,0,0,0,0.0,12.25,0.0,0,0,0,0.0,12.200000000000001,0.0,0,0,0,0.0,12.35,0.0,-1,0,0,0.0,4.0,0.0,0,0,0,kReverse,0.0,0.0,0.0,0.0,0.0,0.0,0.0,0.0,0.0,0.0,0.0,
111.330598,true,true,true,0.0,-0.0078125,-0.1171875,-0.015625,false,false,false,false,0.0,-0.0078125,0.0,-0.0078125,false,false,false,false,0.0,12.4,0.0,-1865,-59,0,0.0,12.4,0.0,0,0,0,0.0,12.4,0.0,0,0,0,0.0,12.4,0.0,0,0,0,0.0,12.450000000000001,0.0,-1,0,0,0.0,4.0,0.0,0,0,0,kReverse,0.0,0.0,0.0,0.0,0.0,0.0,0.0,0.0,0.0,0.0,0.0,
111.430717,true,true,true,0.0,-0.0078125,-1.0,-0.015625,false,false,false,false,0.0,-0.0078125,0.0,-0.0078125,false,false,false,false,0.0,12.4,0.0,-1890,-25,0,0.125,12.4,0.0,0,0,0,0.0,12.4,0.0,0,0,0,0.0,12.4,0.0,0,0,0,0.0,12.450000000000001,0.0,-1,0,0,0.0,4.0,0.0,0,0,0,kReverse,0.0,0.0,0.0,0.0,0.0,0.0,0.0,0.0,0.0,0.0,0.0,
111.490496,true,true,true,0.0,-0.0078125,-1.0,-0.015625,false,false,false,false,0.0,-0.0078125,0.0,-0.0078125,false,false,false,false,19.5,11.2,0.0,-1907,-20,0,20.625,11.25,0.0,0,0,0,23.625,11.15,0.0,0,0,0,16.75,11.2,0.0,0,0,0,0.0,11.4,0.0,-1,0,0,0.0,4.0,0.0,0,0,0,kReverse,0.0,0.0,0.0,0.0,0.0,0.0,0.0,0.0,0.0,0.0,0.0,
111.595033,true,true,true,0.0,-0.0078125,-1.0,-0.015625,false,false,false,false,0.0,-0.0078125,0.0,-0.0078125,false,false,false,false,18.375,11.2,0.0,-1953,-46,0,22.875,11.25,0.0,0,0,0,22.875,11.15,0.0,0,0,0,20.0,11.2,0.0,0,0,0,0.0,11.4,0.0,-1,0,0,0.0,4.0,0.0,0,0,0,kReverse,0.0,0.0,0.0,0.0,0.0,0.0,0.0,0.0,0.0,0.0,0.0,
111.690331,true,true,true,0.0,-0.0078125,-0.28125,-0.015625,false,false,false,false,0.0,-0.0078125,0.0,-0.0078125,false,false,false,false,15.75,10.45,0.0,-2036,-96,0,20.25,10.55,0.0,0,0,0,20.125,10.45,0.0,0,0,0,16.125,10.4,0.0,0,0,0,0.0,10.7,0.0,-1,0,0,0.0,4.0,0.0,0,0,0,kReverse,0.0,0.0,0.0,0.0,0.0,0.0,0.0,0.0,0.0,0.0,0.0,
111.749696,true,true,true,0.0,-0.0078125,0.0,-0.015625,false,false,false,false,0.0,-0.0078125,0.0,-0.0078125,false,false,false,false,5.875,10.45,0.0,-2118,-130,0,10.375,10.55,0.0,0,0,0,8.375,10.45,0.0,0,0,0,7.625,10.4,0.0,0,0,0,0.0,10.7,0.0,-1,0,0,0.0,4.0,0.0,0,0,0,kReverse,0.0,0.0,0.0,0.0,0.0,0.0,0.0,0.0,0.0,0.0,0.0,
111.809421,true,true,true,0.0,-0.0078125,0.0,-0.015625,false,false,false,false,0.0,-0.0078125,0.0,-0.0078125,false,false,false,false,0.125,12.200000000000001,0.0,-2193,-129,0,1.125,12.200000000000001,0.0,0,0,0,0.0,12.200000000000001,0.0,0,0,0,0.0,12.200000000000001,0.0,0,0,0,0.0,12.25,0.0,-1,0,0,0.0,4.0,0.0,0,0,0,kReverse,0.0,0.0,0.0,0.0,0.0,0.0,0.0,0.0,0.0,0.0,0.0,
111.91362699999999,true,true,true,0.0,-0.0078125,0.0,-0.015625,false,false,false,false,0.0,-0.0078125,0.0,-0.0078125,false,false,false,false,0.0,12.200000000000001,0.0,-2303,-87,0,0.125,12.200000000000001,0.0,0,0,0,0.0,12.200000000000001,0.0,0,0,0,0.0,12.200000000000001,0.0,0,0,0,0.0,12.25,0.0,-1,0,0,0.0,4.0,0.0,0,0,0,kReverse,0.0,0.0,0.0,0.0,0.0,0.0,0.0,0.0,0.0,0.0,0.0,
111.99034900000001,true,true,true,0.0,-0.0078125,0.0,-0.015625,false,false,false,false,0.0,-0.0078125,0.0,-0.0078125,false,false,false,false,0.0,12.4,0.0,-2343,-72,0,0.125,12.4,0.0,0,0,0,0.0,12.4,0.0,0,0,0,0.0,12.4,0.0,0,0,0,0.0,12.450000000000001,0.0,-1,0,0,0.0,4.0,0.0,0,0,0,kReverse,0.0,0.0,0.0,0.0,0.0,0.0,0.0,0.0,0.0,0.0,0.0,
112.046384,true,true,true,0.0,-0.0078125,0.0,-0.015625,false,false,false,false,0.0,-0.0078125,0.0,-0.0078125,false,false,false,false,0.0,12.4,0.0,-2370,-52,0,0.125,12.4,0.0,0,0,0,0.0,12.4,0.0,0,0,0,0.0,12.4,0.0,0,0,0,0.0,12.450000000000001,0.0,-1,0,0,0.0,4.0,0.0,0,0,0,kReverse,0.0,0.0,0.0,0.0,0.0,0.0,0.0,0.0,0.0,0.0,0.0,
112.123685,true,true,true,0.0,-0.0078125,0.0,-0.015625,false,false,false,false,0.0,-0.0078125,0.0,-0.0078125,false,false,false,false,0.0,12.4,0.0,-2386,-24,0,0.125,12.4,0.0,0,0,0,0.0,12.4,0.0,0,0,0,0.0,12.4,0.0,0,0,0,0.0,12.5,0.0,-1,0,0,0.0,4.0,0.0,0,0,0,kReverse,0.0,0.0,0.0,0.0,0.0,0.0,0.0,0.0,0.0,0.0,0.0,
112.228247,true,true,true,0.0,-0.0078125,-1.0,-0.015625,false,false,false,false,0.0,-0.0078125,0.0,-0.0078125,false,false,false,false,0.0,12.4,0.0,-2387,-1,0,0.125,12.4,0.0,0,0,0,0.0,12.4,0.0,0,0,0,0.0,12.4,0.0,0,0,0,0.0,12.5,0.0,-1,0,0,0.0,4.0,0.0,0,0,0,kReverse,0.0,0.0,0.0,0.0,0.0,0.0,0.0,0.0,0.0,0.0,0.0,
112.28483299999999,true,true,true,0.0,-0.0078125,-1.0,-0.015625,false,false,false,false,0.0,-0.0078125,0.0,-0.0078125,false,false,false,false,12.0,11.05,0.0,-2396,-9,0,11.5,11.3,0.0,0,0,0,15.25,11.3,0.0,0,0,0,9.25,11.350000000000001,0.0,0,0,0,0.0,11.5,0.0,-1,0,0,0.0,4.0,0.0,0,0,0,kReverse,0.0,0.0,0.0,0.0,0.0,0.0,0.0,0.0,0.0,0.0,0.0,
112.336106,true,true,true,0.0,-0.0078125,-1.0,-0.015625,false,false,false,false,0.0,-0.0078125,0.0,-0.0078125,false,false,false,false,22.5,11.05,0.0,-2418,-31,0,27.625,11.3,0.0,0,0,0,26.5,11.3,0.0,0,0,0,24.5,11.350000000000001,0.0,0,0,0,0.0,11.5,0.0,-1,0,0,0.0,4.0,0.0,0,0,0,kReverse,0.0,0.0,0.0,0.0,0.0,0.0,0.0,0.0,0.0,0.0,0.0,
112.490145,true,true,true,0.0,-0.0078125,0.0,-0.03125,false,false,false,false,0.0,-0.0078125,0.0,-0.0078125,false,false,false,false,11.75,10.350000000000001,0.0,-2553,-96,0,17.5,10.45,0.0,0,0,0,14.625,10.350000000000001,0.0,0,0,0,13.0,10.350000000000001,0.0,0,0,0,0.0,10.7,0.0,-1,0,0,0.0,4.0,0.0,0,0,0,kReverse,0.0,0.0,0.0,0.0,0.0,0.0,0.0,0.0,0.0,0.0,0.0,
112.625478,true,true,true,0.0,-0.0078125,0.0,-0.03125,false,false,false,false,0.0,-0.0078125,0.0,-0.0078125,false,false,false,false,0.0,12.25,0.0,-2677,-101,0,0.875,12.25,0.0,0,0,0,0.625,12.25,0.0,0,0,0,0.0,12.25,0.0,0,0,0,0.0,12.35,0.0,-1,0,0,0.0,4.0,0.0,0,0,0,kReverse,0.0,0.0,0.0,0.0,0.0,0.0,0.0,0.0,0.0,0.0,0.0,
112.67578900000001,true,true,true,0.0,-0.0078125,0.0,-0.03125,false,false,false,false,0.0,-0.0078125,0.0,-0.0078125,false,false,false,false,0.0,12.25,0.0,-2712,-94,0,0.25,12.25,0.0,0,0,0,0.125,12.25,0.0,0,0,0,0.0,12.25,0.0,0,0,0,0.0,12.35,0.0,-1,0,0,0.0,4.0,0.0,0,0,0,kReverse,0.0,0.0,0.0,0.0,0.0,0.0,0.0,0.0,0.0,0.0,0.0,
112.73036599999999,true,true,true,0.0,-0.0078125,0.0,-0.03125,false,false,false,false,0.0,-0.0078125,0.0,-0.0078125,false,false,false,false,0.0,12.25,0.0,-2750,-73,0,0.125,12.25,0.0,0,0,0,0.0,12.25,0.0,0,0,0,0.0,12.25,0.0,0,0,0,0.0,12.35,0.0,-1,0,0,0.0,4.0,0.0,0,0,0,kReverse,0.0,0.0,0.0,0.0,0.0,0.0,0.0,0.0,0.0,0.0,0.0,
112.829322,true,true,true,0.0,-0.0078125,0.0,-0.03125,false,false,false,false,0.0,-0.0078125,0.0,-0.0078125,false,false,false,false,0.0,12.4,0.0,-2778,-28,0,0.125,12.4,0.0,0,0,0,0.0,12.4,0.0,0,0,0,0.0,12.4,0.0,0,0,0,0.0,12.450000000000001,0.0,-1,0,0,0.0,4.0,0.0,0,0,0,kReverse,0.0,0.0,0.0,0.0,0.0,0.0,0.0,0.0,0.0,0.0,0.0,
112.919751,true,true,true,0.0,-0.0078125,0.0,-0.03125,false,false,false,false,0.0,-0.0078125,0.0,-0.0078125,false,false,false,false,0.0,12.4,0.0,-2784,-6,0,0.0,12.4,0.0,0,0,0,0.0,12.4,0.0,0,0,0,0.0,12.4,0.0,0,0,0,0.0,12.5,0.0,-1,0,0,0.0,4.0,0.0,0,0,0,kReverse,0.0,0.0,0.0,0.0,0.0,0.0,0.0,0.0,0.0,0.0,0.0,
