timer,lineLeft,lineCenter,lineRight,driverLeftX,driverLeftY,driverRightX,driverRightY,driverA,driverB,driverX,driverY,operatorLeftX,operatorLeftY,operatorRightX,operatorRightY,operatorA,operatorB,operatorX,operatorY,LeftFrontCurrent,LeftFrontVoltage,LeftFrontValue,LeftFrontPosition,LeftFrontVelocity,LeftFrontFaults,LeftRearCurrent,LeftRearVoltage,LeftRearValue,LeftRearPosition,LeftRearVelocity,LeftRearFaults,RightFrontCurrent,RightFrontVoltage,RightFrontValue,RightFrontPosition,RightFrontVelocity,RightFrontFaults,RightRearCurrent,RightRearVoltage,RightRearValue,RightRearPosition,RightRearVelocity,RightRearFaults,LiftCurrent,LiftVoltage,LiftValue,LiftPosition,LiftVelocity,LiftFaults,RollerCurrent,RollerVoltage,RollerValue,RollerPosition,RollerVelocity,RollerFaults,PushersState,navx_Pitch,navx_Roll,navx_Yaw,navx_XAcc,navx_YAcc,navx_ZAcc,navx_Temp,navx_Bar,navx_Alt,navx_XDis,navx_YDis,
113.26494500000001,true,true,true,0.0,-0.0078125,0.0,-0.03125,false,false,false,false,0.0,-0.0078125,0.0,-0.0078125,false,false,false,false,0.0,12.450000000000001,0.0,-2784,0,0,0.125,12.450000000000001,0.0,0,0,0,0.0,12.450000000000001,0.0,0,0,0,0.0,12.4,0.0,0,0,0,0.0,12.5,0.0,-1,0,0,0.0,4.0,0.0,0,0,0,kReverse,0.0,0.0,0.0,0.0,0.0,0.0,0.0,0.0,0.0,0.0,0.0,
113.341762,true,true,true,0.0,-0.0078125,0.0,-0.03125,false,false,false,false,0.0,-0.0078125,0.0,-0.0078125,false,false,false,false,0.0,12.450000000000001,0.0,-2784,0,0,0.125,12.450000000000001,0.0,0,0,0,0.0,12.450000000000001,0.0,0,0,0,0.0,12.4,0.0,0,0,0,0.0,12.5,0.0,-1,0,0,0.0,4.0,0.0,0,0,0,kReverse,0.0,0.0,0.0,0.0,0.0,0.0,0.0,0.0,0.0,0.0,0.0,
113.42899700000001,true,true,true,0.5039370059967041,-0.875,0.0,-0.03125,false,false,false,false,0.0,-0.0078125,0.0,-0.0078125,false,false,false,false,0.0,12.450000000000001,0.0,-2784,0,0,0.125,12.450000000000001,0.0,0,0,0,0.0,12.450000000000001,0.0,0,0,0,0.0,12.450000000000001,0.0,0,0,0,0.0,12.55,0.0,-1,0,0,0.0,4.0,0.0,0,0,0,kReverse,0.0,0.0,0.0,0.0,0.0,0.0,0.0,0.0,0.0,0.0,0.0,
113.506766,true,true,true,0.5039370059967041,-1.0,0.0,-0.03125,false,false,false,false,0.0,-0.0078125,0.0,-0.0078125,false,false,false,false,3.5,12.450000000000001,0.0,-2775,9,0,5.75,12.450000000000001,0.0,0,0,0,6.75,12.450000000000001,0.0,0,0,0,4.0,12.450000000000001,0.0,0,0,0,0.0,12.55,0.0,-1,0,0,0.0,4.0,0.0,0,0,0,kReverse,0.0,0.0,0.0,0.0,0.0,0.0,0.0,0.0,0.0,0.0,0.0,
113.57391899999999,true,true,true,0.5039370059967041,-1.0,0.0,-0.03125,false,false,false,false,0.0,-0.0078125,0.0,-0.0078125,false,false,false,false,23.125,10.7,0.0,-2756,22,0,27.75,10.850000000000001,0.0,0,0,0,24.875,10.7,0.0,0,0,0,19.125,10.8,0.0,0,0,0,0.0,11.05,0.0,-1,0,0,0.0,4.0,0.0,0,0,0,kReverse,0.0,0.0,0.0,0.0,0.0,0.0,0.0,0.0,0.0,0.0,0.0,
113.670726,true,true,true,0.5039370059967041,-1.0,0.0,-0.03125,false,false,false,false,0.0,-0.0078125,0.0,-0.0078125,false,false,false,false,16.5,10.7,0.0,-2693,71,0,23.375,10.850000000000001,0.0,0,0,0,17.875,10.7,0.0,0,0,0,14.25,10.8,0.0,0,0,0,0.0,11.05,0.0,-1,0,0,0.0,4.0,0.0,0,0,0,kReverse,0.0,0.0,0.0,0.0,0.0,0.0,0.0,0.0,0.0,0.0,0.0,
113.731477,true,true,true,0.5196850299835205,-1.0,0.0,-0.03125,false,false,false,false,0.0,-0.0078125,0.0,-0.0078125,false,false,false,false,16.5,10.7,0.0,-2620,111,0,23.25,10.75,0.0,0,0,0,18.0,10.7,0.0,0,0,0,13.875,10.8,0.0,0,0,0,0.0,10.9,0.0,-1,0,0,0.0,4.0,0.0,0,0,0,kReverse,0.0,0.0,0.0,0.0,0.0,0.0,0.0,0.0,0.0,0.0,0.0,
113.790553,true,true,true,0.5511810779571533,-1.0,0.0,-0.03125,false,false,false,false,0.0,-0.0078125,0.0,-0.0078125,false,false,false,false,12.375,10.7,0.0,-2523,149,0,18.75,10.75,0.0,0,0,0,15.5,10.7,0.0,0,0,0,11.125,10.8,0.0,0,0,0,0.0,10.9,0.0,-1,0,0,0.0,4.0,0.0,0,0,0,kReverse,0.0,0.0,0.0,0.0,0.0,0.0,0.0,0.0,0.0,0.0,0.0,
113.88522900000001,true,true,true,0.0,-0.0078125,0.0,-0.03125,false,false,false,false,0.0,-0.0078125,0.0,-0.0078125,false,false,false,false,9.625,11.2,0.0,-2323,200,0,15.25,11.3,0.0,0,0,0,13.125,11.15,0.0,0,0,0,9.375,11.25,0.0,0,0,0,0.0,11.350000000000001,0.0,-1,0,0,0.0,4.0,0.0,0,0,0,kReverse,0.0,0.0,0.0,0.0,0.0,0.0,0.0,0.0,0.0,0.0,0.0,
113.97648,true,true,true,0.0,-0.0078125,0.0,-0.03125,false,false,false,false,0.0,-0.0078125,0.0,-0.0078125,false,false,false,false,0.0,11.2,0.0,-2153,216,0,0.25,11.3,0.0,0,0,0,0.0,11.15,0.0,0,0,0,0.0,11.25,0.0,0,0,0,0.0,11.350000000000001,0.0,-1,0,0,0.0,4.0,0.0,0,0,0,kReverse,0.0,0.0,0.0,0.0,0.0,0.0,0.0,0.0,0.0,0.0,0.0,
114.048583,true,true,true,0.0,-0.0078125,0.0,-0.03125,false,false,false,false,0.0,-0.0078125,0.0,-0.0078125,false,false,false,false,0.0,12.4,0.0,-2005,185,0,0.0,12.4,0.0,0,0,0,0.0,12.4,0.0,0,0,0,0.0,12.4,0.0,0,0,0,0.0,12.450000000000001,0.0,-1,0,0,0.0,4.0,0.0,0,0,0,kReverse,0.0,0.0,0.0,0.0,0.0,0.0,0.0,0.0,0.0,0.0,0.0,
114.132474,true,true,true,0.0,-0.0078125,0.0,-0.03125,false,false,false,false,0.0,-0.0078125,0.0,-0.0078125,false,false,false,false,0.0,12.4,0.0,-1803,202,0,0.125,12.4,0.0,0,0,0,0.0,12.4,0.0,0,0,0,0.0,12.4,0.0,0,0,0,0.0,12.450000000000001,0.0,-1,0,0,0.0,4.0,0.0,0,0,0,kReverse,0.0,0.0,0.0,0.0,0.0,0.0,0.0,0.0,0.0,0.0,0.0,
114.272093,true,true,true,0.0,-0.0078125,0.0,-0.03125,false,false,false,false,0.0,-0.0078125,0.0,-0.0078125,false,false,false,false,0.0,12.4,0.0,-1607,160,0,0.125,12.4,0.0,0,0,0,0.0,12.4,0.0,0,0,0,0.0,12.4,0.0,0,0,0,0.0,12.450000000000001,0.0,-1,0,0,0.0,4.0,0.0,0,0,0,kReverse,0.0,0.0,0.0,0.0,0.0,0.0,0.0,0.0,0.0,0.0,0.0,
114.376871,true,true,true,0.0,-0.0078125,0.9921259880065918,-0.03125,false,false,false,false,0.0,-0.0078125,0.0,-0.0078125,false,false,false,false,0.0,12.4,0.0,-1421,154,0,0.125,12.450000000000001,0.0,0,0,0,0.0,12.450000000000001,0.0,0,0,0,0.0,12.4,0.0,0,0,0,0.0,12.5,0.0,-1,0,0,0.0,4.0,0.0,0,0,0,kReverse,0.0,0.0,0.0,0.0,0.0,0.0,0.0,0.0,0.0,0.0,0.0,
114.430114,true,true,true,0.0,-0.0078125,1.0,-0.0859375,false,false,false,false,0.0,-0.0078125,0.0,-0.0078125,false,false,false,false,6.125,12.4,0.0,-1362,150,0,6.875,12.450000000000001,0.0,0,0,0,18.125,12.450000000000001,0.0,0,0,0,19.5,12.4,0.0,0,0,0,0.0,12.5,0.0,-1,0,0,0.0,4.0,0.0,0,0,0,kReverse,0.0,0.0,0.0,0.0,0.0,0.0,0.0,0.0,0.0,0.0,0.0,
114.488769,true,true,true,0.0,-0.0078125,1.0,-0.0859375,false,false,false,false,0.0,-0.0078125,0.0,-0.0078125,false,false,false,false,7.625,12.4,0.0,-1222,170,0,16.0,10.65,0.0,0,0,0,27.875,10.55,0.0,0,0,0,23.125,10.55,0.0,0,0,0,0.0,10.850000000000001,0.0,-1,0,0,0.0,4.0,0.0,0,0,0,kReverse,0.0,0.0,0.0,0.0,0.0,0.0,0.0,0.0,0.0,0.0,0.0,
114.64445699999999,true,true,true,0.0,-0.0078125,-0.03125,-0.0078125,false,false,false,false,0.0,-0.0078125,0.0,-0.0078125,false,false,false,false,13.0,10.65,0.0,-957,188,0,19.5,10.65,0.0,0,0,0,23.5,10.55,0.0,0,0,0,21.25,11.0,0.0,0,0,0,0.0,11.05,0.0,-1,0,0,0.0,4.0,0.0,0,0,0,kReverse,0.0,0.0,0.0,0.0,0.0,0.0,0.0,0.0,0.0,0.0,0.0,
114.749749,true,true,true,0.0,-0.0078125,-0.03125,-0.0078125,false,false,false,false,0.0,-0.0078125,0.0,-0.0078125,false,false,false,false,0.0,10.95,0.0,-762,157,0,0.125,11.0,0.0,0,0,0,0.0,11.100000000000001,0.0,0,0,0,0.0,11.0,0.0,0,0,0,0.0,11.05,0.0,-1,0,0,0.0,4.0,0.0,0,0,0,kReverse,0.0,0.0,0.0,0.0,0.0,0.0,0.0,0.0,0.0,0.0,0.0,
114.808832,true,true,true,0.0,-0.0078125,-0.03125,-0.0078125,false,false,false,false,0.0,-0.0078125,0.0,-0.0078125,false,false,false,false,0.0,10.95,0.0,-710,141,0,0.125,11.0,0.0,0,0,0,0.0,11.100000000000001,0.0,0,0,0,0.0,11.0,0.0,0,0,0,0.0,12.450000000000001,0.0,-1,0,0,0.0,4.0,0.0,0,0,0,kReverse,0.0,0.0,0.0,0.0,0.0,0.0,0.0,0.0,0.0,0.0,0.0,
114.863033,true,true,true,0.0,-0.0078125,-0.03125,-0.0078125,false,false,false,false,0.0,-0.0078125,0.0,-0.0078125,false,false,false,false,0.0,12.4,0.0,-645,117,0,0.125,12.4,0.0,0,0,0,0.0,12.4,0.0,0,0,0,0.0,12.4,0.0,0,0,0,0.0,12.450000000000001,0.0,-1,0,0,0.0,4.0,0.0,0,0,0,kReverse,0.0,0.0,0.0,0.0,0.0,0.0,0.0,0.0,0.0,0.0,0.0,
114.951705,true,true,true,0.0,-0.0078125,-0.03125,-0.0078125,false,false,false,false,0.0,-0.0078125,0.0,-0.0078125,false,false,false,false,0.0,12.4,0.0,-569,76,0,0.125,12.4,0.0,0,0,0,0.0,12.4,0.0,0,0,0,0.0,12.4,0.0,0,0,0,0.0,12.450000000000001,0.0,-1,0,0,0.0,4.0,0.0,0,0,0,kReverse,0.0,0.0,0.0,0.0,0.0,0.0,0.0,0.0,0.0,0.0,0.0,
115.042716,true,true,true,0.0,-0.0078125,-0.03125,-0.0078125,false,false,false,false,0.0,-0.0078125,0.0,-0.0078125,false,false,false,false,0.0,12.4,0.0,-534,47,0,0.125,12.450000000000001,0.0,0,0,0,0.0,12.4,0.0,0,0,0,0.0,12.4,0.0,0,0,0,0.0,12.5,0.0,-1,0,0,0.0,4.0,0.0,0,0,0,kReverse,0.0,0.0,0.0,0.0,0.0,0.0,0.0,0.0,0.0,0.0,0.0,
115.108762,true,true,true,0.0,-0.0078125,-0.03125,-0.0078125,false,false,false,false,0.0,-0.0078125,0.0,-0.0078125,false,false,false,false,0.0,12.4,0.0,-518,31,0,0.125,12.450000000000001,0.0,0,0,0,0.0,12.4,0.0,0,0,0,0.0,12.4,0.0,0,0,0,0.0,12.5,0.0,-1,0,0,0.0,4.0,0.0,0,0,0,kReverse,0.0,0.0,0.0,0.0,0.0,0.0,0.0,0.0,0.0,0.0,0.0,
115.191547,true,true,true,0.0,-0.0078125,-0.03125,-0.0078125,false,false,false,false,0.0,-0.0078125,0.0,-0.0078125,false,false,false,false,0.0,12.4,0.0,-512,10,0,0.125,12.450000000000001,0.0,0,0,0,0.0,12.450000000000001,0.0,0,0,0,0.0,12.4,0.0,0,0,0,0.0,12.5,0.0,-1,0,0,0.0,4.0,0.0,0,0,0,kReverse,0.0,0.0,0.0,0.0,0.0,0.0,0.0,0.0,0.0,0.0,0.0,
115.31453900000001,true,true,true,0.0,-0.0078125,-0.03125,-0.0078125,false,false,false,false,0.0,-0.0078125,0.0,-0.0078125,false,false,false,false,0.0,12.450000000000001,0.0,-512,0,0,0.125,12.450000000000001,0.0,0,0,0,0.0,12.450000000000001,0.0,0,0,0,0.0,12.450000000000001,0.0,0,0,0,0.0,12.55,0.0,-1,0,0,0.0,4.0,0.0,0,0,0,kReverse,0.0,0.0,0.0,0.0,0.0,0.0,0.0,0.0,0.0,0.0,0.0,
115.369687,true,true,true,0.9291338324546814,0.26771652698516846,-0.03125,-0.0078125,false,false,false,false,0.0,-0.0078125,0.0,-0.0078125,false,false,false,false,0.0,12.450000000000001,0.0,-512,0,0,0.125,12.450000000000001,0.0,0,0,0,0.0,12.450000000000001,0.0,0,0,0,0.0,12.450000000000001,0.0,0,0,0,0.0,12.55,0.0,-1,0,0,0.0,4.0,0.0,0,0,0,kReverse,0.0,0.0,0.0,0.0,0.0,0.0,0.0,0.0,0.0,0.0,0.0,
115.438908,true,true,true,1.0,0.4803149700164795,-0.03125,-0.0078125,false,false,false,false,0.0,-0.0078125,0.0,-0.0078125,false,false,false,false,0.0,12.450000000000001,0.0,-516,-4,0,1.375,12.450000000000001,0.0,0,0,0,1.25,12.450000000000001,0.0,0,0,0,0.5,12.450000000000001,0.0,0,0,0,0.0,12.55,0.0,-1,0,0,0.0,4.0,0.0,0,0,0,kReverse,0.0,0.0,0.0,0.0,0.0,0.0,0.0,0.0,0.0,0.0,0.0,
115.526167,true,true,true,1.0,0.9685039520263672,-0.03125,-0.0078125,false,false,false,false,0.0,-0.0078125,0.0,-0.0078125,false,false,false,false,4.25,12.15,0.0,-534,-20,0,6.5,12.200000000000001,0.0,0,0,0,6.0,12.15,0.0,0,0,0,7.5,12.15,0.0,0,0,0,0.0,12.3,0.0,-1,0,0,0.0,4.0,0.0,0,0,0,kReverse,0.0,0.0,0.0,0.0,0.0,0.0,0.0,0.0,0.0,0.0,0.0,
115.618844,true,true,true,1.0,1.0,-0.03125,-0.0078125,false,false,false,false,0.0,-0.0078125,0.0,-0.0078125,false,false,false,false,16.25,10.65,0.0,-589,-55,0,21.5,10.75,0.0,0,0,0,20.625,10.65,0.0,0,0,0,18.875,10.65,0.0,0,0,0,0.0,10.850000000000001,0.0,-1,0,0,0.0,4.0,0.0,0,0,0,kReverse,0.0,0.0,0.0,0.0,0.0,0.0,0.0,0.0,0.0,0.0,0.0,
115.670627,true,true,true,1.0,1.0,-0.03125,-0.0078125,false,false,false,false,0.0,-0.0078125,0.0,-0.0078125,false,false,false,false,14.125,10.65,0.0,-630,-83,0,18.75,10.75,0.0,0,0,0,19.375,10.65,0.0,0,0,0,16.75,10.65,0.0,0,0,0,0.0,10.850000000000001,0.0,-1,0,0,0.0,4.0,0.0,0,0,0,kReverse,0.0,0.0,0.0,0.0,0.0,0.0,0.0,0.0,0.0,0.0,0.0,
115.771658,true,true,true,1.0,1.0,-0.03125,-0.0078125,false,false,false,false,0.0,-0.0078125,0.0,-0.0078125,false,false,false,false,12.875,10.65,0.0,-799,-169,0,16.625,11.15,0.0,0,0,0,14.875,11.100000000000001,0.0,0,0,0,12.125,11.05,0.0,0,0,0,0.0,11.25,0.0,-1,0,0,0.0,4.0,0.0,0,0,0,kReverse,0.0,0.0,0.0,0.0,0.0,0.0,0.0,0.0,0.0,0.0,0.0,
115.88226700000001,true,true,true,0.5748031735420227,0.748031497001648,-0.03125,-0.0078125,false,false,false,false,0.0,-0.0078125,0.0,-0.0078125,false,false,false,false,9.25,11.0,0.0,-1067,-226,0,13.125,11.15,0.0,0,0,0,11.875,11.100000000000001,0.0,0,0,0,8.875,11.05,0.0,0,0,0,0.0,11.25,0.0,-1,0,0,0.0,4.0,0.0,0,0,0,kReverse,0.0,0.0,0.0,0.0,0.0,0.0,0.0,0.0,0.0,0.0,0.0,
115.965307,true,true,true,0.0,-0.0078125,-0.03125,-0.0078125,false,false,false,false,0.0,-0.0078125,0.0,-0.0078125,false,false,false,false,8.25,11.350000000000001,0.0,-1268,-250,0,12.0,11.4,0.0,0,0,0,10.625,11.3,0.0,0,0,0,7.625,11.350000000000001,0.0,0,0,0,0.0,11.55,0.0,-1,0,0,0.0,4.0,0.0,0,0,0,kReverse,0.0,0.0,0.0,0.0,0.0,0.0,0.0,0.0,0.0,0.0,0.0,
116.03361500000001,true,true,true,0.0,-0.0078125,-0.03125,-0.0078125,false,false,false,false,0.0,-0.0078125,0.0,-0.0078125,false,false,false,false,0.0,11.350000000000001,0.0,-1456,-240,0,1.25,11.4,0.0,0,0,0,0.0,11.3,0.0,0,0,0,0.375,11.350000000000001,0.0,0,0,0,0.0,11.55,0.0,-1,0,0,0.0,4.0,0.0,0,0,0,kReverse,0.0,0.0,0.0,0.0,0.0,0.0,0.0,0.0,0.0,0.0,0.0,
116.11156,true,true,true,0.0,-0.0078125,-0.03125,-0.0078125,false,false,false,false,0.0,-0.0078125,0.0,-0.0078125,false,false,false,false,0.0,12.4,0.0,-1572,-203,0,0.125,12.4,0.0,0,0,0,0.0,12.4,0.0,0,0,0,0.0,12.4,0.0,0,0,0,0.0,12.450000000000001,0.0,-1,0,0,0.0,4.0,0.0,0,0,0,kReverse,0.0,0.0,0.0,0.0,0.0,0.0,0.0,0.0,0.0,0.0,0.0,
116.177083,true,true,true,0.0,-0.0078125,0.5511810779571533,-0.0078125,false,false,false,false,0.0,-0.0078125,0.0,-0.0078125,false,false,false,false,0.0,12.4,0.0,-1726,-191,0,0.125,12.4,0.0,0,0,0,0.0,12.4,0.0,0,0,0,0.0,12.4,0.0,0,0,0,0.0,12.450000000000001,0.0,-1,0,0,0.0,4.0,0.0,0,0,0,kReverse,0.0,0.0,0.0,0.0,0.0,0.0,0.0,0.0,0.0,0.0,0.0,
116.254732,true,true,true,0.0,-0.0078125,1.0,-0.0078125,false,false,false,false,0.0,-0.0078125,0.0,-0.0078125,false,false,false,false,11.625,12.4,0.0,-1830,-181,0,16.0,11.7,0.0,0,0,0,1.5,11.75,0.0,0,0,0,0.0,11.75,0.0,0,0,0,0.0,11.75,0.0,-1,0,0,0.0,4.0,0.0,0,0,0,kReverse,0.0,0.0,0.0,0.0,0.0,0.0,0.0,0.0,0.0,0.0,0.0,
116.34263800000001,true,true,true,0.0,-0.0078125,0.3385826647281647,0.08661417663097382,false,false,false,false,0.0,-0.0078125,0.0,-0.0078125,false,false,false,false,28.0,11.65,0.0,-1925,-95,0,36.125,11.7,0.0,0,0,0,7.25,11.75,0.0,0,0,0,3.875,11.75,0.0,0,0,0,0.0,11.75,0.0,-1,0,0,0.0,4.0,0.0,0,0,0,kReverse,0.0,0.0,0.0,0.0,0.0,0.0,0.0,0.0,0.0,0.0,0.0,
116.428072,true,true,true,0.0,-0.0078125,-0.0390625,-0.0078125,false,false,false,false,0.0,-0.0078125,0.0,-0.0078125,false,false,false,false,4.0,12.05,0.0,-1926,-8,0,5.875,12.1,0.0,0,0,0,0.125,12.1,0.0,0,0,0,0.0,12.1,0.0,0,0,0,0.0,12.200000000000001,0.0,-1,0,0,0.0,4.0,0.0,0,0,0,kReverse,0.0,0.0,0.0,0.0,0.0,0.0,0.0,0.0,0.0,0.0,0.0,
116.49470699999999,true,true,true,0.0,-0.0078125,-0.0390625,-0.0078125,false,false,false,false,0.0,-0.0078125,0.0,-0.0078125,false,false,false,false,0.0,12.05,0.0,-1930,-4,0,0.125,12.1,0.0,0,0,0,0.0,12.1,0.0,0,0,0,0.0,12.1,0.0,0,0,0,0.0,12.200000000000001,0.0,-1,0,0,0.0,4.0,0.0,0,0,0,kReverse,0.0,0.0,0.0,0.0,0.0,0.0,0.0,0.0,0.0,0.0,0.0,
116.60351200000001,true,true,true,0.0,-0.0078125,-0.0390625,-0.0078125,false,false,false,false,0.0,-0.0078125,0.0,-0.0078125,false,false,false,false,0.0,12.4,0.0,-1947,-17,0,0.125,12.4,0.0,0,0,0,0.0,12.4,0.0,0,0,0,0.0,12.4,0.0,0,0,0,0.0,12.450000000000001,0.0,-3,0,0,0.0,4.0,0.0,0,0,0,kReverse,0.0,0.0,0.0,0.0,0.0,0.0,0.0,0.0,0.0,0.0,0.0,
116.705863,true,true,true,0.0,-0.015625,-0.0390625,-0.0078125,false,false,false,false,0.0,-0.0078125,0.0,-0.0078125,false,false,false,false,0.0,12.4,0.0,-1959,-12,0,0.125,12.4,0.0,0,0,0,0.0,12.4,0.0,0,0,0,0.0,12.4,0.0,0,0,0,0.0,12.450000000000001,0.0,-3,0,0,0.0,4.0,0.0,0,0,0,kReverse,0.0,0.0,0.0,0.0,0.0,0.0,0.0,0.0,0.0,0.0,0.0,
116.789283,true,true,true,0.0,-0.8125,-0.0390625,-0.0078125,false,false,false,false,0.0,-0.0078125,0.0,-0.0078125,false,false,false,false,0.0,12.4,0.0,-1977,-18,0,0.125,12.450000000000001,0.0,0,0,0,2.375,12.450000000000001,0.0,0,0,0,0.0,12.4,0.0,0,0,0,0.0,12.5,0.0,-3,0,0,0.0,4.0,0.0,0,0,0,kReverse,0.0,0.0,0.0,0.0,0.0,0.0,0.0,0.0,0.0,0.0,0.0,
116.918201,true,true,true,0.007874015718698502,-1.0,-0.0390625,-0.0078125,false,false,false,false,0.0,-0.0078125,0.0,-0.0078125,false,false,false,false,14.375,10.8,0.0,-1960,18,0,19.375,10.9,0.0,0,0,0,18.75,10.850000000000001,0.0,0,0,0,17.5,10.850000000000001,0.0,0,0,0,0.0,11.05,0.0,-3,0,0,0.0,4.0,0.0,0,0,0,kReverse,0.0,0.0,0.0,0.0,0.0,0.0,0.0,0.0,0.0,0.0,0.0,
117.042285,true,true,true,0.05511811003088951,-1.0,-0.0390625,-0.0078125,false,false,false,false,0.0,-0.0078125,0.0,-0.0078125,false,false,false,false,15.0,10.8,0.0,-1859,92,0,22.0,10.9,0.0,0,0,0,20.625,10.7,0.0,0,0,0,17.375,10.65,0.0,0,0,0,0.0,10.95,0.0,-3,0,0,0.0,4.0,0.0,0,0,0,kReverse,0.0,0.0,0.0,0.0,0.0,0.0,0.0,0.0,0.0,0.0,0.0,
117.267208,true,true,true,0.20472441613674164,-1.0,-0.0390625,-0.0078125,false,false,false,false,0.0,-0.0078125,0.0,-0.0078125,false,false,false,false,7.875,11.15,0.0,-1487,194,0,12.75,11.3,0.0,0,0,0,13.375,11.2,0.0,0,0,0,9.125,11.2,0.0,0,0,0,0.0,11.4,0.0,-3,0,0,0.0,4.0,0.0,0,0,0,kReverse,0.0,0.0,0.0,0.0,0.0,0.0,0.0,0.0,0.0,0.0,0.0,
117.352307,true,true,true,0.22834645211696625,-0.859375,-0.0390625,-0.0078125,false,false,false,false,0.0,-0.0078125,0.0,-0.0078125,false,false,false,false,6.125,11.15,0.0,-1293,237,0,10.25,11.3,0.0,0,0,0,10.875,11.2,0.0,0,0,0,7.625,11.2,0.0,0,0,0,0.0,11.4,0.0,-3,0,0,0.0,4.0,0.0,0,0,0,kReverse,0.0,0.0,0.0,0.0,0.0,0.0,0.0,0.0,0.0,0.0,0.0,
117.425276,true,true,true,0.0,-0.0078125,-0.0390625,-0.0078125,false,false,false,false,0.0,-0.0078125,0.0,-0.0078125,false,false,false,false,5.0,11.7,0.0,-1088,256,0,6.125,11.7,0.0,0,0,0,7.0,11.75,0.0,0,0,0,4.5,11.65,0.0,0,0,0,0.0,11.850000000000001,0.0,-3,0,0,0.0,4.0,0.0,0,0,0,kReverse,0.0,0.0,0.0,0.0,0.0,0.0,0.0,0.0,0.0,0.0,0.0,
117.486619,true,true,true,0.0,-0.0078125,-0.0390625,-0.0078125,false,false,false,false,0.0,-0.0078125,0.0,-0.0078125,false,false,false,false,0.125,11.7,0.0,-941,248,0,1.375,11.7,0.0,0,0,0,1.375,11.75,0.0,0,0,0,0.5,11.65,0.0,0,0,0,0.0,11.850000000000001,0.0,-3,0,0,0.0,4.0,0.0,0,0,0,kReverse,0.0,0.0,0.0,0.0,0.0,0.0,0.0,0.0,0.0,0.0,0.0,
117.54176600000001,true,true,true,0.0,-0.0078125,-0.0390625,-0.0078125,false,false,false,false,0.0,-0.0078125,0.0,-0.0078125,false,false,false,false,0.0,12.4,0.0,-812,226,0,0.125,12.4,0.0,0,0,0,0.0,12.4,0.0,0,0,0,0.0,12.4,0.0,0,0,0,0.0,12.450000000000001,0.0,-3,0,0,0.0,4.0,0.0,0,0,0,kReverse,0.0,0.0,0.0,0.0,0.0,0.0,0.0,0.0,0.0,0.0,0.0,
117.72205100000001,true,true,true,0.0,-0.0078125,-0.96875,-0.2890625,false,false,false,false,0.0,-0.0078125,0.0,-0.0078125,false,false,false,false,0.0,12.4,0.0,-419,226,0,0.125,12.4,0.0,0,0,0,0.0,12.4,0.0,0,0,0,0.0,12.4,0.0,0,0,0,0.0,12.450000000000001,0.0,-3,0,0,0.0,4.0,0.0,0,0,0,kReverse,0.0,0.0,0.0,0.0,0.0,0.0,0.0,0.0,0.0,0.0,0.0,
117.907196,true,true,true,0.0,-0.0078125,0.0,-0.0078125,false,false,false,false,0.0,-0.0078125,0.0,-0.0078125,false,false,false,false,18.125,11.0,0.0,-302,1,0,22.625,11.100000000000001,0.0,0,0,0,7.75,11.2,0.0,0,0,0,4.75,11.2,0.0,0,0,0,0.0,11.350000000000001,0.0,-3,0,0,0.0,4.0,0.0,0,0,0,kReverse,0.0,0.0,0.0,0.0,0.0,0.0,0.0,0.0,0.0,0.0,0.0,
117.973152,true,true,true,0.0,-0.0078125,0.0,-0.0078125,false,false,false,false,0.0,-0.0078125,0.0,-0.0078125,false,false,false,false,0.0,11.0,0.0,-322,-25,0,2.375,11.100000000000001,0.0,0,0,0,0.0,11.2,0.0,0,0,0,0.125,11.2,0.0,0,0,0,0.0,11.350000000000001,0.0,-3,0,0,0.0,4.0,0.0,0,0,0,kReverse,0.0,0.0,0.0,0.0,0.0,0.0,0.0,0.0,0.0,0.0,0.0,
118.090554,true,true,true,0.0,-0.0078125,0.0,-0.0078125,false,false,false,false,0.0,-0.0078125,0.0,-0.0078125,false,false,false,false,0.0,12.35,0.0,-308,15,0,0.125,12.4,0.0,0,0,0,0.0,12.4,0.0,0,0,0,0.0,12.35,0.0,0,0,0,0.0,12.450000000000001,0.0,-3,0,0,0.0,4.0,0.0,0,0,0,kReverse,0.0,0.0,0.0,0.0,0.0,0.0,0.0,0.0,0.0,0.0,0.0,
118.219265,true,true,true,0.0,-0.0078125,-0.8125,-0.0078125,false,false,false,false,0.0,-0.0078125,0.0,-0.0078125,false,false,false,false,0.0,12.4,0.0,-265,39,0,0.125,12.4,0.0,0,0,0,0.0,12.4,0.0,0,0,0,0.0,12.4,0.0,0,0,0,0.0,12.450000000000001,0.0,-3,0,0,0.0,4.0,0.0,0,0,0,kReverse,0.0,0.0,0.0,0.0,0.0,0.0,0.0,0.0,0.0,0.0,0.0,
118.310863,true,true,true,0.0,-0.0078125,-1.0,-0.0078125,false,false,false,false,0.0,-0.0078125,0.0,-0.0078125,false,false,false,false,17.25,12.4,0.0,-251,23,0,23.0,12.4,0.0,0,0,0,12.75,12.4,0.0,0,0,0,8.75,12.4,0.0,0,0,0,0.0,12.450000000000001,0.0,-3,0,0,0.0,4.0,0.0,0,0,0,kReverse,0.0,0.0,0.0,0.0,0.0,0.0,0.0,0.0,0.0,0.0,0.0,
118.392685,true,true,true,0.0,-0.0078125,0.0,-0.0078125,false,false,false,false,0.0,-0.0078125,0.0,-0.0078125,false,false,false,false,21.125,10.350000000000001,0.0,-262,-10,0,26.375,10.2,0.0,0,0,0,22.0,10.350000000000001,0.0,0,0,0,17.25,10.55,0.0,0,0,0,0.0,10.65,0.0,-3,0,0,0.0,4.0,0.0,0,0,0,kReverse,0.0,0.0,0.0,0.0,0.0,0.0,0.0,0.0,0.0,0.0,0.0,
118.446298,true,true,true,0.0,-0.0078125,0.0,-0.0078125,false,false,false,false,0.0,-0.0078125,0.0,-0.0078125,false,false,false,false,5.375,10.350000000000001,0.0,-290,-38,0,9.625,10.2,0.0,0,0,0,9.0,10.350000000000001,0.0,0,0,0,9.125,10.55,0.0,0,0,0,0.0,10.65,0.0,-3,0,0,0.0,4.0,0.0,0,0,0,kReverse,0.0,0.0,0.0,0.0,0.0,0.0,0.0,0.0,0.0,0.0,0.0,
118.547957,true,true,true,0.0,-0.0078125,0.0,-0.0078125,false,false,false,false,0.0,-0.0078125,0.0,-0.0078125,false,false,false,false,0.0,12.35,0.0,-307,-17,0,0.125,12.35,0.0,0,0,0,0.0,12.35,0.0,0,0,0,0.0,12.35,0.0,0,0,0,0.0,12.450000000000001,0.0,-3,0,0,0.0,4.0,0.0,0,0,0,kReverse,0.0,0.0,0.0,0.0,0.0,0.0,0.0,0.0,0.0,0.0,0.0,
118.635989,true,true,true,0.0,-0.0078125,0.0,-0.0078125,false,false,false,false,0.0,-0.0078125,0.0,-0.0078125,false,false,false,false,0.0,12.35,0.0,-306,1,0,0.125,12.35,0.0,0,0,0,0.0,12.35,0.0,0,0,0,0.0,12.4,0.0,0,0,0,0.0,12.450000000000001,0.0,-3,0,0,0.0,4.0,0.0,0,0,0,kReverse,0.0,0.0,0.0,0.0,0.0,0.0,0.0,0.0,0.0,0.0,0.0,
118.782023,true,true,true,0.0,-0.0078125,0.0,-0.0078125,false,false,false,false,0.0,-0.0078125,0.0,-0.0078125,false,false,false,false,0.0,12.4,0.0,-302,1,0,0.125,12.4,0.0,0,0,0,0.0,12.4,0.0,0,0,0,0.0,12.4,0.0,0,0,0,0.0,12.450000000000001,0.0,-3,0,0,0.0,4.0,0.0,0,0,0,kReverse,0.0,0.0,0.0,0.0,0.0,0.0,0.0,0.0,0.0,0.0,0.0,
118.832454,true,true,true,0.0,-0.0078125,0.0,-0.0078125,false,false,false,false,0.0,-0.0078125,0.0,-0.0078125,false,false,false,false,0.0,12.4,0.0,-302,0,0,0.125,12.450000000000001,0.0,0,0,0,0.0,12.4,0.0,0,0,0,0.0,12.4,0.0,0,0,0,0.0,12.5,0.0,-3,0,0,0.0,4.0,0.0,0,0,0,kReverse,0.0,0.0,0.0,0.0,0.0,0.0,0.0,0.0,0.0,0.0,0.0,
118.918855,true,true,true,0.0,-0.21875,0.0,-0.0078125,false,false,false,false,0.0,-0.0078125,0.0,-0.0078125,false,false,false,false,0.0,12.4,0.0,-302,0,0,0.125,12.450000000000001,0.0,0,0,0,0.0,12.4,0.0,0,0,0,0.0,12.4,0.0,0,0,0,0.0,12.5,0.0,-3,0,0,0.0,4.0,0.0,0,0,0,kReverse,0.0,0.0,0.0,0.0,0.0,0.0,0.0,0.0,0.0,0.0,0.0,
119.05473300000001,true,true,true,0.0,-1.0,0.0,-0.0078125,false,false,false,false,0.0,-0.0078125,0.0,-0.0078125,false,false,false,false,0.0,12.450000000000001,0.0,-302,0,0,0.125,12.450000000000001,0.0,0,0,0,2.375,12.450000000000001,0.0,0,0,0,0.0,12.450000000000001,0.0,0,0,0,0.0,12.5,0.0,-3,0,0,0.0,4.0,0.0,0,0,0,kReverse,0.0,0.0,0.0,0.0,0.0,0.0,0.0,0.0,0.0,0.0,0.0,
119.21461599999999,true,true,true,0.0,-1.0,0.0,-0.0078125,false,false,false,false,0.0,-0.0078125,0.0,-0.0078125,false,false,false,false,16.125,10.350000000000001,0.0,-187,91,0,22.875,10.55,0.0,0,0,0,17.0,10.4,0.0,0,0,0,11.125,10.5,0.0,0,0,0,0.0,10.7,0.0,-3,0,0,0.0,4.0,0.0,0,0,0,kReverse,0.0,0.0,0.0,0.0,0.0,0.0,0.0,0.0,0.0,0.0,0.0,
119.39133100000001,true,true,true,0.0,-1.0,0.0,-0.0078125,false,false,false,false,0.0,-0.0078125,0.0,-0.0078125,false,false,false,false,12.25,10.65,0.0,67,169,0,17.75,10.7,0.0,0,0,0,15.25,10.7,0.0,0,0,0,11.375,10.65,0.0,0,0,0,0.0,10.9,0.0,-3,0,0,0.0,4.0,0.0,0,0,0,kReverse,0.0,0.0,0.0,0.0,0.0,0.0,0.0,0.0,0.0,0.0,0.0,
119.57464999999999,true,true,true,0.007874015718698502,-0.1015625,0.0,-0.0078125,false,false,false,false,0.0,-0.0078125,0.0,-0.0078125,false,false,false,false,28.625,10.2,0.0,328,112,0,29.5,10.3,0.0,0,0,0,26.875,10.350000000000001,0.0,0,0,0,29.75,10.45,0.0,0,0,0,0.0,10.600000000000001,0.0,-3,0,0,0.0,4.0,0.0,0,0,0,kReverse,0.0,0.0,0.0,0.0,0.0,0.0,0.0,0.0,0.0,0.0,0.0,
119.727849,true,true,true,0.0,-0.0078125,0.0,-0.0078125,false,false,false,false,0.0,-0.0078125,0.0,-0.0078125,false,false,false,false,0.0,12.1,0.0,391,17,0,0.5,12.1,0.0,0,0,0,0.25,12.1,0.0,0,0,0,0.0,12.1,0.0,0,0,0,0.0,12.200000000000001,0.0,-3,0,0,0.0,4.0,0.0,0,0,0,kReverse,0.0,0.0,0.0,0.0,0.0,0.0,0.0,0.0,0.0,0.0,0.0,
119.837402,true,true,true,0.0,-0.0078125,0.0,-0.0078125,false,false,false,false,0.0,-0.0078125,0.0,-0.0078125,false,false,false,false,0.0,12.35,0.0,385,-6,0,0.125,12.35,0.0,0,0,0,0.0,12.35,0.0,0,0,0,0.0,12.35,0.0,0,0,0,0.0,12.4,0.0,-3,0,0,0.0,4.0,0.0,0,0,0,kReverse,0.0,0.0,0.0,0.0,0.0,0.0,0.0,0.0,0.0,0.0,0.0,
119.984989,true,true,true,0.0,-0.265625,0.0,-0.0078125,false,false,false,false,0.0,-0.0078125,0.0,-0.0078125,false,false,false,false,0.0,12.4,0.0,384,0,0,0.125,12.4,0.0,0,0,0,0.0,12.4,0.0,0,0,0,0.0,12.4,0.0,0,0,0,0.0,12.450000000000001,0.0,-3,0,0,0.0,4.0,0.0,0,0,0,kReverse,0.0,0.0,0.0,0.0,0.0,0.0,0.0,0.0,0.0,0.0,0.0,
120.045158,true,true,true,0.0,-0.4453125,0.0,-0.0078125,false,false,false,false,0.0,-0.0078125,0.0,-0.0078125,false,false,false,false,0.0,12.4,0.0,386,2,0,0.375,12.4,0.0,0,0,0,0.0,12.4,0.0,0,0,0,0.0,12.4,0.0,0,0,0,0.0,12.450000000000001,0.0,-3,0,0,0.0,4.0,0.0,0,0,0,kReverse,0.0,0.0,0.0,0.0,0.0,0.0,0.0,0.0,0.0,0.0,0.0,
120.131632,true,true,true,0.0,-0.0078125,0.0,-0.0078125,false,false,false,false,0.0,-0.0078125,0.0,-0.0078125,false,false,false,false,4.375,12.0,0.0,401,16,0,6.75,11.9,0.0,0,0,0,5.0,12.0,0.0,0,0,0,3.5,12.0,0.0,0,0,0,0.0,12.1,0.0,-3,0,0,0.0,4.0,0.0,0,0,0,kReverse,0.0,0.0,0.0,0.0,0.0,0.0,0.0,0.0,0.0,0.0,0.0,
120.269603,true,true,true,0.0,-0.0078125,0.0,-0.0078125,false,false,false,false,0.0,-0.0078125,0.0,-0.0078125,false,false,false,false,0.0,12.4,0.0,411,2,0,0.125,12.4,0.0,0,0,0,0.0,12.4,0.0,0,0,0,0.0,12.4,0.0,0,0,0,0.0,12.450000000000001,0.0,-3,0,0,0.0,4.0,0.0,0,0,0,kReverse,0.0,0.0,0.0,0.0,0.0,0.0,0.0,0.0,0.0,0.0,0.0,
120.42164,true,true,true,0.0,-0.0078125,0.22834645211696625,-0.0078125,false,false,false,false,0.0,-0.0078125,0.0,-0.0078125,false,false,false,false,0.0,12.4,0.0,408,-2,0,0.125,12.450000000000001,0.0,0,0,0,0.0,12.4,0.0,0,0,0,0.0,12.4,0.0,0,0,0,0.0,12.5,0.0,-3,0,0,0.0,4.0,0.0,0,0,0,kReverse,0.0,0.0,0.0,0.0,0.0,0.0,0.0,0.0,0.0,0.0,0.0,
120.517587,true,true,true,0.0,-0.0078125,0.0,-0.0078125,false,false,false,false,0.0,-0.0078125,0.0,-0.0078125,false,false,false,false,0.25,12.4,0.0,409,1,0,1.75,12.450000000000001,0.0,0,0,0,0.375,12.4,0.0,0,0,0,0.0,12.4,0.0,0,0,0,0.0,12.5,0.0,-3,0,0,0.0,4.0,0.0,0,0,0,kReverse,0.0,0.0,0.0,0.0,0.0,0.0,0.0,0.0,0.0,0.0,0.0,
120.707323,true,true,true,0.27559053897857666,0.5984252095222473,0.0,-0.0078125,false,false,false,false,0.0,-0.0078125,0.0,-0.0078125,false,false,false,false,0.0,12.4,0.0,404,-3,0,0.125,12.450000000000001,0.0,0,0,0,0.375,12.4,0.0,0,0,0,0.0,12.4,0.0,0,0,0,0.0,12.5,0.0,-3,0,0,0.0,4.0,0.0,0,0,0,kReverse,0.0,0.0,0.0,0.0,0.0,0.0,0.0,0.0,0.0,0.0,0.0,
120.91673200000001,true,true,true,0.6299212574958801,1.0,0.0,-0.0078125,false,false,false,false,0.0,-0.0078125,0.0,-0.0078125,false,false,false,false,5.0,12.6,0.0,372,-21,0,1.25,12.6,0.0,0,0,0,4.5,12.6,0.0,0,0,0,6.5,12.6,0.0,0,0,0,0.0,12.700000000000001,0.0,-3,0,0,0.0,4.0,0.0,0,0,0,kReverse,0.0,0.0,0.0,0.0,0.0,0.0,0.0,0.0,0.0,0.0,0.0,
121.079401,true,true,true,0.6299212574958801,1.0,0.0,-0.0078125,false,false,false,false,0.0,-0.0078125,0.0,-0.0078125,false,false,false,false,14.875,11.05,0.0,246,-97,0,19.625,11.100000000000001,0.0,0,0,0,16.75,11.05,0.0,0,0,0,13.125,11.100000000000001,0.0,0,0,0,0.0,11.3,0.0,-3,0,0,0.0,4.0,0.0,0,0,0,kReverse,0.0,0.0,0.0,0.0,0.0,0.0,0.0,0.0,0.0,0.0,0.0,
121.248266,true,true,true,0.27559053897857666,0.8582677245140076,0.0,-0.0078125,false,false,false,false,0.0,-0.0078125,0.0,-0.0078125,false,false,false,false,10.25,11.3,0.0,-37,-188,0,14.375,11.4,0.0,0,0,0,12.625,11.350000000000001,0.0,0,0,0,9.75,11.350000000000001,0.0,0,0,0,0.0,11.5,0.0,-3,0,0,0.0,4.0,0.0,0,0,0,kReverse,0.0,0.0,0.0,0.0,0.0,0.0,0.0,0.0,0.0,0.0,0.0,
121.427751,true,true,true,0.0,-0.0078125,0.0,-0.0078125,false,false,false,false,0.0,-0.0078125,0.0,-0.0078125,false,false,false,false,1.25,12.0,0.0,-509,-251,0,3.75,12.05,0.0,0,0,0,3.125,12.05,0.0,0,0,0,1.75,12.05,0.0,0,0,0,0.0,12.15,0.0,-3,0,0,0.0,4.0,0.0,0,0,0,kReverse,0.0,0.0,0.0,0.0,0.0,0.0,0.0,0.0,0.0,0.0,0.0,
121.58849400000001,true,true,true,0.0,-0.0078125,0.9763779640197754,-0.0078125,false,false,false,false,0.0,-0.0078125,0.0,-0.0078125,false,false,false,false,8.125,12.700000000000001,0.0,-843,-199,0,4.875,12.700000000000001,0.0,0,0,0,0.875,12.700000000000001,0.0,0,0,0,0.0,12.700000000000001,0.0,0,0,0,0.0,12.75,0.0,-3,0,0,0.0,4.0,0.0,0,0,0,kReverse,0.0,0.0,0.0,0.0,0.0,0.0,0.0,0.0,0.0,0.0,0.0,
121.80220299999999,true,true,true,0.0,-0.0078125,-0.0078125,-0.0078125,false,false,false,false,0.0,-0.0078125,0.0,-0.0078125,false,false,false,false,20.0,11.3,0.0,-919,15,0,26.5,11.25,0.0,0,0,0,6.125,11.5,0.0,0,0,0,3.625,11.45,0.0,0,0,0,0.0,11.55,0.0,-3,0,0,0.0,4.0,0.0,0,0,0,kReverse,0.0,0.0,0.0,0.0,0.0,0.0,0.0,0.0,0.0,0.0,0.0,
121.910438,true,true,true,0.0,-0.0078125,-0.0078125,-0.0078125,false,false,false,false,0.0,-0.0078125,0.0,-0.0078125,false,false,false,false,0.0,12.65,0.0,-910,9,0,0.125,12.65,0.0,0,0,0,0.0,12.65,0.0,0,0,0,0.0,12.65,0.0,0,0,0,0.0,12.75,0.0,-3,0,0,0.0,4.0,0.0,0,0,0,kReverse,0.0,0.0,0.0,0.0,0.0,0.0,0.0,0.0,0.0,0.0,0.0,
121.99897999999999,true,true,true,0.0,-0.0078125,-0.0078125,-0.0078125,false,false,false,false,0.0,-0.0078125,0.0,-0.0078125,false,false,false,false,0.0,12.65,0.0,-915,-5,0,0.125,12.65,0.0,0,0,0,0.0,12.65,0.0,0,0,0,0.0,12.65,0.0,0,0,0,0.0,12.75,0.0,-3,0,0,0.0,4.0,0.0,0,0,0,kReverse,0.0,0.0,0.0,0.0,0.0,0.0,0.0,0.0,0.0,0.0,0.0,
122.048859,true,true,true,0.0,-0.0078125,-0.0078125,-0.0078125,false,false,false,false,0.0,-0.0078125,0.0,-0.0078125,false,false,false,false,0.0,12.700000000000001,0.0,-920,-6,0,0.125,12.75,0.0,0,0,0,0.0,12.700000000000001,0.0,0,0,0,0.0,12.700000000000001,0.0,0,0,0,0.0,12.8,0.0,-3,0,0,0.0,4.0,0.0,0,0,0,kReverse,0.0,0.0,0.0,0.0,0.0,0.0,0.0,0.0,0.0,0.0,0.0,
122.112231,true,true,true,0.0,-0.0078125,-0.0078125,-0.0078125,false,false,false,false,0.0,-0.0078125,0.0,-0.0078125,false,false,false,false,0.0,12.700000000000001,0.0,-936,-19,0,0.125,12.75,0.0,0,0,0,0.0,12.700000000000001,0.0,0,0,0,0.0,12.700000000000001,0.0,0,0,0,0.0,12.8,0.0,-3,0,0,0.0,4.0,0.0,0,0,0,kReverse,0.0,0.0,0.0,0.0,0.0,0.0,0.0,0.0,0.0,0.0,0.0,
122.220349,true,true,true,0.0,-0.8828125,-0.0078125,-0.0078125,false,false,false,false,0.0,-0.0078125,0.0,-0.0078125,false,false,false,false,1.125,12.75,0.0,-957,-21,0,0.125,12.75,0.0,0,0,0,0.0,12.75,0.0,0,0,0,0.0,12.75,0.0,0,0,0,0.0,12.8,0.0,-3,0,0,0.0,4.0,0.0,0,0,0,kReverse,0.0,0.0,0.0,0.0,0.0,0.0,0.0,0.0,0.0,0.0,0.0,
122.272373,true,true,true,0.0,-1.0,-0.0078125,-0.0078125,false,false,false,false,0.0,-0.0078125,0.0,-0.0078125,false,false,false,false,12.875,12.75,0.0,-951,1,0,13.25,12.75,0.0,0,0,0,9.125,12.75,0.0,0,0,0,5.5,12.75,0.0,0,0,0,0.0,12.8,0.0,-3,0,0,0.0,4.0,0.0,0,0,0,kReverse,0.0,0.0,0.0,0.0,0.0,0.0,0.0,0.0,0.0,0.0,0.0,
122.32949,true,true,true,0.0,-1.0,-0.0078125,-0.0078125,false,false,false,false,0.0,-0.0078125,0.0,-0.0078125,false,false,false,false,22.875,12.75,0.0,-946,11,0,27.625,12.75,0.0,0,0,0,16.875,12.75,0.0,0,0,0,15.75,10.5,0.0,0,0,0,0.0,10.850000000000001,0.0,-3,0,0,0.0,4.0,0.0,0,0,0,kReverse,0.0,0.0,0.0,0.0,0.0,0.0,0.0,0.0,0.0,0.0,0.0,
122.38707099999999,true,true,true,0.0,-1.0,-0.0078125,-0.0078125,false,false,false,false,0.0,-0.0078125,0.0,-0.0078125,false,false,false,false,18.375,10.5,0.0,-919,32,0,24.75,10.7,0.0,0,0,0,19.25,10.55,0.0,0,0,0,15.5,10.5,0.0,0,0,0,0.0,10.850000000000001,0.0,-3,0,0,0.0,4.0,0.0,0,0,0,kReverse,0.0,0.0,0.0,0.0,0.0,0.0,0.0,0.0,0.0,0.0,0.0,
122.445614,true,true,true,0.0,-0.6953125,-0.0078125,-0.0078125,false,false,false,false,0.0,-0.0078125,0.0,-0.0078125,false,false,false,false,18.375,10.5,0.0,-864,79,0,24.75,10.7,0.0,0,0,0,22.625,10.55,0.0,0,0,0,19.5,10.5,0.0,0,0,0,0.0,10.850000000000001,0.0,-3,0,0,0.0,4.0,0.0,0,0,0,kReverse,0.0,0.0,0.0,0.0,0.0,0.0,0.0,0.0,0.0,0.0,0.0,
122.504071,true,true,true,0.0,-0.2109375,-0.0078125,-0.0078125,false,false,false,false,0.0,-0.0078125,0.0,-0.0078125,false,false,false,false,8.875,11.850000000000001,0.0,-783,120,0,15.0,11.850000000000001,0.0,0,0,0,12.125,11.850000000000001,0.0,0,0,0,10.75,11.8,0.0,0,0,0,0.0,12.0,0.0,-3,0,0,0.0,4.0,0.0,0,0,0,kReverse,0.0,0.0,0.0,0.0,0.0,0.0,0.0,0.0,0.0,0.0,0.0,
122.569942,true,true,true,0.0,-0.0078125,-0.0078125,-0.0078125,false,false,false,false,0.0,-0.0078125,0.0,-0.0078125,false,false,false,false,1.125,11.850000000000001,0.0,-699,140,0,2.375,11.850000000000001,0.0,0,0,0,0.0,11.850000000000001,0.0,0,0,0,1.0,11.8,0.0,0,0,0,0.0,12.0,0.0,-3,0,0,0.0,4.0,0.0,0,0,0,kReverse,0.0,0.0,0.0,0.0,0.0,0.0,0.0,0.0,0.0,0.0,0.0,
122.67737699999999,true,true,true,0.0,-0.0078125,-0.0078125,-0.0078125,false,false,false,false,0.0,-0.0078125,0.0,-0.0078125,false,false,false,false,0.0,12.700000000000001,0.0,-556,120,0,0.125,12.700000000000001,0.0,0,0,0,0.0,12.700000000000001,0.0,0,0,0,0.0,12.700000000000001,0.0,0,0,0,0.0,12.75,0.0,-3,0,0,0.0,4.0,0.0,0,0,0,kReverse,0.0,0.0,0.0,0.0,0.0,0.0,0.0,0.0,0.0,0.0,0.0,
122.731617,true,true,true,0.0,-0.0078125,-0.0078125,-0.0078125,false,false,false,false,0.0,-0.0078125,0.0,-0.0078125,false,false,false,false,0.0,12.700000000000001,0.0,-498,133,0,0.125,12.700000000000001,0.0,0,0,0,0.0,12.700000000000001,0.0,0,0,0,0.0,12.700000000000001,0.0,0,0,0,0.0,12.75,0.0,-3,0,0,0.0,4.0,0.0,0,0,0,kReverse,0.0,0.0,0.0,0.0,0.0,0.0,0.0,0.0,0.0,0.0,0.0,
122.865233,true,true,true,0.0,-0.0078125,-1.0,-0.0078125,false,false,false,false,0.0,-0.0078125,0.0,-0.0078125,false,false,false,false,5.25,12.75,0.0,-328,114,0,0.125,12.75,0.0,0,0,0,0.0,12.75,0.0,0,0,0,0.0,12.75,0.0,0,0,0,0.0,12.8,0.0,-3,0,0,0.0,4.0,0.0,0,0,0,kReverse,0.0,0.0,0.0,0.0,0.0,0.0,0.0,0.0,0.0,0.0,0.0,
123.009856,true,true,true,0.0,-0.0078125,0.0,-0.0078125,false,false,false,false,0.0,-0.0078125,0.0,-0.0078125,false,false,false,false,21.125,10.600000000000001,0.0,-303,2,0,26.375,10.65,0.0,0,0,0,14.75,10.7,0.0,0,0,0,14.5,10.75,0.0,0,0,0,0.0,10.9,0.0,-3,0,0,0.0,4.0,0.0,0,0,0,kReverse,0.0,0.0,0.0,0.0,0.0,0.0,0.0,0.0,0.0,0.0,0.0,
123.158423,true,true,true,0.0,-0.0078125,0.0,-0.0078125,false,false,false,false,0.0,-0.0078125,0.0,-0.0078125,false,false,false,false,0.0,12.65,0.0,-313,0,0,0.125,12.700000000000001,0.0,0,0,0,0.0,12.65,0.0,0,0,0,0.0,12.65,0.0,0,0,0,0.0,12.75,0.0,-3,0,0,0.0,4.0,0.0,0,0,0,kReverse,0.0,0.0,0.0,0.0,0.0,0.0,0.0,0.0,0.0,0.0,0.0,
123.28413099999999,true,true,true,0.0,-0.0078125,0.0,-0.0078125,false,false,false,false,0.0,-0.0078125,0.0,-0.0078125,false,false,false,false,0.0,12.65,0.0,-309,4,0,0.125,12.700000000000001,0.0,0,0,0,0.0,12.65,0.0,0,0,0,0.0,12.65,0.0,0,0,0,0.0,12.75,0.0,-3,0,0,0.0,4.0,0.0,0,0,0,kReverse,0.0,0.0,0.0,0.0,0.0,0.0,0.0,0.0,0.0,0.0,0.0,
123.340453,true,true,true,0.0,-0.0078125,0.0,-0.0078125,false,false,false,false,0.0,-0.0078125,0.0,-0.0078125,false,false,false,false,0.0,12.75,0.0,-306,6,0,0.125,12.75,0.0,0,0,0,0.0,12.75,0.0,0,0,0,0.0,12.75,0.0,0,0,0,0.0,12.8,0.0,-3,0,0,0.0,4.0,0.0,0,0,0,kReverse,0.0,0.0,0.0,0.0,0.0,0.0,0.0,0.0,0.0,0.0,0.0,
123.39579499999999,true,true,true,0.0,-0.0078125,0.0,-0.0078125,false,false,false,false,0.0,-0.0078125,0.0,-0.0078125,false,false,false,false,0.0,12.75,0.0,-305,4,0,0.125,12.75,0.0,0,0,0,0.0,12.75,0.0,0,0,0,0.0,12.75,0.0,0,0,0,0.0,12.8,0.0,-3,0,0,0.0,4.0,0.0,0,0,0,kReverse,0.0,0.0,0.0,0.0,0.0,0.0,0.0,0.0,0.0,0.0,0.0,
123.48751,true,true,true,0.0,-0.0078125,-0.9609375,-0.0078125,false,false,false,false,0.0,-0.0078125,0.0,-0.0078125,false,false,false,false,0.0,12.75,0.0,-305,0,0,0.125,12.75,0.0,0,0,0,5.375,12.75,0.0,0,0,0,4.375,12.75,0.0,0,0,0,0.0,12.8,0.0,-3,0,0,0.0,4.0,0.0,0,0,0,kReverse,0.0,0.0,0.0,0.0,0.0,0.0,0.0,0.0,0.0,0.0,0.0,
123.597544,true,true,true,0.0,-0.0078125,0.0,-0.0078125,false,false,false,false,0.0,-0.0078125,0.0,-0.0078125,false,false,false,false,15.125,12.75,0.0,-332,-26,0,19.375,12.75,0.0,0,0,0,18.375,12.75,0.0,0,0,0,16.125,12.75,0.0,0,0,0,0.0,12.8,0.0,-3,0,0,0.0,4.0,0.0,0,0,0,kReverse,0.0,0.0,0.0,0.0,0.0,0.0,0.0,0.0,0.0,0.0,0.0,
123.651414,true,true,true,0.0,-0.0078125,0.0,-0.0078125,false,false,false,false,0.0,-0.0078125,0.0,-0.0078125,false,false,false,false,6.0,11.7,0.0,-345,-30,0,9.625,11.7,0.0,0,0,0,2.75,11.7,0.0,0,0,0,3.125,11.5,0.0,0,0,0,0.0,11.75,0.0,-3,0,0,0.0,4.0,0.0,0,0,0,kReverse,0.0,0.0,0.0,0.0,0.0,0.0,0.0,0.0,0.0,0.0,0.0,
123.75820200000001,true,true,true,0.0,-0.0078125,0.0,-0.0078125,false,false,false,false,0.0,-0.0078125,0.0,-0.0078125,false,false,false,false,0.0,11.7,0.0,-363,-13,0,0.125,11.7,0.0,0,0,0,0.0,12.75,0.0,0,0,0,0.0,12.75,0.0,0,0,0,0.0,12.8,0.0,-3,0,0,0.0,4.0,0.0,0,0,0,kReverse,0.0,0.0,0.0,0.0,0.0,0.0,0.0,0.0,0.0,0.0,0.0,
123.86498900000001,true,true,true,0.0,-0.0078125,0.0,-0.0078125,false,false,false,false,0.0,-0.0078125,0.0,-0.0078125,false,false,false,false,0.0,12.75,0.0,-365,-2,0,0.125,12.75,0.0,0,0,0,0.0,12.75,0.0,0,0,0,0.0,12.75,0.0,0,0,0,0.0,12.8,0.0,-3,0,0,0.0,4.0,0.0,0,0,0,kReverse,0.0,0.0,0.0,0.0,0.0,0.0,0.0,0.0,0.0,0.0,0.0,
123.92323300000001,true,true,true,0.0,-0.09375,0.0,-0.0078125,false,false,false,false,0.0,-0.0078125,0.0,-0.0078125,false,false,false,false,0.0,12.75,0.0,-365,0,0,0.125,12.75,0.0,0,0,0,0.0,12.75,0.0,0,0,0,0.0,12.75,0.0,0,0,0,0.0,12.8,0.0,-3,0,0,0.0,4.0,0.0,0,0,0,kReverse,0.0,0.0,0.0,0.0,0.0,0.0,0.0,0.0,0.0,0.0,0.0,
124.060977,true,true,true,0.0,-1.0,0.0,-0.0078125,false,false,false,false,0.0,-0.0078125,0.0,-0.0078125,false,false,false,false,0.0,12.75,0.0,-356,9,0,0.375,12.75,0.0,0,0,0,0.0,12.75,0.0,0,0,0,0.0,12.75,0.0,0,0,0,0.0,12.8,0.0,-3,0,0,0.0,4.0,0.0,0,0,0,kReverse,0.0,0.0,0.0,0.0,0.0,0.0,0.0,0.0,0.0,0.0,0.0,
124.23428600000001,true,true,true,0.0,-1.0,0.0,-0.0078125,false,false,false,false,0.0,-0.0078125,0.0,-0.0078125,false,false,false,false,12.0,11.15,0.0,-255,84,0,16.125,11.350000000000001,0.0,0,0,0,18.5,11.25,0.0,0,0,0,14.875,11.25,0.0,0,0,0,0.0,11.2,0.0,-3,0,0,0.0,4.0,0.0,0,0,0,kReverse,0.0,0.0,0.0,0.0,0.0,0.0,0.0,0.0,0.0,0.0,0.0,
124.38569100000001,true,true,true,0.0,-1.0,0.0,-0.0078125,false,false,false,false,0.0,-0.0078125,0.0,-0.0078125,false,false,false,false,13.75,10.95,0.0,-3,166,0,19.125,11.05,0.0,0,0,0,15.5,10.95,0.0,0,0,0,11.75,11.05,0.0,0,0,0,0.0,11.55,0.0,-3,0,0,0.0,4.0,0.0,0,0,0,kReverse,0.0,0.0,0.0,0.0,0.0,0.0,0.0,0.0,0.0,0.0,0.0,
124.49641700000001,true,true,true,0.0,-1.0,0.0,-0.0078125,false,false,false,false,0.0,-0.0078125,0.0,-0.0078125,false,false,false,false,9.625,11.3,0.0,246,212,0,15.125,11.4,0.0,0,0,0,13.125,11.350000000000001,0.0,0,0,0,9.25,11.3,0.0,0,0,0,0.0,11.55,0.0,-3,0,0,0.0,4.0,0.0,0,0,0,kReverse,0.0,0.0,0.0,0.0,0.0,0.0,0.0,0.0,0.0,0.0,0.0,
124.687618,true,true,true,0.0,-1.0,0.0,-0.0078125,false,false,false,false,0.0,-0.0078125,0.0,-0.0078125,false,false,false,false,7.0,11.7,0.0,732,279,0,13.625,11.7,0.0,0,0,0,14.875,11.7,0.0,0,0,0,10.75,11.7,0.0,0,0,0,0.0,11.850000000000001,0.0,-3,0,0,0.0,4.0,0.0,0,0,0,kReverse,0.0,0.0,0.0,0.0,0.0,0.0,0.0,0.0,0.0,0.0,0.0,
124.843127,true,true,true,0.0,-1.0,0.0,-0.0078125,false,false,false,false,0.0,-0.0078125,0.0,-0.0078125,false,false,false,false,18.875,9.55,0.0,1019,153,0,25.125,9.8,0.0,0,0,0,18.625,9.75,0.0,0,0,0,15.375,9.850000000000001,0.0,0,0,0,0.0,10.0,0.0,-3,0,0,0.0,4.0,0.0,0,0,0,kReverse,0.0,0.0,0.0,0.0,0.0,0.0,0.0,0.0,0.0,0.0,0.0,
125.0292,true,true,true,0.0,-1.0,0.0,-0.0078125,false,false,false,false,0.0,-0.0078125,0.0,-0.0078125,false,false,false,false,20.5,10.45,0.0,1211,98,0,27.625,10.5,0.0,0,0,0,22.125,10.4,0.0,0,0,0,19.25,10.55,0.0,0,0,0,0.0,10.7,0.0,-3,0,0,0.0,4.0,0.0,0,0,0,kReverse,0.0,0.0,0.0,0.0,0.0,0.0,0.0,0.0,0.0,0.0,0.0,
125.216727,true,true,true,0.0,-1.0,0.0,-0.0078125,false,false,false,false,0.0,-0.0078125,0.0,-0.0078125,false,false,false,false,26.0,10.0,0.0,1365,58,0,33.375,10.2,0.0,0,0,0,29.5,10.0,0.0,0,0,0,26.0,9.9,0.0,0,0,0,0.0,10.350000000000001,0.0,-3,0,0,0.0,4.0,0.0,0,0,0,kReverse,0.0,0.0,0.0,0.0,0.0,0.0,0.0,0.0,0.0,0.0,0.0,
125.402791,true,true,true,0.0,-1.0,0.0,-0.0078125,false,false,false,false,0.0,-0.0078125,0.0,-0.0078125,true,false,false,false,26.375,9.8,0.0,1552,105,0,34.875,9.850000000000001,0.0,0,0,0,29.625,9.850000000000001,0.0,0,0,0,30.25,10.100000000000001,0.0,0,0,0,0.0,10.2,0.0,-3,0,0,0.0,4.0,0.0,0,0,0,kForward,0.0,0.0,0.0,0.0,0.0,0.0,0.0,0.0,0.0,0.0,0.0,
125.542433,true,true,true,0.0,-1.0,0.0,-0.0078125,false,false,false,false,0.0,-0.0078125,0.0,-0.0078125,true,false,false,false,23.0,10.15,0.0,1640,58,0,31.125,10.05,0.0,0,0,0,27.375,10.25,0.0,0,0,0,24.875,10.25,0.0,0,0,0,0.0,10.5,0.0,-3,0,0,0.0,4.0,0.0,0,0,0,kForward,0.0,0.0,0.0,0.0,0.0,0.0,0.0,0.0,0.0,0.0,0.0,
125.603663,true,true,true,0.0,-1.0,0.0,-0.0078125,false,false,false,false,0.0,-0.0078125,0.0,-0.0078125,true,false,false,false,21.25,10.15,0.0,1699,86,0,28.625,10.05,0.0,0,0,0,25.875,10.25,0.0,0,0,0,23.625,10.25,0.0,0,0,0,0.0,10.5,0.0,-3,0,0,0.0,4.0,0.0,0,0,0,kForward,0.0,0.0,0.0,0.0,0.0,0.0,0.0,0.0,0.0,0.0,0.0,
125.664885,true,true,true,0.0,-1.0,0.0,-0.0078125,false,false,false,false,0.0,-0.0078125,0.0,-0.0078125,true,false,false,false,24.875,10.15,0.0,1748,89,0,33.375,10.05,0.0,0,0,0,29.0,10.25,0.0,0,0,0,27.125,10.25,0.0,0,0,0,0.0,10.5,0.0,-3,0,0,0.0,4.0,0.0,0,0,0,kForward,0.0,0.0,0.0,0.0,0.0,0.0,0.0,0.0,0.0,0.0,0.0,
125.728394,true,true,true,0.0,-1.0,0.0,-0.0078125,false,false,false,false,0.0,-0.0078125,0.0,-0.0078125,true,false,false,false,27.625,9.9,0.0,1783,67,0,37.0,9.9,0.0,0,0,0,30.375,9.8,0.0,0,0,0,27.625,9.8,0.0,0,0,0,0.0,10.25,0.0,-3,0,0,0.0,4.0,0.0,0,0,0,kForward,0.0,0.0,0.0,0.0,0.0,0.0,0.0,0.0,0.0,0.0,0.0,
125.78309,true,true,true,0.0,-1.0,0.0,-0.0078125,false,false,false,false,0.0,-0.0078125,0.0,-0.0078125,true,false,false,false,25.625,9.9,0.0,1817,57,0,34.625,9.9,0.0,0,0,0,28.5,9.8,0.0,0,0,0,27.0,9.8,0.0,0,0,0,0.0,10.25,0.0,-3,0,0,0.0,4.0,0.0,0,0,0,kForward,0.0,0.0,0.0,0.0,0.0,0.0,0.0,0.0,0.0,0.0,0.0,
125.86974400000001,true,true,true,0.0,-1.0,0.0,-0.0078125,false,false,false,false,0.0,-0.0078125,0.0,-0.0078125,true,false,false,false,22.0,10.15,0.0,1893,90,0,29.5,10.5,0.0,0,0,0,27.125,10.3,0.0,0,0,0,25.375,10.350000000000001,0.0,0,0,0,0.0,10.55,0.0,-3,0,0,0.0,4.0,0.0,0,0,0,kForward,0.0,0.0,0.0,0.0,0.0,0.0,0.0,0.0,0.0,0.0,0.0,
126.025424,true,true,true,0.0,-1.0,0.0,-0.0078125,false,false,false,false,0.0,-0.0078125,0.0,-0.0078125,true,false,false,false,25.875,10.05,0.0,2009,67,0,32.75,10.0,0.0,0,0,0,27.625,10.05,0.0,0,0,0,25.25,9.9,0.0,0,0,0,0.0,10.3,0.0,-3,0,0,0.0,4.0,0.0,0,0,0,kForward,0.0,0.0,0.0,0.0,0.0,0.0,0.0,0.0,0.0,0.0,0.0,
126.15455499999999,true,true,true,0.0,-1.0,0.0,-0.0078125,false,false,false,false,0.0,-0.0078125,0.0,-0.0078125,true,false,false,false,23.625,10.05,0.0,2115,78,0,31.875,10.0,0.0,0,0,0,28.25,10.05,0.0,0,0,0,25.5,9.9,0.0,0,0,0,0.0,10.45,0.0,-3,0,0,0.0,4.0,0.0,0,0,0,kForward,0.0,0.0,0.0,0.0,0.0,0.0,0.0,0.0,0.0,0.0,0.0,
126.341604,true,true,true,0.0,-1.0,0.0,-0.0078125,false,false,false,false,0.0,-0.0078125,0.0,-0.0078125,true,false,false,false,23.625,10.100000000000001,0.0,2247,73,0,31.625,10.2,0.0,0,0,0,28.375,10.0,0.0,0,0,0,27.625,10.45,0.0,0,0,0,0.0,10.45,0.0,-3,0,0,0.0,4.0,0.0,0,0,0,kForward,0.0,0.0,0.0,0.0,0.0,0.0,0.0,0.0,0.0,0.0,0.0,
126.522645,true,true,true,0.0,-1.0,0.0,-0.0078125,false,false,false,false,0.0,-0.0078125,0.0,-0.0078125,true,false,false,false,26.5,10.100000000000001,0.0,2378,70,0,35.125,9.9,0.0,0,0,0,27.5,10.15,0.0,0,0,0,25.875,10.100000000000001,0.0,0,0,0,0.0,10.3,0.0,-3,0,0,0.0,4.0,0.0,0,0,0,kForward,0.0,0.0,0.0,0.0,0.0,0.0,0.0,0.0,0.0,0.0,0.0,
126.667642,true,true,true,0.0,-1.0,0.0,-0.0078125,false,false,false,false,0.0,-0.0078125,0.0,-0.0078125,true,false,false,false,26.875,9.95,0.0,2449,47,0,36.125,9.95,0.0,0,0,0,27.0,10.100000000000001,0.0,0,0,0,25.75,10.05,0.0,0,0,0,0.0,10.25,0.0,-3,0,0,0.0,4.0,0.0,0,0,0,kForward,0.0,0.0,0.0,0.0,0.0,0.0,0.0,0.0,0.0,0.0,0.0,
126.827659,true,true,true,0.0,-1.0,0.0,-0.0078125,false,false,false,false,0.0,-0.0078125,0.0,-0.0078125,true,false,false,false,27.875,9.850000000000001,0.0,2521,42,0,35.875,10.0,0.0,0,0,0,26.75,9.95,0.0,0,0,0,25.0,10.100000000000001,0.0,0,0,0,0.0,10.3,0.0,-3,0,0,0.0,4.0,0.0,0,0,0,kForward,0.0,0.0,0.0,0.0,0.0,0.0,0.0,0.0,0.0,0.0,0.0,
126.989724,true,true,true,0.0,-1.0,0.0,-0.0078125,false,false,false,false,0.0,-0.0078125,0.0,-0.0078125,true,false,false,false,25.625,10.15,0.0,2603,50,0,34.625,10.100000000000001,0.0,0,0,0,27.875,9.95,0.0,0,0,0,26.125,10.05,0.0,0,0,0,0.0,10.350000000000001,0.0,-3,0,0,0.0,4.0,0.0,0,0,0,kForward,0.0,0.0,0.0,0.0,0.0,0.0,0.0,0.0,0.0,0.0,0.0,
127.149728,true,true,true,0.0,-1.0,0.0,-0.0078125,false,false,false,false,0.0,-0.0078125,0.0,-0.0078125,true,false,false,false,23.875,10.05,0.0,2716,77,0,31.625,10.15,0.0,0,0,0,27.875,10.15,0.0,0,0,0,26.75,10.100000000000001,0.0,0,0,0,0.0,10.4,0.0,-3,0,0,0.0,4.0,0.0,0,0,0,kForward,0.0,0.0,0.0,0.0,0.0,0.0,0.0,0.0,0.0,0.0,0.0,
127.248432,true,true,true,0.0,-1.0,0.0,-0.0078125,false,false,false,false,0.0,-0.0078125,0.0,-0.0078125,true,false,false,false,23.75,10.05,0.0,2791,75,0,31.5,10.15,0.0,0,0,0,28.375,10.15,0.0,0,0,0,26.875,10.100000000000001,0.0,0,0,0,0.0,10.4,0.0,-3,0,0,0.0,4.0,0.0,0,0,0,kForward,0.0,0.0,0.0,0.0,0.0,0.0,0.0,0.0,0.0,0.0,0.0,
127.30991499999999,true,true,true,0.0,-1.0,0.0,-0.0078125,false,false,false,false,0.0,-0.0078125,0.0,-0.0078125,true,false,false,false,23.625,10.0,0.0,2836,76,0,31.125,10.3,0.0,0,0,0,27.375,10.15,0.0,0,0,0,25.75,10.0,0.0,0,0,0,0.0,10.350000000000001,0.0,-3,0,0,0.0,4.0,0.0,0,0,0,kForward,0.0,0.0,0.0,0.0,0.0,0.0,0.0,0.0,0.0,0.0,0.0,
127.368636,true,true,true,0.0,-1.0,0.0,-0.0078125,false,false,false,false,0.0,-0.0078125,0.0,-0.0078125,true,false,false,false,23.625,10.0,0.0,2886,80,0,31.375,10.3,0.0,0,0,0,28.0,10.15,0.0,0,0,0,26.25,10.0,0.0,0,0,0,0.0,10.350000000000001,0.0,-3,0,0,0.0,4.0,0.0,0,0,0,kForward,0.0,0.0,0.0,0.0,0.0,0.0,0.0,0.0,0.0,0.0,0.0,
127.432595,true,true,true,0.0,-1.0,0.0,-0.0078125,false,false,false,false,0.0,-0.0078125,0.0,-0.0078125,true,false,false,false,23.875,10.0,0.0,2949,81,0,31.75,10.3,0.0,0,0,0,28.5,10.15,0.0,0,0,0,27.125,10.0,0.0,0,0,0,0.0,10.350000000000001,0.0,-3,0,0,0.0,4.0,0.0,0,0,0,kForward,0.0,0.0,0.0,0.0,0.0,0.0,0.0,0.0,0.0,0.0,0.0,
127.54198,true,true,true,0.0,-0.0078125,0.0,-0.0078125,false,false,false,false,0.0,-0.0078125,0.0,-0.0078125,true,false,false,false,23.125,10.05,0.0,3034,85,0,31.0,10.05,0.0,0,0,0,29.0,10.25,0.0,0,0,0,26.625,10.0,0.0,0,0,0,0.0,10.350000000000001,0.0,-3,0,0,0.0,4.0,0.0,0,0,0,kForward,0.0,0.0,0.0,0.0,0.0,0.0,0.0,0.0,0.0,0.0,0.0,
127.60722100000001,true,true,true,0.0,-0.0078125,0.0,-0.0078125,false,false,false,false,0.0,-0.0078125,0.0,-0.0078125,true,false,false,false,3.375,10.05,0.0,3064,67,0,8.5,10.05,0.0,0,0,0,4.75,10.25,0.0,0,0,0,7.0,10.0,0.0,0,0,0,0.0,12.6,0.0,-3,0,0,0.0,4.0,0.0,0,0,0,kForward,0.0,0.0,0.0,0.0,0.0,0.0,0.0,0.0,0.0,0.0,0.0,
127.666121,true,true,true,0.18110236525535583,0.4645669162273407,0.0,-0.0078125,false,false,false,false,0.0,-0.0078125,0.0,-0.0078125,true,false,false,false,0.0,12.55,0.0,3072,23,0,0.125,12.55,0.0,0,0,0,0.0,12.55,0.0,0,0,0,0.0,12.55,0.0,0,0,0,0.0,12.6,0.0,-3,0,0,0.0,4.0,0.0,0,0,0,kForward,0.0,0.0,0.0,0.0,0.0,0.0,0.0,0.0,0.0,0.0,0.0,
127.72769,true,true,true,0.4881889820098877,1.0,0.0,-0.0078125,false,false,false,false,0.0,-0.0078125,0.0,-0.0078125,true,false,false,false,2.375,12.55,0.0,3068,1,0,2.625,12.55,0.0,0,0,0,3.5,12.55,0.0,0,0,0,2.25,12.55,0.0,0,0,0,0.0,12.6,0.0,-3,0,0,0.0,4.0,0.0,0,0,0,kForward,0.0,0.0,0.0,0.0,0.0,0.0,0.0,0.0,0.0,0.0,0.0,
127.776981,true,true,true,0.4015747904777527,0.7637795209884644,0.0,-0.0078125,false,false,false,false,0.0,-0.0078125,0.0,-0.0078125,true,false,false,false,7.25,12.55,0.0,3059,-13,0,10.875,11.100000000000001,0.0,0,0,0,14.25,11.15,0.0,0,0,0,9.0,11.100000000000001,0.0,0,0,0,0.0,11.350000000000001,0.0,-3,0,0,0.0,4.0,0.0,0,0,0,kForward,0.0,0.0,0.0,0.0,0.0,0.0,0.0,0.0,0.0,0.0,0.0,
127.872493,true,true,true,0.0,-0.0234375,0.0,-0.0078125,false,false,false,false,0.0,-0.0078125,0.0,-0.0078125,true,false,false,false,5.5,11.05,0.0,2978,-75,0,10.125,11.100000000000001,0.0,0,0,0,9.25,11.15,0.0,0,0,0,8.5,11.100000000000001,0.0,0,0,0,0.0,11.350000000000001,0.0,-3,0,0,0.0,4.0,0.0,0,0,0,kForward,0.0,0.0,0.0,0.0,0.0,0.0,0.0,0.0,0.0,0.0,0.0,
127.973619,true,true,true,0.0,-0.0234375,0.0,-0.0078125,false,false,false,false,0.0,-0.0078125,0.0,-0.0078125,true,false,false,false,0.0,12.6,0.0,2895,-105,0,0.125,12.6,0.0,0,0,0,0.0,12.6,0.0,0,0,0,0.0,12.6,0.0,0,0,0,0.0,12.700000000000001,0.0,-3,0,0,0.0,4.0,0.0,0,0,0,kForward,0.0,0.0,0.0,0.0,0.0,0.0,0.0,0.0,0.0,0.0,0.0,
128.031489,true,true,true,0.0,-0.0234375,0.0,-0.0078125,false,false,false,false,0.0,-0.0078125,0.0,-0.0078125,true,false,false,false,0.0,12.6,0.0,2847,-86,0,0.125,12.6,0.0,0,0,0,0.0,12.6,0.0,0,0,0,0.0,12.6,0.0,0,0,0,0.0,12.700000000000001,0.0,-3,0,0,0.0,4.0,0.0,0,0,0,kForward,0.0,0.0,0.0,0.0,0.0,0.0,0.0,0.0,0.0,0.0,0.0,
128.105146,true,true,true,0.0,-0.0234375,0.0,-0.0078125,false,false,false,false,0.0,-0.0078125,0.0,-0.0078125,true,false,false,false,0.0,12.65,0.0,2774,-90,0,0.125,12.65,0.0,0,0,0,0.0,12.65,0.0,0,0,0,0.0,12.65,0.0,0,0,0,0.0,12.75,0.0,-3,0,0,0.0,4.0,0.0,0,0,0,kForward,0.0,0.0,0.0,0.0,0.0,0.0,0.0,0.0,0.0,0.0,0.0,
128.285141,true,true,true,0.0,-0.0234375,0.0,-0.0078125,false,false,false,false,0.0,-0.0078125,0.0,-0.0078125,false,false,false,false,0.0,12.700000000000001,0.0,2631,-66,0,0.125,12.700000000000001,0.0,0,0,0,0.0,12.700000000000001,0.0,0,0,0,0.0,12.700000000000001,0.0,0,0,0,0.0,12.75,0.0,-3,0,0,0.0,4.0,0.0,0,0,0,kReverse,0.0,0.0,0.0,0.0,0.0,0.0,0.0,0.0,0.0,0.0,0.0,
128.466046,true,true,true,0.0,-0.0234375,0.0,-0.0078125,false,false,false,false,0.0,-0.0078125,0.0,-0.0078125,false,false,false,false,0.0,12.700000000000001,0.0,2516,-61,0,0.125,12.75,0.0,0,0,0,0.0,12.700000000000001,0.0,0,0,0,0.0,12.700000000000001,0.0,0,0,0,0.0,12.8,0.0,-3,0,0,0.0,4.0,0.0,0,0,0,kReverse,0.0,0.0,0.0,0.0,0.0,0.0,0.0,0.0,0.0,0.0,0.0,
128.628252,true,true,true,0.32283464074134827,1.0,0.0,-0.0078125,false,false,false,false,0.0,-0.0078125,0.0,-0.0078125,false,false,false,false,0.0,12.0,0.0,2444,-41,0,0.125,12.05,0.0,0,0,0,3.125,12.0,0.0,0,0,0,0.0,12.0,0.0,0,0,0,0.0,12.05,0.0,-3,0,0,0.0,4.0,0.0,0,0,0,kReverse,0.0,0.0,0.0,0.0,0.0,0.0,0.0,0.0,0.0,0.0,0.0,
128.79389799999998,true,true,true,0.24409449100494385,1.0,0.0,-0.0078125,false,false,false,false,0.0,-0.0078125,0.0,-0.0078125,false,false,false,false,14.375,10.2,0.0,2323,-94,0,15.625,10.45,0.0,0,0,0,20.5,10.350000000000001,0.0,0,0,0,17.125,10.45,0.0,0,0,0,0.0,10.65,0.0,-3,0,0,0.0,4.0,0.0,0,0,0,kReverse,0.0,0.0,0.0,0.0,0.0,0.0,0.0,0.0,0.0,0.0,0.0,
128.988345,true,true,true,0.0,-0.0234375,0.0,-0.0078125,false,false,false,false,0.0,-0.0078125,0.0,-0.0078125,false,false,false,false,9.875,10.9,0.0,1958,-201,0,13.875,10.95,0.0,0,0,0,13.25,10.95,0.0,0,0,0,9.875,11.0,0.0,0,0,0,0.0,11.15,0.0,-3,0,0,0.0,4.0,0.0,0,0,0,kReverse,0.0,0.0,0.0,0.0,0.0,0.0,0.0,0.0,0.0,0.0,0.0,
129.13029699999998,true,true,true,0.0,-0.0234375,-1.0,-0.0078125,false,false,false,false,0.0,-0.0078125,0.0,-0.0078125,false,false,false,false,0.0,12.35,0.0,1682,-185,0,0.125,12.35,0.0,0,0,0,0.0,12.35,0.0,0,0,0,0.0,12.35,0.0,0,0,0,0.0,12.4,0.0,-3,0,0,0.0,4.0,0.0,0,0,0,kReverse,0.0,0.0,0.0,0.0,0.0,0.0,0.0,0.0,0.0,0.0,0.0,
129.256596,true,true,true,0.0,-0.0234375,-1.0,-0.0078125,false,false,false,false,0.0,-0.0078125,0.0,-0.0078125,false,false,false,false,5.5,10.5,0.0,1396,-219,0,8.5,10.65,0.0,0,0,0,34.125,10.5,0.0,0,0,0,32.375,10.2,0.0,0,0,0,0.0,10.7,0.0,-3,0,0,0.0,4.0,0.0,0,0,0,kReverse,0.0,0.0,0.0,0.0,0.0,0.0,0.0,0.0,0.0,0.0,0.0,
129.434446,true,true,true,0.0,-0.0234375,-1.0,-0.0078125,false,false,false,false,0.0,-0.0078125,0.0,-0.0078125,false,false,false,false,9.5,10.55,0.0,1066,-199,0,13.25,10.65,0.0,0,0,0,22.625,10.7,0.0,0,0,0,20.75,10.65,0.0,0,0,0,0.0,10.850000000000001,0.0,-3,0,0,0.0,4.0,0.0,0,0,0,kReverse,0.0,0.0,0.0,0.0,0.0,0.0,0.0,0.0,0.0,0.0,0.0,
129.588552,true,true,true,0.0,-0.0234375,-0.765625,-0.0078125,false,false,false,false,0.0,-0.0078125,0.0,-0.0078125,false,false,false,false,10.875,10.7,0.0,759,-188,0,14.375,10.850000000000001,0.0,0,0,0,17.5,10.7,0.0,0,0,0,16.375,10.75,0.0,0,0,0,0.0,11.0,0.0,-3,0,0,0.0,4.0,0.0,0,0,0,kReverse,0.0,0.0,0.0,0.0,0.0,0.0,0.0,0.0,0.0,0.0,0.0,
129.759359,true,true,true,0.0,-0.0234375,0.0,-0.0078125,false,false,false,false,0.0,-0.0078125,0.0,-0.0078125,false,false,false,false,4.125,11.5,0.0,457,-160,0,8.375,11.55,0.0,0,0,0,5.25,11.5,0.0,0,0,0,4.625,11.5,0.0,0,0,0,0.0,11.7,0.0,-3,0,0,0.0,4.0,0.0,0,0,0,kReverse,0.0,0.0,0.0,0.0,0.0,0.0,0.0,0.0,0.0,0.0,0.0,
129.86862100000002,true,true,true,0.0,-0.0234375,0.0,-0.0078125,false,false,false,false,0.0,-0.0078125,0.0,-0.0078125,false,false,false,false,0.0,12.35,0.0,314,-114,0,0.125,12.4,0.0,0,0,0,0.0,12.35,0.0,0,0,0,0.0,12.35,0.0,0,0,0,0.0,12.450000000000001,0.0,-3,0,0,0.0,4.0,0.0,0,0,0,kReverse,0.0,0.0,0.0,0.0,0.0,0.0,0.0,0.0,0.0,0.0,0.0,
129.988312,true,true,true,0.0,-0.0234375,0.0,-0.0078125,false,false,false,false,0.0,-0.0078125,0.0,-0.0078125,false,false,false,false,0.0,12.35,0.0,235,-79,0,0.125,12.4,0.0,0,0,0,0.0,12.35,0.0,0,0,0,0.0,12.35,0.0,0,0,0,0.0,12.450000000000001,0.0,-3,0,0,0.0,4.0,0.0,0,0,0,kReverse,0.0,0.0,0.0,0.0,0.0,0.0,0.0,0.0,0.0,0.0,0.0,
130.19518100000002,true,true,true,0.0,-0.5859375,0.0,-0.0078125,false,false,false,false,0.0,-0.0078125,0.0,-0.0078125,false,false,false,false,0.0,12.4,0.0,180,-11,0,0.125,12.450000000000001,0.0,0,0,0,0.0,12.4,0.0,0,0,0,0.0,12.4,0.0,0,0,0,0.0,12.5,0.0,-3,0,0,0.0,4.0,0.0,0,0,0,kReverse,0.0,0.0,0.0,0.0,0.0,0.0,0.0,0.0,0.0,0.0,0.0,
130.39615,true,true,true,0.0,-1.0,0.0,-0.0078125,false,false,false,false,0.0,-0.0078125,0.0,-0.0078125,false,false,false,false,5.75,12.4,0.0,197,10,0,0.375,12.4,0.0,0,0,0,3.0,12.4,0.0,0,0,0,5.875,12.4,0.0,0,0,0,0.0,12.5,0.0,-3,0,0,0.0,4.0,0.0,0,0,0,kReverse,0.0,0.0,0.0,0.0,0.0,0.0,0.0,0.0,0.0,0.0,0.0,
130.545411,true,true,true,0.0,-0.0078125,0.0,-0.0078125,false,false,false,false,0.0,-0.0078125,0.0,-0.0078125,false,false,false,false,13.0,10.4,0.0,263,58,0,13.875,10.350000000000001,0.0,0,0,0,12.375,10.350000000000001,0.0,0,0,0,12.125,10.45,0.0,0,0,0,0.0,10.65,0.0,-3,0,0,0.0,4.0,0.0,0,0,0,kReverse,0.0,0.0,0.0,0.0,0.0,0.0,0.0,0.0,0.0,0.0,0.0,
130.670145,true,true,true,0.0,-0.0078125,0.0,-0.0078125,false,false,false,false,0.0,-0.0078125,0.0,-0.0078125,false,false,false,false,0.0,12.4,0.0,337,35,0,0.125,12.4,0.0,0,0,0,0.0,12.4,0.0,0,0,0,0.0,12.4,0.0,0,0,0,0.0,12.450000000000001,0.0,-3,0,0,0.0,4.0,0.0,0,0,0,kReverse,0.0,0.0,0.0,0.0,0.0,0.0,0.0,0.0,0.0,0.0,0.0,
130.86304,true,true,true,0.0,-0.0078125,0.0,-0.0078125,false,false,false,false,0.0,-0.0078125,0.0,-0.0078125,false,false,false,false,0.0,12.4,0.0,413,46,0,0.125,12.450000000000001,0.0,0,0,0,0.0,12.4,0.0,0,0,0,0.0,12.4,0.0,0,0,0,0.0,12.5,0.0,-3,0,0,0.0,4.0,0.0,0,0,0,kReverse,0.0,0.0,0.0,0.0,0.0,0.0,0.0,0.0,0.0,0.0,0.0,
130.948521,true,true,true,0.0,-0.0078125,0.0,-0.0078125,false,false,false,false,0.0,-0.0078125,0.0,-0.0078125,false,false,false,false,0.0,12.4,0.0,437,34,0,0.125,12.450000000000001,0.0,0,0,0,0.0,12.4,0.0,0,0,0,0.0,12.4,0.0,0,0,0,0.0,12.5,0.0,-3,0,0,0.0,4.0,0.0,0,0,0,kReverse,0.0,0.0,0.0,0.0,0.0,0.0,0.0,0.0,0.0,0.0,0.0,
131.00713399999998,true,true,true,0.0,-0.0078125,0.0,-0.0078125,false,false,false,false,0.0,-0.0078125,0.0,-0.0078125,false,false,false,false,0.0,12.4,0.0,456,29,0,0.125,12.450000000000001,0.0,0,0,0,0.0,12.450000000000001,0.0,0,0,0,0.0,12.4,0.0,0,0,0,0.0,12.5,0.0,-3,0,0,0.0,4.0,0.0,0,0,0,kReverse,0.0,0.0,0.0,0.0,0.0,0.0,0.0,0.0,0.0,0.0,0.0,
131.076857,true,true,true,0.0,-0.0078125,0.0,-0.0078125,false,false,false,false,0.0,-0.0078125,0.0,-0.0078125,false,false,false,false,0.0,12.4,0.0,486,37,0,0.125,12.450000000000001,0.0,0,0,0,0.0,12.450000000000001,0.0,0,0,0,0.0,12.4,0.0,0,0,0,0.0,12.5,0.0,-3,0,0,0.0,4.0,0.0,0,0,0,kReverse,0.0,0.0,0.0,0.0,0.0,0.0,0.0,0.0,0.0,0.0,0.0,
131.131129,true,true,true,0.0,-0.0078125,0.0,-0.0078125,false,false,false,false,0.0,-0.0078125,0.0,-0.0078125,false,false,false,false,0.0,12.4,0.0,494,30,0,0.125,12.450000000000001,0.0,0,0,0,0.0,12.450000000000001,0.0,0,0,0,0.0,12.4,0.0,0,0,0,0.0,12.5,0.0,-3,0,0,0.0,4.0,0.0,0,0,0,kReverse,0.0,0.0,0.0,0.0,0.0,0.0,0.0,0.0,0.0,0.0,0.0,
131.270478,true,true,true,0.0,-0.84375,0.0,-0.0078125,false,false,false,false,0.0,-0.0078125,0.0,-0.0078125,false,false,false,false,0.0,12.450000000000001,0.0,512,12,0,0.125,12.450000000000001,0.0,0,0,0,0.0,12.450000000000001,0.0,0,0,0,0.0,12.450000000000001,0.0,0,0,0,0.0,11.8,0.0,-3,0,0,0.0,4.0,0.0,0,0,0,kReverse,0.0,0.0,0.0,0.0,0.0,0.0,0.0,0.0,0.0,0.0,0.0,
131.472461,true,true,true,0.0,-0.5625,0.0,-0.0078125,false,false,false,false,0.0,-0.0078125,0.0,-0.0078125,false,false,false,false,12.875,11.05,0.0,551,1,0,17.25,11.25,0.0,0,0,0,15.875,11.15,0.0,0,0,0,13.375,11.2,0.0,0,0,0,0.0,11.350000000000001,0.0,-3,0,0,0.0,4.0,0.0,0,0,0,kReverse,0.0,0.0,0.0,0.0,0.0,0.0,0.0,0.0,0.0,0.0,0.0,
131.578913,true,true,true,0.0,-0.0078125,0.0,-0.0078125,false,false,false,false,0.0,-0.0078125,0.0,-0.0078125,false,false,false,false,12.5,11.05,0.0,558,7,0,17.875,11.25,0.0,0,0,0,14.375,11.15,0.0,0,0,0,11.875,11.2,0.0,0,0,0,0.0,11.350000000000001,0.0,-3,0,0,0.0,4.0,0.0,0,0,0,kReverse,0.0,0.0,0.0,0.0,0.0,0.0,0.0,0.0,0.0,0.0,0.0,
131.70890400000002,true,true,true,0.0,-0.0078125,0.0,-0.0078125,false,false,false,false,0.0,-0.0078125,0.0,-0.0078125,false,false,false,false,0.0,12.25,0.0,559,0,0,0.125,12.200000000000001,0.0,0,0,0,0.0,12.200000000000001,0.0,0,0,0,0.0,12.200000000000001,0.0,0,0,0,0.0,12.25,0.0,-3,0,0,0.0,4.0,0.0,0,0,0,kReverse,0.0,0.0,0.0,0.0,0.0,0.0,0.0,0.0,0.0,0.0,0.0,
131.837516,true,true,true,0.0,-0.0078125,0.0,-0.0078125,false,false,false,false,0.0,-0.0078125,0.0,-0.0078125,false,false,false,false,0.0,12.4,0.0,561,0,0,0.125,12.4,0.0,0,0,0,0.0,12.4,0.0,0,0,0,0.0,12.4,0.0,0,0,0,0.0,12.450000000000001,0.0,-3,0,0,0.0,4.0,0.0,0,0,0,kReverse,0.0,0.0,0.0,0.0,0.0,0.0,0.0,0.0,0.0,0.0,0.0,
131.91298999999998,true,true,true,0.0,-0.0078125,0.0,-0.0078125,false,false,false,false,0.0,-0.0078125,0.0,-0.0078125,false,false,false,false,0.0,12.4,0.0,562,1,0,0.125,12.4,0.0,0,0,0,0.0,12.4,0.0,0,0,0,0.0,12.4,0.0,0,0,0,0.0,12.450000000000001,0.0,-3,0,0,0.0,4.0,0.0,0,0,0,kReverse,0.0,0.0,0.0,0.0,0.0,0.0,0.0,0.0,0.0,0.0,0.0,
131.989677,true,true,true,0.0,-0.0078125,0.0,-0.0078125,false,false,false,false,0.0,-0.0078125,0.0,-0.0078125,false,false,false,false,0.0,12.4,0.0,562,1,0,0.125,12.450000000000001,0.0,0,0,0,0.0,12.450000000000001,0.0,0,0,0,0.0,12.4,0.0,0,0,0,0.0,12.5,0.0,-3,0,0,0.0,4.0,0.0,0,0,0,kReverse,0.0,0.0,0.0,0.0,0.0,0.0,0.0,0.0,0.0,0.0,0.0,
132.05106899999998,true,true,true,0.0,0.34645670652389526,0.0,-0.0078125,false,false,false,false,0.0,-0.0078125,0.0,-0.0078125,false,false,false,false,0.0,12.4,0.0,562,0,0,0.125,12.450000000000001,0.0,0,0,0,0.0,12.450000000000001,0.0,0,0,0,0.0,12.4,0.0,0,0,0,0.0,12.5,0.0,-3,0,0,0.0,4.0,0.0,0,0,0,kReverse,0.0,0.0,0.0,0.0,0.0,0.0,0.0,0.0,0.0,0.0,0.0,
132.171213,true,true,true,0.0,0.6850393414497375,0.0,-0.0078125,false,false,false,false,0.0,-0.0078125,0.0,-0.0078125,false,false,false,false,5.125,12.35,0.0,562,0,0,5.125,12.35,0.0,0,0,0,5.25,12.35,0.0,0,0,0,6.0,12.35,0.0,0,0,0,0.0,12.450000000000001,0.0,-3,0,0,0.0,4.0,0.0,0,0,0,kReverse,0.0,0.0,0.0,0.0,0.0,0.0,0.0,0.0,0.0,0.0,0.0,
132.382818,true,true,true,0.0,1.0,0.0,-0.0078125,false,false,false,false,0.0,-0.0078125,0.0,-0.0078125,false,false,false,false,8.25,11.15,0.0,561,0,0,12.25,11.2,0.0,0,0,0,13.0,11.25,0.0,0,0,0,9.125,11.2,0.0,0,0,0,0.0,10.95,0.0,-3,0,0,0.0,4.0,0.0,0,0,0,kReverse,0.0,0.0,0.0,0.0,0.0,0.0,0.0,0.0,0.0,0.0,0.0,
132.51313000000002,true,true,true,0.0,-0.0234375,0.0,-0.0078125,false,false,false,false,0.0,-0.0078125,0.0,-0.0078125,false,false,false,false,10.0,10.65,0.0,497,-61,0,15.625,10.7,0.0,0,0,0,14.0,10.7,0.0,0,0,0,13.125,10.8,0.0,0,0,0,0.0,10.95,0.0,-3,0,0,0.0,4.0,0.0,0,0,0,kReverse,0.0,0.0,0.0,0.0,0.0,0.0,0.0,0.0,0.0,0.0,0.0,
132.664819,true,true,true,0.0,-0.0234375,0.0,-0.0078125,false,false,false,false,0.0,-0.0078125,0.0,-0.0078125,false,false,false,false,0.0,12.35,0.0,351,-99,0,0.125,12.35,0.0,0,0,0,0.0,12.35,0.0,0,0,0,0.0,12.35,0.0,0,0,0,0.0,12.4,0.0,-3,0,0,0.0,4.0,0.0,0,0,0,kReverse,0.0,0.0,0.0,0.0,0.0,0.0,0.0,0.0,0.0,0.0,0.0,
132.787725,true,true,true,0.0,-0.0234375,0.0,-0.0078125,false,false,false,false,0.0,-0.0078125,0.0,-0.0078125,false,false,false,false,0.0,12.4,0.0,209,-119,0,0.125,12.4,0.0,0,0,0,0.0,12.4,0.0,0,0,0,0.0,12.4,0.0,0,0,0,0.0,12.450000000000001,0.0,-3,0,0,0.0,4.0,0.0,0,0,0,kReverse,0.0,0.0,0.0,0.0,0.0,0.0,0.0,0.0,0.0,0.0,0.0,
