timer,lineLeft,lineCenter,lineRight,driverLeftX,driverLeftY,driverRightX,driverRightY,driverA,driverB,driverX,driverY,operatorLeftX,operatorLeftY,operatorRightX,operatorRightY,operatorA,operatorB,operatorX,operatorY,LeftFrontCurrent,LeftFrontVoltage,LeftFrontValue,LeftFrontPosition,LeftFrontVelocity,LeftFrontFaults,LeftRearCurrent,LeftRearVoltage,LeftRearValue,LeftRearPosition,LeftRearVelocity,LeftRearFaults,RightFrontCurrent,RightFrontVoltage,RightFrontValue,RightFrontPosition,RightFrontVelocity,RightFrontFaults,RightRearCurrent,RightRearVoltage,RightRearValue,RightRearPosition,RightRearVelocity,RightRearFaults,LiftCurrent,LiftVoltage,LiftValue,LiftPosition,LiftVelocity,LiftFaults,RollerCurrent,RollerVoltage,RollerValue,RollerPosition,RollerVelocity,RollerFaults,PushersState,navx_Pitch,navx_Roll,navx_Yaw,navx_XAcc,navx_YAcc,navx_ZAcc,navx_Temp,navx_Bar,navx_Alt,navx_XDis,navx_YDis,
323.646701,true,true,true,0.0,-0.0078125,1.0,-0.0078125,false,false,false,false,0.0,-0.0078125,0.0,-0.0078125,false,false,false,false,4.875,12.15,0.0,9968,-208,0,3.875,12.15,0.0,0,0,0,6.125,12.15,0.0,0,0,0,4.875,12.1,0.0,0,0,0,0.0,12.200000000000001,0.0,9,0,0,0.0,4.0,0.0,0,0,0,kReverse,0.0,0.0,0.0,0.0,0.0,0.0,0.0,0.0,0.0,0.0,0.0,
323.693932,true,true,true,0.0,-0.0078125,0.6220472455024719,-0.0078125,false,false,false,false,0.0,-0.0078125,0.0,-0.0078125,false,false,false,false,24.75,10.5,0.0,9894,-199,0,18.25,10.9,0.0,0,0,0,8.5,10.850000000000001,0.0,0,0,0,5.875,11.0,0.0,0,0,0,0.0,11.100000000000001,0.0,9,0,0,0.0,4.0,0.0,0,0,0,kReverse,0.0,0.0,0.0,0.0,0.0,0.0,0.0,0.0,0.0,0.0,0.0,
323.738198,true,true,true,0.0,-0.0078125,0.08661417663097382,-0.0078125,false,false,false,false,0.0,-0.0078125,0.0,-0.0078125,false,false,false,false,26.875,10.5,0.0,9847,-164,0,29.75,10.9,0.0,0,0,0,5.75,10.850000000000001,0.0,0,0,0,5.5,11.0,0.0,0,0,0,0.0,11.100000000000001,0.0,9,0,0,0.0,4.0,0.0,0,0,0,kReverse,0.0,0.0,0.0,0.0,0.0,0.0,0.0,0.0,0.0,0.0,0.0,
323.79350900000003,true,true,true,0.0,-0.0078125,0.0,-0.0078125,false,false,false,false,0.0,-0.0078125,0.0,-0.0078125,false,false,false,false,7.125,10.5,0.0,9805,-89,0,12.5,10.9,0.0,0,0,0,0.75,10.850000000000001,0.0,0,0,0,0.0,11.0,0.0,0,0,0,0.0,11.100000000000001,0.0,9,0,0,0.0,4.0,0.0,0,0,0,kReverse,0.0,0.0,0.0,0.0,0.0,0.0,0.0,0.0,0.0,0.0,0.0,
323.84379400000006,true,true,true,0.0,-0.0078125,0.0,-0.0078125,false,false,false,false,0.0,-0.0078125,0.0,-0.0078125,false,false,false,false,0.0,12.1,0.0,9765,-65,0,0.5,12.1,0.0,0,0,0,0.0,12.1,0.0,0,0,0,0.0,12.1,0.0,0,0,0,0.0,12.200000000000001,0.0,9,0,0,0.0,4.0,0.0,0,0,0,kReverse,0.0,0.0,0.0,0.0,0.0,0.0,0.0,0.0,0.0,0.0,0.0,
323.899578,true,true,true,0.0,-0.0078125,0.0,-0.0078125,false,false,false,false,0.0,-0.0078125,0.0,-0.0078125,false,false,false,false,0.0,12.1,0.0,9724,-69,0,0.125,12.1,0.0,0,0,0,0.0,12.1,0.0,0,0,0,0.0,12.1,0.0,0,0,0,0.0,12.200000000000001,0.0,9,0,0,0.0,4.0,0.0,0,0,0,kReverse,0.0,0.0,0.0,0.0,0.0,0.0,0.0,0.0,0.0,0.0,0.0,
323.95257100000003,true,true,true,0.0,-0.0078125,0.0,-0.0078125,false,false,false,false,0.0,-0.0078125,0.0,-0.0078125,false,false,false,false,0.0,12.1,0.0,9701,-64,0,0.125,12.1,0.0,0,0,0,0.0,12.1,0.0,0,0,0,0.0,12.1,0.0,0,0,0,0.0,12.200000000000001,0.0,9,0,0,0.0,4.0,0.0,0,0,0,kReverse,0.0,0.0,0.0,0.0,0.0,0.0,0.0,0.0,0.0,0.0,0.0,
323.998594,true,true,true,0.0,-0.0078125,0.0,-0.0078125,false,false,false,false,0.0,-0.0078125,0.0,-0.0078125,false,false,false,false,0.0,12.200000000000001,0.0,9681,-56,0,0.125,12.200000000000001,0.0,0,0,0,0.0,12.200000000000001,0.0,0,0,0,0.0,12.200000000000001,0.0,0,0,0,0.0,12.25,0.0,9,0,0,0.0,4.0,0.0,0,0,0,kReverse,0.0,0.0,0.0,0.0,0.0,0.0,0.0,0.0,0.0,0.0,0.0,
324.0573590000001,true,true,true,0.0,-0.0078125,0.26771652698516846,-0.0078125,false,false,false,false,0.0,-0.0078125,0.0,-0.0078125,false,false,false,false,0.0,12.200000000000001,0.0,9645,-56,0,0.125,12.200000000000001,0.0,0,0,0,0.0,12.200000000000001,0.0,0,0,0,0.0,12.200000000000001,0.0,0,0,0,0.0,12.25,0.0,9,0,0,0.0,4.0,0.0,0,0,0,kReverse,0.0,0.0,0.0,0.0,0.0,0.0,0.0,0.0,0.0,0.0,0.0,
324.112467,true,true,true,0.0,-0.0078125,0.16535432636737823,-0.0078125,false,false,false,false,0.0,-0.0078125,0.0,-0.0078125,false,false,false,false,1.5,12.200000000000001,0.0,9605,-65,0,1.75,12.200000000000001,0.0,0,0,0,0.0,12.200000000000001,0.0,0,0,0,0.0,12.200000000000001,0.0,0,0,0,0.0,12.25,0.0,9,0,0,0.0,4.0,0.0,0,0,0,kReverse,0.0,0.0,0.0,0.0,0.0,0.0,0.0,0.0,0.0,0.0,0.0,
324.171689,true,true,true,0.0,-0.4296875,0.007874015718698502,-0.0078125,false,false,false,false,0.0,-0.0078125,0.0,-0.0078125,false,false,false,false,2.625,12.0,0.0,9580,-51,0,3.875,12.0,0.0,0,0,0,0.125,12.0,0.0,0,0,0,0.0,12.0,0.0,0,0,0,0.0,12.1,0.0,9,0,0,0.0,4.0,0.0,0,0,0,kReverse,0.0,0.0,0.0,0.0,0.0,0.0,0.0,0.0,0.0,0.0,0.0,
324.22073400000005,true,true,true,0.0,-0.953125,0.007874015718698502,-0.0078125,false,false,false,false,0.0,-0.0078125,0.0,-0.0078125,false,false,false,false,1.375,12.0,0.0,9572,-23,0,2.625,12.0,0.0,0,0,0,0.625,12.0,0.0,0,0,0,0.0,12.0,0.0,0,0,0,0.0,12.1,0.0,9,0,0,0.0,4.0,0.0,0,0,0,kReverse,0.0,0.0,0.0,0.0,0.0,0.0,0.0,0.0,0.0,0.0,0.0,
324.276527,true,true,true,0.0,-1.0,0.8188976645469666,-0.015625,false,false,false,false,0.0,-0.0078125,0.0,-0.0078125,false,false,false,false,18.5,12.0,0.0,9573,-7,0,22.75,12.0,0.0,0,0,0,19.0,12.0,0.0,0,0,0,13.625,12.0,0.0,0,0,0,0.0,12.1,0.0,9,0,0,0.0,4.0,0.0,0,0,0,kReverse,0.0,0.0,0.0,0.0,0.0,0.0,0.0,0.0,0.0,0.0,0.0,
324.332961,true,true,true,0.0,-1.0,1.0,-0.015625,false,false,false,false,0.0,-0.0078125,0.0,-0.0078125,false,false,false,false,40.25,9.15,0.0,9587,15,0,39.125,9.55,0.0,0,0,0,12.5,9.4,0.0,0,0,0,14.375,9.350000000000001,0.0,0,0,0,0.0,9.65,0.0,9,0,0,0.0,4.0,0.0,0,0,0,kReverse,0.0,0.0,0.0,0.0,0.0,0.0,0.0,0.0,0.0,0.0,0.0,
324.38178400000004,true,true,true,0.0,-1.0,1.0,-0.015625,false,false,false,false,0.0,-0.0078125,0.0,-0.0078125,false,false,false,false,45.125,9.15,0.0,9651,76,0,50.75,9.55,0.0,0,0,0,1.5,9.4,0.0,0,0,0,1.25,9.350000000000001,0.0,0,0,0,0.0,9.65,0.0,9,0,0,0.0,4.0,0.0,0,0,0,kReverse,0.0,0.0,0.0,0.0,0.0,0.0,0.0,0.0,0.0,0.0,0.0,
324.43357700000007,true,true,true,0.0,-1.0,-0.0078125,-0.015625,false,false,false,false,0.0,-0.0078125,0.0,-0.0078125,false,false,false,false,53.25,9.15,0.0,9718,131,0,63.5,9.55,0.0,0,0,0,0.0,9.4,0.0,0,0,0,0.0,9.350000000000001,0.0,0,0,0,0.0,9.65,0.0,9,0,0,0.0,4.0,0.0,0,0,0,kReverse,0.0,0.0,0.0,0.0,0.0,0.0,0.0,0.0,0.0,0.0,0.0,
324.49014800000003,true,true,true,0.0,-1.0,-0.03125,-0.015625,false,false,false,false,0.0,-0.0078125,0.0,-0.0078125,false,false,false,false,26.0,9.75,0.0,9854,203,0,41.625,9.600000000000001,0.0,0,0,0,8.375,9.850000000000001,0.0,0,0,0,5.125,9.8,0.0,0,0,0,0.0,9.9,0.0,9,0,0,0.0,4.0,0.0,0,0,0,kReverse,0.0,0.0,0.0,0.0,0.0,0.0,0.0,0.0,0.0,0.0,0.0,
324.53391700000003,true,true,true,0.0,-1.0,-0.03125,-0.015625,false,false,false,false,0.0,-0.0078125,0.0,-0.0078125,false,false,false,false,9.5,9.75,0.0,9948,230,0,14.125,9.600000000000001,0.0,0,0,0,15.125,9.850000000000001,0.0,0,0,0,15.25,9.8,0.0,0,0,0,0.0,9.9,0.0,9,0,0,0.0,4.0,0.0,0,0,0,kReverse,0.0,0.0,0.0,0.0,0.0,0.0,0.0,0.0,0.0,0.0,0.0,
324.58121,true,true,true,0.0,-1.0,-0.03125,-0.015625,false,false,false,false,0.0,-0.0078125,0.0,-0.0078125,false,false,false,false,8.625,9.75,0.0,10089,235,0,12.5,9.600000000000001,0.0,0,0,0,17.5,9.850000000000001,0.0,0,0,0,15.625,9.8,0.0,0,0,0,0.0,9.9,0.0,9,0,0,0.0,4.0,0.0,0,0,0,kReverse,0.0,0.0,0.0,0.0,0.0,0.0,0.0,0.0,0.0,0.0,0.0,
324.63319200000007,true,true,true,0.0,-1.0,-0.03125,-0.015625,false,false,false,false,0.0,-0.0078125,0.0,-0.0078125,false,false,false,false,8.25,10.75,0.0,10186,238,0,12.375,10.8,0.0,0,0,0,15.125,10.7,0.0,0,0,0,12.0,10.7,0.0,0,0,0,0.0,10.95,0.0,9,0,0,0.0,4.0,0.0,0,0,0,kReverse,0.0,0.0,0.0,0.0,0.0,0.0,0.0,0.0,0.0,0.0,0.0,
324.691413,true,true,true,0.0,-1.0,-0.03125,-0.015625,false,false,false,false,0.0,-0.0078125,0.0,-0.0078125,false,false,false,false,8.0,10.75,0.0,10333,244,0,12.125,10.8,0.0,0,0,0,12.25,10.7,0.0,0,0,0,9.75,10.7,0.0,0,0,0,0.0,10.95,0.0,9,0,0,0.0,4.0,0.0,0,0,0,kReverse,0.0,0.0,0.0,0.0,0.0,0.0,0.0,0.0,0.0,0.0,0.0,
324.74300800000003,true,true,true,0.0,-1.0,-0.03125,-0.015625,false,false,false,false,0.0,-0.0078125,0.0,-0.0078125,false,false,false,false,6.75,10.75,0.0,10488,254,0,10.875,10.8,0.0,0,0,0,10.625,10.7,0.0,0,0,0,7.875,10.7,0.0,0,0,0,0.0,10.95,0.0,9,0,0,0.0,4.0,0.0,0,0,0,kReverse,0.0,0.0,0.0,0.0,0.0,0.0,0.0,0.0,0.0,0.0,0.0,
324.79147500000005,true,true,true,0.0,-1.0,-0.03125,-0.015625,false,false,false,false,0.0,-0.0078125,0.0,-0.0078125,false,false,false,false,6.25,11.15,0.0,10595,262,0,10.25,11.15,0.0,0,0,0,9.875,11.2,0.0,0,0,0,7.0,11.15,0.0,0,0,0,0.0,11.3,0.0,9,0,0,0.0,4.0,0.0,0,0,0,kReverse,0.0,0.0,0.0,0.0,0.0,0.0,0.0,0.0,0.0,0.0,0.0,
324.83784900000006,true,true,true,0.0,-1.0,-0.03125,-0.015625,false,false,false,false,0.0,-0.0078125,0.0,-0.0078125,false,false,false,false,5.75,11.15,0.0,10706,271,0,9.375,11.15,0.0,0,0,0,9.0,11.2,0.0,0,0,0,5.875,11.15,0.0,0,0,0,0.0,11.3,0.0,9,0,0,0.0,4.0,0.0,0,0,0,kReverse,0.0,0.0,0.0,0.0,0.0,0.0,0.0,0.0,0.0,0.0,0.0,
324.893081,true,true,true,0.0,-1.0,-0.03125,-0.015625,false,false,false,false,0.0,-0.0078125,0.0,-0.0078125,false,false,false,false,5.0,11.15,0.0,10878,283,0,8.625,11.15,0.0,0,0,0,8.375,11.2,0.0,0,0,0,5.125,11.15,0.0,0,0,0,0.0,11.3,0.0,9,0,0,0.0,4.0,0.0,0,0,0,kReverse,0.0,0.0,0.0,0.0,0.0,0.0,0.0,0.0,0.0,0.0,0.0,
324.94359800000007,true,true,true,0.0,-1.0,-0.03125,-0.015625,false,false,false,false,0.0,-0.0078125,0.0,-0.0078125,false,false,false,false,5.25,11.350000000000001,0.0,11051,288,0,8.125,11.4,0.0,0,0,0,8.0,11.350000000000001,0.0,0,0,0,5.125,11.4,0.0,0,0,0,0.0,11.5,0.0,9,0,0,0.0,4.0,0.0,0,0,0,kReverse,0.0,0.0,0.0,0.0,0.0,0.0,0.0,0.0,0.0,0.0,0.0,
324.994273,true,true,true,0.0,-1.0,-0.03125,-0.015625,false,false,false,false,0.0,-0.0078125,0.0,-0.0078125,false,false,false,false,5.375,11.350000000000001,0.0,11170,292,0,7.75,11.4,0.0,0,0,0,7.625,11.350000000000001,0.0,0,0,0,5.25,11.4,0.0,0,0,0,0.0,11.5,0.0,9,0,0,0.0,4.0,0.0,0,0,0,kReverse,0.0,0.0,0.0,0.0,0.0,0.0,0.0,0.0,0.0,0.0,0.0,
325.050153,true,true,true,0.0,-1.0,-0.03125,-0.015625,false,false,false,false,0.0,-0.0078125,0.0,-0.0078125,false,false,false,false,5.625,11.350000000000001,0.0,11351,300,0,7.5,11.4,0.0,0,0,0,7.125,11.350000000000001,0.0,0,0,0,5.375,11.4,0.0,0,0,0,0.0,11.5,0.0,9,0,0,0.0,4.0,0.0,0,0,0,kReverse,0.0,0.0,0.0,0.0,0.0,0.0,0.0,0.0,0.0,0.0,0.0,
325.09634300000005,true,true,true,0.0,-1.0,-0.03125,-0.015625,false,false,false,false,0.0,-0.0078125,0.0,-0.0078125,false,false,false,false,5.75,11.350000000000001,0.0,11473,303,0,7.125,11.5,0.0,0,0,0,6.75,11.5,0.0,0,0,0,5.5,11.5,0.0,0,0,0,0.0,11.600000000000001,0.0,9,0,0,0.0,4.0,0.0,0,0,0,kReverse,0.0,0.0,0.0,0.0,0.0,0.0,0.0,0.0,0.0,0.0,0.0,
325.153641,true,true,true,0.0,-1.0,-0.03125,-0.015625,false,false,false,false,0.0,-0.0078125,0.0,-0.0078125,false,false,false,false,5.875,11.5,0.0,11660,309,0,6.875,11.5,0.0,0,0,0,6.625,11.5,0.0,0,0,0,5.5,11.5,0.0,0,0,0,0.0,11.600000000000001,0.0,9,0,0,0.0,4.0,0.0,0,0,0,kReverse,0.0,0.0,0.0,0.0,0.0,0.0,0.0,0.0,0.0,0.0,0.0,
325.215869,true,true,true,0.0,-1.0,-0.03125,-0.015625,false,false,false,false,0.0,-0.0078125,0.0,-0.0078125,false,false,false,false,5.75,11.5,0.0,11849,313,0,6.5,11.5,0.0,0,0,0,6.5,11.5,0.0,0,0,0,5.5,11.5,0.0,0,0,0,0.0,11.600000000000001,0.0,9,0,0,0.0,4.0,0.0,0,0,0,kReverse,0.0,0.0,0.0,0.0,0.0,0.0,0.0,0.0,0.0,0.0,0.0,
325.25619,true,true,true,0.0,-1.0,-0.03125,-0.015625,false,false,false,false,0.0,-0.0078125,0.0,-0.0078125,false,false,false,false,5.25,11.5,0.0,11977,317,0,6.25,11.600000000000001,0.0,0,0,0,6.25,11.55,0.0,0,0,0,5.0,11.600000000000001,0.0,0,0,0,0.0,11.7,0.0,9,0,0,0.0,4.0,0.0,0,0,0,kReverse,0.0,0.0,0.0,0.0,0.0,0.0,0.0,0.0,0.0,0.0,0.0,
325.31086500000004,true,true,true,0.0,-1.0,-0.03125,-0.015625,false,false,false,false,0.0,-0.0078125,0.0,-0.0078125,false,false,false,false,5.25,11.600000000000001,0.0,12169,320,0,6.375,11.600000000000001,0.0,0,0,0,6.25,11.55,0.0,0,0,0,4.5,11.600000000000001,0.0,0,0,0,0.0,11.7,0.0,9,0,0,0.0,4.0,0.0,0,0,0,kReverse,0.0,0.0,0.0,0.0,0.0,0.0,0.0,0.0,0.0,0.0,0.0,
325.359087,true,true,true,0.0,-1.0,-0.03125,-0.015625,false,false,false,false,0.0,-0.0078125,0.0,-0.0078125,false,false,false,false,5.75,11.600000000000001,0.0,12362,321,0,6.375,11.600000000000001,0.0,0,0,0,5.875,11.55,0.0,0,0,0,4.0,11.600000000000001,0.0,0,0,0,0.0,11.7,0.0,9,0,0,0.0,4.0,0.0,0,0,0,kReverse,0.0,0.0,0.0,0.0,0.0,0.0,0.0,0.0,0.0,0.0,0.0,
325.419032,true,true,true,0.0,-1.0,-0.03125,-0.015625,false,false,false,false,0.0,-0.0078125,0.0,-0.0078125,false,false,false,false,4.625,11.600000000000001,0.0,12490,321,0,6.0,11.65,0.0,0,0,0,6.0,11.600000000000001,0.0,0,0,0,4.0,11.600000000000001,0.0,0,0,0,0.0,11.75,0.0,9,0,0,0.0,4.0,0.0,0,0,0,kReverse,0.0,0.0,0.0,0.0,0.0,0.0,0.0,0.0,0.0,0.0,0.0,
325.47362000000004,true,true,true,0.0,-1.0,-0.359375,-0.015625,false,false,false,false,0.0,-0.0078125,0.0,-0.0078125,false,false,false,false,4.625,11.600000000000001,0.0,12685,323,0,6.0,11.65,0.0,0,0,0,5.875,11.600000000000001,0.0,0,0,0,3.5,11.600000000000001,0.0,0,0,0,0.0,11.75,0.0,9,0,0,0.0,4.0,0.0,0,0,0,kReverse,0.0,0.0,0.0,0.0,0.0,0.0,0.0,0.0,0.0,0.0,0.0,
325.5267180000001,true,true,true,0.0,-1.0,-0.4765625,-0.015625,false,false,false,false,0.0,-0.0078125,0.0,-0.0078125,false,false,false,false,0.625,11.600000000000001,0.0,12878,322,0,4.0,11.65,0.0,0,0,0,10.0,11.600000000000001,0.0,0,0,0,6.375,11.600000000000001,0.0,0,0,0,0.0,11.75,0.0,9,0,0,0.0,4.0,0.0,0,0,0,kReverse,0.0,0.0,0.0,0.0,0.0,0.0,0.0,0.0,0.0,0.0,0.0,
325.573838,true,true,true,0.0,-1.0,-0.703125,-0.015625,false,false,false,false,0.0,-0.0078125,0.0,-0.0078125,false,false,false,false,0.0,11.600000000000001,0.0,12997,312,0,0.25,11.65,0.0,0,0,0,16.75,11.600000000000001,0.0,0,0,0,11.625,11.15,0.0,0,0,0,0.0,11.350000000000001,0.0,9,0,0,0.0,4.0,0.0,0,0,0,kReverse,0.0,0.0,0.0,0.0,0.0,0.0,0.0,0.0,0.0,0.0,0.0,
325.62576200000007,true,true,true,0.0,-1.0,-0.7265625,-0.015625,false,false,false,false,0.0,-0.0078125,0.0,-0.0078125,false,false,false,false,0.0,11.3,0.0,13162,284,0,0.0,11.3,0.0,0,0,0,26.125,11.100000000000001,0.0,0,0,0,18.5,11.15,0.0,0,0,0,0.0,11.350000000000001,0.0,9,0,0,0.0,4.0,0.0,0,0,0,kReverse,0.0,0.0,0.0,0.0,0.0,0.0,0.0,0.0,0.0,0.0,0.0,
325.674415,true,true,true,0.0,-1.0,-0.0078125,-0.015625,false,false,false,false,0.0,-0.0078125,0.0,-0.0078125,false,false,false,false,0.0,11.3,0.0,13260,263,0,0.0,11.3,0.0,0,0,0,27.25,11.100000000000001,0.0,0,0,0,22.5,11.15,0.0,0,0,0,0.0,11.350000000000001,0.0,9,0,0,0.0,4.0,0.0,0,0,0,kReverse,0.0,0.0,0.0,0.0,0.0,0.0,0.0,0.0,0.0,0.0,0.0,
325.73118700000003,true,true,true,0.0,-1.0,0.0,-0.015625,false,false,false,false,0.0,-0.0078125,0.0,-0.0078125,false,false,false,false,1.125,11.3,0.0,13398,236,0,0.75,11.3,0.0,0,0,0,7.5,11.7,0.0,0,0,0,8.125,11.7,0.0,0,0,0,0.0,11.850000000000001,0.0,9,0,0,0.0,4.0,0.0,0,0,0,kReverse,0.0,0.0,0.0,0.0,0.0,0.0,0.0,0.0,0.0,0.0,0.0,
325.789866,true,true,true,0.0,-1.0,0.0,-0.015625,false,false,false,false,0.0,-0.0078125,0.0,-0.0078125,false,false,false,false,5.375,11.75,0.0,13547,241,0,6.5,11.75,0.0,0,0,0,3.0,11.7,0.0,0,0,0,0.0,11.7,0.0,0,0,0,0.0,11.850000000000001,0.0,9,0,0,0.0,4.0,0.0,0,0,0,kReverse,0.0,0.0,0.0,0.0,0.0,0.0,0.0,0.0,0.0,0.0,0.0,
325.840238,true,true,true,0.0,-1.0,0.0,-0.015625,false,false,false,false,0.0,-0.0078125,0.0,-0.0078125,false,false,false,false,6.625,11.75,0.0,13705,258,0,10.5,11.75,0.0,0,0,0,2.125,11.7,0.0,0,0,0,0.0,11.7,0.0,0,0,0,0.0,11.850000000000001,0.0,9,0,0,0.0,4.0,0.0,0,0,0,kReverse,0.0,0.0,0.0,0.0,0.0,0.0,0.0,0.0,0.0,0.0,0.0,
325.89244600000006,true,true,true,0.0,-1.0,0.0,-0.015625,false,false,false,false,0.0,-0.0078125,0.0,-0.0078125,false,false,false,false,5.375,11.75,0.0,13817,267,0,9.5,11.75,0.0,0,0,0,2.125,11.7,0.0,0,0,0,0.0,11.65,0.0,0,0,0,0.0,11.75,0.0,9,0,0,0.0,4.0,0.0,0,0,0,kReverse,0.0,0.0,0.0,0.0,0.0,0.0,0.0,0.0,0.0,0.0,0.0,
325.94228100000004,true,true,true,0.0,-1.0,0.0,-0.015625,false,false,false,false,0.0,-0.0078125,0.0,-0.0078125,false,false,false,false,5.375,11.600000000000001,0.0,13992,287,0,8.375,11.600000000000001,0.0,0,0,0,3.0,11.600000000000001,0.0,0,0,0,0.0,11.65,0.0,0,0,0,0.0,11.75,0.0,9,0,0,0.0,4.0,0.0,0,0,0,kReverse,0.0,0.0,0.0,0.0,0.0,0.0,0.0,0.0,0.0,0.0,0.0,
325.994726,true,true,true,0.0,-1.0,0.0,-0.015625,false,false,false,false,0.0,-0.0078125,0.0,-0.0078125,false,false,false,false,5.625,11.600000000000001,0.0,14114,299,0,8.25,11.600000000000001,0.0,0,0,0,4.0,11.600000000000001,0.0,0,0,0,1.5,11.65,0.0,0,0,0,0.0,11.75,0.0,9,0,0,0.0,4.0,0.0,0,0,0,kReverse,0.0,0.0,0.0,0.0,0.0,0.0,0.0,0.0,0.0,0.0,0.0,
326.04713300000003,true,true,true,0.0,-1.0,0.0,-0.015625,false,false,false,false,0.0,-0.0078125,0.0,-0.0078125,false,false,false,false,6.0,11.600000000000001,0.0,14303,311,0,7.25,11.600000000000001,0.0,0,0,0,4.875,11.600000000000001,0.0,0,0,0,1.5,11.65,0.0,0,0,0,0.0,11.75,0.0,9,0,0,0.0,4.0,0.0,0,0,0,kReverse,0.0,0.0,0.0,0.0,0.0,0.0,0.0,0.0,0.0,0.0,0.0,
326.09610100000003,true,true,true,0.0,-1.0,0.0,-0.015625,false,false,false,false,0.0,-0.0078125,0.0,-0.0078125,false,false,false,false,6.25,11.65,0.0,14432,318,0,6.75,11.7,0.0,0,0,0,4.5,11.65,0.0,0,0,0,1.5,11.65,0.0,0,0,0,0.0,11.75,0.0,9,0,0,0.0,4.0,0.0,0,0,0,kReverse,0.0,0.0,0.0,0.0,0.0,0.0,0.0,0.0,0.0,0.0,0.0,
326.14249000000007,true,true,true,0.0,-1.0,0.0,-0.015625,false,false,false,false,0.0,-0.0078125,0.0,-0.0078125,false,false,false,false,6.125,11.65,0.0,14628,325,0,6.875,11.7,0.0,0,0,0,4.375,11.65,0.0,0,0,0,1.0,11.65,0.0,0,0,0,0.0,11.75,0.0,9,0,0,0.0,4.0,0.0,0,0,0,kReverse,0.0,0.0,0.0,0.0,0.0,0.0,0.0,0.0,0.0,0.0,0.0,
326.19643700000006,true,true,true,0.0,-1.0,0.0,-0.015625,false,false,false,false,0.0,-0.0078125,0.0,-0.0078125,false,false,false,false,5.75,11.65,0.0,14761,329,0,6.5,11.7,0.0,0,0,0,4.75,11.65,0.0,0,0,0,1.5,11.65,0.0,0,0,0,0.0,11.75,0.0,9,0,0,0.0,4.0,0.0,0,0,0,kReverse,0.0,0.0,0.0,0.0,0.0,0.0,0.0,0.0,0.0,0.0,0.0,
326.25349900000003,true,true,true,0.0,-1.0,0.0,-0.015625,false,false,false,false,0.0,-0.0078125,0.0,-0.0078125,false,false,false,false,5.25,11.65,0.0,14961,333,0,6.375,11.7,0.0,0,0,0,4.75,11.7,0.0,0,0,0,1.5,11.65,0.0,0,0,0,0.0,11.8,0.0,9,0,0,0.0,4.0,0.0,0,0,0,kReverse,0.0,0.0,0.0,0.0,0.0,0.0,0.0,0.0,0.0,0.0,0.0,
326.30265800000006,true,true,true,0.0,-1.0,0.0,-0.015625,false,false,false,false,0.0,-0.0078125,0.0,-0.0078125,false,false,false,false,4.0,11.65,0.0,15163,337,0,6.125,11.7,0.0,0,0,0,4.875,11.7,0.0,0,0,0,1.5,11.65,0.0,0,0,0,0.0,11.8,0.0,9,0,0,0.0,4.0,0.0,0,0,0,kReverse,0.0,0.0,0.0,0.0,0.0,0.0,0.0,0.0,0.0,0.0,0.0,
326.35434000000004,true,true,true,0.0,-1.0,0.0,-0.015625,false,false,false,false,0.0,-0.0078125,0.0,-0.0078125,false,false,false,false,3.5,11.65,0.0,15300,339,0,5.875,11.7,0.0,0,0,0,5.0,11.7,0.0,0,0,0,2.0,11.65,0.0,0,0,0,0.0,11.8,0.0,9,0,0,0.0,4.0,0.0,0,0,0,kReverse,0.0,0.0,0.0,0.0,0.0,0.0,0.0,0.0,0.0,0.0,0.0,
326.399266,true,true,true,0.0,-1.0,0.0,-0.015625,false,false,false,false,0.0,-0.0078125,0.0,-0.0078125,false,false,false,false,4.0,11.7,0.0,15505,342,0,5.875,11.7,0.0,0,0,0,4.875,11.7,0.0,0,0,0,1.5,11.7,0.0,0,0,0,0.0,11.8,0.0,9,0,0,0.0,4.0,0.0,0,0,0,kReverse,0.0,0.0,0.0,0.0,0.0,0.0,0.0,0.0,0.0,0.0,0.0,
326.52104900000006,true,true,true,0.0,-1.0,0.0,-0.015625,false,false,false,false,0.0,-0.0078125,0.0,-0.0078125,false,false,false,false,3.5,11.7,0.0,15914,340,0,5.875,11.7,0.0,0,0,0,4.75,11.7,0.0,0,0,0,1.5,11.7,0.0,0,0,0,0.0,11.8,0.0,9,0,0,0.0,4.0,0.0,0,0,0,kReverse,0.0,0.0,0.0,0.0,0.0,0.0,0.0,0.0,0.0,0.0,0.0,
326.55937000000006,true,true,true,0.0,-1.0,0.0,-0.015625,false,false,false,false,0.0,-0.0078125,0.0,-0.0078125,false,false,false,false,3.5,11.7,0.0,15986,341,0,5.75,11.7,0.0,0,0,0,4.375,11.75,0.0,0,0,0,1.0,11.75,0.0,0,0,0,0.0,11.850000000000001,0.0,9,0,0,0.0,4.0,0.0,0,0,0,kReverse,0.0,0.0,0.0,0.0,0.0,0.0,0.0,0.0,0.0,0.0,0.0,
326.61597600000005,true,true,true,0.0,-1.0,0.3858267664909363,-0.015625,false,false,false,false,0.0,-0.0078125,0.0,-0.0078125,false,false,false,false,2.875,11.7,0.0,16191,345,0,5.5,11.7,0.0,0,0,0,4.0,11.75,0.0,0,0,0,1.0,11.75,0.0,0,0,0,0.0,11.850000000000001,0.0,9,0,0,0.0,4.0,0.0,0,0,0,kReverse,0.0,0.0,0.0,0.0,0.0,0.0,0.0,0.0,0.0,0.0,0.0,
326.670358,true,true,true,0.0,-1.0,0.913385808467865,-0.015625,false,false,false,false,0.0,-0.0078125,0.0,-0.0078125,false,false,false,false,10.125,11.7,0.0,16404,352,0,11.5,11.7,0.0,0,0,0,1.375,11.75,0.0,0,0,0,0.0,11.75,0.0,0,0,0,0.0,11.850000000000001,0.0,9,0,0,0.0,4.0,0.0,0,0,0,kReverse,0.0,0.0,0.0,0.0,0.0,0.0,0.0,0.0,0.0,0.0,0.0,
326.711698,true,true,true,0.0,-1.0,1.0,-0.015625,false,false,false,false,0.0,-0.0078125,0.0,-0.0078125,false,false,false,false,19.875,10.7,0.0,16565,371,0,23.375,10.850000000000001,0.0,0,0,0,0.0,10.9,0.0,0,0,0,0.0,11.0,0.0,0,0,0,0.0,11.05,0.0,9,0,0,0.0,4.0,0.0,0,0,0,kReverse,0.0,0.0,0.0,0.0,0.0,0.0,0.0,0.0,0.0,0.0,0.0,
326.76898100000005,true,true,true,0.0,-1.0,0.11811023950576782,-0.015625,false,false,false,false,0.0,-0.0078125,0.0,-0.0078125,false,false,false,false,24.125,10.7,0.0,16821,417,0,32.25,10.850000000000001,0.0,0,0,0,0.0,10.9,0.0,0,0,0,0.0,11.0,0.0,0,0,0,0.0,11.05,0.0,9,0,0,0.0,4.0,0.0,0,0,0,kReverse,0.0,0.0,0.0,0.0,0.0,0.0,0.0,0.0,0.0,0.0,0.0,
326.8147,true,true,true,0.0,-1.0,0.0,-0.015625,false,false,false,false,0.0,-0.0078125,0.0,-0.0078125,false,false,false,false,14.0,10.7,0.0,16997,435,0,24.0,10.850000000000001,0.0,0,0,0,1.0,10.9,0.0,0,0,0,0.0,11.0,0.0,0,0,0,0.0,11.05,0.0,9,0,0,0.0,4.0,0.0,0,0,0,kReverse,0.0,0.0,0.0,0.0,0.0,0.0,0.0,0.0,0.0,0.0,0.0,
326.86759900000004,true,true,true,0.0,-1.0,0.0,-0.015625,false,false,false,false,0.0,-0.0078125,0.0,-0.0078125,false,false,false,false,1.125,11.75,0.0,17245,424,0,4.875,11.75,0.0,0,0,0,5.5,11.7,0.0,0,0,0,2.5,11.7,0.0,0,0,0,0.0,11.850000000000001,0.0,9,0,0,0.0,4.0,0.0,0,0,0,kReverse,0.0,0.0,0.0,0.0,0.0,0.0,0.0,0.0,0.0,0.0,0.0,
326.91790800000007,true,true,true,0.0,-1.0,0.0,-0.015625,false,false,false,false,0.0,-0.0078125,0.0,-0.0078125,false,false,false,false,0.0,11.75,0.0,17400,403,0,2.125,11.75,0.0,0,0,0,7.375,11.7,0.0,0,0,0,5.25,11.7,0.0,0,0,0,0.0,11.850000000000001,0.0,9,0,0,0.0,4.0,0.0,0,0,0,kReverse,0.0,0.0,0.0,0.0,0.0,0.0,0.0,0.0,0.0,0.0,0.0,
326.9588810000001,true,true,true,0.0,-1.0,0.0,-0.015625,false,false,false,false,0.0,-0.0078125,0.0,-0.0078125,false,false,false,false,0.0,11.75,0.0,17551,387,0,2.375,11.75,0.0,0,0,0,6.875,11.7,0.0,0,0,0,5.25,11.7,0.0,0,0,0,0.0,11.850000000000001,0.0,9,0,0,0.0,4.0,0.0,0,0,0,kReverse,0.0,0.0,0.0,0.0,0.0,0.0,0.0,0.0,0.0,0.0,0.0,
327.00822000000005,true,true,true,0.0,-1.0,0.0,-0.015625,false,false,false,false,0.0,-0.0078125,0.0,-0.0078125,false,false,false,false,0.0,11.75,0.0,17772,372,0,2.75,11.75,0.0,0,0,0,6.375,11.7,0.0,0,0,0,4.0,11.7,0.0,0,0,0,0.0,11.850000000000001,0.0,9,0,0,0.0,4.0,0.0,0,0,0,kReverse,0.0,0.0,0.0,0.0,0.0,0.0,0.0,0.0,0.0,0.0,0.0,
327.054776,true,true,true,0.0,-1.0,0.0,-0.015625,false,false,false,false,0.0,-0.0078125,0.0,-0.0078125,false,false,false,false,0.0,11.75,0.0,17918,367,0,3.375,11.75,0.0,0,0,0,5.75,11.7,0.0,0,0,0,3.0,11.75,0.0,0,0,0,0.0,11.850000000000001,0.0,9,0,0,0.0,4.0,0.0,0,0,0,kReverse,0.0,0.0,0.0,0.0,0.0,0.0,0.0,0.0,0.0,0.0,0.0,
327.10500600000006,true,true,true,0.0,-1.0,0.0,-0.015625,false,false,false,false,0.0,-0.0078125,0.0,-0.0078125,false,false,false,false,2.375,11.75,0.0,18135,363,0,5.25,11.75,0.0,0,0,0,5.875,11.7,0.0,0,0,0,3.0,11.75,0.0,0,0,0,0.0,11.850000000000001,0.0,9,0,0,0.0,4.0,0.0,0,0,0,kReverse,0.0,0.0,0.0,0.0,0.0,0.0,0.0,0.0,0.0,0.0,0.0,
327.16661000000005,true,true,true,0.0,-1.0,0.0,-0.015625,false,false,false,false,0.0,-0.0078125,0.0,-0.0078125,false,false,false,false,3.5,11.75,0.0,18346,355,0,6.0,11.75,0.0,0,0,0,5.5,11.7,0.0,0,0,0,2.5,11.75,0.0,0,0,0,0.0,11.850000000000001,0.0,9,0,0,0.0,4.0,0.0,0,0,0,kReverse,0.0,0.0,0.0,0.0,0.0,0.0,0.0,0.0,0.0,0.0,0.0,
327.21695800000003,true,true,true,0.0,-0.9140625,0.0,-0.015625,false,false,false,false,0.0,-0.0078125,0.0,-0.0078125,false,false,false,false,3.5,12.0,0.0,18487,352,0,5.875,12.0,0.0,0,0,0,5.375,12.0,0.0,0,0,0,2.0,12.05,0.0,0,0,0,0.0,12.1,0.0,9,0,0,0.0,4.0,0.0,0,0,0,kReverse,0.0,0.0,0.0,0.0,0.0,0.0,0.0,0.0,0.0,0.0,0.0,
327.27397,true,true,true,0.0,-0.703125,0.0,-0.015625,false,false,false,false,0.0,-0.0078125,0.0,-0.0078125,false,false,false,false,1.125,12.0,0.0,18698,352,0,4.875,12.0,0.0,0,0,0,3.875,12.0,0.0,0,0,0,0.5,12.05,0.0,0,0,0,0.0,12.1,0.0,9,0,0,0.0,4.0,0.0,0,0,0,kReverse,0.0,0.0,0.0,0.0,0.0,0.0,0.0,0.0,0.0,0.0,0.0,
327.31837600000006,true,true,true,0.0,-0.375,0.0,-0.015625,false,false,false,false,0.0,-0.0078125,0.0,-0.0078125,false,false,false,false,0.0,12.0,0.0,18835,348,0,2.375,12.0,0.0,0,0,0,1.375,12.0,0.0,0,0,0,0.0,12.05,0.0,0,0,0,0.0,12.1,0.0,9,0,0,0.0,4.0,0.0,0,0,0,kReverse,0.0,0.0,0.0,0.0,0.0,0.0,0.0,0.0,0.0,0.0,0.0,
327.37484800000004,true,true,true,0.0,-0.0078125,0.0,-0.015625,false,false,false,false,0.0,-0.0078125,0.0,-0.0078125,false,false,false,false,0.0,12.6,0.0,19032,334,0,0.375,12.6,0.0,0,0,0,0.0,12.6,0.0,0,0,0,0.0,12.55,0.0,0,0,0,0.0,12.65,0.0,9,0,0,0.0,4.0,0.0,0,0,0,kReverse,0.0,0.0,0.0,0.0,0.0,0.0,0.0,0.0,0.0,0.0,0.0,
327.42644900000005,true,true,true,0.0,-0.0078125,0.0,-0.015625,false,false,false,false,0.0,-0.0078125,0.0,-0.0078125,false,false,false,false,0.0,12.6,0.0,19212,310,0,0.0,12.6,0.0,0,0,0,0.0,12.6,0.0,0,0,0,0.0,12.55,0.0,0,0,0,0.0,12.65,0.0,9,0,0,0.0,4.0,0.0,0,0,0,kReverse,0.0,0.0,0.0,0.0,0.0,0.0,0.0,0.0,0.0,0.0,0.0,
327.47609300000005,true,true,true,0.0,-0.0078125,0.0,-0.015625,false,false,false,false,0.0,-0.0078125,0.0,-0.0078125,false,false,false,false,0.0,12.6,0.0,19343,311,0,0.125,12.6,0.0,0,0,0,0.0,12.6,0.0,0,0,0,0.0,12.55,0.0,0,0,0,0.0,12.65,0.0,9,0,0,0.0,4.0,0.0,0,0,0,kReverse,0.0,0.0,0.0,0.0,0.0,0.0,0.0,0.0,0.0,0.0,0.0,
327.53262600000005,true,true,true,0.0,-0.09375,0.0,-0.015625,false,false,false,false,0.0,-0.0078125,0.0,-0.0078125,false,false,false,false,0.0,12.6,0.0,19535,323,0,0.125,12.6,0.0,0,0,0,0.0,12.6,0.0,0,0,0,0.0,12.6,0.0,0,0,0,0.0,12.65,0.0,9,0,0,0.0,4.0,0.0,0,0,0,kReverse,0.0,0.0,0.0,0.0,0.0,0.0,0.0,0.0,0.0,0.0,0.0,
327.578933,true,true,true,0.0,-0.4140625,0.0,-0.015625,false,false,false,false,0.0,-0.0078125,0.0,-0.0078125,false,false,false,false,0.0,12.6,0.0,19713,305,0,0.0,12.6,0.0,0,0,0,0.0,12.6,0.0,0,0,0,0.0,12.6,0.0,0,0,0,0.0,12.65,0.0,9,0,0,0.0,4.0,0.0,0,0,0,kReverse,0.0,0.0,0.0,0.0,0.0,0.0,0.0,0.0,0.0,0.0,0.0,
327.63436500000006,true,true,true,0.0,-0.8359375,0.0,-0.015625,false,false,false,false,0.0,-0.0078125,0.0,-0.0078125,false,false,false,false,0.0,12.6,0.0,19820,285,0,0.0,12.6,0.0,0,0,0,0.0,12.6,0.0,0,0,0,0.0,12.6,0.0,0,0,0,0.0,12.65,0.0,9,0,0,0.0,4.0,0.0,0,0,0,kReverse,0.0,0.0,0.0,0.0,0.0,0.0,0.0,0.0,0.0,0.0,0.0,
327.68716,true,true,true,0.0,-0.9140625,0.0,-0.015625,false,false,false,false,0.0,-0.0078125,0.0,-0.0078125,false,false,false,false,4.0,12.5,0.0,19965,252,0,2.0,12.6,0.0,0,0,0,2.625,12.55,0.0,0,0,0,0.0,12.6,0.0,0,0,0,0.0,12.700000000000001,0.0,9,0,0,0.0,4.0,0.0,0,0,0,kReverse,0.0,0.0,0.0,0.0,0.0,0.0,0.0,0.0,0.0,0.0,0.0,
327.73583800000006,true,true,true,0.0,-0.7109375,0.0,-0.015625,false,false,false,false,0.0,-0.0078125,0.0,-0.0078125,false,false,false,false,4.0,12.5,0.0,20067,247,0,5.5,12.6,0.0,0,0,0,4.75,12.55,0.0,0,0,0,1.5,12.6,0.0,0,0,0,0.0,12.700000000000001,0.0,9,0,0,0.0,4.0,0.0,0,0,0,kReverse,0.0,0.0,0.0,0.0,0.0,0.0,0.0,0.0,0.0,0.0,0.0,
327.796213,true,true,true,0.0,-0.0078125,0.0,-0.015625,false,false,false,false,0.0,-0.0078125,0.0,-0.0078125,false,false,false,false,5.0,12.5,0.0,20224,259,0,9.375,12.6,0.0,0,0,0,7.375,12.55,0.0,0,0,0,4.25,12.6,0.0,0,0,0,0.0,12.700000000000001,0.0,9,0,0,0.0,4.0,0.0,0,0,0,kReverse,0.0,0.0,0.0,0.0,0.0,0.0,0.0,0.0,0.0,0.0,0.0,
327.85114200000004,true,true,true,0.0,-0.0078125,-0.3671875,-0.015625,false,false,false,false,0.0,-0.0078125,0.0,-0.0078125,false,false,false,false,1.5,12.1,0.0,20370,250,0,4.5,12.05,0.0,0,0,0,2.375,12.05,0.0,0,0,0,1.25,12.0,0.0,0,0,0,0.0,12.1,0.0,9,0,0,0.0,4.0,0.0,0,0,0,kReverse,0.0,0.0,0.0,0.0,0.0,0.0,0.0,0.0,0.0,0.0,0.0,
327.89494600000006,true,true,true,0.0,-0.0078125,-0.84375,-0.015625,false,false,false,false,0.0,-0.0078125,0.0,-0.0078125,false,false,false,false,0.0,12.1,0.0,20459,235,0,0.5,12.05,0.0,0,0,0,0.0,12.05,0.0,0,0,0,0.0,12.0,0.0,0,0,0,0.0,12.1,0.0,9,0,0,0.0,4.0,0.0,0,0,0,kReverse,0.0,0.0,0.0,0.0,0.0,0.0,0.0,0.0,0.0,0.0,0.0,
327.949536,true,true,true,0.0,-0.0078125,-1.0,0.07874015718698502,false,false,false,false,0.0,-0.0078125,0.0,-0.0078125,false,false,false,false,16.25,12.1,0.0,20569,199,0,12.875,12.05,0.0,0,0,0,3.125,12.05,0.0,0,0,0,0.0,12.0,0.0,0,0,0,0.0,12.1,0.0,9,0,0,0.0,4.0,0.0,0,0,0,kReverse,0.0,0.0,0.0,0.0,0.0,0.0,0.0,0.0,0.0,0.0,0.0,
327.993879,true,true,true,0.0,-0.0078125,-0.359375,0.11023622006177902,false,false,false,false,0.0,-0.0078125,0.0,-0.0078125,false,false,false,false,22.625,10.7,0.0,20608,149,0,24.875,10.9,0.0,0,0,0,4.75,11.0,0.0,0,0,0,5.375,11.05,0.0,0,0,0,0.0,11.15,0.0,9,0,0,0.0,4.0,0.0,0,0,0,kReverse,0.0,0.0,0.0,0.0,0.0,0.0,0.0,0.0,0.0,0.0,0.0,
328.037451,true,true,true,0.0,-0.0078125,0.0,-0.0078125,false,false,false,false,0.0,-0.0078125,0.0,-0.0078125,false,false,false,false,14.625,10.7,0.0,20615,78,0,16.375,10.9,0.0,0,0,0,4.25,11.0,0.0,93,93,0,3.375,11.05,0.0,0,0,0,0.0,11.15,0.0,9,0,0,0.0,4.0,0.0,0,0,0,kReverse,0.0,0.0,0.0,0.0,0.0,0.0,0.0,0.0,0.0,0.0,0.0,
328.08891600000004,true,true,true,0.0,-0.0078125,0.0,-0.0078125,false,false,false,false,0.0,-0.0078125,0.0,-0.0078125,false,false,false,false,1.625,10.7,0.0,20622,14,0,3.5,10.9,0.0,0,0,0,0.0,11.0,0.0,130,130,0,0.0,11.05,0.0,0,0,0,0.0,11.15,0.0,9,0,0,0.0,4.0,0.0,0,0,0,kReverse,0.0,0.0,0.0,0.0,0.0,0.0,0.0,0.0,0.0,0.0,0.0,
328.133551,true,true,true,0.0,-0.0078125,0.0,-0.0078125,false,false,false,false,0.0,-0.0078125,0.0,-0.0078125,false,false,false,false,0.0,10.7,0.0,20628,13,0,0.125,10.9,0.0,0,0,0,0.0,11.0,0.0,190,122,0,0.0,12.6,0.0,0,0,0,0.0,12.65,0.0,9,0,0,0.0,4.0,0.0,0,0,0,kReverse,0.0,0.0,0.0,0.0,0.0,0.0,0.0,0.0,0.0,0.0,0.0,
328.1828540000001,true,true,true,0.0,-0.0078125,0.0,-0.0078125,false,false,false,false,0.0,-0.0078125,0.0,-0.0078125,false,false,false,false,0.0,12.6,0.0,20639,17,0,0.125,12.6,0.0,0,0,0,0.0,12.6,0.0,255,125,0,0.0,12.6,0.0,0,0,0,0.0,12.65,0.0,9,0,0,0.0,4.0,0.0,0,0,0,kReverse,0.0,0.0,0.0,0.0,0.0,0.0,0.0,0.0,0.0,0.0,0.0,
328.234976,true,true,true,0.0,-0.0078125,0.007874015718698502,-0.0078125,false,false,false,false,0.0,-0.0078125,0.0,-0.0078125,false,false,false,false,0.0,12.6,0.0,20648,20,0,0.125,12.6,0.0,0,0,0,0.0,12.6,0.0,291,73,0,0.0,12.6,0.0,0,0,0,0.0,12.65,0.0,9,0,0,0.0,4.0,0.0,0,0,0,kReverse,0.0,0.0,0.0,0.0,0.0,0.0,0.0,0.0,0.0,0.0,0.0,
328.286305,true,true,true,0.0,-0.0078125,0.33070865273475647,-0.0078125,false,false,false,false,0.0,-0.0078125,0.0,-0.0078125,false,false,false,false,0.0,12.6,0.0,20668,29,0,0.125,12.6,0.0,0,0,0,0.0,12.6,0.0,313,58,0,0.0,12.6,0.0,0,0,0,0.0,12.65,0.0,9,0,0,0.0,4.0,0.0,0,0,0,kReverse,0.0,0.0,0.0,0.0,0.0,0.0,0.0,0.0,0.0,0.0,0.0,
328.32599100000004,true,true,true,0.0,-0.0078125,0.6141732335090637,-0.0078125,false,false,false,false,0.0,-0.0078125,0.0,-0.0078125,false,false,false,false,0.0,12.6,0.0,20686,38,0,0.375,12.6,0.0,0,0,0,2.125,12.6,0.0,325,46,0,1.625,12.6,0.0,0,0,0,0.0,12.65,0.0,9,0,0,0.0,4.0,0.0,0,0,0,kReverse,0.0,0.0,0.0,0.0,0.0,0.0,0.0,0.0,0.0,0.0,0.0,
328.382785,true,true,true,0.0,-0.0078125,0.0,-0.0078125,false,false,false,false,0.0,-0.0078125,0.0,-0.0078125,false,false,false,false,4.5,12.6,0.0,20723,55,0,5.0,12.6,0.0,0,0,0,12.75,12.6,0.0,324,11,0,10.25,12.6,0.0,0,0,0,0.0,12.65,0.0,9,0,0,0.0,4.0,0.0,0,0,0,kReverse,0.0,0.0,0.0,0.0,0.0,0.0,0.0,0.0,0.0,0.0,0.0,
328.43484400000006,true,true,true,0.0,-0.171875,0.0,-0.0078125,false,false,false,false,0.0,-0.0078125,0.0,-0.0078125,false,false,false,false,1.75,12.6,0.0,20749,63,0,4.625,12.6,0.0,0,0,0,8.875,12.6,0.0,327,2,0,6.25,12.6,0.0,0,0,0,0.0,12.65,0.0,9,0,0,0.0,4.0,0.0,0,0,0,kReverse,0.0,0.0,0.0,0.0,0.0,0.0,0.0,0.0,0.0,0.0,0.0,
328.486084,true,true,true,0.0,-0.3828125,0.0,-0.0078125,false,false,false,false,0.0,-0.0078125,0.0,-0.0078125,false,false,false,false,0.0,12.6,0.0,20782,59,0,0.25,12.6,0.0,0,0,0,0.0,12.6,0.0,338,14,0,0.0,12.6,0.0,0,0,0,0.0,12.65,0.0,9,0,0,0.0,4.0,0.0,0,0,0,kReverse,0.0,0.0,0.0,0.0,0.0,0.0,0.0,0.0,0.0,0.0,0.0,
328.538896,true,true,true,0.0,-0.890625,0.0,-0.0078125,false,false,false,false,0.0,-0.0078125,0.0,-0.0078125,false,false,false,false,2.25,12.6,0.0,20799,50,0,2.0,12.6,0.0,0,0,0,2.375,12.6,0.0,364,28,0,1.5,12.6,0.0,0,0,0,0.0,12.65,0.0,9,0,0,0.0,4.0,0.0,0,0,0,kReverse,0.0,0.0,0.0,0.0,0.0,0.0,0.0,0.0,0.0,0.0,0.0,
328.592548,true,true,true,0.0,-1.0,0.0,-0.0078125,false,false,false,false,0.0,-0.0078125,0.0,-0.0078125,false,false,false,false,14.375,12.6,0.0,20829,47,0,12.375,12.6,0.0,0,0,0,11.25,12.6,0.0,412,74,0,6.0,12.6,0.0,0,0,0,0.0,12.65,0.0,9,0,0,0.0,4.0,0.0,0,0,0,kReverse,0.0,0.0,0.0,0.0,0.0,0.0,0.0,0.0,0.0,0.0,0.0,
328.643331,true,true,true,0.0,-0.8671875,0.0,-0.0078125,false,false,false,false,0.0,-0.0078125,0.0,-0.0078125,false,false,false,false,24.0,9.8,0.0,20865,56,0,27.0,9.95,0.0,0,0,0,21.625,10.100000000000001,0.0,469,105,0,17.875,10.05,0.0,0,0,0,0.0,10.3,0.0,9,0,0,0.0,4.0,0.0,0,0,0,kReverse,0.0,0.0,0.0,0.0,0.0,0.0,0.0,0.0,0.0,0.0,0.0,
328.68745900000005,true,true,true,0.0,-0.5078125,0.0,-0.0078125,false,false,false,false,0.0,-0.0078125,0.0,-0.0078125,false,false,false,false,17.0,9.8,0.0,20900,71,0,22.375,9.95,0.0,0,0,0,19.75,10.100000000000001,0.0,514,102,0,18.125,10.05,0.0,0,0,0,0.0,10.3,0.0,9,0,0,0.0,4.0,0.0,0,0,0,kReverse,0.0,0.0,0.0,0.0,0.0,0.0,0.0,0.0,0.0,0.0,0.0,
328.735332,true,true,true,0.0,-0.4765625,0.0,-0.0078125,false,false,false,false,0.0,-0.0078125,0.0,-0.0078125,false,false,false,false,8.75,9.8,0.0,20944,92,0,14.5,9.95,0.0,0,0,0,8.0,10.100000000000001,0.0,571,102,0,8.25,10.05,0.0,0,0,0,0.0,10.3,0.0,9,0,0,0.0,4.0,0.0,0,0,0,kReverse,0.0,0.0,0.0,0.0,0.0,0.0,0.0,0.0,0.0,0.0,0.0,
328.79321600000003,true,true,true,0.0,-0.4765625,0.0,-0.0078125,false,false,false,false,0.0,-0.0078125,0.0,-0.0078125,false,false,false,false,2.5,12.200000000000001,0.0,21012,111,0,4.375,12.200000000000001,0.0,0,0,0,3.625,12.200000000000001,0.0,619,105,0,2.5,12.200000000000001,0.0,0,0,0,0.0,12.25,0.0,9,0,0,0.0,4.0,0.0,0,0,0,kReverse,0.0,0.0,0.0,0.0,0.0,0.0,0.0,0.0,0.0,0.0,0.0,
328.837738,true,true,true,0.0,-0.421875,0.0,-0.0078125,false,false,false,false,0.0,-0.0078125,0.0,-0.0078125,false,false,false,false,2.375,12.200000000000001,0.0,21057,113,0,2.875,12.200000000000001,0.0,0,0,0,2.625,12.200000000000001,0.0,694,123,0,1.5,12.200000000000001,0.0,0,0,0,0.0,12.25,0.0,9,0,0,0.0,4.0,0.0,0,0,0,kReverse,0.0,0.0,0.0,0.0,0.0,0.0,0.0,0.0,0.0,0.0,0.0,
328.88427800000005,true,true,true,0.0,-0.125,0.0,-0.0078125,false,false,false,false,0.0,-0.0078125,0.0,-0.0078125,false,false,false,false,0.625,12.200000000000001,0.0,21131,120,0,2.375,12.200000000000001,0.0,0,0,0,2.125,12.200000000000001,0.0,741,122,0,1.0,12.200000000000001,0.0,0,0,0,0.0,12.25,0.0,9,0,0,0.0,4.0,0.0,0,0,0,kReverse,0.0,0.0,0.0,0.0,0.0,0.0,0.0,0.0,0.0,0.0,0.0,
328.935026,true,true,true,0.0,-0.171875,0.0,-0.0078125,false,false,false,false,0.0,-0.0078125,0.0,-0.0078125,false,false,false,false,0.0,12.200000000000001,0.0,21181,124,0,1.0,12.200000000000001,0.0,0,0,0,0.875,12.200000000000001,0.0,776,107,0,0.0,12.55,0.0,0,0,0,0.0,12.65,0.0,9,0,0,0.0,4.0,0.0,0,0,0,kReverse,0.0,0.0,0.0,0.0,0.0,0.0,0.0,0.0,0.0,0.0,0.0,
328.994477,true,true,true,0.0,-0.28125,0.0,-0.0078125,false,false,false,false,0.0,-0.0078125,0.0,-0.0078125,false,false,false,false,0.0,12.55,0.0,21248,117,0,0.375,12.6,0.0,0,0,0,0.0,12.6,0.0,819,78,0,0.0,12.55,0.0,0,0,0,0.0,12.65,0.0,9,0,0,0.0,4.0,0.0,0,0,0,kReverse,0.0,0.0,0.0,0.0,0.0,0.0,0.0,0.0,0.0,0.0,0.0,
329.044774,true,true,true,0.0,-0.2890625,0.0,-0.0078125,false,false,false,false,0.0,-0.0078125,0.0,-0.0078125,false,false,false,false,0.0,12.55,0.0,21311,107,0,0.25,12.6,0.0,0,0,0,0.0,12.6,0.0,876,92,0,0.0,12.55,0.0,0,0,0,0.0,12.65,0.0,9,0,0,0.0,4.0,0.0,0,0,0,kReverse,0.0,0.0,0.0,0.0,0.0,0.0,0.0,0.0,0.0,0.0,0.0,
329.091483,true,true,true,0.0,-0.2890625,0.0,-0.0078125,false,false,false,false,0.0,-0.0078125,0.0,-0.0078125,false,false,false,false,0.0,12.55,0.0,21355,107,0,0.375,12.6,0.0,0,0,0,0.125,12.6,0.0,911,92,0,0.0,12.55,0.0,0,0,0,0.0,12.65,0.0,9,0,0,0.0,4.0,0.0,0,0,0,kReverse,0.0,0.0,0.0,0.0,0.0,0.0,0.0,0.0,0.0,0.0,0.0,
329.13961000000006,true,true,true,0.0,-0.21875,0.0,-0.0078125,false,false,false,false,0.0,-0.0078125,0.0,-0.0078125,false,false,false,false,0.0,12.55,0.0,21422,111,0,0.375,12.55,0.0,0,0,0,0.5,12.55,0.0,958,82,0,0.0,12.55,0.0,0,0,0,0.0,12.65,0.0,9,0,0,0.0,4.0,0.0,0,0,0,kReverse,0.0,0.0,0.0,0.0,0.0,0.0,0.0,0.0,0.0,0.0,0.0,
329.19360600000005,true,true,true,0.0,-0.2109375,0.0,-0.0078125,false,false,false,false,0.0,-0.0078125,0.0,-0.0078125,false,false,false,false,0.0,12.55,0.0,21463,108,0,0.625,12.55,0.0,0,0,0,0.375,12.55,0.0,983,72,0,0.0,12.55,0.0,0,0,0,0.0,12.65,0.0,9,0,0,0.0,4.0,0.0,0,0,0,kReverse,0.0,0.0,0.0,0.0,0.0,0.0,0.0,0.0,0.0,0.0,0.0,
329.243505,true,true,true,0.0,-0.203125,0.0,-0.0078125,false,false,false,false,0.0,-0.0078125,0.0,-0.0078125,false,false,false,false,0.0,12.55,0.0,21518,96,0,0.375,12.55,0.0,0,0,0,0.125,12.55,0.0,1018,60,0,0.0,12.55,0.0,0,0,0,0.0,12.65,0.0,9,0,0,0.0,4.0,0.0,0,0,0,kReverse,0.0,0.0,0.0,0.0,0.0,0.0,0.0,0.0,0.0,0.0,0.0,
329.2932890000001,true,true,true,0.0,-0.203125,0.0,-0.0078125,false,false,false,false,0.0,-0.0078125,0.0,-0.0078125,false,false,false,false,0.0,12.6,0.0,21550,87,0,0.375,12.6,0.0,0,0,0,0.125,12.6,0.0,1040,57,0,0.0,12.55,0.0,0,0,0,0.0,12.65,0.0,9,0,0,0.0,4.0,0.0,0,0,0,kReverse,0.0,0.0,0.0,0.0,0.0,0.0,0.0,0.0,0.0,0.0,0.0,
329.339101,true,true,true,0.0,-0.203125,0.0,-0.0078125,false,false,false,false,0.0,-0.0078125,0.0,-0.0078125,false,false,false,false,0.0,12.6,0.0,21578,78,0,0.625,12.6,0.0,0,0,0,0.125,12.6,0.0,1068,50,0,0.0,12.55,0.0,0,0,0,0.0,12.65,0.0,9,0,0,0.0,4.0,0.0,0,0,0,kReverse,0.0,0.0,0.0,0.0,0.0,0.0,0.0,0.0,0.0,0.0,0.0,
329.39538600000003,true,true,true,0.0,-0.1953125,0.0,-0.0078125,false,false,false,false,0.0,-0.0078125,0.0,-0.0078125,false,false,false,false,0.0,12.6,0.0,21613,63,0,0.75,12.6,0.0,0,0,0,0.125,12.6,0.0,1094,44,0,0.0,12.55,0.0,0,0,0,0.0,12.65,0.0,9,0,0,0.0,4.0,0.0,0,0,0,kReverse,0.0,0.0,0.0,0.0,0.0,0.0,0.0,0.0,0.0,0.0,0.0,
329.450622,true,true,true,0.0,-0.1953125,0.0,-0.0078125,false,false,false,false,0.0,-0.0078125,0.0,-0.0078125,false,false,false,false,0.0,12.6,0.0,21642,52,0,1.0,12.6,0.0,0,0,0,0.375,12.55,0.0,1108,40,0,0.0,12.55,0.0,0,0,0,0.0,12.65,0.0,9,0,0,0.0,4.0,0.0,0,0,0,kReverse,0.0,0.0,0.0,0.0,0.0,0.0,0.0,0.0,0.0,0.0,0.0,
329.50187900000003,true,true,true,0.0,-0.1875,-0.0234375,-0.0078125,false,false,false,false,0.0,-0.0078125,0.0,-0.0078125,false,false,false,false,0.0,12.6,0.0,21667,44,0,1.0,12.6,0.0,0,0,0,0.125,12.55,0.0,1130,36,0,0.0,12.55,0.0,0,0,0,0.0,12.65,0.0,9,0,0,0.0,4.0,0.0,0,0,0,kReverse,0.0,0.0,0.0,0.0,0.0,0.0,0.0,0.0,0.0,0.0,0.0,
329.556537,true,true,true,0.0,-0.140625,-0.125,-0.0078125,false,false,false,false,0.0,-0.0078125,0.0,-0.0078125,false,false,false,false,0.0,12.6,0.0,21683,41,0,1.0,12.6,0.0,0,0,0,0.375,12.55,0.0,1147,32,0,0.0,12.55,0.0,0,0,0,0.0,12.65,0.0,9,0,0,0.0,4.0,0.0,0,0,0,kReverse,0.0,0.0,0.0,0.0,0.0,0.0,0.0,0.0,0.0,0.0,0.0,
329.611587,true,true,true,0.0,-0.140625,0.0,-0.0078125,false,false,false,false,0.0,-0.0078125,0.0,-0.0078125,false,false,false,false,0.0,12.55,0.0,21701,34,0,0.375,12.55,0.0,0,0,0,1.0,12.55,0.0,1162,32,0,0.0,12.55,0.0,0,0,0,0.0,12.65,0.0,9,0,0,0.0,4.0,0.0,0,0,0,kReverse,0.0,0.0,0.0,0.0,0.0,0.0,0.0,0.0,0.0,0.0,0.0,
329.655975,true,true,true,0.0,-0.109375,0.0,-0.0078125,false,false,false,false,0.0,-0.0078125,0.0,-0.0078125,false,false,false,false,0.0,12.55,0.0,21709,26,0,0.375,12.55,0.0,0,0,0,0.375,12.55,0.0,1178,31,0,0.0,12.55,0.0,0,0,0,0.0,12.65,0.0,9,0,0,0.0,4.0,0.0,0,0,0,kReverse,0.0,0.0,0.0,0.0,0.0,0.0,0.0,0.0,0.0,0.0,0.0,
329.708022,true,true,true,0.0,-0.0546875,0.0,-0.0078125,false,false,false,false,0.0,-0.0078125,0.0,-0.0078125,false,false,false,false,0.0,12.55,0.0,21722,21,0,0.375,12.55,0.0,0,0,0,0.125,12.55,0.0,1178,16,0,0.0,12.55,0.0,0,0,0,0.0,12.65,0.0,9,0,0,0.0,4.0,0.0,0,0,0,kReverse,0.0,0.0,0.0,0.0,0.0,0.0,0.0,0.0,0.0,0.0,0.0,
329.75442000000004,true,true,true,0.0,-0.0078125,0.0,-0.0078125,false,false,false,false,0.0,-0.0078125,0.0,-0.0078125,false,false,false,false,0.0,12.65,0.0,21729,20,0,0.125,12.65,0.0,0,0,0,0.0,12.65,0.0,1178,2,0,0.0,12.65,0.0,0,0,0,0.0,12.75,0.0,9,0,0,0.0,4.0,0.0,0,0,0,kReverse,0.0,0.0,0.0,0.0,0.0,0.0,0.0,0.0,0.0,0.0,0.0,
329.81169400000005,true,true,true,0.0,-0.0078125,0.0,-0.0078125,false,false,false,false,0.0,-0.0078125,0.0,-0.0078125,false,false,false,false,0.0,12.65,0.0,21733,11,0,0.125,12.65,0.0,0,0,0,0.0,12.65,0.0,1178,0,0,0.0,12.65,0.0,0,0,0,0.0,12.75,0.0,9,0,0,0.0,4.0,0.0,0,0,0,kReverse,0.0,0.0,0.0,0.0,0.0,0.0,0.0,0.0,0.0,0.0,0.0,
329.856069,true,true,true,0.0,-0.0078125,0.0,-0.0078125,false,false,false,false,0.0,-0.0078125,0.0,-0.0078125,false,false,false,false,0.0,12.65,0.0,21733,4,0,0.125,12.65,0.0,0,0,0,0.0,12.65,0.0,1178,0,0,0.0,12.65,0.0,0,0,0,0.0,12.75,0.0,9,0,0,0.0,4.0,0.0,0,0,0,kReverse,0.0,0.0,0.0,0.0,0.0,0.0,0.0,0.0,0.0,0.0,0.0,
329.91143600000004,true,true,true,0.0,-0.0078125,0.0,-0.0078125,false,false,false,false,0.0,-0.0078125,0.0,-0.0078125,false,false,false,false,0.0,12.65,0.0,21733,0,0,0.125,12.700000000000001,0.0,0,0,0,0.0,12.65,0.0,1178,0,0,0.0,12.65,0.0,0,0,0,0.0,12.75,0.0,9,0,0,0.0,4.0,0.0,0,0,0,kReverse,0.0,0.0,0.0,0.0,0.0,0.0,0.0,0.0,0.0,0.0,0.0,
329.974751,true,true,true,0.0,-0.0078125,0.023622047156095505,-0.0078125,false,false,false,false,0.0,-0.0078125,0.0,-0.0078125,false,false,false,false,0.0,12.65,0.0,21732,-1,0,0.125,12.700000000000001,0.0,0,0,0,0.0,12.65,0.0,1178,0,0,0.0,12.65,0.0,0,0,0,0.0,12.75,0.0,9,0,0,0.0,4.0,0.0,0,0,0,kReverse,0.0,0.0,0.0,0.0,0.0,0.0,0.0,0.0,0.0,0.0,0.0,
330.028325,true,true,true,0.0,-0.0078125,0.23622047901153564,-0.0078125,false,false,false,false,0.0,-0.0078125,0.0,-0.0078125,false,false,false,false,0.0,12.65,0.0,21731,-2,0,0.125,12.700000000000001,0.0,0,0,0,0.0,12.65,0.0,1178,0,0,0.0,12.65,0.0,0,0,0,0.0,12.75,0.0,9,0,0,0.0,4.0,0.0,0,0,0,kReverse,0.0,0.0,0.0,0.0,0.0,0.0,0.0,0.0,0.0,0.0,0.0,
330.087048,true,true,true,0.0,-0.0078125,0.15748031437397003,-0.0078125,false,false,false,false,0.0,-0.0078125,0.0,-0.0078125,false,false,false,false,1.125,12.5,0.0,21731,-1,0,1.25,12.6,0.0,0,0,0,1.375,12.6,0.0,1171,-7,0,0.875,12.6,0.0,0,0,0,0.0,12.65,0.0,9,0,0,0.0,4.0,0.0,0,0,0,kReverse,0.0,0.0,0.0,0.0,0.0,0.0,0.0,0.0,0.0,0.0,0.0,
330.13612200000006,true,true,true,0.0,-0.0078125,-0.2578125,-0.0078125,false,false,false,false,0.0,-0.0078125,0.0,-0.0078125,false,false,false,false,1.0,12.5,0.0,21732,1,0,1.625,12.6,0.0,0,0,0,1.25,12.6,0.0,1171,-7,0,0.75,12.6,0.0,0,0,0,0.0,12.65,0.0,9,0,0,0.0,4.0,0.0,0,0,0,kReverse,0.0,0.0,0.0,0.0,0.0,0.0,0.0,0.0,0.0,0.0,0.0,
330.19749500000006,true,true,true,0.0,-0.0078125,-0.5078125,0.08661417663097382,false,false,false,false,0.0,-0.0078125,0.0,-0.0078125,false,false,false,false,0.5,12.5,0.0,21734,3,0,0.875,12.6,0.0,0,0,0,1.25,12.6,0.0,1189,18,0,0.0,12.6,0.0,0,0,0,0.0,12.65,0.0,9,0,0,0.0,4.0,0.0,0,0,0,kReverse,0.0,0.0,0.0,0.0,0.0,0.0,0.0,0.0,0.0,0.0,0.0,
330.253401,true,true,true,0.0,-0.0078125,-0.015625,-0.0078125,false,false,false,false,0.0,-0.0078125,0.0,-0.0078125,false,false,false,false,3.5,12.15,0.0,21725,-8,0,4.25,12.35,0.0,0,0,0,5.375,12.35,0.0,1222,51,0,4.875,12.35,0.0,0,0,0,0.0,12.450000000000001,0.0,9,0,0,0.0,4.0,0.0,0,0,0,kReverse,0.0,0.0,0.0,0.0,0.0,0.0,0.0,0.0,0.0,0.0,0.0,
330.299888,true,true,true,0.0,-0.0078125,0.0,-0.0078125,false,false,false,false,0.0,-0.0078125,0.0,-0.0078125,false,false,false,false,3.125,12.15,0.0,21718,-16,0,4.5,12.35,0.0,0,0,0,4.0,12.35,0.0,1233,44,0,4.375,12.35,0.0,0,0,0,0.0,12.450000000000001,0.0,9,0,0,0.0,4.0,0.0,0,0,0,kReverse,0.0,0.0,0.0,0.0,0.0,0.0,0.0,0.0,0.0,0.0,0.0,
330.35317200000003,true,true,true,0.0,-0.0078125,0.0,-0.0078125,false,false,false,false,0.0,-0.0078125,0.0,-0.0078125,false,false,false,false,0.0,12.15,0.0,21711,-14,0,0.125,12.35,0.0,0,0,0,0.125,12.35,0.0,1233,11,0,0.0,12.35,0.0,0,0,0,0.0,12.450000000000001,0.0,9,0,0,0.0,4.0,0.0,0,0,0,kReverse,0.0,0.0,0.0,0.0,0.0,0.0,0.0,0.0,0.0,0.0,0.0,
330.40902400000004,true,true,true,0.0,-0.0078125,0.0,-0.0078125,false,false,false,false,0.0,-0.0078125,0.0,-0.0078125,false,false,false,false,0.0,12.65,0.0,21709,-6,0,0.125,12.65,0.0,0,0,0,0.0,12.65,0.0,1233,0,0,0.0,12.65,0.0,0,0,0,0.0,12.75,0.0,9,0,0,0.0,4.0,0.0,0,0,0,kReverse,0.0,0.0,0.0,0.0,0.0,0.0,0.0,0.0,0.0,0.0,0.0,
330.450743,true,true,true,0.0,-0.0078125,0.0,-0.0078125,false,false,false,false,0.0,-0.0078125,0.0,-0.0078125,false,false,false,false,0.0,12.65,0.0,21710,-1,0,0.125,12.65,0.0,0,0,0,0.0,12.65,0.0,1233,0,0,0.0,12.65,0.0,0,0,0,0.0,12.75,0.0,9,0,0,0.0,4.0,0.0,0,0,0,kReverse,0.0,0.0,0.0,0.0,0.0,0.0,0.0,0.0,0.0,0.0,0.0,
330.49252200000006,true,true,true,0.0,-0.0078125,0.0,-0.0078125,false,false,false,false,0.0,-0.0078125,0.0,-0.0078125,false,false,false,false,0.0,12.65,0.0,21712,3,0,0.125,12.65,0.0,0,0,0,0.0,12.65,0.0,1233,0,0,0.0,12.65,0.0,0,0,0,0.0,12.75,0.0,9,0,0,0.0,4.0,0.0,0,0,0,kReverse,0.0,0.0,0.0,0.0,0.0,0.0,0.0,0.0,0.0,0.0,0.0,
330.542351,true,true,true,0.0,-0.0078125,0.0,-0.0078125,false,false,false,false,0.0,-0.0078125,0.0,-0.0078125,false,false,false,false,0.0,12.700000000000001,0.0,21712,2,0,0.125,12.700000000000001,0.0,0,0,0,0.0,12.700000000000001,0.0,1233,0,0,0.0,12.700000000000001,0.0,0,0,0,0.0,12.75,0.0,9,0,0,0.0,4.0,0.0,0,0,0,kReverse,0.0,0.0,0.0,0.0,0.0,0.0,0.0,0.0,0.0,0.0,0.0,
330.60487200000006,true,true,true,0.0,-0.0078125,0.0,-0.0078125,false,false,false,false,0.0,-0.0078125,0.0,-0.0078125,false,false,false,false,0.0,12.700000000000001,0.0,21712,0,0,0.125,12.700000000000001,0.0,0,0,0,0.0,12.700000000000001,0.0,1233,0,0,0.0,12.700000000000001,0.0,0,0,0,0.0,12.75,0.0,9,0,0,0.0,4.0,0.0,0,0,0,kReverse,0.0,0.0,0.0,0.0,0.0,0.0,0.0,0.0,0.0,0.0,0.0,
330.652595,true,true,true,0.0,-0.25,0.0,-0.0078125,false,false,false,false,0.0,-0.0078125,0.0,-0.0078125,false,false,false,false,0.0,12.700000000000001,0.0,21712,0,0,0.125,12.700000000000001,0.0,0,0,0,0.0,12.700000000000001,0.0,1233,0,0,0.0,12.700000000000001,0.0,0,0,0,0.0,12.75,0.0,9,0,0,0.0,4.0,0.0,0,0,0,kReverse,0.0,0.0,0.0,0.0,0.0,0.0,0.0,0.0,0.0,0.0,0.0,
330.69614800000005,true,true,true,0.0,-0.59375,0.0,-0.0078125,false,false,false,false,0.0,-0.0078125,0.0,-0.0078125,false,false,false,false,0.625,12.700000000000001,0.0,21713,1,0,0.625,12.700000000000001,0.0,0,0,0,1.0,12.55,0.0,1237,4,0,0.0,12.55,0.0,0,0,0,0.0,12.65,0.0,9,0,0,0.0,4.0,0.0,0,0,0,kReverse,0.0,0.0,0.0,0.0,0.0,0.0,0.0,0.0,0.0,0.0,0.0,
330.75033300000007,true,true,true,0.0,-0.6875,0.0,-0.0078125,false,false,false,false,0.0,-0.0078125,0.0,-0.0078125,false,false,false,false,5.125,12.55,0.0,21720,8,0,5.0,12.55,0.0,0,0,0,6.625,12.55,0.0,1257,24,0,3.75,12.55,0.0,0,0,0,0.0,12.65,0.0,9,0,0,0.0,4.0,0.0,0,0,0,kReverse,0.0,0.0,0.0,0.0,0.0,0.0,0.0,0.0,0.0,0.0,0.0,
330.79884500000003,true,true,true,0.0,-0.6875,0.0,-0.0078125,false,false,false,false,0.0,-0.0078125,0.0,-0.0078125,false,false,false,false,11.0,12.55,0.0,21730,17,0,14.375,12.55,0.0,0,0,0,12.5,12.55,0.0,1289,52,0,10.5,12.55,0.0,0,0,0,0.0,12.65,0.0,9,0,0,0.0,4.0,0.0,0,0,0,kReverse,0.0,0.0,0.0,0.0,0.0,0.0,0.0,0.0,0.0,0.0,0.0,
330.854934,true,true,true,0.0,-0.75,0.0,-0.0078125,false,false,false,false,0.0,-0.0078125,0.0,-0.0078125,false,false,false,false,12.125,12.55,0.0,21753,33,0,15.125,12.55,0.0,0,0,0,12.125,11.25,0.0,1332,67,0,10.25,11.25,0.0,0,0,0,0.0,11.4,0.0,9,0,0,0.0,4.0,0.0,0,0,0,kReverse,0.0,0.0,0.0,0.0,0.0,0.0,0.0,0.0,0.0,0.0,0.0,
330.91095,true,true,true,0.0,-0.90625,0.0,-0.0078125,false,false,false,false,0.0,-0.0078125,0.0,-0.0078125,false,false,false,false,11.625,11.3,0.0,21788,52,0,14.125,11.2,0.0,0,0,0,12.375,11.25,0.0,1371,82,0,10.0,11.25,0.0,0,0,0,0.0,11.4,0.0,9,0,0,0.0,4.0,0.0,0,0,0,kReverse,0.0,0.0,0.0,0.0,0.0,0.0,0.0,0.0,0.0,0.0,0.0,
330.95691800000003,true,true,true,0.0,-0.9140625,0.0,-0.0078125,false,false,false,false,0.0,-0.0078125,0.0,-0.0078125,false,false,false,false,12.75,11.3,0.0,21818,65,0,15.875,11.2,0.0,0,0,0,14.625,11.25,0.0,1450,118,0,11.75,11.25,0.0,0,0,0,0.0,11.4,0.0,9,0,0,0.0,4.0,0.0,0,0,0,kReverse,0.0,0.0,0.0,0.0,0.0,0.0,0.0,0.0,0.0,0.0,0.0,
331.009346,true,true,true,0.0,-0.9375,0.0,-0.0078125,false,false,false,false,0.0,-0.0078125,0.0,-0.0078125,false,false,false,false,13.375,11.3,0.0,21875,87,0,17.125,11.2,0.0,0,0,0,15.125,11.25,0.0,1513,142,0,12.5,11.25,0.0,0,0,0,0.0,11.4,0.0,9,0,0,0.0,4.0,0.0,0,0,0,kReverse,0.0,0.0,0.0,0.0,0.0,0.0,0.0,0.0,0.0,0.0,0.0,
331.054661,true,true,true,0.0,-1.0,0.0,-0.0078125,false,false,false,false,0.0,-0.0078125,0.0,-0.0078125,false,false,false,false,12.625,10.9,0.0,21924,106,0,16.625,11.05,0.0,0,0,0,14.625,10.95,0.0,1582,160,0,11.625,11.0,0.0,0,0,0,0.0,11.15,0.0,9,0,0,0.0,4.0,0.0,0,0,0,kReverse,0.0,0.0,0.0,0.0,0.0,0.0,0.0,0.0,0.0,0.0,0.0,
331.106078,true,true,true,0.0,-1.0,0.0,-0.0078125,false,false,false,false,0.0,-0.0078125,0.0,-0.0078125,false,false,false,false,12.25,10.9,0.0,22015,140,0,16.25,11.05,0.0,0,0,0,15.0,10.95,0.0,1695,182,0,12.0,11.0,0.0,0,0,0,0.0,11.15,0.0,9,0,0,0.0,4.0,0.0,0,0,0,kReverse,0.0,0.0,0.0,0.0,0.0,0.0,0.0,0.0,0.0,0.0,0.0,
331.153477,true,true,true,0.0,-1.0,0.0,-0.0078125,false,false,false,false,0.0,-0.0078125,0.0,-0.0078125,false,false,false,false,11.5,10.9,0.0,22084,160,0,16.25,11.05,0.0,0,0,0,15.0,10.95,0.0,1778,196,0,11.125,11.0,0.0,0,0,0,0.0,11.15,0.0,9,0,0,0.0,4.0,0.0,0,0,0,kReverse,0.0,0.0,0.0,0.0,0.0,0.0,0.0,0.0,0.0,0.0,0.0,
331.206288,true,true,true,0.0,-1.0,0.0,-0.0078125,false,false,false,false,0.0,-0.0078125,0.0,-0.0078125,false,false,false,false,9.75,11.100000000000001,0.0,22202,187,0,14.375,11.15,0.0,0,0,0,13.375,11.100000000000001,0.0,1913,218,0,10.125,11.15,0.0,0,0,0,0.0,11.3,0.0,9,0,0,0.0,4.0,0.0,0,0,0,kReverse,0.0,0.0,0.0,0.0,0.0,0.0,0.0,0.0,0.0,0.0,0.0,
331.25345400000003,true,true,true,0.0,-1.0,0.0,-0.0078125,false,false,false,false,0.0,-0.0078125,0.0,-0.0078125,false,false,false,false,17.25,11.100000000000001,0.0,22279,195,0,21.25,11.15,0.0,0,0,0,17.375,11.100000000000001,0.0,1961,183,0,21.0,11.15,0.0,0,0,0,0.0,11.3,0.0,9,0,0,0.0,4.0,0.0,0,0,0,kReverse,0.0,0.0,0.0,0.0,0.0,0.0,0.0,0.0,0.0,0.0,0.0,
331.30140600000004,true,true,true,0.0,-1.0,0.0,-0.0078125,false,false,false,false,0.0,-0.0078125,0.0,-0.0078125,false,false,false,false,34.25,11.100000000000001,0.0,22372,170,0,39.875,11.15,0.0,0,0,0,28.625,11.100000000000001,0.0,1975,62,0,29.0,11.15,0.0,0,0,0,0.0,11.3,0.0,9,0,0,0.0,4.0,0.0,0,0,0,kReverse,0.0,0.0,0.0,0.0,0.0,0.0,0.0,0.0,0.0,0.0,0.0,
331.35611100000006,true,true,true,0.0,-0.390625,0.0,-0.0078125,false,false,false,false,0.0,-0.0078125,0.0,-0.0078125,false,false,false,false,21.75,10.100000000000001,0.0,22426,145,0,23.5,10.15,0.0,0,0,0,22.375,10.100000000000001,0.0,2040,79,0,20.625,10.15,0.0,0,0,0,0.0,10.350000000000001,0.0,9,0,0,0.0,4.0,0.0,0,0,0,kReverse,0.0,0.0,0.0,0.0,0.0,0.0,0.0,0.0,0.0,0.0,0.0,
331.411152,true,true,true,0.0,-0.0078125,0.0,-0.0078125,false,false,false,false,0.0,-0.0078125,0.0,-0.0078125,false,false,false,false,9.5,10.100000000000001,0.0,22502,130,0,17.0,10.15,0.0,0,0,0,11.625,10.100000000000001,0.0,2059,84,0,13.875,10.15,0.0,0,0,0,0.0,10.350000000000001,0.0,9,0,0,0.0,4.0,0.0,0,0,0,kReverse,0.0,0.0,0.0,0.0,0.0,0.0,0.0,0.0,0.0,0.0,0.0,
331.45677300000006,true,true,true,0.0,0.26771652698516846,0.0,-0.0078125,false,false,false,false,0.0,-0.0078125,0.0,-0.0078125,false,false,false,false,2.375,10.100000000000001,0.0,22537,112,0,3.0,10.15,0.0,0,0,0,1.0,10.100000000000001,0.0,2051,11,0,1.75,10.15,0.0,0,0,0,0.0,10.350000000000001,0.0,9,0,0,0.0,4.0,0.0,0,0,0,kReverse,0.0,0.0,0.0,0.0,0.0,0.0,0.0,0.0,0.0,0.0,0.0,
331.51276800000005,true,true,true,0.0,1.0,0.0,-0.0078125,false,false,false,false,0.0,-0.0078125,0.0,-0.0078125,false,false,false,false,0.0,12.3,0.0,22576,74,0,0.5,12.35,0.0,0,0,0,1.5,12.35,0.0,2041,-18,0,0.5,12.35,0.0,0,0,0,0.0,12.4,0.0,9,0,0,0.0,4.0,0.0,0,0,0,kReverse,0.0,0.0,0.0,0.0,0.0,0.0,0.0,0.0,0.0,0.0,0.0,
331.55980200000005,true,true,true,0.0,1.0,0.0,-0.0078125,false,false,false,false,0.0,-0.0078125,0.0,-0.0078125,false,false,false,false,10.625,12.3,0.0,22593,56,0,14.375,12.35,0.0,0,0,0,18.375,12.35,0.0,1995,-56,0,12.25,12.35,0.0,0,0,0,0.0,12.4,0.0,9,0,0,0.0,4.0,0.0,0,0,0,kReverse,0.0,0.0,0.0,0.0,0.0,0.0,0.0,0.0,0.0,0.0,0.0,
331.61631300000005,true,true,true,0.0,1.0,0.0,-0.0078125,false,false,false,false,0.0,-0.0078125,0.0,-0.0078125,false,false,false,false,19.5,12.3,0.0,22600,24,0,22.75,12.35,0.0,0,0,0,24.625,12.35,0.0,1930,-103,0,23.25,12.35,0.0,0,0,0,0.0,12.4,0.0,9,0,0,0.0,4.0,0.0,0,0,0,kReverse,0.0,0.0,0.0,0.0,0.0,0.0,0.0,0.0,0.0,0.0,0.0,
331.670434,true,true,true,0.0,1.0,0.0,-0.0078125,false,false,false,false,0.0,-0.0078125,0.0,-0.0078125,false,false,false,false,11.875,10.55,0.0,22583,-15,0,16.75,10.55,0.0,0,0,0,21.0,10.45,0.0,1868,-127,0,19.625,10.350000000000001,0.0,0,0,0,0.0,10.7,0.0,9,0,0,0.0,4.0,0.0,0,0,0,kReverse,0.0,0.0,0.0,0.0,0.0,0.0,0.0,0.0,0.0,0.0,0.0,
331.712953,true,true,true,0.0,1.0,0.0,-0.0078125,false,false,false,false,0.0,-0.0078125,0.0,-0.0078125,false,false,false,false,14.625,10.55,0.0,22555,-45,0,19.125,10.55,0.0,0,0,0,21.875,10.45,0.0,1818,-141,0,20.25,10.350000000000001,0.0,0,0,0,0.0,10.7,0.0,9,0,0,0.0,4.0,0.0,0,0,0,kReverse,0.0,0.0,0.0,0.0,0.0,0.0,0.0,0.0,0.0,0.0,0.0,
331.75603,true,true,true,0.0,1.0,0.0,-0.0078125,false,false,false,false,0.0,-0.0078125,0.0,-0.0078125,false,false,false,false,14.75,10.55,0.0,22513,-81,0,18.125,10.55,0.0,0,0,0,19.375,10.45,0.0,1718,-150,0,17.875,10.350000000000001,0.0,0,0,0,0.0,10.7,0.0,9,0,0,0.0,4.0,0.0,0,0,0,kReverse,0.0,0.0,0.0,0.0,0.0,0.0,0.0,0.0,0.0,0.0,0.0,
331.81042500000007,true,true,true,0.0,1.0,0.0,-0.0078125,false,false,false,false,0.0,-0.0078125,0.0,-0.0078125,false,false,false,false,10.75,10.55,0.0,22428,-127,0,15.875,10.55,0.0,0,0,0,17.625,10.45,0.0,1640,-178,0,16.125,10.350000000000001,0.0,0,0,0,0.0,10.7,0.0,9,0,0,0.0,4.0,0.0,0,0,0,kReverse,0.0,0.0,0.0,0.0,0.0,0.0,0.0,0.0,0.0,0.0,0.0,
331.86585,true,true,true,0.0,1.0,0.0,-0.0078125,false,false,false,false,0.0,-0.0078125,0.0,-0.0078125,false,false,false,false,7.875,10.8,0.0,22306,-181,0,13.0,10.850000000000001,0.0,0,0,0,14.875,10.850000000000001,0.0,1510,-208,0,13.25,10.8,0.0,0,0,0,0.0,11.0,0.0,9,0,0,0.0,4.0,0.0,0,0,0,kReverse,0.0,0.0,0.0,0.0,0.0,0.0,0.0,0.0,0.0,0.0,0.0,
331.912238,true,true,true,0.0,1.0,0.0,-0.0078125,false,false,false,false,0.0,-0.0078125,0.0,-0.0078125,false,false,false,false,6.75,10.8,0.0,22210,-218,0,11.375,10.850000000000001,0.0,0,0,0,14.875,10.850000000000001,0.0,1423,-217,0,13.375,10.8,0.0,0,0,0,0.0,11.0,0.0,9,0,0,0.0,4.0,0.0,0,0,0,kReverse,0.0,0.0,0.0,0.0,0.0,0.0,0.0,0.0,0.0,0.0,0.0,
331.960646,true,true,true,0.0,1.0,0.0,-0.0078125,false,false,false,false,0.0,-0.0078125,0.0,-0.0078125,false,false,false,false,7.75,10.8,0.0,22064,-242,0,12.875,10.850000000000001,0.0,0,0,0,13.5,10.850000000000001,0.0,1281,-229,0,11.625,10.8,0.0,0,0,0,0.0,11.0,0.0,9,0,0,0.0,4.0,0.0,0,0,0,kReverse,0.0,0.0,0.0,0.0,0.0,0.0,0.0,0.0,0.0,0.0,0.0,
332.012779,true,true,true,0.0,1.0,0.0,-0.0078125,false,false,false,false,0.0,-0.0078125,0.0,-0.0078125,false,false,false,false,6.375,11.2,0.0,21958,-252,0,11.125,11.2,0.0,0,0,0,11.75,11.2,0.0,1177,-246,0,9.75,11.15,0.0,0,0,0,0.0,11.350000000000001,0.0,9,0,0,0.0,4.0,0.0,0,0,0,kReverse,0.0,0.0,0.0,0.0,0.0,0.0,0.0,0.0,0.0,0.0,0.0,
332.0585980000001,true,true,true,0.0,1.0,0.0,-0.0078125,false,false,false,false,0.0,-0.0078125,0.0,-0.0078125,false,false,false,false,5.625,11.2,0.0,21848,-266,0,10.25,11.2,0.0,0,0,0,10.875,11.2,0.0,1016,-265,0,8.625,11.15,0.0,0,0,0,0.0,11.350000000000001,0.0,9,0,0,0.0,4.0,0.0,0,0,0,kReverse,0.0,0.0,0.0,0.0,0.0,0.0,0.0,0.0,0.0,0.0,0.0,
332.113037,true,true,true,0.0,1.0,0.0,-0.0078125,false,false,false,false,0.0,-0.0078125,0.0,-0.0078125,false,false,false,false,5.625,11.2,0.0,21682,-276,0,10.375,11.2,0.0,0,0,0,10.875,11.2,0.0,910,-267,0,8.75,11.15,0.0,0,0,0,0.0,11.350000000000001,0.0,9,0,0,0.0,4.0,0.0,0,0,0,kReverse,0.0,0.0,0.0,0.0,0.0,0.0,0.0,0.0,0.0,0.0,0.0,
332.15571500000004,true,true,true,0.0,0.8425197005271912,0.0,-0.0078125,false,false,false,false,0.0,-0.0078125,0.0,-0.0078125,false,false,false,false,5.25,11.4,0.0,21568,-277,0,10.0,11.4,0.0,0,0,0,10.875,11.350000000000001,0.0,748,-268,0,8.875,11.3,0.0,0,0,0,0.0,11.5,0.0,9,0,0,0.0,4.0,0.0,0,0,0,kReverse,0.0,0.0,0.0,0.0,0.0,0.0,0.0,0.0,0.0,0.0,0.0,
332.21210400000007,true,true,true,0.0,0.25984251499176025,0.0,-0.0078125,false,false,false,false,0.0,-0.0078125,0.0,-0.0078125,false,false,false,false,4.375,11.4,0.0,21397,-285,0,7.0,11.4,0.0,0,0,0,7.375,11.350000000000001,0.0,641,-269,0,6.25,11.3,0.0,0,0,0,0.0,11.5,0.0,9,0,0,0.0,4.0,0.0,0,0,0,kReverse,0.0,0.0,0.0,0.0,0.0,0.0,0.0,0.0,0.0,0.0,0.0,
332.259183,true,true,true,0.0,0.05511811003088951,0.0,-0.0078125,false,false,false,false,0.0,-0.0078125,0.0,-0.0078125,false,false,false,false,0.0,11.4,0.0,21236,-277,0,2.25,11.4,0.0,0,0,0,2.5,11.350000000000001,0.0,506,-242,0,2.375,11.3,0.0,0,0,0,0.0,11.5,0.0,9,0,0,0.0,4.0,0.0,0,0,0,kReverse,0.0,0.0,0.0,0.0,0.0,0.0,0.0,0.0,0.0,0.0,0.0,
332.31494,true,true,true,0.0,-0.0078125,0.0,-0.0078125,false,false,false,false,0.0,-0.0078125,0.0,-0.0078125,false,false,false,false,0.0,12.55,0.0,21137,-260,0,0.0,12.55,0.0,0,0,0,0.0,12.55,0.0,388,-200,0,0.0,12.55,0.0,0,0,0,0.0,12.6,0.0,9,0,0,0.0,4.0,0.0,0,0,0,kReverse,0.0,0.0,0.0,0.0,0.0,0.0,0.0,0.0,0.0,0.0,0.0,
332.36709800000006,true,true,true,0.0,-0.0078125,0.0,-0.0078125,false,false,false,false,0.0,-0.0078125,0.0,-0.0078125,false,false,false,false,0.0,12.55,0.0,20990,-246,0,0.125,12.55,0.0,0,0,0,0.0,12.55,0.0,293,-213,0,0.0,12.55,0.0,0,0,0,0.0,12.6,0.0,9,0,0,0.0,4.0,0.0,0,0,0,kReverse,0.0,0.0,0.0,0.0,0.0,0.0,0.0,0.0,0.0,0.0,0.0,
332.413672,true,true,true,0.0,-0.0078125,0.0,-0.0078125,false,false,false,false,0.0,-0.0078125,0.0,-0.0078125,false,false,false,false,0.0,12.55,0.0,20891,-246,0,0.125,12.55,0.0,0,0,0,0.0,12.55,0.0,213,-222,0,0.0,12.55,0.0,0,0,0,0.0,12.6,0.0,9,0,0,0.0,4.0,0.0,0,0,0,kReverse,0.0,0.0,0.0,0.0,0.0,0.0,0.0,0.0,0.0,0.0,0.0,
332.45846800000004,true,true,true,0.0,-0.0078125,0.0,-0.0078125,false,false,false,false,0.0,-0.0078125,0.0,-0.0078125,false,false,false,false,0.0,12.55,0.0,20793,-246,0,0.125,12.6,0.0,0,0,0,0.0,12.6,0.0,86,-207,0,0.0,12.6,0.0,0,0,0,0.0,12.65,0.0,9,0,0,0.0,4.0,0.0,0,0,0,kReverse,0.0,0.0,0.0,0.0,0.0,0.0,0.0,0.0,0.0,0.0,0.0,
332.508614,true,true,true,0.0,-0.0078125,0.0,-0.0078125,false,false,false,false,0.0,-0.0078125,0.0,-0.0078125,false,false,false,false,0.0,12.6,0.0,20651,-240,0,0.125,12.6,0.0,0,0,0,0.0,12.6,0.0,9,-204,0,0.0,12.6,0.0,0,0,0,0.0,12.65,0.0,9,0,0,0.0,4.0,0.0,0,0,0,kReverse,0.0,0.0,0.0,0.0,0.0,0.0,0.0,0.0,0.0,0.0,0.0,
332.56797400000005,true,true,true,0.0,-0.0078125,0.0,-0.0078125,false,false,false,false,0.0,-0.0078125,0.0,-0.0078125,false,false,false,false,0.0,12.6,0.0,20517,-228,0,0.125,12.6,0.0,0,0,0,0.0,12.6,0.0,-96,-182,0,0.0,12.6,0.0,0,0,0,0.0,12.65,0.0,9,0,0,0.0,4.0,0.0,0,0,0,kReverse,0.0,0.0,0.0,0.0,0.0,0.0,0.0,0.0,0.0,0.0,0.0,
332.61534300000005,true,true,true,0.0,-0.0078125,0.0,-0.0078125,false,false,false,false,0.0,-0.0078125,0.0,-0.0078125,false,false,false,false,0.0,12.6,0.0,20432,-219,0,0.125,12.6,0.0,0,0,0,0.0,12.6,0.0,-195,-169,0,0.0,12.6,0.0,0,0,0,0.0,12.700000000000001,0.0,9,0,0,0.0,4.0,0.0,0,0,0,kReverse,0.0,0.0,0.0,0.0,0.0,0.0,0.0,0.0,0.0,0.0,0.0,
332.670347,true,true,true,0.0,-0.0078125,0.31496062874794006,-0.0078125,false,false,false,false,0.0,-0.0078125,0.0,-0.0078125,false,false,false,false,0.0,12.6,0.0,20311,-206,0,0.125,12.6,0.0,0,0,0,0.0,12.6,0.0,-259,-163,0,0.0,12.6,0.0,0,0,0,0.0,12.700000000000001,0.0,9,0,0,0.0,4.0,0.0,0,0,0,kReverse,0.0,0.0,0.0,0.0,0.0,0.0,0.0,0.0,0.0,0.0,0.0,
332.71621700000003,true,true,true,0.0,-0.0078125,0.8976377844810486,-0.0078125,false,false,false,false,0.0,-0.0078125,0.0,-0.0078125,false,false,false,false,0.75,12.6,0.0,20237,-195,0,1.25,12.6,0.0,0,0,0,0.0,12.6,0.0,-334,-139,0,0.0,12.6,0.0,0,0,0,0.0,12.700000000000001,0.0,9,0,0,0.0,4.0,0.0,0,0,0,kReverse,0.0,0.0,0.0,0.0,0.0,0.0,0.0,0.0,0.0,0.0,0.0,
332.7718540000001,true,true,true,0.0,-0.0078125,1.0,-0.0078125,false,false,false,false,0.0,-0.0078125,0.0,-0.0078125,false,false,false,false,20.75,12.6,0.0,20141,-170,0,16.625,12.6,0.0,0,0,0,7.125,12.6,0.0,-413,-154,0,4.375,12.6,0.0,0,0,0,0.0,12.700000000000001,0.0,9,0,0,0.0,4.0,0.0,0,0,0,kReverse,0.0,0.0,0.0,0.0,0.0,0.0,0.0,0.0,0.0,0.0,0.0,
