timer,lineLeft,lineCenter,lineRight,driverLeftX,driverLeftY,driverRightX,driverRightY,driverA,driverB,driverX,driverY,operatorLeftX,operatorLeftY,operatorRightX,operatorRightY,operatorA,operatorB,operatorX,operatorY,LeftFrontCurrent,LeftFrontVoltage,LeftFrontValue,LeftFrontPosition,LeftFrontVelocity,LeftFrontFaults,LeftRearCurrent,LeftRearVoltage,LeftRearValue,LeftRearPosition,LeftRearVelocity,LeftRearFaults,RightFrontCurrent,RightFrontVoltage,RightFrontValue,RightFrontPosition,RightFrontVelocity,RightFrontFaults,RightRearCurrent,RightRearVoltage,RightRearValue,RightRearPosition,RightRearVelocity,RightRearFaults,LiftCurrent,LiftVoltage,LiftValue,LiftPosition,LiftVelocity,LiftFaults,RollerCurrent,RollerVoltage,RollerValue,RollerPosition,RollerVelocity,RollerFaults,PushersState,navx_Pitch,navx_Roll,navx_Yaw,navx_XAcc,navx_YAcc,navx_ZAcc,navx_Temp,navx_Bar,navx_Alt,navx_XDis,navx_YDis,
50.193284999999996,true,true,true,0.0,-1.0,0.0,-0.0078125,false,false,false,false,0.0,-0.0078125,0.0,-0.0078125,false,false,false,false,8.5,12.6,0.0,1,1,0,8.875,12.6,0.0,0,0,0,15.375,12.6,0.0,48,48,0,10.375,12.6,0.0,0,0,0,0.0,12.65,0.0,0,0,0,0.0,4.0,0.0,0,0,0,kReverse,0.0,0.0,0.0,0.0,0.0,0.0,0.0,0.0,0.0,0.0,0.0,
50.38131299999999,true,true,true,0.0,-1.0,0.0,-0.0078125,false,false,false,false,0.0,-0.0078125,0.0,-0.0078125,false,false,false,false,15.0,9.75,0.0,72,57,0,22.0,9.8,0.0,0,0,0,19.875,9.65,0.0,211,143,0,15.375,9.7,0.0,0,0,0,0.0,10.0,0.0,0,0,0,0.0,4.0,0.0,0,0,0,kReverse,0.0,0.0,0.0,0.0,0.0,0.0,0.0,0.0,0.0,0.0,0.0,
50.53593399999999,true,true,true,0.0,-1.0,0.0,-0.0078125,false,false,false,false,0.0,-0.0078125,0.0,-0.0078125,false,false,false,false,11.875,10.350000000000001,0.0,249,125,0,18.25,10.45,0.0,0,0,0,16.125,10.4,0.0,494,190,0,10.5,10.45,0.0,0,0,0,0.0,10.65,0.0,0,0,0,0.0,4.0,0.0,0,0,0,kReverse,0.0,0.0,0.0,0.0,0.0,0.0,0.0,0.0,0.0,0.0,0.0,
50.717733,true,true,true,0.0,-1.0,0.0,-0.0078125,false,false,false,false,0.0,-0.0078125,0.0,-0.0078125,false,false,false,false,7.5,10.9,0.0,544,197,0,12.5,10.95,0.0,0,0,0,11.125,11.0,0.0,924,250,0,6.25,11.0,0.0,0,0,0,0.0,11.15,0.0,0,0,0,0.0,4.0,0.0,0,0,0,kReverse,0.0,0.0,0.0,0.0,0.0,0.0,0.0,0.0,0.0,0.0,0.0,
50.794581,true,true,true,0.0,-1.0,0.0,-0.0078125,false,false,false,false,0.0,-0.0078125,0.0,-0.0078125,false,false,false,false,6.0,11.3,0.0,726,226,0,11.0,11.350000000000001,0.0,0,0,0,10.125,11.3,0.0,1138,267,0,5.25,11.350000000000001,0.0,0,0,0,0.0,11.5,0.0,0,0,0,0.0,4.0,0.0,0,0,0,kReverse,0.0,0.0,0.0,0.0,0.0,0.0,0.0,0.0,0.0,0.0,0.0,
50.956471,true,true,true,0.0,-1.0,0.0,-0.0078125,false,false,false,false,0.0,-0.0078125,0.0,-0.0078125,false,false,false,false,5.5,11.55,0.0,1180,258,0,8.75,11.600000000000001,0.0,0,0,0,8.125,11.55,0.0,1598,291,0,5.25,11.55,0.0,0,0,0,0.0,11.7,0.0,0,0,0,0.0,4.0,0.0,0,0,0,kReverse,0.0,0.0,0.0,0.0,0.0,0.0,0.0,0.0,0.0,0.0,0.0,
51.069689999999994,true,true,true,0.0,-1.0,0.0,-0.0078125,false,false,false,false,0.0,-0.0078125,0.0,-0.0078125,false,false,false,false,6.25,11.55,0.0,1457,277,0,11.375,11.600000000000001,0.0,0,0,0,10.75,11.2,0.0,1910,257,0,6.25,11.2,0.0,0,0,0,0.0,11.350000000000001,0.0,0,0,0,0.0,4.0,0.0,0,0,0,kReverse,0.0,0.0,0.0,0.0,0.0,0.0,0.0,0.0,0.0,0.0,0.0,
51.173812999999996,true,true,true,0.0,-0.3203125,0.0,-0.0078125,false,false,false,false,0.0,-0.0078125,0.0,-0.0078125,false,false,false,false,4.625,11.2,0.0,1727,270,0,6.5,11.2,0.0,0,0,0,6.875,11.2,0.0,2188,278,0,5.125,11.2,0.0,0,0,0,0.0,11.350000000000001,0.0,-2,-2,0,0.0,4.0,0.0,0,0,0,kReverse,0.0,0.0,0.0,0.0,0.0,0.0,0.0,0.0,0.0,0.0,0.0,
51.277496,true,true,true,0.0,-0.0078125,0.0,-0.0078125,false,false,false,false,0.0,-0.0078125,0.0,-0.0078125,false,false,false,false,0.0,12.450000000000001,0.0,2021,241,0,0.0,12.450000000000001,0.0,0,0,0,0.0,12.450000000000001,0.0,2432,244,0,0.0,12.450000000000001,0.0,0,0,0,0.0,12.55,0.0,0,2,0,0.0,4.0,0.0,0,0,0,kReverse,0.0,0.0,0.0,0.0,0.0,0.0,0.0,0.0,0.0,0.0,0.0,
51.466594,true,true,true,0.0,-0.0078125,0.0,-0.0078125,false,false,false,false,0.0,-0.0078125,0.0,-0.0078125,false,false,false,false,0.0,12.35,0.0,2390,212,0,0.0,12.35,0.0,0,0,0,0.0,12.35,0.0,2837,184,0,0.0,12.35,0.0,0,0,0,0.0,12.4,0.0,0,0,0,0.0,4.0,0.0,0,0,0,kReverse,0.0,0.0,0.0,0.0,0.0,0.0,0.0,0.0,0.0,0.0,0.0,
51.556844999999996,true,true,true,0.0,-0.0078125,0.0,-0.0078125,false,false,false,false,0.0,-0.0078125,0.0,-0.0078125,false,false,false,false,0.0,12.25,0.0,2583,193,0,0.0,12.3,0.0,0,0,0,0.0,12.3,0.0,2966,129,0,0.0,12.3,0.0,0,0,0,0.0,12.35,0.0,0,1,0,0.0,4.0,0.0,0,0,0,kReverse,0.0,0.0,0.0,0.0,0.0,0.0,0.0,0.0,0.0,0.0,0.0,
51.640454999999996,true,true,true,0.0,-0.0078125,0.0,-0.0078125,false,false,false,false,0.0,-0.0078125,0.0,-0.0078125,false,false,false,false,0.0,12.25,0.0,2707,159,0,0.0,12.3,0.0,0,0,0,0.0,12.3,0.0,3055,104,0,0.0,12.3,0.0,0,0,0,0.0,12.35,0.0,0,0,0,0.0,4.0,0.0,0,0,0,kReverse,0.0,0.0,0.0,0.0,0.0,0.0,0.0,0.0,0.0,0.0,0.0,
51.728902,true,true,true,0.0,-0.0078125,0.0,-0.0078125,false,false,false,false,0.0,-0.0078125,0.0,-0.0078125,false,false,false,false,0.0,12.25,0.0,2804,126,0,0.0,12.25,0.0,0,0,0,0.0,12.25,0.0,3167,112,0,0.0,12.25,0.0,0,0,0,0.0,12.35,0.0,0,0,0,0.0,4.0,0.0,0,0,0,kReverse,0.0,0.0,0.0,0.0,0.0,0.0,0.0,0.0,0.0,0.0,0.0,
51.813232,true,true,true,0.0,-0.0078125,0.0,-0.0078125,false,false,false,false,0.0,-0.0078125,0.0,-0.0078125,false,false,false,false,0.0,12.25,0.0,2904,123,0,0.0,12.25,0.0,0,0,0,0.0,12.25,0.0,3284,173,0,0.0,12.25,0.0,0,0,0,0.0,12.35,0.0,0,0,0,0.0,4.0,0.0,0,0,0,kReverse,0.0,0.0,0.0,0.0,0.0,0.0,0.0,0.0,0.0,0.0,0.0,
51.89557,true,true,true,0.0,-0.0078125,0.0,-0.0078125,false,false,false,false,0.0,-0.0078125,0.0,-0.0078125,false,false,false,false,0.0,12.200000000000001,0.0,3042,138,0,0.0,12.25,0.0,0,0,0,0.0,12.25,0.0,3410,126,0,0.0,12.25,0.0,0,0,0,0.0,12.3,0.0,0,0,0,0.0,4.0,0.0,0,0,0,kReverse,0.0,0.0,0.0,0.0,0.0,0.0,0.0,0.0,0.0,0.0,0.0,
52.018134999999994,true,true,true,0.0,-0.0078125,0.0,-0.0078125,false,false,false,false,0.0,-0.0078125,0.0,-0.0078125,false,false,false,false,0.0,12.200000000000001,0.0,3210,140,0,0.0,12.3,0.0,0,0,0,0.0,12.25,0.0,3631,153,0,0.0,12.25,0.0,0,0,0,0.0,12.35,0.0,0,0,0,0.0,4.0,0.0,0,0,0,kReverse,0.0,0.0,0.0,0.0,0.0,0.0,0.0,0.0,0.0,0.0,0.0,
52.213679,true,true,true,0.0,-0.0078125,0.0,-0.0078125,false,false,false,false,0.0,-0.0078125,0.0,-0.0078125,false,false,false,false,0.0,12.35,0.0,3437,126,0,0.0,12.35,0.0,0,0,0,0.0,12.35,0.0,3878,133,0,0.0,12.35,0.0,0,0,0,0.0,12.4,0.0,0,0,0,0.0,4.0,0.0,0,0,0,kReverse,0.0,0.0,0.0,0.0,0.0,0.0,0.0,0.0,0.0,0.0,0.0,
52.316858,true,true,true,0.0,-0.296875,0.0,-0.0078125,false,false,false,false,0.0,-0.0078125,0.0,-0.0078125,false,false,false,false,0.0,12.35,0.0,3543,106,0,0.0,12.35,0.0,0,0,0,0.0,12.35,0.0,3960,82,0,0.0,12.35,0.0,0,0,0,0.0,12.4,0.0,0,0,0,0.0,4.0,0.0,0,0,0,kReverse,0.0,0.0,0.0,0.0,0.0,0.0,0.0,0.0,0.0,0.0,0.0,
52.387536,true,true,true,0.0,-0.9453125,0.0,-0.0078125,false,false,false,false,0.0,-0.0078125,0.0,-0.0078125,false,false,false,false,0.0,12.25,0.0,3621,98,0,0.375,12.25,0.0,0,0,0,0.375,12.25,0.0,4008,81,0,0.0,12.25,0.0,0,0,0,0.0,12.35,0.0,0,0,0,0.0,4.0,0.0,0,0,0,kReverse,0.0,0.0,0.0,0.0,0.0,0.0,0.0,0.0,0.0,0.0,0.0,
52.554370999999996,true,true,true,0.0,-1.0,0.0,-0.0078125,false,false,false,false,0.0,-0.0078125,0.0,-0.0078125,false,false,false,false,12.125,10.45,0.0,3808,122,0,18.125,10.45,0.0,0,0,0,17.875,10.45,0.0,4277,133,0,13.0,10.4,0.0,0,0,0,0.0,10.600000000000001,0.0,0,0,0,0.0,4.0,0.0,0,0,0,kReverse,0.0,0.0,0.0,0.0,0.0,0.0,0.0,0.0,0.0,0.0,0.0,
52.673725,true,true,true,0.0,-1.0,0.0,-0.0078125,false,false,false,false,0.0,-0.0078125,0.0,-0.0078125,false,false,false,false,11.125,10.45,0.0,3997,161,0,18.125,10.65,0.0,0,0,0,15.5,10.7,0.0,4494,185,0,10.125,10.65,0.0,0,0,0,0.0,10.850000000000001,0.0,0,0,0,0.0,4.0,0.0,0,0,0,kReverse,0.0,0.0,0.0,0.0,0.0,0.0,0.0,0.0,0.0,0.0,0.0,
52.872682,true,true,true,0.0,-1.0,-1.0,-0.0078125,false,false,false,false,0.0,-0.0078125,0.0,-0.0078125,false,false,false,false,3.75,10.95,0.0,4467,234,0,8.875,11.05,0.0,0,0,0,24.125,11.0,0.0,5002,252,0,14.625,11.0,0.0,0,0,0,0.0,11.15,0.0,0,0,0,0.0,4.0,0.0,0,0,0,kReverse,0.0,0.0,0.0,0.0,0.0,0.0,0.0,0.0,0.0,0.0,0.0,
53.01642,true,true,true,0.0,-0.4375,-1.0,-0.0078125,false,false,false,false,0.0,-0.0078125,0.0,-0.0078125,false,false,false,false,0.0,10.3,0.0,4787,222,0,0.0,10.350000000000001,0.0,0,0,0,33.0,10.05,0.0,5472,341,0,26.75,10.05,0.0,0,0,0,0.0,10.4,0.0,0,0,0,0.0,4.0,0.0,0,0,0,kReverse,0.0,0.0,0.0,0.0,0.0,0.0,0.0,0.0,0.0,0.0,0.0,
53.212685,true,true,true,0.0,-0.0390625,0.0,-0.0078125,false,false,false,false,0.0,-0.0078125,0.0,-0.0078125,false,false,false,false,4.875,10.55,0.0,5029,92,0,6.25,10.5,0.0,0,0,0,18.375,10.4,0.0,5722,51,0,8.125,10.5,0.0,0,0,0,0.0,10.7,0.0,0,0,0,0.0,4.0,0.0,0,0,0,kReverse,0.0,0.0,0.0,0.0,0.0,0.0,0.0,0.0,0.0,0.0,0.0,
53.392127,true,true,true,0.0,-0.0078125,0.0,-0.0078125,false,false,false,false,0.0,-0.0078125,0.0,-0.0078125,false,false,false,false,0.0,12.25,0.0,5096,36,0,0.0,12.25,0.0,0,0,0,0.0,12.25,0.0,5722,0,0,0.0,12.25,0.0,0,0,0,0.0,12.35,0.0,0,0,0,0.0,4.0,0.0,0,0,0,kReverse,0.0,0.0,0.0,0.0,0.0,0.0,0.0,0.0,0.0,0.0,0.0,
53.628935,true,true,true,0.0,-0.7734375,0.0,-0.0078125,false,false,false,false,0.0,-0.0078125,0.0,-0.0078125,false,false,false,false,4.25,11.7,0.0,5237,68,0,4.25,11.75,0.0,0,0,0,5.125,11.7,0.0,5722,0,0,4.125,11.75,0.0,0,0,0,0.0,11.9,0.0,0,0,0,0.0,4.0,0.0,0,0,0,kReverse,0.0,0.0,0.0,0.0,0.0,0.0,0.0,0.0,0.0,0.0,0.0,
53.775766,true,true,true,0.0,-1.0,0.0,-0.0078125,false,false,false,false,0.0,-0.0078125,0.0,-0.0078125,false,false,false,false,7.5,11.7,0.0,5349,96,0,12.25,11.75,0.0,0,0,0,10.125,11.7,0.0,5722,0,0,5.875,11.75,0.0,0,0,0,0.0,11.9,0.0,0,0,0,0.0,4.0,0.0,0,0,0,kReverse,0.0,0.0,0.0,0.0,0.0,0.0,0.0,0.0,0.0,0.0,0.0,
53.836973,true,true,true,0.0,-1.0,-0.46875,-0.0078125,false,false,false,false,0.0,-0.0078125,0.0,-0.0078125,false,false,false,false,11.0,10.75,0.0,5421,113,0,16.25,10.75,0.0,0,0,0,16.875,10.7,0.0,5722,0,0,10.125,10.75,0.0,0,0,0,0.0,10.95,0.0,0,0,0,0.0,4.0,0.0,0,0,0,kReverse,0.0,0.0,0.0,0.0,0.0,0.0,0.0,0.0,0.0,0.0,0.0,
53.910261,true,true,true,0.0,-1.0,-0.8828125,-0.0078125,false,false,false,false,0.0,-0.0078125,0.0,-0.0078125,false,false,false,false,0.625,10.75,0.0,5533,138,0,3.75,10.75,0.0,0,0,0,34.875,10.7,0.0,5722,0,0,29.0,10.75,0.0,0,0,0,0.0,10.95,0.0,0,0,0,0.0,4.0,0.0,0,0,0,kReverse,0.0,0.0,0.0,0.0,0.0,0.0,0.0,0.0,0.0,0.0,0.0,
54.040487999999996,true,true,true,0.0,-1.0,-1.0,-0.0078125,false,false,false,false,0.0,-0.0078125,0.0,-0.0078125,false,false,false,false,0.0,10.05,0.0,5719,130,0,0.0,10.0,0.0,0,0,0,37.375,9.75,0.0,5722,0,0,29.0,9.75,0.0,0,0,0,0.0,10.100000000000001,0.0,0,0,0,0.0,4.0,0.0,0,0,0,kReverse,0.0,0.0,0.0,0.0,0.0,0.0,0.0,0.0,0.0,0.0,0.0,
54.163693,true,true,true,0.0,-1.0,-0.90625,-0.0078125,false,false,false,false,0.0,-0.0078125,0.0,-0.0078125,false,false,false,false,0.0,10.5,0.0,5900,151,0,0.0,10.5,0.0,0,0,0,32.5,10.25,0.0,5722,0,0,25.5,10.3,0.0,0,0,0,0.0,10.55,0.0,0,0,0,0.0,4.0,0.0,0,0,0,kReverse,0.0,0.0,0.0,0.0,0.0,0.0,0.0,0.0,0.0,0.0,0.0,
54.219677,true,true,true,0.0,-1.0,-0.0390625,-0.0078125,false,false,false,false,0.0,-0.0078125,0.0,-0.0078125,false,false,false,false,0.0,10.5,0.0,5958,148,0,0.0,10.5,0.0,0,0,0,31.25,10.25,0.0,5722,0,0,24.0,10.3,0.0,0,0,0,0.0,10.55,0.0,0,0,0,0.0,4.0,0.0,0,0,0,kReverse,0.0,0.0,0.0,0.0,0.0,0.0,0.0,0.0,0.0,0.0,0.0,
54.277625,true,true,true,0.0,-1.0,0.0,-0.0078125,false,false,false,false,0.0,-0.0078125,0.0,-0.0078125,false,false,false,false,5.25,11.55,0.0,6072,142,0,6.625,11.600000000000001,0.0,0,0,0,5.875,11.55,0.0,5722,0,0,4.0,11.55,0.0,0,0,0,0.0,11.7,0.0,0,0,0,0.0,4.0,0.0,0,0,0,kReverse,0.0,0.0,0.0,0.0,0.0,0.0,0.0,0.0,0.0,0.0,0.0,
54.417888999999995,true,true,true,0.0,-1.0,-0.5625,-0.0078125,false,false,false,false,0.0,-0.0078125,0.0,-0.0078125,false,false,false,false,7.0,11.55,0.0,6282,180,0,12.375,11.600000000000001,0.0,0,0,0,5.375,11.55,0.0,5722,0,0,2.5,11.55,0.0,0,0,0,0.0,11.7,0.0,0,0,0,0.0,4.0,0.0,0,0,0,kReverse,0.0,0.0,0.0,0.0,0.0,0.0,0.0,0.0,0.0,0.0,0.0,
54.524584,true,true,true,0.0,-0.6328125,-0.078125,-0.0078125,false,false,false,false,0.0,-0.0078125,0.0,-0.0078125,false,false,false,false,0.0,11.100000000000001,0.0,6511,189,0,0.0,11.2,0.0,0,0,0,20.25,11.05,0.0,5722,0,0,14.875,11.0,0.0,0,0,0,0.0,11.25,0.0,0,0,0,0.0,4.0,0.0,0,0,0,kReverse,0.0,0.0,0.0,0.0,0.0,0.0,0.0,0.0,0.0,0.0,0.0,
54.601305999999994,true,true,true,0.0,-0.046875,0.0,-0.0078125,false,false,false,false,0.0,-0.0078125,0.0,-0.0078125,false,false,false,false,0.0,11.850000000000001,0.0,6679,205,0,0.0,11.850000000000001,0.0,0,0,0,8.625,11.8,0.0,5722,0,0,5.625,11.8,0.0,0,0,0,0.0,11.9,0.0,0,0,0,0.0,4.0,0.0,0,0,0,kReverse,0.0,0.0,0.0,0.0,0.0,0.0,0.0,0.0,0.0,0.0,0.0,
54.671206,true,true,true,0.0,-0.0078125,0.0,-0.0078125,false,false,false,false,0.0,-0.0078125,0.0,-0.0078125,false,false,false,false,0.0,11.850000000000001,0.0,6812,221,0,0.125,11.850000000000001,0.0,0,0,0,1.25,11.8,0.0,5722,0,0,0.0,11.8,0.0,0,0,0,0.0,11.9,0.0,0,0,0,0.0,4.0,0.0,0,0,0,kReverse,0.0,0.0,0.0,0.0,0.0,0.0,0.0,0.0,0.0,0.0,0.0,
54.816292999999995,true,true,true,0.0,-0.0078125,0.0,-0.0078125,false,false,false,false,0.0,-0.0078125,0.0,-0.0078125,false,false,false,false,0.0,12.25,0.0,7134,231,0,0.0,12.25,0.0,0,0,0,0.0,12.25,0.0,5722,0,0,0.0,12.25,0.0,0,0,0,0.0,12.35,0.0,0,0,0,0.0,4.0,0.0,0,0,0,kReverse,0.0,0.0,0.0,0.0,0.0,0.0,0.0,0.0,0.0,0.0,0.0,
54.916428,true,true,true,0.0,-0.0078125,0.7322834730148315,-0.0078125,false,false,false,false,0.0,-0.0078125,0.0,-0.0078125,false,false,false,false,0.0,12.25,0.0,7414,232,0,0.0,12.25,0.0,0,0,0,0.625,12.25,0.0,5722,0,0,0.0,12.25,0.0,0,0,0,0.0,12.35,0.0,0,0,0,0.0,4.0,0.0,0,0,0,kReverse,0.0,0.0,0.0,0.0,0.0,0.0,0.0,0.0,0.0,0.0,0.0,
55.001093,true,true,true,0.0,-0.0078125,1.0,-0.0078125,false,false,false,false,0.0,-0.0078125,0.0,-0.0078125,false,false,false,false,0.0,12.25,0.0,7548,226,0,1.25,12.25,0.0,0,0,0,21.875,12.25,0.0,5722,0,0,20.0,12.25,0.0,0,0,0,0.0,12.35,0.0,0,0,0,0.0,4.0,0.0,0,0,0,kReverse,0.0,0.0,0.0,0.0,0.0,0.0,0.0,0.0,0.0,0.0,0.0,
55.066554,true,true,true,0.0,-0.0078125,1.0,-0.0078125,false,false,false,false,0.0,-0.0078125,0.0,-0.0078125,false,false,false,false,5.875,12.25,0.0,7723,220,0,7.5,12.25,0.0,0,0,0,29.5,12.25,0.0,5722,0,0,27.0,12.25,0.0,0,0,0,0.0,12.35,0.0,0,0,0,0.0,4.0,0.0,0,0,0,kReverse,0.0,0.0,0.0,0.0,0.0,0.0,0.0,0.0,0.0,0.0,0.0,
55.198818,true,true,true,0.0,-0.0078125,1.0,-0.0078125,false,false,false,false,0.0,-0.0078125,0.0,-0.0078125,false,false,false,false,7.625,10.0,0.0,7987,220,0,14.25,9.95,0.0,0,0,0,26.875,9.65,0.0,5722,0,0,24.875,9.75,0.0,0,0,0,0.0,10.100000000000001,0.0,0,0,0,0.0,4.0,0.0,0,0,0,kReverse,0.0,0.0,0.0,0.0,0.0,0.0,0.0,0.0,0.0,0.0,0.0,
55.355299,true,true,true,0.0,-0.0078125,1.0,-0.0078125,false,false,false,false,0.0,-0.0078125,0.0,-0.0078125,false,false,false,false,10.75,10.0,0.0,8364,206,0,17.25,10.100000000000001,0.0,0,0,0,18.875,9.95,0.0,5722,0,0,16.25,10.100000000000001,0.0,0,0,0,0.0,10.4,0.0,0,0,0,0.0,4.0,0.0,0,0,0,kReverse,0.0,0.0,0.0,0.0,0.0,0.0,0.0,0.0,0.0,0.0,0.0,
55.545218,true,true,true,0.0,-0.0078125,1.0,-0.0078125,false,false,false,false,0.0,-0.0078125,0.0,-0.0078125,false,false,false,false,11.875,10.2,0.0,8726,199,0,18.5,10.25,0.0,0,0,0,16.75,10.25,0.0,5722,0,0,13.625,10.2,0.0,0,0,0,0.0,10.4,0.0,0,0,0,0.0,4.0,0.0,0,0,0,kReverse,0.0,0.0,0.0,0.0,0.0,0.0,0.0,0.0,0.0,0.0,0.0,
55.653089,true,true,true,0.0,-0.0078125,1.0,-0.0078125,false,false,false,false,0.0,-0.0078125,0.0,-0.0078125,false,false,false,false,12.5,10.100000000000001,0.0,8916,190,0,19.5,10.25,0.0,0,0,0,16.5,10.25,0.0,5722,0,0,13.625,10.2,0.0,0,0,0,0.0,10.4,0.0,0,0,0,0.0,4.0,0.0,0,0,0,kReverse,0.0,0.0,0.0,0.0,0.0,0.0,0.0,0.0,0.0,0.0,0.0,
55.772408999999996,true,true,true,0.0,-0.0078125,0.0,-0.0078125,false,false,false,false,0.0,-0.0078125,0.0,-0.0078125,false,false,false,false,12.875,10.15,0.0,9137,184,0,19.875,10.3,0.0,0,0,0,15.875,10.2,0.0,5722,0,0,13.125,10.25,0.0,0,0,0,0.0,10.350000000000001,0.0,0,0,0,0.0,4.0,0.0,0,0,0,kReverse,0.0,0.0,0.0,0.0,0.0,0.0,0.0,0.0,0.0,0.0,0.0,
55.82677699999999,true,true,true,0.0,-0.0078125,0.0,-0.0078125,false,false,false,false,0.0,-0.0078125,0.0,-0.0078125,false,false,false,false,3.625,10.15,0.0,9241,177,0,7.625,10.3,0.0,0,0,0,5.25,10.2,0.0,5722,0,0,4.875,10.25,0.0,0,0,0,0.0,10.350000000000001,0.0,0,0,0,0.0,4.0,0.0,0,0,0,kReverse,0.0,0.0,0.0,0.0,0.0,0.0,0.0,0.0,0.0,0.0,0.0,
55.877396999999995,true,true,true,0.0,-0.0078125,-0.0078125,-0.0078125,false,false,false,false,0.0,-0.0078125,0.0,-0.0078125,false,false,false,false,0.0,10.15,0.0,9303,166,0,0.0,12.200000000000001,0.0,0,0,0,0.0,12.200000000000001,0.0,5722,0,0,0.0,12.200000000000001,0.0,0,0,0,0.0,12.25,0.0,0,0,0,0.0,4.0,0.0,0,0,0,kReverse,0.0,0.0,0.0,0.0,0.0,0.0,0.0,0.0,0.0,0.0,0.0,
56.015163,true,true,true,0.0,-0.0078125,-1.0,-0.0078125,false,false,false,false,0.0,-0.0078125,0.0,-0.0078125,false,false,false,false,0.0,12.200000000000001,0.0,9479,120,0,0.0,12.200000000000001,0.0,0,0,0,0.625,12.200000000000001,0.0,5722,0,0,0.0,12.200000000000001,0.0,0,0,0,0.0,12.25,0.0,0,0,0,0.0,4.0,0.0,0,0,0,kReverse,0.0,0.0,0.0,0.0,0.0,0.0,0.0,0.0,0.0,0.0,0.0,
56.192341,true,true,true,0.0,-0.0078125,-0.453125,-0.0078125,false,false,false,false,0.0,-0.0078125,0.0,-0.0078125,false,false,false,false,13.375,10.0,0.0,9518,-12,0,19.625,9.95,0.0,0,0,0,21.625,9.75,0.0,5722,0,0,13.0,9.8,0.0,0,0,0,0.0,10.05,0.0,0,0,0,0.0,4.0,0.0,0,0,0,kReverse,0.0,0.0,0.0,0.0,0.0,0.0,0.0,0.0,0.0,0.0,0.0,
56.312369999999994,true,true,true,0.0,-0.0078125,-0.1484375,-0.0078125,false,false,false,false,0.0,-0.0078125,0.0,-0.0078125,false,false,false,false,2.125,10.0,0.0,9481,-37,0,4.0,9.95,0.0,0,0,0,4.125,9.75,0.0,5722,0,0,2.25,9.8,0.0,0,0,0,0.0,10.05,0.0,0,0,0,0.0,4.0,0.0,0,0,0,kReverse,0.0,0.0,0.0,0.0,0.0,0.0,0.0,0.0,0.0,0.0,0.0,
56.377035,true,true,true,0.0,-0.0078125,-0.890625,-0.0078125,false,false,false,false,0.0,-0.0078125,0.0,-0.0078125,false,false,false,false,0.625,12.1,0.0,9460,-35,0,2.0,12.15,0.0,0,0,0,1.375,12.15,0.0,5722,0,0,0.5,12.1,0.0,0,0,0,0.0,12.200000000000001,0.0,0,0,0,0.0,4.0,0.0,0,0,0,kReverse,0.0,0.0,0.0,0.0,0.0,0.0,0.0,0.0,0.0,0.0,0.0,
56.455447,true,true,true,0.0,-0.0078125,-1.0,-0.0078125,false,false,false,false,0.0,-0.0078125,0.0,-0.0078125,false,false,false,false,17.75,12.1,0.0,9452,-8,0,22.75,12.15,0.0,0,0,0,21.375,12.15,0.0,5722,0,0,16.75,12.1,0.0,0,0,0,0.0,12.200000000000001,0.0,0,0,0,0.0,4.0,0.0,0,0,0,kReverse,0.0,0.0,0.0,0.0,0.0,0.0,0.0,0.0,0.0,0.0,0.0,
56.565092,true,true,true,0.0,-0.0078125,-0.3203125,-0.0078125,false,false,false,false,0.0,-0.0078125,0.0,-0.0078125,false,false,false,false,19.0,9.3,0.0,9435,-17,0,24.75,9.100000000000001,0.0,0,0,0,22.75,9.3,0.0,5722,0,0,19.125,9.3,0.0,0,0,0,0.0,9.5,0.0,0,0,0,0.0,4.0,0.0,0,0,0,kReverse,0.0,0.0,0.0,0.0,0.0,0.0,0.0,0.0,0.0,0.0,0.0,
56.635633999999996,true,true,true,0.0,-0.0078125,0.0,-0.0078125,false,false,false,false,0.0,-0.0078125,0.0,-0.0078125,false,false,false,false,3.875,9.3,0.0,9413,-34,0,7.375,9.100000000000001,0.0,0,0,0,1.5,9.3,0.0,5722,0,0,1.75,9.3,0.0,0,0,0,0.0,9.5,0.0,0,0,0,0.0,4.0,0.0,0,0,0,kReverse,0.0,0.0,0.0,0.0,0.0,0.0,0.0,0.0,0.0,0.0,0.0,
56.714396,true,true,true,0.0,-0.0078125,0.0,-0.0078125,false,false,false,false,0.0,-0.0078125,0.0,-0.0078125,false,false,false,false,0.0,12.200000000000001,0.0,9393,-26,0,0.125,12.200000000000001,0.0,0,0,0,0.0,12.200000000000001,0.0,5722,0,0,0.0,12.200000000000001,0.0,0,0,0,0.0,12.25,0.0,0,0,0,0.0,4.0,0.0,0,0,0,kReverse,0.0,0.0,0.0,0.0,0.0,0.0,0.0,0.0,0.0,0.0,0.0,
56.83325,true,true,true,0.0,-0.0078125,0.0,-0.0078125,false,false,false,false,0.0,-0.0078125,0.0,-0.0078125,false,false,false,false,0.0,12.200000000000001,0.0,9388,-2,0,0.0,12.200000000000001,0.0,0,0,0,0.0,12.200000000000001,0.0,5722,0,0,0.0,12.25,0.0,0,0,0,0.0,12.35,0.0,0,0,0,0.0,4.0,0.0,0,0,0,kReverse,0.0,0.0,0.0,0.0,0.0,0.0,0.0,0.0,0.0,0.0,0.0,
56.915079999999996,true,true,true,0.0,-0.0078125,0.0,-0.0078125,false,false,false,false,0.0,-0.0078125,0.0,-0.0078125,false,false,false,false,0.0,12.25,0.0,9389,1,0,0.0,12.3,0.0,0,0,0,0.0,12.25,0.0,5722,0,0,0.0,12.25,0.0,0,0,0,0.0,12.35,0.0,0,0,0,0.0,4.0,0.0,0,0,0,kReverse,0.0,0.0,0.0,0.0,0.0,0.0,0.0,0.0,0.0,0.0,0.0,
56.988341999999996,true,true,true,0.0,-0.0078125,0.0,-0.0078125,false,false,false,false,0.0,-0.0078125,0.0,-0.0078125,false,false,false,false,0.0,12.25,0.0,9389,0,0,0.0,12.3,0.0,0,0,0,0.0,12.25,0.0,5722,0,0,0.0,12.25,0.0,0,0,0,0.0,12.35,0.0,0,0,0,0.0,4.0,0.0,0,0,0,kReverse,0.0,0.0,0.0,0.0,0.0,0.0,0.0,0.0,0.0,0.0,0.0,
57.061218999999994,true,true,true,0.0,-0.0078125,0.0,-0.0078125,false,false,false,false,0.0,-0.0078125,0.0,-0.0078125,false,false,false,false,0.0,12.3,0.0,9389,0,0,0.0,12.3,0.0,0,0,0,0.0,12.3,0.0,5722,0,0,0.0,12.3,0.0,0,0,0,0.0,12.35,0.0,0,0,0,0.0,4.0,0.0,0,0,0,kReverse,0.0,0.0,0.0,0.0,0.0,0.0,0.0,0.0,0.0,0.0,0.0,
57.15263099999999,true,true,true,0.0,-0.0078125,0.0,-0.0078125,false,false,false,false,0.0,-0.0078125,0.0,-0.0078125,false,false,false,false,0.0,12.3,0.0,9389,0,0,0.125,12.3,0.0,0,0,0,0.0,12.3,0.0,5722,0,0,0.0,12.3,0.0,0,0,0,0.0,12.4,0.0,0,0,0,0.0,4.0,0.0,0,0,0,kReverse,0.0,0.0,0.0,0.0,0.0,0.0,0.0,0.0,0.0,0.0,0.0,
57.2472,true,true,true,0.0,-0.0078125,0.0,-0.0078125,false,false,false,false,0.0,-0.0078125,0.0,-0.0078125,false,false,false,false,0.0,12.3,0.0,9389,0,0,0.0,12.35,0.0,0,0,0,0.0,12.3,0.0,5722,0,0,0.0,12.3,0.0,0,0,0,0.0,12.4,0.0,0,0,0,0.0,4.0,0.0,0,0,0,kReverse,0.0,0.0,0.0,0.0,0.0,0.0,0.0,0.0,0.0,0.0,0.0,
57.323663999999994,true,true,true,0.0,-0.0078125,0.0,-0.0078125,false,false,false,false,0.0,-0.0078125,0.0,-0.0078125,false,false,false,false,0.0,12.35,0.0,9389,0,0,0.0,12.35,0.0,0,0,0,0.0,12.35,0.0,5722,0,0,0.0,12.3,0.0,0,0,0,0.0,12.4,0.0,0,0,0,0.0,4.0,0.0,0,0,0,kReverse,0.0,0.0,0.0,0.0,0.0,0.0,0.0,0.0,0.0,0.0,0.0,
57.480081,true,true,true,0.0,-0.0078125,0.0,-0.0078125,false,false,false,false,0.0,-0.0078125,0.0,-0.0078125,false,false,false,false,0.0,12.35,0.0,9389,0,0,0.0,12.35,0.0,0,0,0,0.0,12.35,0.0,5722,0,0,0.0,12.35,0.0,0,0,0,0.0,12.4,0.0,0,0,0,0.0,4.0,0.0,0,0,0,kReverse,0.0,0.0,0.0,0.0,0.0,0.0,0.0,0.0,0.0,0.0,0.0,
57.568104,true,true,true,0.0,-0.0078125,0.0,-0.0078125,false,false,false,false,0.0,-0.0078125,0.0,-0.0078125,false,false,false,false,0.0,12.35,0.0,9389,0,0,0.0,12.35,0.0,0,0,0,0.0,12.35,0.0,5722,0,0,0.0,12.35,0.0,0,0,0,0.0,12.4,0.0,0,0,0,0.0,4.0,0.0,0,0,0,kReverse,0.0,0.0,0.0,0.0,0.0,0.0,0.0,0.0,0.0,0.0,0.0,
57.63582999999999,true,true,true,0.0,-0.0078125,0.0,-0.0078125,false,false,false,false,0.0,-0.0078125,0.0,-0.0078125,false,false,false,false,0.0,12.35,0.0,9389,0,0,0.0,12.35,0.0,0,0,0,0.0,12.35,0.0,5722,0,0,0.0,12.35,0.0,0,0,0,0.0,12.4,0.0,0,0,0,0.0,4.0,0.0,0,0,0,kReverse,0.0,0.0,0.0,0.0,0.0,0.0,0.0,0.0,0.0,0.0,0.0,
57.697852999999995,true,true,true,0.0,-0.0078125,0.0,-0.0078125,false,false,false,false,0.0,-0.0078125,0.0,-0.0078125,false,false,false,false,0.0,12.35,0.0,9389,0,0,0.0,12.35,0.0,0,0,0,0.0,12.35,0.0,5722,0,0,0.0,12.35,0.0,0,0,0,0.0,12.4,0.0,0,0,0,0.0,4.0,0.0,0,0,0,kReverse,0.0,0.0,0.0,0.0,0.0,0.0,0.0,0.0,0.0,0.0,0.0,
57.772572999999994,true,true,true,0.0,-0.0078125,0.0,-0.0078125,false,false,false,false,0.0,-0.0078125,0.0,-0.0078125,false,false,false,false,0.0,12.35,0.0,9389,0,0,0.0,12.35,0.0,0,0,0,0.0,12.35,0.0,5722,0,0,0.0,12.35,0.0,0,0,0,0.0,12.4,0.0,0,0,0,0.0,4.0,0.0,0,0,0,kReverse,0.0,0.0,0.0,0.0,0.0,0.0,0.0,0.0,0.0,0.0,0.0,
57.894498,true,true,true,0.0,-0.0078125,0.0,-0.0078125,false,false,false,false,0.0,-0.0078125,0.0,-0.0078125,false,false,false,false,0.0,12.35,0.0,9389,0,0,0.0,12.35,0.0,0,0,0,0.0,12.35,0.0,5722,0,0,0.0,12.35,0.0,0,0,0,0.0,12.4,0.0,0,0,0,0.0,4.0,0.0,0,0,0,kReverse,0.0,0.0,0.0,0.0,0.0,0.0,0.0,0.0,0.0,0.0,0.0,
57.958579,true,true,true,0.0,-0.0078125,0.0,-0.0078125,false,false,false,false,0.0,-0.0078125,0.0,-0.0078125,false,false,false,false,0.0,12.35,0.0,9389,0,0,0.0,12.35,0.0,0,0,0,0.0,12.35,0.0,5722,0,0,0.0,12.35,0.0,0,0,0,0.0,12.4,0.0,0,0,0,0.0,4.0,0.0,0,0,0,kReverse,0.0,0.0,0.0,0.0,0.0,0.0,0.0,0.0,0.0,0.0,0.0,
58.03125599999999,true,true,true,0.0,-0.0078125,0.0,-0.0078125,false,false,false,false,0.0,-0.0078125,0.0,-0.0078125,false,false,false,false,0.0,12.35,0.0,9389,0,0,0.0,12.35,0.0,0,0,0,0.0,12.35,0.0,5722,0,0,0.0,12.35,0.0,0,0,0,0.0,12.4,0.0,0,0,0,0.0,4.0,0.0,0,0,0,kReverse,0.0,0.0,0.0,0.0,0.0,0.0,0.0,0.0,0.0,0.0,0.0,
58.150858,true,true,true,0.0,-0.0078125,0.0,-0.0078125,false,false,false,false,0.0,-0.0078125,0.0,-0.0078125,false,false,false,false,0.0,12.35,0.0,9389,0,0,0.0,12.35,0.0,0,0,0,0.0,12.35,0.0,5722,0,0,0.0,12.35,0.0,0,0,0,0.0,12.4,0.0,0,0,0,0.0,4.0,0.0,0,0,0,kReverse,0.0,0.0,0.0,0.0,0.0,0.0,0.0,0.0,0.0,0.0,0.0,
58.217014999999996,true,true,true,0.0,-0.0078125,0.0,-0.0078125,false,false,false,false,0.0,-0.0078125,0.0,-0.0078125,false,false,false,false,0.0,12.35,0.0,9389,0,0,0.0,12.35,0.0,0,0,0,0.0,12.35,0.0,5722,0,0,0.0,12.35,0.0,0,0,0,0.0,12.4,0.0,0,0,0,0.0,4.0,0.0,0,0,0,kReverse,0.0,0.0,0.0,0.0,0.0,0.0,0.0,0.0,0.0,0.0,0.0,
58.275116,true,true,true,0.0,-0.0078125,0.0,-0.0078125,false,false,false,false,0.0,-0.0078125,0.0,-0.0078125,false,false,false,false,0.0,12.35,0.0,9389,0,0,0.0,12.35,0.0,0,0,0,0.0,12.35,0.0,5722,0,0,0.0,12.35,0.0,0,0,0,0.0,12.4,0.0,0,0,0,0.0,4.0,0.0,0,0,0,kReverse,0.0,0.0,0.0,0.0,0.0,0.0,0.0,0.0,0.0,0.0,0.0,
58.41633399999999,true,true,true,0.0,-0.0078125,0.0,-0.0078125,false,false,false,false,0.0,-0.0078125,0.0,-0.0078125,false,false,false,false,0.0,12.35,0.0,9389,0,0,0.0,12.35,0.0,0,0,0,0.0,12.35,0.0,5722,0,0,0.0,12.35,0.0,0,0,0,0.0,12.4,0.0,0,0,0,0.0,4.0,0.0,0,0,0,kReverse,0.0,0.0,0.0,0.0,0.0,0.0,0.0,0.0,0.0,0.0,0.0,
58.492684,true,true,true,0.0,-0.1953125,0.0,-0.0078125,false,false,false,false,0.0,-0.0078125,0.0,-0.0078125,false,false,false,false,0.0,12.35,0.0,9389,0,0,0.125,12.35,0.0,0,0,0,0.0,12.35,0.0,5722,0,0,0.0,12.35,0.0,0,0,0,0.0,12.4,0.0,0,0,0,0.0,4.0,0.0,0,0,0,kReverse,0.0,0.0,0.0,0.0,0.0,0.0,0.0,0.0,0.0,0.0,0.0,
58.560052999999996,true,true,true,0.0,-0.3828125,0.0,-0.0078125,false,false,false,false,0.0,-0.0078125,0.0,-0.0078125,false,false,false,false,0.0,12.35,0.0,9392,3,0,0.625,12.35,0.0,0,0,0,0.5,12.35,0.0,5722,0,0,0.0,12.35,0.0,0,0,0,0.0,12.4,0.0,0,0,0,0.0,4.0,0.0,0,0,0,kReverse,0.0,0.0,0.0,0.0,0.0,0.0,0.0,0.0,0.0,0.0,0.0,
58.63553999999999,true,true,true,0.0,-0.4296875,0.0,-0.0078125,false,false,false,false,0.0,-0.0078125,0.0,-0.0078125,false,false,false,false,2.125,11.95,0.0,9402,13,0,3.0,12.0,0.0,0,0,0,3.5,11.95,0.0,5722,0,0,2.625,11.95,0.0,0,0,0,0.0,12.05,0.0,0,0,0,0.0,4.0,0.0,0,0,0,kReverse,0.0,0.0,0.0,0.0,0.0,0.0,0.0,0.0,0.0,0.0,0.0,
58.71280599999999,true,true,true,0.0,-0.4296875,0.0,-0.0078125,false,false,false,false,0.0,-0.0078125,0.0,-0.0078125,false,false,false,false,4.0,11.95,0.0,9412,14,0,6.25,12.0,0.0,0,0,0,4.875,11.95,0.0,5722,0,0,3.0,11.95,0.0,0,0,0,0.0,12.05,0.0,0,0,0,0.0,4.0,0.0,0,0,0,kReverse,0.0,0.0,0.0,0.0,0.0,0.0,0.0,0.0,0.0,0.0,0.0,
58.86663,true,true,true,0.0,-0.359375,0.0,-0.0078125,false,false,false,false,0.0,-0.0078125,0.0,-0.0078125,false,false,false,false,2.5,11.75,0.0,9436,18,0,4.5,11.850000000000001,0.0,0,0,0,2.875,11.75,0.0,5722,0,0,1.875,11.8,0.0,0,0,0,0.0,11.9,0.0,0,0,0,0.0,4.0,0.0,0,0,0,kReverse,0.0,0.0,0.0,0.0,0.0,0.0,0.0,0.0,0.0,0.0,0.0,
58.993528999999995,true,true,true,0.0,-0.3046875,0.0,-0.0078125,false,false,false,false,0.0,-0.0078125,0.0,-0.0078125,false,false,false,false,1.125,12.1,0.0,9466,24,0,2.25,12.1,0.0,0,0,0,1.5,12.1,0.0,5722,0,0,0.0,12.05,0.0,0,0,0,0.0,12.200000000000001,0.0,0,0,0,0.0,4.0,0.0,0,0,0,kReverse,0.0,0.0,0.0,0.0,0.0,0.0,0.0,0.0,0.0,0.0,0.0,
59.05613699999999,true,true,true,0.0,-0.296875,0.0,-0.0078125,false,false,false,false,0.0,-0.0078125,0.0,-0.0078125,false,false,false,false,0.0,12.1,0.0,9484,28,0,1.75,12.1,0.0,0,0,0,1.0,12.1,0.0,5722,0,0,0.0,12.05,0.0,0,0,0,0.0,12.200000000000001,0.0,0,0,0,0.0,4.0,0.0,0,0,0,kReverse,0.0,0.0,0.0,0.0,0.0,0.0,0.0,0.0,0.0,0.0,0.0,
59.19714999999999,true,true,true,0.0,-0.0859375,0.0,-0.0078125,false,false,false,false,0.0,-0.0078125,0.0,-0.0078125,false,false,false,false,0.0,12.200000000000001,0.0,9541,43,0,1.0,12.25,0.0,0,0,0,0.375,12.200000000000001,0.0,5722,0,0,0.0,12.200000000000001,0.0,0,0,0,0.0,12.3,0.0,0,0,0,0.0,4.0,0.0,0,0,0,kReverse,0.0,0.0,0.0,0.0,0.0,0.0,0.0,0.0,0.0,0.0,0.0,
59.376537,true,true,true,0.0,-0.0078125,0.4173228442668915,-0.0078125,false,false,false,false,0.0,-0.0078125,0.0,-0.0078125,false,false,false,false,0.0,12.35,0.0,9627,51,0,1.0,12.35,0.0,0,0,0,0.0,12.35,0.0,5722,0,0,2.0,12.0,0.0,0,0,0,0.0,12.15,0.0,0,0,0,0.0,4.0,0.0,0,0,0,kReverse,0.0,0.0,0.0,0.0,0.0,0.0,0.0,0.0,0.0,0.0,0.0,
59.61832,true,true,true,0.0,-0.0078125,0.6062992215156555,-0.0078125,false,false,false,false,0.0,-0.0078125,0.0,-0.0078125,false,false,false,false,3.75,11.7,0.0,9791,62,0,5.625,11.75,0.0,0,0,0,6.5,11.65,0.0,5722,0,0,6.625,11.75,0.0,0,0,0,0.0,11.850000000000001,0.0,0,0,0,0.0,4.0,0.0,0,0,0,kReverse,0.0,0.0,0.0,0.0,0.0,0.0,0.0,0.0,0.0,0.0,0.0,
59.774926,true,true,true,0.0,-0.0078125,0.6062992215156555,-0.0078125,false,false,false,false,0.0,-0.0078125,0.0,-0.0078125,false,false,false,false,7.875,11.100000000000001,0.0,9876,62,0,12.125,11.05,0.0,0,0,0,10.0,11.0,0.0,5722,0,0,8.375,11.100000000000001,0.0,0,0,0,0.0,11.2,0.0,0,0,0,0.0,4.0,0.0,0,0,0,kReverse,0.0,0.0,0.0,0.0,0.0,0.0,0.0,0.0,0.0,0.0,0.0,
59.92197399999999,true,true,true,0.0,-0.0078125,0.6062992215156555,-0.0078125,false,false,false,false,0.0,-0.0078125,0.0,-0.0078125,false,false,false,false,7.0,11.2,0.0,9984,70,0,11.125,11.2,0.0,0,0,0,8.75,11.2,0.0,5722,0,0,7.125,11.15,0.0,0,0,0,0.0,11.350000000000001,0.0,0,0,0,0.0,4.0,0.0,0,0,0,kReverse,0.0,0.0,0.0,0.0,0.0,0.0,0.0,0.0,0.0,0.0,0.0,
59.97452499999999,true,true,true,0.0,-0.0078125,0.6062992215156555,-0.0078125,false,false,false,false,0.0,-0.0078125,0.0,-0.0078125,false,false,false,false,6.875,11.2,0.0,10013,71,0,10.875,11.2,0.0,0,0,0,8.5,11.2,0.0,5722,0,0,6.75,11.15,0.0,0,0,0,0.0,11.350000000000001,0.0,0,0,0,0.0,4.0,0.0,0,0,0,kReverse,0.0,0.0,0.0,0.0,0.0,0.0,0.0,0.0,0.0,0.0,0.0,
60.069528,true,true,true,0.0,-0.0078125,0.3779527544975281,-0.0078125,false,false,false,false,0.0,-0.0078125,0.0,-0.0078125,false,false,false,false,6.0,11.2,0.0,10094,81,0,10.25,11.3,0.0,0,0,0,7.625,11.3,0.0,5722,0,0,5.5,11.3,0.0,0,0,0,0.0,11.4,0.0,0,0,0,0.0,4.0,0.0,0,0,0,kReverse,0.0,0.0,0.0,0.0,0.0,0.0,0.0,0.0,0.0,0.0,0.0,
60.191804,true,true,true,0.0,-0.0078125,0.0,-0.0078125,false,false,false,false,0.0,-0.0078125,0.0,-0.0078125,false,false,false,false,4.0,11.2,0.0,10195,83,0,6.75,11.3,0.0,0,0,0,5.25,11.3,0.0,5722,0,0,3.75,11.3,0.0,0,0,0,0.0,11.75,0.0,0,0,0,0.0,4.0,0.0,0,0,0,kReverse,0.0,0.0,0.0,0.0,0.0,0.0,0.0,0.0,0.0,0.0,0.0,
60.26979599999999,true,true,true,0.0,-0.0078125,0.0,-0.0078125,false,false,false,false,0.0,-0.0078125,0.0,-0.0078125,false,false,false,false,0.0,11.600000000000001,0.0,10250,71,0,0.625,11.600000000000001,0.0,0,0,0,0.125,11.600000000000001,0.0,5722,0,0,0.125,11.600000000000001,0.0,0,0,0,0.0,11.75,0.0,0,0,0,0.0,4.0,0.0,0,0,0,kReverse,0.0,0.0,0.0,0.0,0.0,0.0,0.0,0.0,0.0,0.0,0.0,
60.333375,true,true,true,0.0,-0.0078125,0.0,-0.0078125,false,false,false,false,0.0,-0.0078125,0.0,-0.0078125,false,false,false,false,0.0,11.600000000000001,0.0,10274,49,0,0.125,11.600000000000001,0.0,0,0,0,0.0,11.600000000000001,0.0,5722,0,0,0.0,11.600000000000001,0.0,0,0,0,0.0,11.75,0.0,0,0,0,0.0,4.0,0.0,0,0,0,kReverse,0.0,0.0,0.0,0.0,0.0,0.0,0.0,0.0,0.0,0.0,0.0,
60.389272,true,true,true,0.0,-0.0078125,0.0,-0.0078125,false,false,false,false,0.0,-0.0078125,0.0,-0.0078125,false,false,false,false,0.0,12.3,0.0,10289,30,0,0.0,12.35,0.0,0,0,0,0.0,12.3,0.0,5722,0,0,0.0,12.3,0.0,0,0,0,0.0,12.4,0.0,0,0,0,0.0,4.0,0.0,0,0,0,kReverse,0.0,0.0,0.0,0.0,0.0,0.0,0.0,0.0,0.0,0.0,0.0,
60.467313,true,true,true,0.0,-0.0078125,0.0,-0.0078125,false,false,false,false,0.0,-0.0078125,0.0,-0.0078125,false,false,false,false,0.0,12.3,0.0,10296,11,0,0.0,12.35,0.0,0,0,0,0.0,12.3,0.0,5722,0,0,0.0,12.3,0.0,0,0,0,0.0,12.4,0.0,0,0,0,0.0,4.0,0.0,0,0,0,kReverse,0.0,0.0,0.0,0.0,0.0,0.0,0.0,0.0,0.0,0.0,0.0,
60.528211,true,true,true,0.0,-0.0078125,0.0,-0.0078125,false,false,false,false,0.0,-0.0078125,0.0,-0.0078125,false,false,false,false,0.0,12.35,0.0,10296,2,0,0.125,12.35,0.0,0,0,0,0.0,12.35,0.0,5722,0,0,0.0,12.35,0.0,0,0,0,0.0,12.4,0.0,0,0,0,0.0,4.0,0.0,0,0,0,kReverse,0.0,0.0,0.0,0.0,0.0,0.0,0.0,0.0,0.0,0.0,0.0,
60.594077,true,true,true,0.0,-0.0078125,0.0,-0.0078125,false,false,false,false,0.0,-0.0078125,0.0,-0.0078125,false,false,false,false,0.0,12.35,0.0,10296,0,0,0.0,12.35,0.0,0,0,0,0.0,12.35,0.0,5722,0,0,0.0,12.35,0.0,0,0,0,0.0,12.4,0.0,0,0,0,0.0,4.0,0.0,0,0,0,kReverse,0.0,0.0,0.0,0.0,0.0,0.0,0.0,0.0,0.0,0.0,0.0,
60.646685,true,true,true,0.0,-0.0078125,0.0,-0.0078125,false,false,false,false,0.0,-0.0078125,0.0,-0.0078125,false,false,false,false,0.0,12.35,0.0,10296,0,0,0.0,12.35,0.0,0,0,0,0.0,12.35,0.0,5722,0,0,0.0,12.35,0.0,0,0,0,0.0,12.4,0.0,0,0,0,0.0,4.0,0.0,0,0,0,kReverse,0.0,0.0,0.0,0.0,0.0,0.0,0.0,0.0,0.0,0.0,0.0,
60.723746,true,true,true,0.0,-0.0078125,0.0,-0.0078125,false,false,false,false,0.0,-0.0078125,0.0,-0.0078125,false,false,false,false,0.0,12.35,0.0,10295,-1,0,0.0,12.35,0.0,0,0,0,0.0,12.35,0.0,5722,0,0,0.0,12.35,0.0,0,0,0,0.0,12.4,0.0,0,0,0,0.0,4.0,0.0,0,0,0,kReverse,0.0,0.0,0.0,0.0,0.0,0.0,0.0,0.0,0.0,0.0,0.0,
60.876324999999994,true,true,true,0.0,-0.0078125,0.0,-0.0078125,false,false,false,false,0.0,-0.0078125,0.0,-0.0078125,false,false,false,false,0.0,12.35,0.0,10295,0,0,0.125,12.35,0.0,0,0,0,0.0,12.35,0.0,5722,0,0,0.0,12.35,0.0,0,0,0,0.0,12.4,0.0,0,0,0,0.0,4.0,0.0,0,0,0,kReverse,0.0,0.0,0.0,0.0,0.0,0.0,0.0,0.0,0.0,0.0,0.0,
60.997087,true,true,true,0.0,-0.0078125,-0.28125,-0.0078125,false,false,false,false,0.0,-0.0078125,0.0,-0.0078125,false,false,false,false,0.0,12.35,0.0,10295,0,0,0.0,12.35,0.0,0,0,0,0.0,12.35,0.0,5722,0,0,0.0,12.35,0.0,0,0,0,0.0,12.4,0.0,0,0,0,0.0,4.0,0.0,0,0,0,kReverse,0.0,0.0,0.0,0.0,0.0,0.0,0.0,0.0,0.0,0.0,0.0,
61.075903,true,true,true,0.0,-0.0078125,-0.546875,-0.0078125,false,false,false,false,0.0,-0.0078125,0.0,-0.0078125,false,false,false,false,0.0,12.35,0.0,10292,-3,0,1.375,12.35,0.0,0,0,0,1.375,12.35,0.0,5722,0,0,0.0,12.35,0.0,0,0,0,0.0,12.4,0.0,0,0,0,0.0,4.0,0.0,0,0,0,kReverse,0.0,0.0,0.0,0.0,0.0,0.0,0.0,0.0,0.0,0.0,0.0,
61.147757999999996,true,true,true,0.0,-0.0078125,-0.5546875,-0.0078125,false,false,false,false,0.0,-0.0078125,0.0,-0.0078125,false,false,false,false,5.625,12.35,0.0,10285,-9,0,8.375,12.35,0.0,0,0,0,8.0,12.35,0.0,5722,0,0,5.375,12.35,0.0,0,0,0,0.0,12.4,0.0,0,0,0,0.0,4.0,0.0,0,0,0,kReverse,0.0,0.0,0.0,0.0,0.0,0.0,0.0,0.0,0.0,0.0,0.0,
61.203682,true,true,true,0.0,-0.0078125,-0.5625,-0.0078125,false,false,false,false,0.0,-0.0078125,0.0,-0.0078125,false,false,false,false,5.75,11.100000000000001,0.0,10277,-12,0,9.375,11.3,0.0,0,0,0,8.875,11.15,0.0,5722,0,0,6.0,11.3,0.0,0,0,0,0.0,11.350000000000001,0.0,0,0,0,0.0,4.0,0.0,0,0,0,kReverse,0.0,0.0,0.0,0.0,0.0,0.0,0.0,0.0,0.0,0.0,0.0,
61.33857999999999,true,true,true,0.0,-0.0078125,-0.5625,-0.0078125,false,false,false,false,0.0,-0.0078125,0.0,-0.0078125,false,false,false,false,5.25,11.2,0.0,10244,-29,0,8.625,11.3,0.0,0,0,0,8.125,11.3,0.0,5722,0,0,5.875,11.2,0.0,0,0,0,0.0,11.350000000000001,0.0,0,0,0,0.0,4.0,0.0,0,0,0,kReverse,0.0,0.0,0.0,0.0,0.0,0.0,0.0,0.0,0.0,0.0,0.0,
61.476757,true,true,true,0.0,-0.0078125,-0.4453125,-0.0078125,false,false,false,false,0.0,-0.0078125,0.0,-0.0078125,false,false,false,false,5.0,11.2,0.0,10179,-48,0,8.25,11.3,0.0,0,0,0,7.625,11.2,0.0,5722,0,0,5.5,11.25,0.0,0,0,0,0.0,11.350000000000001,0.0,0,0,0,0.0,4.0,0.0,0,0,0,kReverse,0.0,0.0,0.0,0.0,0.0,0.0,0.0,0.0,0.0,0.0,0.0,
61.642534,true,true,true,0.0,-0.0078125,-0.3046875,-0.0078125,false,false,false,false,0.0,-0.0078125,0.0,-0.0078125,false,false,false,false,2.625,11.5,0.0,10086,-49,0,5.625,11.55,0.0,0,0,0,5.0,11.55,0.0,5722,0,0,2.75,11.55,0.0,0,0,0,0.0,11.65,0.0,0,0,0,0.0,4.0,0.0,0,0,0,kReverse,0.0,0.0,0.0,0.0,0.0,0.0,0.0,0.0,0.0,0.0,0.0,
61.818528,true,true,true,0.0,-0.0078125,-0.28125,-0.0078125,false,false,false,false,0.0,-0.0078125,0.0,-0.0078125,false,false,false,false,1.75,11.75,0.0,10037,-19,0,3.75,11.8,0.0,0,0,0,3.25,11.8,0.0,5722,0,0,1.75,11.8,0.0,0,0,0,0.0,11.9,0.0,0,0,0,0.0,4.0,0.0,0,0,0,kReverse,0.0,0.0,0.0,0.0,0.0,0.0,0.0,0.0,0.0,0.0,0.0,
61.916394999999994,true,true,true,0.0,-0.0078125,0.0,-0.0078125,false,false,false,false,0.0,-0.0078125,0.0,-0.0078125,false,false,false,false,1.625,11.75,0.0,10036,-3,0,3.75,11.8,0.0,0,0,0,3.125,11.8,0.0,5722,0,0,1.875,11.8,0.0,0,0,0,0.0,11.9,0.0,0,0,0,0.0,4.0,0.0,0,0,0,kReverse,0.0,0.0,0.0,0.0,0.0,0.0,0.0,0.0,0.0,0.0,0.0,
61.972079,true,true,true,0.0,-0.0078125,0.0,-0.0078125,false,false,false,false,0.0,-0.0078125,0.0,-0.0078125,false,false,false,false,0.125,12.25,0.0,10038,2,0,1.375,12.25,0.0,0,0,0,0.875,12.25,0.0,5722,0,0,0.375,12.25,0.0,0,0,0,0.0,12.35,0.0,0,0,0,0.0,4.0,0.0,0,0,0,kReverse,0.0,0.0,0.0,0.0,0.0,0.0,0.0,0.0,0.0,0.0,0.0,
62.050888,true,true,true,0.0,-0.0078125,0.0,-0.0078125,false,false,false,false,0.0,-0.0078125,0.0,-0.0078125,false,false,false,false,0.0,12.25,0.0,10046,9,0,0.0,12.25,0.0,0,0,0,0.0,12.25,0.0,5722,0,0,0.0,12.25,0.0,0,0,0,0.0,12.35,0.0,0,0,0,0.0,4.0,0.0,0,0,0,kReverse,0.0,0.0,0.0,0.0,0.0,0.0,0.0,0.0,0.0,0.0,0.0,
62.254729999999995,true,true,true,0.0,-0.0078125,-0.2734375,-0.0078125,false,false,false,false,0.0,-0.0078125,0.0,-0.0078125,false,false,false,false,0.0,12.3,0.0,10050,1,0,0.125,12.3,0.0,0,0,0,0.0,12.3,0.0,5722,0,0,0.0,12.3,0.0,0,0,0,0.0,12.3,0.0,0,0,0,0.0,4.0,0.0,0,0,0,kReverse,0.0,0.0,0.0,0.0,0.0,0.0,0.0,0.0,0.0,0.0,0.0,
62.46900599999999,true,true,true,0.0,-0.0078125,-0.5703125,-0.0078125,false,false,false,false,0.0,-0.0078125,0.0,-0.0078125,false,false,false,false,3.125,12.1,0.0,10042,-2,0,4.125,12.15,0.0,0,0,0,4.375,12.1,0.0,5722,0,0,4.125,12.1,0.0,0,0,0,0.0,12.200000000000001,0.0,0,0,0,0.0,4.0,0.0,0,0,0,kReverse,0.0,0.0,0.0,0.0,0.0,0.0,0.0,0.0,0.0,0.0,0.0,
62.688179,true,true,true,0.0,-0.0078125,-0.5703125,-0.0078125,false,false,false,false,0.0,-0.0078125,0.0,-0.0078125,false,false,false,false,5.875,11.0,0.0,10030,-8,0,9.5,10.95,0.0,0,0,0,9.125,11.05,0.0,5722,0,0,6.625,11.0,0.0,0,0,0,0.0,11.15,0.0,0,0,0,0.0,4.0,0.0,0,0,0,kReverse,0.0,0.0,0.0,0.0,0.0,0.0,0.0,0.0,0.0,0.0,0.0,
62.756479,true,true,true,0.0,-0.0078125,-0.5078125,-0.0078125,false,false,false,false,0.0,-0.0078125,0.0,-0.0078125,false,false,false,false,5.875,11.0,0.0,10020,-14,0,9.125,10.95,0.0,0,0,0,9.0,11.05,0.0,5722,0,0,6.125,11.15,0.0,0,0,0,0.0,11.3,0.0,0,0,0,0.0,4.0,0.0,0,0,0,kReverse,0.0,0.0,0.0,0.0,0.0,0.0,0.0,0.0,0.0,0.0,0.0,
62.816483999999996,true,true,true,0.0,-0.0078125,-0.5078125,-0.0078125,false,false,false,false,0.0,-0.0078125,0.0,-0.0078125,false,false,false,false,5.5,11.15,0.0,10003,-24,0,9.0,11.2,0.0,0,0,0,8.625,11.100000000000001,0.0,5722,0,0,6.25,11.15,0.0,0,0,0,0.0,11.3,0.0,0,0,0,0.0,4.0,0.0,0,0,0,kReverse,0.0,0.0,0.0,0.0,0.0,0.0,0.0,0.0,0.0,0.0,0.0,
62.931844999999996,true,true,true,0.0,-0.0078125,-0.5078125,-0.0078125,false,false,false,false,0.0,-0.0078125,0.0,-0.0078125,false,false,false,false,4.125,11.350000000000001,0.0,9962,-34,0,7.125,11.350000000000001,0.0,0,0,0,7.125,11.3,0.0,5722,0,0,4.625,11.350000000000001,0.0,0,0,0,0.0,11.5,0.0,0,0,0,0.0,4.0,0.0,0,0,0,kReverse,0.0,0.0,0.0,0.0,0.0,0.0,0.0,0.0,0.0,0.0,0.0,
63.015997,true,true,true,0.0,-0.0078125,-0.5078125,-0.0078125,false,false,false,false,0.0,-0.0078125,0.0,-0.0078125,false,false,false,false,4.375,11.350000000000001,0.0,9936,-31,0,7.25,11.350000000000001,0.0,0,0,0,7.25,11.3,0.0,5722,0,0,5.0,11.350000000000001,0.0,0,0,0,0.0,11.5,0.0,0,0,0,0.0,4.0,0.0,0,0,0,kReverse,0.0,0.0,0.0,0.0,0.0,0.0,0.0,0.0,0.0,0.0,0.0,
63.070575999999996,true,true,true,0.0,-0.0078125,-0.5078125,-0.0078125,false,false,false,false,0.0,-0.0078125,0.0,-0.0078125,false,false,false,false,4.5,11.350000000000001,0.0,9913,-36,0,7.5,11.350000000000001,0.0,0,0,0,7.25,11.3,0.0,5722,0,0,5.0,11.350000000000001,0.0,0,0,0,0.0,11.5,0.0,0,0,0,0.0,4.0,0.0,0,0,0,kReverse,0.0,0.0,0.0,0.0,0.0,0.0,0.0,0.0,0.0,0.0,0.0,
63.20299199999999,true,true,true,0.0,-0.0078125,-0.5078125,-0.0078125,false,false,false,false,0.0,-0.0078125,0.0,-0.0078125,false,false,false,false,4.625,11.25,0.0,9858,-39,0,7.625,11.3,0.0,0,0,0,7.5,11.3,0.0,5722,0,0,5.0,11.3,0.0,0,0,0,0.0,11.4,0.0,0,0,0,0.0,4.0,0.0,0,0,0,kReverse,0.0,0.0,0.0,0.0,0.0,0.0,0.0,0.0,0.0,0.0,0.0,
63.297702,true,true,true,0.0,-0.0078125,-0.5078125,-0.0078125,false,false,false,false,0.0,-0.0078125,0.0,-0.0078125,false,false,false,false,4.375,11.3,0.0,9818,-40,0,7.625,11.3,0.0,0,0,0,7.375,11.3,0.0,5722,0,0,5.0,11.2,0.0,0,0,0,0.0,11.4,0.0,0,0,0,0.0,4.0,0.0,0,0,0,kReverse,0.0,0.0,0.0,0.0,0.0,0.0,0.0,0.0,0.0,0.0,0.0,
63.387558,true,true,true,0.0,-0.0078125,-0.15625,-0.0078125,false,false,false,false,0.0,-0.0078125,0.0,-0.0078125,false,false,false,false,4.375,11.3,0.0,9785,-41,0,7.25,11.3,0.0,0,0,0,7.25,11.3,0.0,5722,0,0,4.75,11.2,0.0,0,0,0,0.0,11.4,0.0,0,0,0,0.0,4.0,0.0,0,0,0,kReverse,0.0,0.0,0.0,0.0,0.0,0.0,0.0,0.0,0.0,0.0,0.0,
63.453162000000006,true,true,true,0.0,-0.0078125,0.0,-0.0078125,false,false,false,false,0.0,-0.0078125,0.0,-0.0078125,false,false,false,false,0.75,11.55,0.0,9763,-38,0,2.125,11.5,0.0,0,0,0,1.75,11.55,0.0,5722,0,0,1.25,11.5,0.0,0,0,0,0.0,11.600000000000001,0.0,0,0,0,0.0,4.0,0.0,0,0,0,kReverse,0.0,0.0,0.0,0.0,0.0,0.0,0.0,0.0,0.0,0.0,0.0,
63.57835299999999,true,true,true,0.0,-0.0078125,0.0,-0.0078125,false,false,false,false,0.0,-0.0078125,0.0,-0.0078125,false,false,false,false,0.0,12.25,0.0,9747,-7,0,0.125,12.3,0.0,0,0,0,0.0,12.25,0.0,5722,0,0,0.0,12.25,0.0,0,0,0,0.0,12.35,0.0,0,0,0,0.0,4.0,0.0,0,0,0,kReverse,0.0,0.0,0.0,0.0,0.0,0.0,0.0,0.0,0.0,0.0,0.0,
63.721681000000004,true,true,true,0.0,-0.0078125,0.0,-0.0078125,false,false,false,false,0.0,-0.0078125,0.0,-0.0078125,false,false,false,false,0.0,12.3,0.0,9749,1,0,0.0,12.3,0.0,0,0,0,0.0,12.3,0.0,5722,0,0,0.0,12.3,0.0,0,0,0,0.0,12.35,0.0,0,0,0,0.0,4.0,0.0,0,0,0,kReverse,0.0,0.0,0.0,0.0,0.0,0.0,0.0,0.0,0.0,0.0,0.0,
63.90112899999999,true,true,true,0.0,-0.09375,0.0,-0.0078125,false,false,false,false,0.0,-0.0078125,0.0,-0.0078125,false,false,false,false,0.0,12.3,0.0,9749,0,0,0.0,12.3,0.0,0,0,0,0.0,12.3,0.0,5722,0,0,0.0,12.3,0.0,0,0,0,0.0,12.4,0.0,0,0,0,0.0,4.0,0.0,0,0,0,kReverse,0.0,0.0,0.0,0.0,0.0,0.0,0.0,0.0,0.0,0.0,0.0,
64.083646,true,true,true,0.0,-0.1484375,0.0,-0.0078125,false,false,false,false,0.0,-0.0078125,0.0,-0.0078125,false,false,false,false,0.0,12.3,0.0,9764,11,0,0.25,12.3,0.0,0,0,0,0.0,12.3,0.0,5722,0,0,0.0,12.25,0.0,0,0,0,0.0,12.4,0.0,0,0,0,0.0,4.0,0.0,0,0,0,kReverse,0.0,0.0,0.0,0.0,0.0,0.0,0.0,0.0,0.0,0.0,0.0,
64.17343899999999,true,true,true,0.0,-0.15625,0.0,-0.0078125,false,false,false,false,0.0,-0.0078125,0.0,-0.0078125,false,false,false,false,0.0,12.3,0.0,9773,11,0,0.75,12.3,0.0,0,0,0,0.375,12.3,0.0,5722,0,0,0.0,12.25,0.0,0,0,0,0.0,12.4,0.0,0,0,0,0.0,4.0,0.0,0,0,0,kReverse,0.0,0.0,0.0,0.0,0.0,0.0,0.0,0.0,0.0,0.0,0.0,
64.230474,true,true,true,0.0,-0.171875,0.0,-0.0078125,false,false,false,false,0.0,-0.0078125,0.0,-0.0078125,false,false,false,false,0.0,12.200000000000001,0.0,9778,10,0,1.0,12.200000000000001,0.0,0,0,0,0.5,12.200000000000001,0.0,5722,0,0,0.0,12.200000000000001,0.0,0,0,0,0.0,12.3,0.0,0,0,0,0.0,4.0,0.0,0,0,0,kReverse,0.0,0.0,0.0,0.0,0.0,0.0,0.0,0.0,0.0,0.0,0.0,
