timer,lineLeft,lineCenter,lineRight,driverLeftX,driverLeftY,driverRightX,driverRightY,driverA,driverB,driverX,driverY,operatorLeftX,operatorLeftY,operatorRightX,operatorRightY,operatorA,operatorB,operatorX,operatorY,LeftFrontCurrent,LeftFrontVoltage,LeftFrontValue,LeftFrontPosition,LeftFrontVelocity,LeftFrontFaults,LeftRearCurrent,LeftRearVoltage,LeftRearValue,LeftRearPosition,LeftRearVelocity,LeftRearFaults,RightFrontCurrent,RightFrontVoltage,RightFrontValue,RightFrontPosition,RightFrontVelocity,RightFrontFaults,RightRearCurrent,RightRearVoltage,RightRearValue,RightRearPosition,RightRearVelocity,RightRearFaults,LiftCurrent,LiftVoltage,LiftValue,LiftPosition,LiftVelocity,LiftFaults,RollerCurrent,RollerVoltage,RollerValue,RollerPosition,RollerVelocity,RollerFaults,PushersState,navx_Pitch,navx_Roll,navx_Yaw,navx_XAcc,navx_YAcc,navx_ZAcc,navx_Temp,navx_Bar,navx_Alt,navx_XDis,navx_YDis,
308.795141,true,true,true,0.0,-0.0078125,0.0,-0.0078125,false,false,false,false,0.0,-0.0078125,0.0,-0.0078125,false,false,false,false,0.0,12.55,0.0,35,0,0,0.0,12.55,0.0,0,0,0,0.0,12.55,0.0,0,0,0,0.0,12.55,0.0,0,0,0,0.0,12.6,0.0,0,0,0,0.0,4.0,0.0,0,0,0,kReverse,0.0,0.0,0.0,0.0,0.0,0.0,0.0,0.0,0.0,0.0,0.0,
308.912884,true,true,true,0.0,-0.0078125,0.0,-0.0078125,false,false,false,false,0.0,-0.0078125,0.0,-0.0078125,false,false,false,false,0.0,12.55,0.0,35,0,0,0.0,12.55,0.0,0,0,0,0.0,12.55,0.0,0,0,0,0.0,12.55,0.0,0,0,0,0.0,12.6,0.0,0,0,0,0.0,4.0,0.0,0,0,0,kReverse,0.0,0.0,0.0,0.0,0.0,0.0,0.0,0.0,0.0,0.0,0.0,
308.990027,true,true,true,0.0,-0.0078125,0.0,-0.0078125,false,false,false,false,0.0,-0.0078125,0.0,-0.0078125,false,false,false,false,0.0,12.55,0.0,35,0,0,0.0,12.55,0.0,0,0,0,0.0,12.55,0.0,0,0,0,0.0,12.55,0.0,0,0,0,0.0,12.6,0.0,0,0,0,0.0,4.0,0.0,0,0,0,kReverse,0.0,0.0,0.0,0.0,0.0,0.0,0.0,0.0,0.0,0.0,0.0,
309.062918,true,true,true,0.0,-0.0625,0.0,-0.0078125,false,false,false,false,0.0,-0.0078125,0.0,-0.0078125,false,false,false,false,0.0,12.55,0.0,35,0,0,0.0,12.55,0.0,0,0,0,0.0,12.55,0.0,0,0,0,0.0,12.55,0.0,0,0,0,0.0,12.6,0.0,0,0,0,0.0,4.0,0.0,0,0,0,kReverse,0.0,0.0,0.0,0.0,0.0,0.0,0.0,0.0,0.0,0.0,0.0,
309.1365440000001,true,true,true,0.0,-1.0,0.0,-0.0078125,false,false,false,false,0.0,-0.0078125,0.0,-0.0078125,false,false,false,false,0.0,12.55,0.0,35,0,0,0.0,12.55,0.0,0,0,0,0.0,12.55,0.0,0,0,0,0.0,12.55,0.0,0,0,0,0.0,12.6,0.0,0,0,0,0.0,4.0,0.0,0,0,0,kReverse,0.0,0.0,0.0,0.0,0.0,0.0,0.0,0.0,0.0,0.0,0.0,
309.215317,true,true,true,0.0,-0.0078125,0.0,-0.0078125,false,false,false,false,0.0,-0.0078125,0.0,-0.0078125,false,false,false,false,18.625,12.55,0.0,46,11,0,23.75,12.55,0.0,0,0,0,18.75,12.55,0.0,0,0,0,16.75,12.55,0.0,0,0,0,0.0,12.6,0.0,0,0,0,0.0,4.0,0.0,0,0,0,kReverse,0.0,0.0,0.0,0.0,0.0,0.0,0.0,0.0,0.0,0.0,0.0,
309.287753,true,true,true,0.0,-0.0078125,0.0,-0.0078125,false,false,false,false,0.0,-0.0078125,0.0,-0.0078125,false,false,false,false,0.0,12.25,0.0,74,34,0,3.0,12.200000000000001,0.0,0,0,0,2.625,12.200000000000001,0.0,0,0,0,0.0,12.200000000000001,0.0,0,0,0,0.0,12.25,0.0,0,0,0,0.0,4.0,0.0,0,0,0,kReverse,0.0,0.0,0.0,0.0,0.0,0.0,0.0,0.0,0.0,0.0,0.0,
309.37549700000005,true,true,true,0.0,-0.0078125,0.0,-0.0078125,false,false,false,false,0.0,-0.0078125,0.0,-0.0078125,false,false,false,false,0.0,12.25,0.0,90,16,0,0.0,12.200000000000001,0.0,0,0,0,0.0,12.200000000000001,0.0,0,0,0,0.0,12.200000000000001,0.0,0,0,0,0.0,12.25,0.0,0,0,0,0.0,4.0,0.0,0,0,0,kReverse,0.0,0.0,0.0,0.0,0.0,0.0,0.0,0.0,0.0,0.0,0.0,
309.440852,true,true,true,0.0,-0.625,0.0,-0.0078125,false,false,false,false,0.0,-0.0078125,0.0,-0.0078125,false,false,false,false,0.0,12.450000000000001,0.0,102,17,0,0.0,12.450000000000001,0.0,0,0,0,0.0,12.450000000000001,0.0,0,0,0,0.0,12.450000000000001,0.0,0,0,0,0.0,12.55,0.0,0,0,0,0.0,4.0,0.0,0,0,0,kReverse,0.0,0.0,0.0,0.0,0.0,0.0,0.0,0.0,0.0,0.0,0.0,
309.514151,true,true,true,0.0,-1.0,0.0,-0.0078125,false,false,false,false,0.0,-0.0078125,0.0,-0.0078125,false,false,false,false,5.375,12.450000000000001,0.0,123,30,0,5.5,12.450000000000001,0.0,0,0,0,6.125,12.450000000000001,0.0,0,0,0,4.625,12.450000000000001,0.0,0,0,0,0.0,12.55,0.0,0,0,0,0.0,4.0,0.0,0,0,0,kReverse,0.0,0.0,0.0,0.0,0.0,0.0,0.0,0.0,0.0,0.0,0.0,
309.59042900000003,true,true,true,0.0,-1.0,0.0,-0.0078125,false,false,false,false,0.0,-0.0078125,0.0,-0.0078125,false,false,false,false,19.25,10.55,0.0,168,53,0,20.75,10.55,0.0,0,0,0,19.0,10.5,0.0,0,0,0,17.875,10.5,0.0,0,0,0,0.0,10.8,0.0,0,0,0,0.0,4.0,0.0,0,0,0,kReverse,0.0,0.0,0.0,0.0,0.0,0.0,0.0,0.0,0.0,0.0,0.0,
309.695514,true,true,true,0.0,-1.0,0.0,-0.0078125,false,false,false,false,0.0,-0.0078125,0.0,-0.0078125,false,false,false,false,15.25,10.55,0.0,262,94,0,18.75,10.55,0.0,0,0,0,14.625,10.5,0.0,0,0,0,13.0,10.5,0.0,0,0,0,0.0,10.8,0.0,0,0,0,0.0,4.0,0.0,0,0,0,kReverse,0.0,0.0,0.0,0.0,0.0,0.0,0.0,0.0,0.0,0.0,0.0,
309.770523,true,true,true,0.0,-1.0,0.0,-0.0078125,false,false,false,false,0.0,-0.0078125,0.0,-0.0078125,false,false,false,false,11.5,10.9,0.0,371,132,0,16.0,11.0,0.0,0,0,0,12.0,10.9,0.0,0,0,0,9.875,10.9,0.0,0,0,0,0.0,11.100000000000001,0.0,0,0,0,0.0,4.0,0.0,0,0,0,kReverse,0.0,0.0,0.0,0.0,0.0,0.0,0.0,0.0,0.0,0.0,0.0,
309.82977300000005,true,true,true,0.0,-1.0,0.0,-0.0078125,false,false,false,false,0.0,-0.0078125,0.0,-0.0078125,false,false,false,false,9.5,10.9,0.0,474,161,0,13.625,11.0,0.0,0,0,0,10.25,10.9,0.0,0,0,0,7.25,10.9,0.0,0,0,0,0.0,11.100000000000001,0.0,0,0,0,0.0,4.0,0.0,0,0,0,kReverse,0.0,0.0,0.0,0.0,0.0,0.0,0.0,0.0,0.0,0.0,0.0,
309.889557,true,true,true,0.0,-1.0,0.0,-0.0078125,false,false,false,false,0.0,-0.0078125,0.0,-0.0078125,false,false,false,false,7.0,10.9,0.0,595,192,0,11.25,11.0,0.0,0,0,0,8.375,10.9,0.0,0,0,0,5.375,11.45,0.0,0,0,0,0.0,11.55,0.0,0,0,0,0.0,4.0,0.0,0,0,0,kReverse,0.0,0.0,0.0,0.0,0.0,0.0,0.0,0.0,0.0,0.0,0.0,
309.95659300000005,true,true,true,0.0,-1.0,0.0,-0.0078125,false,false,false,false,0.0,-0.0078125,0.0,-0.0078125,false,false,false,false,6.0,11.350000000000001,0.0,732,219,0,9.5,11.45,0.0,0,0,0,6.875,11.45,0.0,0,0,0,5.125,11.45,0.0,0,0,0,0.0,11.55,0.0,0,0,0,0.0,4.0,0.0,0,0,0,kReverse,0.0,0.0,0.0,0.0,0.0,0.0,0.0,0.0,0.0,0.0,0.0,
310.013481,true,true,true,0.0,-1.0,0.0,-0.0078125,false,false,false,false,0.0,-0.0078125,0.0,-0.0078125,false,false,false,false,5.25,11.350000000000001,0.0,885,244,0,8.625,11.45,0.0,0,0,0,6.375,11.45,0.0,0,0,0,5.25,11.45,0.0,0,0,0,0.0,11.55,0.0,0,0,0,0.0,4.0,0.0,0,0,0,kReverse,0.0,0.0,0.0,0.0,0.0,0.0,0.0,0.0,0.0,0.0,0.0,
310.075715,true,true,true,0.0,-1.0,0.0,-0.0078125,false,false,false,false,0.0,-0.0078125,0.0,-0.0078125,false,false,false,false,5.75,11.600000000000001,0.0,1042,261,0,8.125,11.7,0.0,0,0,0,6.0,11.65,0.0,0,0,0,5.25,11.65,0.0,0,0,0,0.0,11.8,0.0,0,0,0,0.0,4.0,0.0,0,0,0,kReverse,0.0,0.0,0.0,0.0,0.0,0.0,0.0,0.0,0.0,0.0,0.0,
310.14868800000005,true,true,true,0.0,-1.0,0.0,-0.0078125,false,false,false,false,0.0,-0.0078125,0.0,-0.0078125,false,false,false,false,6.375,11.600000000000001,0.0,1268,279,0,10.25,11.7,0.0,0,0,0,7.25,11.65,0.0,0,0,0,5.0,11.65,0.0,0,0,0,0.0,11.8,0.0,0,0,0,0.0,4.0,0.0,0,0,0,kReverse,0.0,0.0,0.0,0.0,0.0,0.0,0.0,0.0,0.0,0.0,0.0,
310.21590100000003,true,true,true,0.0,-0.8828125,0.0,-0.0078125,false,false,false,false,0.0,-0.0078125,0.0,-0.0078125,false,false,false,false,6.0,11.600000000000001,0.0,1442,288,0,8.25,11.7,0.0,0,0,0,7.0,11.7,0.0,0,0,0,5.0,11.65,0.0,0,0,0,0.0,11.8,0.0,0,0,0,0.0,4.0,0.0,0,0,0,kReverse,0.0,0.0,0.0,0.0,0.0,0.0,0.0,0.0,0.0,0.0,0.0,
310.281836,true,true,true,0.0,-0.0859375,0.0,-0.0078125,false,false,false,false,0.0,-0.0078125,0.0,-0.0078125,false,false,false,false,1.75,11.7,0.0,1690,306,0,5.0,11.7,0.0,0,0,0,4.125,11.7,0.0,0,0,0,2.5,11.65,0.0,0,0,0,0.0,11.8,0.0,-1,-1,0,0.0,4.0,0.0,0,0,0,kReverse,0.0,0.0,0.0,0.0,0.0,0.0,0.0,0.0,0.0,0.0,0.0,
310.34102300000006,true,true,true,0.0,-0.0078125,0.0,-0.0078125,false,false,false,false,0.0,-0.0078125,0.0,-0.0078125,false,false,false,false,0.0,11.7,0.0,1864,298,0,0.875,11.7,0.0,0,0,0,0.125,11.7,0.0,0,0,0,0.0,11.65,0.0,0,0,0,0.0,11.8,0.0,-1,-1,0,0.0,4.0,0.0,0,0,0,kReverse,0.0,0.0,0.0,0.0,0.0,0.0,0.0,0.0,0.0,0.0,0.0,
310.436216,true,true,true,0.0,-0.0078125,0.0,-0.0078125,false,false,false,false,0.0,-0.0078125,0.0,-0.0078125,false,false,false,false,0.0,12.3,0.0,2035,225,0,0.0,12.3,0.0,0,0,0,0.0,12.3,0.0,0,0,0,0.0,12.3,0.0,0,0,0,0.0,12.4,0.0,7,8,0,0.0,4.0,0.0,0,0,0,kReverse,0.0,0.0,0.0,0.0,0.0,0.0,0.0,0.0,0.0,0.0,0.0,
310.512557,true,true,true,0.0,-0.0078125,0.0,-0.0078125,false,false,false,false,0.0,-0.0078125,0.0,-0.0078125,false,false,false,false,0.0,12.3,0.0,2218,217,0,0.0,12.3,0.0,0,0,0,0.0,12.3,0.0,0,0,0,0.0,12.3,0.0,0,0,0,0.0,12.4,0.0,8,2,0,0.0,4.0,0.0,0,0,0,kReverse,0.0,0.0,0.0,0.0,0.0,0.0,0.0,0.0,0.0,0.0,0.0,
310.592451,true,true,true,0.0,-0.0078125,0.0,-0.0078125,false,false,false,false,0.0,-0.0078125,0.0,-0.0078125,false,false,false,false,0.0,12.3,0.0,2435,267,0,0.0,12.3,0.0,0,0,0,0.0,12.3,0.0,0,0,0,0.0,12.3,0.0,0,0,0,0.0,12.35,0.0,8,1,0,0.0,4.0,0.0,0,0,0,kReverse,0.0,0.0,0.0,0.0,0.0,0.0,0.0,0.0,0.0,0.0,0.0,
310.659467,true,true,true,0.0,-0.0078125,0.0,-0.0078125,false,false,false,false,0.0,-0.0078125,0.0,-0.0078125,false,false,false,false,0.0,12.3,0.0,2628,246,0,0.0,12.3,0.0,0,0,0,0.0,12.3,0.0,0,0,0,0.0,12.3,0.0,0,0,0,0.0,12.35,0.0,8,0,0,0.0,4.0,0.0,0,0,0,kReverse,0.0,0.0,0.0,0.0,0.0,0.0,0.0,0.0,0.0,0.0,0.0,
310.71249100000006,true,true,true,0.0,-0.0078125,0.0,-0.0078125,false,false,false,false,0.0,-0.0078125,0.0,-0.0078125,false,false,false,false,0.0,12.3,0.0,2712,227,0,0.0,12.35,0.0,0,0,0,0.0,12.3,0.0,0,0,0,0.0,12.3,0.0,0,0,0,0.0,12.4,0.0,8,0,0,0.0,4.0,0.0,0,0,0,kReverse,0.0,0.0,0.0,0.0,0.0,0.0,0.0,0.0,0.0,0.0,0.0,
310.756596,true,true,true,0.0,-0.0078125,0.0,-0.0078125,false,false,false,false,0.0,-0.0078125,0.0,-0.0078125,false,false,false,false,0.0,12.3,0.0,2789,207,0,0.0,12.35,0.0,0,0,0,0.0,12.3,0.0,0,0,0,0.0,12.3,0.0,0,0,0,0.0,12.4,0.0,8,0,0,0.0,4.0,0.0,0,0,0,kReverse,0.0,0.0,0.0,0.0,0.0,0.0,0.0,0.0,0.0,0.0,0.0,
310.812558,true,true,true,0.0,-0.4140625,0.0,-0.0078125,false,false,false,false,0.0,-0.0078125,0.0,-0.0078125,false,false,false,false,0.0,12.3,0.0,2879,167,0,0.0,12.35,0.0,0,0,0,0.0,12.3,0.0,0,0,0,0.0,12.3,0.0,0,0,0,0.0,12.4,0.0,7,-1,0,0.0,4.0,0.0,0,0,0,kReverse,0.0,0.0,0.0,0.0,0.0,0.0,0.0,0.0,0.0,0.0,0.0,
310.87353400000006,true,true,true,0.0,-1.0,0.0,-0.0078125,false,false,false,false,0.0,-0.0078125,0.0,-0.0078125,false,false,false,false,0.0,12.55,0.0,2987,166,0,0.0,12.55,0.0,0,0,0,0.0,12.5,0.0,0,0,0,0.0,12.5,0.0,0,0,0,0.0,12.6,0.0,7,1,0,0.0,4.0,0.0,0,0,0,kReverse,0.0,0.0,0.0,0.0,0.0,0.0,0.0,0.0,0.0,0.0,0.0,
310.95011800000003,true,true,true,0.0,-1.0,0.0,-0.0078125,false,false,false,false,0.0,-0.0078125,0.0,-0.0078125,false,false,false,false,5.625,12.55,0.0,3155,206,0,4.0,12.55,0.0,0,0,0,3.625,12.5,0.0,0,0,0,0.5,12.5,0.0,0,0,0,0.0,12.6,0.0,7,0,0,0.0,4.0,0.0,0,0,0,kReverse,0.0,0.0,0.0,0.0,0.0,0.0,0.0,0.0,0.0,0.0,0.0,
311.012792,true,true,true,0.0,-1.0,0.0,-0.0078125,false,false,false,false,0.0,-0.0078125,0.0,-0.0078125,false,false,false,false,6.125,12.55,0.0,3296,228,0,9.625,12.55,0.0,0,0,0,6.25,12.5,0.0,0,0,0,5.125,11.2,0.0,0,0,0,0.0,11.4,0.0,7,0,0,0.0,4.0,0.0,0,0,0,kReverse,0.0,0.0,0.0,0.0,0.0,0.0,0.0,0.0,0.0,0.0,0.0,
311.071918,true,true,true,0.0,-1.0,0.0,-0.0078125,false,false,false,false,0.0,-0.0078125,0.0,-0.0078125,false,false,false,false,9.0,11.15,0.0,3448,248,0,13.25,11.3,0.0,0,0,0,10.75,11.2,0.0,0,0,0,8.375,11.2,0.0,0,0,0,0.0,11.4,0.0,7,0,0,0.0,4.0,0.0,0,0,0,kReverse,0.0,0.0,0.0,0.0,0.0,0.0,0.0,0.0,0.0,0.0,0.0,
311.131244,true,true,true,0.0,-1.0,0.0,-0.0078125,false,false,false,false,0.0,-0.0078125,0.0,-0.0078125,false,false,false,false,9.625,11.15,0.0,3599,253,0,14.0,11.3,0.0,0,0,0,9.75,11.2,0.0,0,0,0,6.625,11.2,0.0,0,0,0,0.0,11.4,0.0,7,0,0,0.0,4.0,0.0,0,0,0,kReverse,0.0,0.0,0.0,0.0,0.0,0.0,0.0,0.0,0.0,0.0,0.0,
311.194815,true,true,true,0.0,-1.0,0.0,-0.0078125,false,false,false,false,0.0,-0.0078125,0.0,-0.0078125,false,false,false,false,6.0,11.350000000000001,0.0,3757,258,0,9.625,11.4,0.0,0,0,0,7.125,11.4,0.0,0,0,0,5.0,11.350000000000001,0.0,0,0,0,0.0,11.55,0.0,7,0,0,0.0,4.0,0.0,0,0,0,kReverse,0.0,0.0,0.0,0.0,0.0,0.0,0.0,0.0,0.0,0.0,0.0,
311.25624100000005,true,true,true,0.0,-1.0,0.0,-0.0078125,false,false,false,false,0.0,-0.0078125,0.0,-0.0078125,false,false,false,false,6.125,11.350000000000001,0.0,3990,288,0,10.125,11.4,0.0,0,0,0,7.75,11.4,0.0,0,0,0,5.25,11.350000000000001,0.0,0,0,0,0.0,11.55,0.0,7,0,0,0.0,4.0,0.0,0,0,0,kReverse,0.0,0.0,0.0,0.0,0.0,0.0,0.0,0.0,0.0,0.0,0.0,
311.313345,true,true,true,0.0,-1.0,0.0,-0.0078125,false,false,false,false,0.0,-0.0078125,0.0,-0.0078125,false,false,false,false,5.875,11.350000000000001,0.0,4108,294,0,9.625,11.4,0.0,0,0,0,7.125,11.4,0.0,0,0,0,5.125,11.350000000000001,0.0,0,0,0,0.0,11.55,0.0,7,0,0,0.0,4.0,0.0,0,0,0,kReverse,0.0,0.0,0.0,0.0,0.0,0.0,0.0,0.0,0.0,0.0,0.0,
311.3683970000001,true,true,true,0.0,-1.0,0.0,-0.0078125,false,false,false,false,0.0,-0.0078125,0.0,-0.0078125,false,false,false,false,5.5,11.5,0.0,4294,304,0,8.375,11.55,0.0,0,0,0,6.375,11.5,0.0,0,0,0,5.25,11.5,0.0,0,0,0,0.0,11.600000000000001,0.0,7,0,0,0.0,4.0,0.0,0,0,0,kReverse,0.0,0.0,0.0,0.0,0.0,0.0,0.0,0.0,0.0,0.0,0.0,
311.41605000000004,true,true,true,0.0,-1.0,0.0,-0.0078125,false,false,false,false,0.0,-0.0078125,0.0,-0.0078125,false,false,false,false,5.5,11.5,0.0,4420,312,0,8.125,11.55,0.0,0,0,0,6.0,11.5,0.0,0,0,0,5.25,11.5,0.0,0,0,0,0.0,11.600000000000001,0.0,7,0,0,0.0,4.0,0.0,0,0,0,kReverse,0.0,0.0,0.0,0.0,0.0,0.0,0.0,0.0,0.0,0.0,0.0,
311.48229900000007,true,true,true,0.0,-1.0,0.0,-0.0078125,false,false,false,false,0.0,-0.0078125,0.0,-0.0078125,false,false,false,false,5.75,11.5,0.0,4677,320,0,7.625,11.55,0.0,0,0,0,5.75,11.5,0.0,0,0,0,5.25,11.5,0.0,0,0,0,0.0,11.600000000000001,0.0,7,0,0,0.0,4.0,0.0,0,0,0,kReverse,0.0,0.0,0.0,0.0,0.0,0.0,0.0,0.0,0.0,0.0,0.0,
311.536357,true,true,true,0.0,-1.0,0.0,-0.0078125,false,false,false,false,0.0,-0.0078125,0.0,-0.0078125,false,false,false,false,6.0,11.600000000000001,0.0,4808,325,0,7.125,11.65,0.0,0,0,0,5.5,11.600000000000001,0.0,0,0,0,5.0,11.600000000000001,0.0,0,0,0,0.0,11.7,0.0,7,0,0,0.0,4.0,0.0,0,0,0,kReverse,0.0,0.0,0.0,0.0,0.0,0.0,0.0,0.0,0.0,0.0,0.0,
311.593718,true,true,true,0.0,-1.0,0.0,-0.0078125,false,false,false,false,0.0,-0.0078125,0.0,-0.0078125,false,false,false,false,6.125,11.600000000000001,0.0,5006,329,0,7.125,11.65,0.0,0,0,0,5.25,11.600000000000001,0.0,0,0,0,4.5,11.600000000000001,0.0,0,0,0,0.0,11.7,0.0,7,0,0,0.0,4.0,0.0,0,0,0,kReverse,0.0,0.0,0.0,0.0,0.0,0.0,0.0,0.0,0.0,0.0,0.0,
311.64961100000005,true,true,true,0.0,-1.0,0.0,-0.0078125,false,false,false,false,0.0,-0.0078125,0.0,-0.0078125,false,false,false,false,5.25,11.600000000000001,0.0,5206,332,0,6.5,11.65,0.0,0,0,0,4.875,11.600000000000001,0.0,0,0,0,3.0,11.600000000000001,0.0,0,0,0,0.0,11.7,0.0,7,0,0,0.0,4.0,0.0,0,0,0,kReverse,0.0,0.0,0.0,0.0,0.0,0.0,0.0,0.0,0.0,0.0,0.0,
311.698962,true,true,true,0.0,-1.0,0.0,-0.0078125,false,false,false,false,0.0,-0.0078125,0.0,-0.0078125,false,false,false,false,5.25,11.7,0.0,5410,338,0,6.375,11.75,0.0,0,0,0,4.5,11.7,0.0,0,0,0,2.5,11.7,0.0,0,0,0,0.0,11.850000000000001,0.0,7,0,0,0.0,4.0,0.0,0,0,0,kReverse,0.0,0.0,0.0,0.0,0.0,0.0,0.0,0.0,0.0,0.0,0.0,
311.75457100000006,true,true,true,0.0,-1.0,0.0,-0.0078125,false,false,false,false,0.0,-0.0078125,0.0,-0.0078125,false,false,false,false,5.25,11.7,0.0,5546,340,0,6.375,11.75,0.0,0,0,0,4.625,11.7,0.0,0,0,0,2.5,11.7,0.0,0,0,0,0.0,11.850000000000001,0.0,7,0,0,0.0,4.0,0.0,0,0,0,kReverse,0.0,0.0,0.0,0.0,0.0,0.0,0.0,0.0,0.0,0.0,0.0,
311.809954,true,true,true,0.0,-1.0,0.0,-0.0078125,false,false,false,false,0.0,-0.0078125,0.0,-0.0078125,false,false,false,false,4.0,11.7,0.0,5751,341,0,6.0,11.75,0.0,0,0,0,4.375,11.7,0.0,0,0,0,2.0,11.7,0.0,0,0,0,0.0,11.850000000000001,0.0,7,0,0,0.0,4.0,0.0,0,0,0,kReverse,0.0,0.0,0.0,0.0,0.0,0.0,0.0,0.0,0.0,0.0,0.0,
311.85629700000004,true,true,true,0.0,-1.0,0.0,-0.0078125,false,false,false,false,0.0,-0.0078125,0.0,-0.0078125,false,false,false,false,3.5,11.7,0.0,5890,344,0,5.875,11.75,0.0,0,0,0,4.0,11.75,0.0,0,0,0,2.0,11.75,0.0,0,0,0,0.0,11.850000000000001,0.0,7,0,0,0.0,4.0,0.0,0,0,0,kReverse,0.0,0.0,0.0,0.0,0.0,0.0,0.0,0.0,0.0,0.0,0.0,
311.916265,true,true,true,0.0,-1.0,0.0,-0.0078125,false,false,false,false,0.0,-0.0078125,0.0,-0.0078125,false,false,false,false,2.875,11.7,0.0,6097,346,0,5.75,11.75,0.0,0,0,0,3.875,11.75,0.0,0,0,0,1.5,11.75,0.0,0,0,0,0.0,11.850000000000001,0.0,7,0,0,0.0,4.0,0.0,0,0,0,kReverse,0.0,0.0,0.0,0.0,0.0,0.0,0.0,0.0,0.0,0.0,0.0,
311.970902,true,true,true,0.0,-1.0,0.0,-0.0078125,false,false,false,false,0.0,-0.0078125,0.0,-0.0078125,false,false,false,false,3.5,11.7,0.0,6304,345,0,5.75,11.75,0.0,0,0,0,3.625,11.75,0.0,0,0,0,1.5,11.75,0.0,0,0,0,0.0,11.9,0.0,7,0,0,0.0,4.0,0.0,0,0,0,kReverse,0.0,0.0,0.0,0.0,0.0,0.0,0.0,0.0,0.0,0.0,0.0,
312.03619,true,true,true,0.0,-1.0,0.0,-0.0078125,false,false,false,false,0.0,-0.0078125,0.0,-0.0078125,false,false,false,false,2.875,11.75,0.0,6512,346,0,5.5,11.75,0.0,0,0,0,3.5,11.75,0.0,0,0,0,1.0,11.75,0.0,0,0,0,0.0,11.9,0.0,7,0,0,0.0,4.0,0.0,0,0,0,kReverse,0.0,0.0,0.0,0.0,0.0,0.0,0.0,0.0,0.0,0.0,0.0,
312.094466,true,true,true,0.0,-1.0,-0.640625,-0.0078125,false,false,false,false,0.0,-0.0078125,0.0,-0.0078125,false,false,false,false,2.375,11.75,0.0,6720,347,0,5.5,11.75,0.0,0,0,0,3.375,11.75,0.0,0,0,0,1.0,11.75,0.0,0,0,0,0.0,11.9,0.0,7,0,0,0.0,4.0,0.0,0,0,0,kReverse,0.0,0.0,0.0,0.0,0.0,0.0,0.0,0.0,0.0,0.0,0.0,
312.153988,true,true,true,0.0,-1.0,-1.0,-0.0078125,false,false,false,false,0.0,-0.0078125,0.0,-0.0078125,false,false,false,false,0.0,11.25,0.0,6928,347,0,2.5,11.2,0.0,0,0,0,24.625,11.05,0.0,0,0,0,15.5,11.05,0.0,0,0,0,0.0,11.3,0.0,7,0,0,0.0,4.0,0.0,0,0,0,kReverse,0.0,0.0,0.0,0.0,0.0,0.0,0.0,0.0,0.0,0.0,0.0,
312.21609800000004,true,true,true,0.0,-1.0,-0.296875,-0.0078125,false,false,false,false,0.0,-0.0078125,0.0,-0.0078125,false,false,false,false,0.0,11.25,0.0,7119,329,0,0.0,11.2,0.0,0,0,0,26.5,11.05,0.0,0,0,0,22.75,11.05,0.0,0,0,0,0.0,11.3,0.0,7,0,0,0.0,4.0,0.0,0,0,0,kReverse,0.0,0.0,0.0,0.0,0.0,0.0,0.0,0.0,0.0,0.0,0.0,
312.275412,true,true,true,0.0,-1.0,0.0,-0.0078125,false,false,false,false,0.0,-0.0078125,0.0,-0.0078125,false,false,false,false,0.0,11.25,0.0,7317,325,0,0.25,11.2,0.0,0,0,0,11.375,11.05,0.0,0,0,0,10.75,11.05,0.0,0,0,0,0.0,11.3,0.0,7,0,0,0.0,4.0,0.0,0,0,0,kReverse,0.0,0.0,0.0,0.0,0.0,0.0,0.0,0.0,0.0,0.0,0.0,
312.331096,true,true,true,0.0,-1.0,0.0,-0.0078125,false,false,false,false,0.0,-0.0078125,0.0,-0.0078125,false,false,false,false,6.0,11.7,0.0,7501,315,0,4.0,11.75,0.0,0,0,0,5.25,11.7,0.0,0,0,0,5.25,11.7,0.0,0,0,0,0.0,11.850000000000001,0.0,7,0,0,0.0,4.0,0.0,0,0,0,kReverse,0.0,0.0,0.0,0.0,0.0,0.0,0.0,0.0,0.0,0.0,0.0,
312.373923,true,true,true,0.0,-1.0,0.0,-0.0078125,false,false,false,false,0.0,-0.0078125,0.0,-0.0078125,false,false,false,false,6.25,11.7,0.0,7625,308,0,6.125,11.75,0.0,0,0,0,1.5,11.7,0.0,0,0,0,0.0,11.7,0.0,0,0,0,0.0,11.850000000000001,0.0,7,0,0,0.0,4.0,0.0,0,0,0,kReverse,0.0,0.0,0.0,0.0,0.0,0.0,0.0,0.0,0.0,0.0,0.0,
312.424244,true,true,true,0.0,-1.0,0.0,-0.0078125,false,false,false,false,0.0,-0.0078125,0.0,-0.0078125,false,false,false,false,6.0,11.7,0.0,7821,320,0,7.125,11.75,0.0,0,0,0,1.0,11.7,0.0,0,0,0,0.0,11.7,0.0,0,0,0,0.0,11.850000000000001,0.0,7,0,0,0.0,4.0,0.0,0,0,0,kReverse,0.0,0.0,0.0,0.0,0.0,0.0,0.0,0.0,0.0,0.0,0.0,
312.47199800000004,true,true,true,0.0,-1.0,-0.8359375,-0.0078125,false,false,false,false,0.0,-0.0078125,0.0,-0.0078125,false,false,false,false,6.25,11.75,0.0,7959,331,0,6.75,11.850000000000001,0.0,0,0,0,1.0,11.850000000000001,0.0,0,0,0,0.0,11.850000000000001,0.0,0,0,0,0.0,11.9,0.0,7,0,0,0.0,4.0,0.0,0,0,0,kReverse,0.0,0.0,0.0,0.0,0.0,0.0,0.0,0.0,0.0,0.0,0.0,
312.527579,true,true,true,0.0,-1.0,-1.0,0.07086614519357681,false,false,false,false,0.0,-0.0078125,0.0,-0.0078125,false,false,false,false,0.0,11.75,0.0,8150,329,0,2.25,11.850000000000001,0.0,0,0,0,17.75,11.850000000000001,0.0,0,0,0,9.75,11.850000000000001,0.0,0,0,0,0.0,11.9,0.0,7,0,0,0.0,4.0,0.0,0,0,0,kReverse,0.0,0.0,0.0,0.0,0.0,0.0,0.0,0.0,0.0,0.0,0.0,
312.57794900000005,true,true,true,0.0,-1.0,-0.9296875,0.15748031437397003,false,false,false,false,0.0,-0.0078125,0.0,-0.0078125,false,false,false,false,0.0,11.75,0.0,8267,311,0,0.0,11.850000000000001,0.0,0,0,0,26.625,11.850000000000001,0.0,0,0,0,22.375,11.850000000000001,0.0,0,0,0,0.0,11.9,0.0,7,0,0,0.0,4.0,0.0,0,0,0,kReverse,0.0,0.0,0.0,0.0,0.0,0.0,0.0,0.0,0.0,0.0,0.0,
312.63460900000007,true,true,true,0.0,-1.0,-0.0625,-0.0078125,false,false,false,false,0.0,-0.0078125,0.0,-0.0078125,false,false,false,false,0.0,11.0,0.0,8448,298,0,0.0,11.0,0.0,0,0,0,23.875,10.850000000000001,0.0,0,0,0,19.875,10.850000000000001,0.0,0,0,0,0.0,11.100000000000001,0.0,7,0,0,0.0,4.0,0.0,0,0,0,kReverse,0.0,0.0,0.0,0.0,0.0,0.0,0.0,0.0,0.0,0.0,0.0,
312.690672,true,true,true,0.0,-1.0,0.0,-0.0078125,false,false,false,false,0.0,-0.0078125,0.0,-0.0078125,false,false,false,false,0.0,11.0,0.0,8624,297,0,0.375,11.0,0.0,0,0,0,14.875,10.850000000000001,0.0,0,0,0,13.625,10.850000000000001,0.0,0,0,0,0.0,11.100000000000001,0.0,7,0,0,0.0,4.0,0.0,0,0,0,kReverse,0.0,0.0,0.0,0.0,0.0,0.0,0.0,0.0,0.0,0.0,0.0,
312.736667,true,true,true,0.0,-1.0,0.0,-0.0078125,false,false,false,false,0.0,-0.0078125,0.0,-0.0078125,false,false,false,false,5.75,11.0,0.0,8793,285,0,5.125,11.0,0.0,0,0,0,5.75,10.850000000000001,0.0,0,0,0,5.125,10.850000000000001,0.0,0,0,0,0.0,11.100000000000001,0.0,7,0,0,0.0,4.0,0.0,0,0,0,kReverse,0.0,0.0,0.0,0.0,0.0,0.0,0.0,0.0,0.0,0.0,0.0,
312.78772200000003,true,true,true,0.0,-1.0,0.0,-0.0078125,false,false,false,false,0.0,-0.0078125,0.0,-0.0078125,false,false,false,false,6.125,11.7,0.0,8917,293,0,6.75,11.75,0.0,0,0,0,1.625,11.75,0.0,0,0,0,0.0,11.75,0.0,0,0,0,0.0,11.850000000000001,0.0,7,0,0,0.0,4.0,0.0,0,0,0,kReverse,0.0,0.0,0.0,0.0,0.0,0.0,0.0,0.0,0.0,0.0,0.0,
312.83950100000004,true,true,true,0.0,-0.8828125,0.0,-0.0078125,false,false,false,false,0.0,-0.0078125,0.0,-0.0078125,false,false,false,false,5.625,11.7,0.0,9108,315,0,8.0,11.75,0.0,0,0,0,1.125,11.75,0.0,0,0,0,0.0,11.75,0.0,0,0,0,0.0,11.850000000000001,0.0,7,0,0,0.0,4.0,0.0,0,0,0,kReverse,0.0,0.0,0.0,0.0,0.0,0.0,0.0,0.0,0.0,0.0,0.0,
312.893646,true,true,true,0.0,-0.1171875,-0.5078125,-0.0078125,false,false,false,false,0.0,-0.0078125,0.0,-0.0078125,false,false,false,false,5.25,11.7,0.0,9238,321,0,6.375,11.75,0.0,0,0,0,0.5,11.75,0.0,0,0,0,0.0,11.75,0.0,0,0,0,0.0,11.850000000000001,0.0,7,0,0,0.0,4.0,0.0,0,0,0,kReverse,0.0,0.0,0.0,0.0,0.0,0.0,0.0,0.0,0.0,0.0,0.0,
312.95333200000005,true,true,true,0.0,-0.0078125,-1.0,-0.0078125,false,false,false,false,0.0,-0.0078125,0.0,-0.0078125,false,false,false,false,5.0,11.75,0.0,9421,309,0,5.375,11.8,0.0,0,0,0,0.0,11.8,0.0,0,0,0,0.0,11.850000000000001,0.0,0,0,0,0.0,11.9,0.0,7,0,0,0.0,4.0,0.0,0,0,0,kReverse,0.0,0.0,0.0,0.0,0.0,0.0,0.0,0.0,0.0,0.0,0.0,
313.006744,true,true,true,0.0,-0.0078125,-1.0,0.11023622006177902,false,false,false,false,0.0,-0.0078125,0.0,-0.0078125,false,false,false,false,18.125,11.75,0.0,9556,255,0,16.5,11.8,0.0,0,0,0,5.875,11.8,0.0,0,0,0,5.375,11.850000000000001,0.0,0,0,0,0.0,11.9,0.0,9,2,0,0.0,4.0,0.0,0,0,0,kReverse,0.0,0.0,0.0,0.0,0.0,0.0,0.0,0.0,0.0,0.0,0.0,
313.060505,true,true,true,0.0,-0.0078125,-1.0,0.23622047901153564,false,false,false,false,0.0,-0.0078125,0.0,-0.0078125,false,false,false,false,9.375,11.75,0.0,9596,125,0,13.375,11.8,0.0,0,0,0,11.5,11.8,0.0,0,0,0,8.625,11.850000000000001,0.0,0,0,0,0.0,11.9,0.0,9,2,0,0.0,4.0,0.0,0,0,0,kReverse,0.0,0.0,0.0,0.0,0.0,0.0,0.0,0.0,0.0,0.0,0.0,
313.11415500000004,true,true,true,0.0,-0.0078125,-1.0,0.33070865273475647,false,false,false,false,0.0,-0.0078125,0.0,-0.0078125,false,false,false,false,9.5,10.7,0.0,9586,29,0,13.625,10.7,0.0,0,0,0,13.0,10.7,0.0,0,0,0,10.375,10.75,0.0,0,0,0,0.0,10.9,0.0,9,0,0,0.0,4.0,0.0,0,0,0,kReverse,0.0,0.0,0.0,0.0,0.0,0.0,0.0,0.0,0.0,0.0,0.0,
313.173283,true,true,true,0.0,-0.0078125,-0.9140625,0.5039370059967041,false,false,false,false,0.0,-0.0078125,0.0,-0.0078125,false,false,false,false,5.875,10.7,0.0,9550,-46,0,9.875,10.7,0.0,0,0,0,16.875,10.7,0.0,0,0,0,14.125,10.75,0.0,0,0,0,0.0,10.9,0.0,9,0,0,0.0,4.0,0.0,0,0,0,kReverse,0.0,0.0,0.0,0.0,0.0,0.0,0.0,0.0,0.0,0.0,0.0,
313.236847,true,true,true,0.0,0.13385826349258423,-0.0546875,-0.0078125,false,false,false,false,0.0,-0.0078125,0.0,-0.0078125,false,false,false,false,0.0,10.7,0.0,9501,-74,0,6.0,10.7,0.0,0,0,0,20.75,10.7,0.0,0,0,0,18.75,10.75,0.0,0,0,0,0.0,10.9,0.0,9,0,0,0.0,4.0,0.0,0,0,0,kReverse,0.0,0.0,0.0,0.0,0.0,0.0,0.0,0.0,0.0,0.0,0.0,
313.298628,true,true,true,0.0,0.9685039520263672,-0.1171875,-0.0078125,false,false,false,false,0.0,-0.0078125,0.0,-0.0078125,false,false,false,false,1.375,11.0,0.0,9406,-116,0,5.75,10.850000000000001,0.0,0,0,0,3.0,10.850000000000001,0.0,0,0,0,5.375,10.65,0.0,0,0,0,0.0,10.9,0.0,9,0,0,0.0,4.0,0.0,0,0,0,kReverse,0.0,0.0,0.0,0.0,0.0,0.0,0.0,0.0,0.0,0.0,0.0,
313.352079,true,true,true,0.0,0.09448818862438202,-0.96875,0.15748031437397003,false,false,false,false,0.0,-0.0078125,0.0,-0.0078125,false,false,false,false,11.875,11.0,0.0,9360,-117,0,9.5,10.850000000000001,0.0,0,0,0,12.875,10.850000000000001,0.0,0,0,0,7.75,10.65,0.0,0,0,0,0.0,10.9,0.0,9,0,0,0.0,4.0,0.0,0,0,0,kReverse,0.0,0.0,0.0,0.0,0.0,0.0,0.0,0.0,0.0,0.0,0.0,
313.403455,true,true,true,0.0,-0.0078125,-1.0,0.023622047156095505,false,false,false,false,0.0,-0.0078125,0.0,-0.0078125,false,false,false,false,23.125,11.0,0.0,9276,-130,0,27.875,10.850000000000001,0.0,0,0,0,10.625,10.850000000000001,0.0,0,0,0,14.5,10.65,0.0,0,0,0,0.0,10.9,0.0,9,0,0,0.0,4.0,0.0,0,0,0,kReverse,0.0,0.0,0.0,0.0,0.0,0.0,0.0,0.0,0.0,0.0,0.0,
313.456184,true,true,true,0.0,-0.0078125,-1.0,0.3858267664909363,false,false,false,false,0.0,-0.0078125,0.0,-0.0078125,false,false,false,false,17.875,10.5,0.0,9204,-156,0,22.25,10.600000000000001,0.0,0,0,0,16.625,10.7,0.0,0,0,0,11.0,10.7,0.0,0,0,0,0.0,10.8,0.0,9,0,0,0.0,4.0,0.0,0,0,0,kReverse,0.0,0.0,0.0,0.0,0.0,0.0,0.0,0.0,0.0,0.0,0.0,
313.512125,true,true,true,0.0,-0.0078125,-1.0,0.7716535329818726,false,false,false,false,0.0,-0.0078125,0.0,-0.0078125,false,false,false,false,14.875,10.5,0.0,9110,-166,0,19.5,10.600000000000001,0.0,0,0,0,26.25,10.7,0.0,0,0,0,26.5,10.7,0.0,0,0,0,0.0,10.8,0.0,9,0,0,0.0,4.0,0.0,0,0,0,kReverse,0.0,0.0,0.0,0.0,0.0,0.0,0.0,0.0,0.0,0.0,0.0,
313.56947400000007,true,true,true,0.0,-0.0078125,-0.5390625,0.20472441613674164,false,false,false,false,0.0,-0.0078125,0.0,-0.0078125,false,false,false,false,6.0,10.5,0.0,9000,-172,0,10.625,10.600000000000001,0.0,0,0,0,23.25,10.7,0.0,0,0,0,22.375,10.7,0.0,0,0,0,0.0,10.8,0.0,9,0,0,0.0,4.0,0.0,0,0,0,kReverse,0.0,0.0,0.0,0.0,0.0,0.0,0.0,0.0,0.0,0.0,0.0,
313.61783900000006,true,true,true,0.0,-0.0078125,0.0,-0.0078125,false,false,false,false,0.0,-0.0078125,0.0,-0.0078125,false,false,false,false,2.625,10.7,0.0,8915,-195,0,7.125,10.7,0.0,0,0,0,10.0,10.55,0.0,0,0,0,12.25,10.600000000000001,0.0,0,0,0,0.0,10.8,0.0,9,0,0,0.0,4.0,0.0,0,0,0,kReverse,0.0,0.0,0.0,0.0,0.0,0.0,0.0,0.0,0.0,0.0,0.0,
313.67264900000004,true,true,true,0.0,-0.0078125,0.0,-0.0078125,false,false,false,false,0.0,-0.0078125,0.0,-0.0078125,false,false,false,false,0.625,10.7,0.0,8811,-189,0,2.75,10.7,0.0,0,0,0,2.75,10.55,0.0,0,0,0,1.25,10.600000000000001,0.0,0,0,0,0.0,10.8,0.0,9,0,0,0.0,4.0,0.0,0,0,0,kReverse,0.0,0.0,0.0,0.0,0.0,0.0,0.0,0.0,0.0,0.0,0.0,
313.73151200000007,true,true,true,0.0,-0.0078125,0.0,-0.0078125,false,false,false,false,0.0,-0.0078125,0.0,-0.0078125,false,false,false,false,0.0,10.7,0.0,8724,-154,0,0.0,10.7,0.0,0,0,0,0.0,10.55,0.0,0,0,0,0.0,10.600000000000001,0.0,0,0,0,0.0,12.200000000000001,0.0,9,0,0,0.0,4.0,0.0,0,0,0,kReverse,0.0,0.0,0.0,0.0,0.0,0.0,0.0,0.0,0.0,0.0,0.0,
313.778926,true,true,true,0.0,-0.0078125,0.0,-0.0078125,false,false,false,false,0.0,-0.0078125,0.0,-0.0078125,false,false,false,false,0.0,12.15,0.0,8649,-132,0,0.0,12.15,0.0,0,0,0,0.0,12.15,0.0,0,0,0,0.0,12.15,0.0,0,0,0,0.0,12.200000000000001,0.0,9,0,0,0.0,4.0,0.0,0,0,0,kReverse,0.0,0.0,0.0,0.0,0.0,0.0,0.0,0.0,0.0,0.0,0.0,
313.83621500000004,true,true,true,0.0,-0.0078125,-0.2421875,-0.0078125,false,false,false,false,0.0,-0.0078125,0.0,-0.0078125,false,false,false,false,0.0,12.15,0.0,8613,-111,0,0.125,12.15,0.0,0,0,0,0.0,12.15,0.0,0,0,0,0.0,12.15,0.0,0,0,0,0.0,12.200000000000001,0.0,9,0,0,0.0,4.0,0.0,0,0,0,kReverse,0.0,0.0,0.0,0.0,0.0,0.0,0.0,0.0,0.0,0.0,0.0,
313.891407,true,true,true,0.0,-0.0078125,-0.78125,0.35433071851730347,false,false,false,false,0.0,-0.0078125,0.0,-0.0078125,false,false,false,false,0.0,12.15,0.0,8574,-75,0,0.375,12.15,0.0,0,0,0,1.125,12.15,0.0,0,0,0,0.5,11.95,0.0,0,0,0,0.0,12.05,0.0,9,0,0,0.0,4.0,0.0,0,0,0,kReverse,0.0,0.0,0.0,0.0,0.0,0.0,0.0,0.0,0.0,0.0,0.0,
313.94596800000005,true,true,true,0.0,-0.0078125,-0.078125,0.22834645211696625,false,false,false,false,0.0,-0.0078125,0.0,-0.0078125,false,false,false,false,9.125,11.850000000000001,0.0,8536,-62,0,8.875,11.95,0.0,0,0,0,13.375,11.850000000000001,0.0,0,0,0,9.25,11.95,0.0,0,0,0,0.0,12.05,0.0,9,0,0,0.0,4.0,0.0,0,0,0,kReverse,0.0,0.0,0.0,0.0,0.0,0.0,0.0,0.0,0.0,0.0,0.0,
313.99411200000003,true,true,true,0.0,-0.0078125,0.0,-0.0078125,false,false,false,false,0.0,-0.0078125,0.0,-0.0078125,false,false,false,false,7.875,11.850000000000001,0.0,8511,-63,0,13.125,11.95,0.0,0,0,0,4.625,11.850000000000001,0.0,0,0,0,7.0,11.95,0.0,0,0,0,0.0,12.05,0.0,9,0,0,0.0,4.0,0.0,0,0,0,kReverse,0.0,0.0,0.0,0.0,0.0,0.0,0.0,0.0,0.0,0.0,0.0,
314.0507400000001,true,true,true,0.0,-0.0078125,0.0,-0.0078125,false,false,false,false,0.0,-0.0078125,0.0,-0.0078125,false,false,false,false,0.0,11.850000000000001,0.0,8485,-51,0,0.125,11.95,0.0,0,0,0,0.0,11.850000000000001,0.0,0,0,0,0.0,12.15,0.0,0,0,0,0.0,12.25,0.0,9,0,0,0.0,4.0,0.0,0,0,0,kReverse,0.0,0.0,0.0,0.0,0.0,0.0,0.0,0.0,0.0,0.0,0.0,
314.115977,true,true,true,0.0,-0.0078125,0.0,-0.0078125,false,false,false,false,0.0,-0.0078125,0.0,-0.0078125,false,false,false,false,0.0,12.15,0.0,8476,-25,0,0.0,12.200000000000001,0.0,0,0,0,0.0,12.200000000000001,0.0,0,0,0,0.0,12.15,0.0,0,0,0,0.0,12.25,0.0,9,0,0,0.0,4.0,0.0,0,0,0,kReverse,0.0,0.0,0.0,0.0,0.0,0.0,0.0,0.0,0.0,0.0,0.0,
314.17391100000003,true,true,true,0.0,-0.0078125,0.9055117964744568,-0.0078125,false,false,false,false,0.0,-0.0078125,0.0,-0.0078125,false,false,false,false,0.0,12.15,0.0,8475,-6,0,0.0,12.200000000000001,0.0,0,0,0,0.0,12.200000000000001,0.0,0,0,0,0.0,12.15,0.0,0,0,0,0.0,12.25,0.0,9,0,0,0.0,4.0,0.0,0,0,0,kReverse,0.0,0.0,0.0,0.0,0.0,0.0,0.0,0.0,0.0,0.0,0.0,
314.23422700000003,true,true,true,0.0,-0.0078125,0.5905511975288391,-0.0078125,false,false,false,false,0.0,-0.0078125,0.0,-0.0078125,false,false,false,false,10.75,10.7,0.0,8478,3,0,8.125,10.8,0.0,0,0,0,16.5,10.75,0.0,0,0,0,10.875,10.7,0.0,0,0,0,0.0,10.9,0.0,9,0,0,0.0,4.0,0.0,0,0,0,kReverse,0.0,0.0,0.0,0.0,0.0,0.0,0.0,0.0,0.0,0.0,0.0,
314.29440900000003,true,true,true,0.0,-0.0078125,-0.03125,-0.0078125,false,false,false,false,0.0,-0.0078125,0.0,-0.0078125,false,false,false,false,23.25,10.7,0.0,8498,23,0,26.0,10.8,0.0,0,0,0,25.0,10.75,0.0,0,0,0,24.0,10.7,0.0,0,0,0,0.0,10.9,0.0,9,0,0,0.0,4.0,0.0,0,0,0,kReverse,0.0,0.0,0.0,0.0,0.0,0.0,0.0,0.0,0.0,0.0,0.0,
314.34938700000004,true,true,true,0.0,-0.0078125,-0.03125,-0.0078125,false,false,false,false,0.0,-0.0078125,0.0,-0.0078125,false,false,false,false,9.5,10.7,0.0,8530,46,0,17.5,10.8,0.0,0,0,0,10.125,10.75,0.0,0,0,0,12.875,10.7,0.0,0,0,0,0.0,10.9,0.0,9,0,0,0.0,4.0,0.0,0,0,0,kReverse,0.0,0.0,0.0,0.0,0.0,0.0,0.0,0.0,0.0,0.0,0.0,
314.40134400000005,true,true,true,0.0,-0.0078125,-0.03125,-0.0078125,false,false,false,false,0.0,-0.0078125,0.0,-0.0078125,false,false,false,false,0.0,12.1,0.0,8555,47,0,0.125,12.1,0.0,0,0,0,0.0,12.1,0.0,0,0,0,0.0,12.1,0.0,0,0,0,0.0,12.15,0.0,9,0,0,0.0,4.0,0.0,0,0,0,kReverse,0.0,0.0,0.0,0.0,0.0,0.0,0.0,0.0,0.0,0.0,0.0,
314.45281900000003,true,true,true,0.0,-0.0078125,-0.03125,-0.0078125,false,false,false,false,0.0,-0.0078125,0.0,-0.0078125,false,false,false,false,0.0,12.1,0.0,8572,42,0,0.125,12.1,0.0,0,0,0,0.0,12.1,0.0,0,0,0,0.0,12.1,0.0,0,0,0,0.0,12.15,0.0,9,0,0,0.0,4.0,0.0,0,0,0,kReverse,0.0,0.0,0.0,0.0,0.0,0.0,0.0,0.0,0.0,0.0,0.0,
314.502841,true,true,true,0.0,-0.0078125,-0.03125,-0.0078125,false,false,false,false,0.0,-0.0078125,0.0,-0.0078125,false,false,false,false,0.0,12.1,0.0,8600,45,0,0.0,12.1,0.0,0,0,0,0.0,12.1,0.0,0,0,0,0.0,12.1,0.0,0,0,0,0.0,12.15,0.0,9,0,0,0.0,4.0,0.0,0,0,0,kReverse,0.0,0.0,0.0,0.0,0.0,0.0,0.0,0.0,0.0,0.0,0.0,
314.553738,true,true,true,0.0,-0.0078125,-0.03125,-0.0078125,false,false,false,false,0.0,-0.0078125,0.0,-0.0078125,false,false,false,false,0.0,12.200000000000001,0.0,8612,40,0,0.125,12.200000000000001,0.0,0,0,0,0.0,12.200000000000001,0.0,0,0,0,0.0,12.200000000000001,0.0,0,0,0,0.0,12.25,0.0,9,0,0,0.0,4.0,0.0,0,0,0,kReverse,0.0,0.0,0.0,0.0,0.0,0.0,0.0,0.0,0.0,0.0,0.0,
314.61032900000004,true,true,true,0.0,-0.0078125,-0.03125,-0.0078125,false,false,false,false,0.0,-0.0078125,0.0,-0.0078125,false,false,false,false,0.0,12.200000000000001,0.0,8621,21,0,0.0,12.200000000000001,0.0,0,0,0,0.0,12.200000000000001,0.0,0,0,0,0.0,12.200000000000001,0.0,0,0,0,0.0,12.25,0.0,9,0,0,0.0,4.0,0.0,0,0,0,kReverse,0.0,0.0,0.0,0.0,0.0,0.0,0.0,0.0,0.0,0.0,0.0,
314.66443000000004,true,true,true,0.0,-0.0078125,0.8031495809555054,-0.0078125,false,false,false,false,0.0,-0.0078125,0.0,-0.0078125,false,false,false,false,0.0,12.200000000000001,0.0,8621,5,0,0.125,12.200000000000001,0.0,0,0,0,0.0,12.200000000000001,0.0,0,0,0,0.0,12.200000000000001,0.0,0,0,0,0.0,12.25,0.0,9,0,0,0.0,4.0,0.0,0,0,0,kReverse,0.0,0.0,0.0,0.0,0.0,0.0,0.0,0.0,0.0,0.0,0.0,
314.71531600000003,true,true,true,0.0,-0.0078125,0.18897637724876404,-0.0078125,false,false,false,false,0.0,-0.0078125,0.0,-0.0078125,false,false,false,false,9.75,10.9,0.0,8625,4,0,13.25,11.15,0.0,0,0,0,11.75,10.95,0.0,0,0,0,7.625,11.05,0.0,0,0,0,0.0,11.2,0.0,9,0,0,0.0,4.0,0.0,0,0,0,kReverse,0.0,0.0,0.0,0.0,0.0,0.0,0.0,0.0,0.0,0.0,0.0,
314.777795,true,true,true,0.0,-0.0078125,0.0,-0.0078125,false,false,false,false,0.0,-0.0078125,0.0,-0.0078125,false,false,false,false,3.125,10.9,0.0,8641,19,0,8.875,11.15,0.0,0,0,0,3.125,10.95,0.0,0,0,0,0.375,11.05,0.0,0,0,0,0.0,11.2,0.0,9,0,0,0.0,4.0,0.0,0,0,0,kReverse,0.0,0.0,0.0,0.0,0.0,0.0,0.0,0.0,0.0,0.0,0.0,
314.8561,true,true,true,0.0,-0.0078125,0.0,-0.0078125,false,false,false,false,0.0,-0.0078125,0.0,-0.0078125,false,false,false,false,0.0,10.9,0.0,8651,17,0,0.0,12.200000000000001,0.0,0,0,0,0.0,12.200000000000001,0.0,0,0,0,0.0,12.200000000000001,0.0,0,0,0,0.0,12.25,0.0,9,0,0,0.0,4.0,0.0,0,0,0,kReverse,0.0,0.0,0.0,0.0,0.0,0.0,0.0,0.0,0.0,0.0,0.0,
314.909108,true,true,true,0.0,-0.0078125,0.0,-0.0078125,false,false,false,false,0.0,-0.0078125,0.0,-0.0078125,false,false,false,false,0.0,12.200000000000001,0.0,8650,5,0,0.0,12.200000000000001,0.0,0,0,0,0.0,12.200000000000001,0.0,0,0,0,0.0,12.200000000000001,0.0,0,0,0,0.0,12.25,0.0,9,0,0,0.0,4.0,0.0,0,0,0,kReverse,0.0,0.0,0.0,0.0,0.0,0.0,0.0,0.0,0.0,0.0,0.0,
314.973521,true,true,true,0.0,-0.0078125,0.0,-0.0078125,false,false,false,false,0.0,-0.0078125,0.0,-0.0078125,false,false,false,false,0.0,12.200000000000001,0.0,8646,-6,0,0.125,12.200000000000001,0.0,0,0,0,0.0,12.200000000000001,0.0,0,0,0,0.0,12.200000000000001,0.0,0,0,0,0.0,12.25,0.0,9,0,0,0.0,4.0,0.0,0,0,0,kReverse,0.0,0.0,0.0,0.0,0.0,0.0,0.0,0.0,0.0,0.0,0.0,
315.02650100000005,true,true,true,0.0,-0.609375,0.0,-0.0078125,false,false,false,false,0.0,-0.0078125,0.0,-0.0078125,false,false,false,false,0.0,12.200000000000001,0.0,8644,-5,0,0.0,12.25,0.0,0,0,0,0.0,12.25,0.0,0,0,0,0.0,12.200000000000001,0.0,0,0,0,0.0,12.3,0.0,9,0,0,0.0,4.0,0.0,0,0,0,kReverse,0.0,0.0,0.0,0.0,0.0,0.0,0.0,0.0,0.0,0.0,0.0,
315.07371400000005,true,true,true,0.0,-0.9296875,0.0,-0.0078125,false,false,false,false,0.0,-0.0078125,0.0,-0.0078125,false,false,false,false,4.625,12.200000000000001,0.0,8646,0,0,3.5,12.25,0.0,0,0,0,4.5,12.25,0.0,0,0,0,3.125,12.200000000000001,0.0,0,0,0,0.0,12.3,0.0,9,0,0,0.0,4.0,0.0,0,0,0,kReverse,0.0,0.0,0.0,0.0,0.0,0.0,0.0,0.0,0.0,0.0,0.0,
315.135766,true,true,true,0.0,-0.0390625,0.0,-0.0078125,false,false,false,false,0.0,-0.0078125,0.0,-0.0078125,false,false,false,false,18.875,12.200000000000001,0.0,8659,15,0,23.375,12.25,0.0,0,0,0,19.5,12.25,0.0,0,0,0,15.5,12.200000000000001,0.0,0,0,0,0.0,12.3,0.0,9,0,0,0.0,4.0,0.0,0,0,0,kReverse,0.0,0.0,0.0,0.0,0.0,0.0,0.0,0.0,0.0,0.0,0.0,
315.195689,true,true,true,0.0,-0.0078125,0.0,-0.0078125,false,false,false,false,0.0,-0.0078125,0.0,-0.0078125,false,false,false,false,9.5,11.600000000000001,0.0,8680,30,0,10.25,11.55,0.0,0,0,0,3.75,11.55,0.0,0,0,0,5.75,11.5,0.0,0,0,0,0.0,11.600000000000001,0.0,9,0,0,0.0,4.0,0.0,0,0,0,kReverse,0.0,0.0,0.0,0.0,0.0,0.0,0.0,0.0,0.0,0.0,0.0,
315.25302400000004,true,true,true,0.0,-0.0078125,0.0,-0.0078125,false,false,false,false,0.0,-0.0078125,0.0,-0.0078125,false,false,false,false,0.5,11.600000000000001,0.0,8702,37,0,1.625,11.55,0.0,0,0,0,0.625,11.55,0.0,0,0,0,0.0,11.5,0.0,0,0,0,0.0,11.600000000000001,0.0,9,0,0,0.0,4.0,0.0,0,0,0,kReverse,0.0,0.0,0.0,0.0,0.0,0.0,0.0,0.0,0.0,0.0,0.0,
315.31313900000004,true,true,true,0.0,-0.0078125,0.0,-0.0078125,false,false,false,false,0.0,-0.0078125,0.0,-0.0078125,false,false,false,false,0.0,11.600000000000001,0.0,8720,33,0,0.0,11.55,0.0,0,0,0,0.0,11.55,0.0,0,0,0,0.0,11.5,0.0,0,0,0,0.0,11.600000000000001,0.0,9,0,0,0.0,4.0,0.0,0,0,0,kReverse,0.0,0.0,0.0,0.0,0.0,0.0,0.0,0.0,0.0,0.0,0.0,
315.37163300000003,true,true,true,0.0,-0.2890625,0.0,-0.0078125,false,false,false,false,0.0,-0.0078125,0.0,-0.0078125,false,false,false,false,0.0,12.200000000000001,0.0,8746,38,0,0.125,12.200000000000001,0.0,0,0,0,0.0,12.200000000000001,0.0,0,0,0,0.0,12.200000000000001,0.0,0,0,0,0.0,12.25,0.0,9,0,0,0.0,4.0,0.0,0,0,0,kReverse,0.0,0.0,0.0,0.0,0.0,0.0,0.0,0.0,0.0,0.0,0.0,
315.43171800000005,true,true,true,0.0,-0.421875,0.0,-0.0078125,false,false,false,false,0.0,-0.0078125,0.0,-0.0078125,false,false,false,false,0.0,12.200000000000001,0.0,8778,50,0,0.25,12.200000000000001,0.0,0,0,0,0.0,12.200000000000001,0.0,0,0,0,0.0,12.200000000000001,0.0,0,0,0,0.0,12.25,0.0,9,0,0,0.0,4.0,0.0,0,0,0,kReverse,0.0,0.0,0.0,0.0,0.0,0.0,0.0,0.0,0.0,0.0,0.0,
315.48140800000004,true,true,true,0.0,-0.0703125,0.0,-0.0078125,false,false,false,false,0.0,-0.0078125,0.0,-0.0078125,false,false,false,false,2.5,12.200000000000001,0.0,8811,55,0,2.625,12.200000000000001,0.0,0,0,0,2.75,12.200000000000001,0.0,0,0,0,0.5,12.200000000000001,0.0,0,0,0,0.0,12.25,0.0,9,0,0,0.0,4.0,0.0,0,0,0,kReverse,0.0,0.0,0.0,0.0,0.0,0.0,0.0,0.0,0.0,0.0,0.0,
315.534184,true,true,true,0.0,-0.0078125,0.0,-0.0078125,false,false,false,false,0.0,-0.0078125,0.0,-0.0078125,false,false,false,false,0.375,12.05,0.0,8834,56,0,1.75,12.0,0.0,0,0,0,0.125,12.05,0.0,0,0,0,0.0,12.0,0.0,0,0,0,0.0,12.1,0.0,9,0,0,0.0,4.0,0.0,0,0,0,kReverse,0.0,0.0,0.0,0.0,0.0,0.0,0.0,0.0,0.0,0.0,0.0,
315.58726700000005,true,true,true,0.0,-0.0078125,0.0,-0.0078125,false,false,false,false,0.0,-0.0078125,0.0,-0.0078125,false,false,false,false,0.0,12.05,0.0,8858,47,0,0.125,12.0,0.0,0,0,0,0.0,12.05,0.0,0,0,0,0.0,12.0,0.0,0,0,0,0.0,12.1,0.0,9,0,0,0.0,4.0,0.0,0,0,0,kReverse,0.0,0.0,0.0,0.0,0.0,0.0,0.0,0.0,0.0,0.0,0.0,
315.6358000000001,true,true,true,0.0,-0.0078125,0.0,-0.0078125,false,false,false,false,0.0,-0.0078125,0.0,-0.0078125,false,false,false,false,0.0,12.05,0.0,8866,32,0,0.0,12.0,0.0,0,0,0,0.0,12.05,0.0,0,0,0,0.0,12.0,0.0,0,0,0,0.0,12.1,0.0,9,0,0,0.0,4.0,0.0,0,0,0,kReverse,0.0,0.0,0.0,0.0,0.0,0.0,0.0,0.0,0.0,0.0,0.0,
315.69216700000004,true,true,true,0.0,-0.0078125,0.0,-0.0078125,false,false,false,false,0.0,-0.0078125,0.0,-0.0078125,false,false,false,false,0.0,12.25,0.0,8868,10,0,0.0,12.25,0.0,0,0,0,0.0,12.25,0.0,0,0,0,0.0,12.200000000000001,0.0,0,0,0,0.0,12.3,0.0,9,0,0,0.0,4.0,0.0,0,0,0,kReverse,0.0,0.0,0.0,0.0,0.0,0.0,0.0,0.0,0.0,0.0,0.0,
315.735693,true,true,true,0.0,-0.0078125,0.0,-0.0078125,false,false,false,false,0.0,-0.0078125,0.0,-0.0078125,false,false,false,false,0.0,12.25,0.0,8867,1,0,0.125,12.25,0.0,0,0,0,0.0,12.25,0.0,0,0,0,0.0,12.200000000000001,0.0,0,0,0,0.0,12.3,0.0,9,0,0,0.0,4.0,0.0,0,0,0,kReverse,0.0,0.0,0.0,0.0,0.0,0.0,0.0,0.0,0.0,0.0,0.0,
315.790972,true,true,true,0.0,-0.1640625,0.0,-0.0078125,false,false,false,false,0.0,-0.0078125,0.0,-0.0078125,false,false,false,false,0.0,12.25,0.0,8856,-12,0,0.125,12.25,0.0,0,0,0,0.0,12.25,0.0,0,0,0,0.0,12.200000000000001,0.0,0,0,0,0.0,12.3,0.0,9,0,0,0.0,4.0,0.0,0,0,0,kReverse,0.0,0.0,0.0,0.0,0.0,0.0,0.0,0.0,0.0,0.0,0.0,
315.83623600000004,true,true,true,0.0,-0.2890625,0.0,-0.0078125,false,false,false,false,0.0,-0.0078125,0.0,-0.0078125,false,false,false,false,0.0,12.6,0.0,8849,-18,0,0.125,12.65,0.0,0,0,0,0.0,12.6,0.0,0,0,0,0.0,12.6,0.0,0,0,0,0.0,12.700000000000001,0.0,9,0,0,0.0,4.0,0.0,0,0,0,kReverse,0.0,0.0,0.0,0.0,0.0,0.0,0.0,0.0,0.0,0.0,0.0,
315.893124,true,true,true,0.0,-0.2890625,0.0,-0.0078125,false,false,false,false,0.0,-0.0078125,0.0,-0.0078125,false,false,false,false,1.625,12.6,0.0,8842,-14,0,1.5,12.65,0.0,0,0,0,1.375,12.6,0.0,0,0,0,0.5,12.6,0.0,0,0,0,0.0,12.700000000000001,0.0,9,0,0,0.0,4.0,0.0,0,0,0,kReverse,0.0,0.0,0.0,0.0,0.0,0.0,0.0,0.0,0.0,0.0,0.0,
315.94126100000005,true,true,true,0.0,-0.171875,0.0,-0.0078125,false,false,false,false,0.0,-0.0078125,0.0,-0.0078125,false,false,false,false,2.375,12.6,0.0,8844,-1,0,3.5,12.65,0.0,0,0,0,2.25,12.6,0.0,0,0,0,1.5,12.6,0.0,0,0,0,0.0,12.700000000000001,0.0,9,0,0,0.0,4.0,0.0,0,0,0,kReverse,0.0,0.0,0.0,0.0,0.0,0.0,0.0,0.0,0.0,0.0,0.0,
315.994232,true,true,true,0.0,-0.2890625,0.0,-0.0078125,false,false,false,false,0.0,-0.0078125,0.0,-0.0078125,false,false,false,false,1.25,12.450000000000001,0.0,8847,5,0,2.5,12.450000000000001,0.0,0,0,0,1.25,12.450000000000001,0.0,0,0,0,0.5,12.450000000000001,0.0,0,0,0,0.0,12.55,0.0,9,0,0,0.0,4.0,0.0,0,0,0,kReverse,0.0,0.0,0.0,0.0,0.0,0.0,0.0,0.0,0.0,0.0,0.0,
316.050907,true,true,true,0.0,-0.796875,0.0,-0.0078125,false,false,false,false,0.0,-0.0078125,0.0,-0.0078125,false,false,false,false,1.625,12.450000000000001,0.0,8853,9,0,2.125,12.450000000000001,0.0,0,0,0,1.5,12.450000000000001,0.0,0,0,0,0.0,12.450000000000001,0.0,0,0,0,0.0,12.55,0.0,9,0,0,0.0,4.0,0.0,0,0,0,kReverse,0.0,0.0,0.0,0.0,0.0,0.0,0.0,0.0,0.0,0.0,0.0,
316.096477,true,true,true,0.0,-1.0,0.0,-0.0078125,false,false,false,false,0.0,-0.0078125,0.0,-0.0078125,false,false,false,false,8.0,12.450000000000001,0.0,8861,14,0,10.625,12.450000000000001,0.0,0,0,0,9.375,12.450000000000001,0.0,0,0,0,6.0,12.450000000000001,0.0,0,0,0,0.0,12.55,0.0,9,0,0,0.0,4.0,0.0,0,0,0,kReverse,0.0,0.0,0.0,0.0,0.0,0.0,0.0,0.0,0.0,0.0,0.0,
316.15519200000006,true,true,true,0.0,-0.7109375,0.0,-0.0078125,false,false,false,false,0.0,-0.0078125,0.0,-0.0078125,false,false,false,false,22.75,9.75,0.0,8881,28,0,25.875,10.0,0.0,0,0,0,23.0,9.850000000000001,0.0,0,0,0,19.0,9.9,0.0,0,0,0,0.0,10.15,0.0,9,0,0,0.0,4.0,0.0,0,0,0,kReverse,0.0,0.0,0.0,0.0,0.0,0.0,0.0,0.0,0.0,0.0,0.0,
316.22987000000006,true,true,true,0.0,-0.0078125,0.0,-0.0078125,false,false,false,false,0.0,-0.0078125,0.0,-0.0078125,false,false,false,false,19.125,9.75,0.0,8938,65,0,24.125,10.0,0.0,0,0,0,26.0,9.850000000000001,0.0,0,0,0,25.5,9.9,0.0,0,0,0,0.0,10.15,0.0,9,0,0,0.0,4.0,0.0,0,0,0,kReverse,0.0,0.0,0.0,0.0,0.0,0.0,0.0,0.0,0.0,0.0,0.0,
316.28393300000005,true,true,true,0.0,-0.0078125,0.0,-0.0078125,false,false,false,false,0.0,-0.0078125,0.0,-0.0078125,false,false,false,false,5.375,9.75,0.0,8989,87,0,12.125,10.0,0.0,0,0,0,6.75,9.850000000000001,0.0,0,0,0,11.875,9.9,0.0,0,0,0,0.0,10.15,0.0,9,0,0,0.0,4.0,0.0,0,0,0,kReverse,0.0,0.0,0.0,0.0,0.0,0.0,0.0,0.0,0.0,0.0,0.0,
316.33583200000004,true,true,true,0.0,-0.0078125,0.0,-0.0078125,false,false,false,false,0.0,-0.0078125,0.0,-0.0078125,false,false,false,false,0.0,12.5,0.0,9007,69,0,0.125,12.5,0.0,0,0,0,0.0,12.450000000000001,0.0,0,0,0,0.0,12.450000000000001,0.0,0,0,0,0.0,12.55,0.0,9,0,0,0.0,4.0,0.0,0,0,0,kReverse,0.0,0.0,0.0,0.0,0.0,0.0,0.0,0.0,0.0,0.0,0.0,
316.391123,true,true,true,0.0,-0.0078125,0.0,-0.0078125,false,false,false,false,0.0,-0.0078125,0.0,-0.0078125,false,false,false,false,0.0,12.5,0.0,9023,34,0,0.125,12.5,0.0,0,0,0,0.0,12.450000000000001,0.0,0,0,0,0.0,12.450000000000001,0.0,0,0,0,0.0,12.55,0.0,9,0,0,0.0,4.0,0.0,0,0,0,kReverse,0.0,0.0,0.0,0.0,0.0,0.0,0.0,0.0,0.0,0.0,0.0,
316.43836200000004,true,true,true,0.0,-0.0078125,0.0,-0.0078125,false,false,false,false,0.0,-0.0078125,0.0,-0.0078125,false,false,false,false,0.0,12.5,0.0,9026,19,0,0.125,12.5,0.0,0,0,0,0.0,12.450000000000001,0.0,0,0,0,0.0,12.450000000000001,0.0,0,0,0,0.0,12.55,0.0,9,0,0,0.0,4.0,0.0,0,0,0,kReverse,0.0,0.0,0.0,0.0,0.0,0.0,0.0,0.0,0.0,0.0,0.0,
316.49714900000004,true,true,true,0.0,-0.0078125,0.0,-0.0078125,false,false,false,false,0.0,-0.0078125,0.0,-0.0078125,false,false,false,false,0.0,12.6,0.0,9014,-11,0,0.125,12.6,0.0,0,0,0,0.0,12.6,0.0,0,0,0,0.0,12.6,0.0,0,0,0,0.0,12.65,0.0,9,0,0,0.0,4.0,0.0,0,0,0,kReverse,0.0,0.0,0.0,0.0,0.0,0.0,0.0,0.0,0.0,0.0,0.0,
316.540269,true,true,true,0.0,-0.0078125,0.0,-0.0078125,false,false,false,false,0.0,-0.0078125,0.0,-0.0078125,false,false,false,false,0.0,12.6,0.0,9004,-20,0,0.125,12.6,0.0,0,0,0,0.0,12.6,0.0,0,0,0,0.0,12.6,0.0,0,0,0,0.0,12.65,0.0,9,0,0,0.0,4.0,0.0,0,0,0,kReverse,0.0,0.0,0.0,0.0,0.0,0.0,0.0,0.0,0.0,0.0,0.0,
316.591047,true,true,true,0.0,-0.0078125,0.0,-0.0078125,false,false,false,false,0.0,-0.0078125,0.0,-0.0078125,false,false,false,false,0.0,12.6,0.0,8993,-25,0,0.125,12.6,0.0,0,0,0,0.0,12.6,0.0,0,0,0,0.0,12.6,0.0,0,0,0,0.0,12.65,0.0,9,0,0,0.0,4.0,0.0,0,0,0,kReverse,0.0,0.0,0.0,0.0,0.0,0.0,0.0,0.0,0.0,0.0,0.0,
316.64322500000003,true,true,true,0.0,-0.0078125,0.0,-0.0078125,false,false,false,false,0.0,-0.0078125,0.0,-0.0078125,false,false,false,false,0.0,12.6,0.0,8984,-20,0,0.0,12.65,0.0,0,0,0,0.0,12.6,0.0,0,0,0,0.0,12.6,0.0,0,0,0,0.0,12.700000000000001,0.0,9,0,0,0.0,4.0,0.0,0,0,0,kReverse,0.0,0.0,0.0,0.0,0.0,0.0,0.0,0.0,0.0,0.0,0.0,
316.693706,true,true,true,0.0,-0.0078125,0.0,-0.0078125,false,false,false,false,0.0,-0.0078125,0.0,-0.0078125,false,false,false,false,0.0,12.6,0.0,8982,-11,0,0.0,12.65,0.0,0,0,0,0.0,12.6,0.0,0,0,0,0.0,12.6,0.0,0,0,0,0.0,12.700000000000001,0.0,9,0,0,0.0,4.0,0.0,0,0,0,kReverse,0.0,0.0,0.0,0.0,0.0,0.0,0.0,0.0,0.0,0.0,0.0,
316.744031,true,true,true,0.0,-0.0078125,0.0,-0.0078125,false,false,false,false,0.0,-0.0078125,0.0,-0.0078125,false,false,false,false,0.0,12.6,0.0,8979,-5,0,0.125,12.65,0.0,0,0,0,0.0,12.6,0.0,0,0,0,0.0,12.6,0.0,0,0,0,0.0,12.700000000000001,0.0,9,0,0,0.0,4.0,0.0,0,0,0,kReverse,0.0,0.0,0.0,0.0,0.0,0.0,0.0,0.0,0.0,0.0,0.0,
316.796048,true,true,true,0.0,-0.0078125,0.0,-0.0078125,false,false,false,false,0.0,-0.0078125,0.0,-0.0078125,false,false,false,false,0.0,12.65,0.0,8979,-3,0,0.125,12.65,0.0,0,0,0,0.0,12.65,0.0,0,0,0,0.0,12.65,0.0,0,0,0,0.0,12.75,0.0,9,0,0,0.0,4.0,0.0,0,0,0,kReverse,0.0,0.0,0.0,0.0,0.0,0.0,0.0,0.0,0.0,0.0,0.0,
316.84706700000004,true,true,true,0.0,-0.0078125,0.0,-0.0078125,false,false,false,false,0.0,-0.0078125,0.0,-0.0078125,false,false,false,false,0.0,12.65,0.0,8979,0,0,0.125,12.65,0.0,0,0,0,0.0,12.65,0.0,0,0,0,0.0,12.65,0.0,0,0,0,0.0,12.75,0.0,9,0,0,0.0,4.0,0.0,0,0,0,kReverse,0.0,0.0,0.0,0.0,0.0,0.0,0.0,0.0,0.0,0.0,0.0,
316.89722500000005,true,true,true,0.0,-0.0078125,0.0,-0.0078125,false,false,false,false,0.0,-0.0078125,0.0,-0.0078125,false,false,false,false,0.0,12.65,0.0,8979,0,0,0.125,12.65,0.0,0,0,0,0.0,12.65,0.0,0,0,0,0.0,12.65,0.0,0,0,0,0.0,12.75,0.0,9,0,0,0.0,4.0,0.0,0,0,0,kReverse,0.0,0.0,0.0,0.0,0.0,0.0,0.0,0.0,0.0,0.0,0.0,
316.95398500000005,true,true,true,0.0,-0.0078125,0.0,-0.0078125,false,false,false,false,0.0,-0.0078125,0.0,-0.0078125,false,false,false,false,0.0,12.65,0.0,8979,0,0,0.125,12.65,0.0,0,0,0,0.0,12.65,0.0,0,0,0,0.0,12.65,0.0,0,0,0,0.0,12.75,0.0,9,0,0,0.0,4.0,0.0,0,0,0,kReverse,0.0,0.0,0.0,0.0,0.0,0.0,0.0,0.0,0.0,0.0,0.0,
317.00459500000005,true,true,true,0.0,-0.0078125,0.0,-0.0078125,false,false,false,false,0.0,-0.0078125,0.0,-0.0078125,false,false,false,false,0.0,12.65,0.0,8979,0,0,0.125,12.65,0.0,0,0,0,0.0,12.65,0.0,0,0,0,0.0,12.65,0.0,0,0,0,0.0,12.75,0.0,9,0,0,0.0,4.0,0.0,0,0,0,kReverse,0.0,0.0,0.0,0.0,0.0,0.0,0.0,0.0,0.0,0.0,0.0,
317.056166,true,true,true,0.0,-0.0078125,0.0,-0.0078125,false,false,false,false,0.0,-0.0078125,0.0,-0.0078125,true,false,false,false,0.0,12.65,0.0,8979,0,0,0.125,12.65,0.0,0,0,0,0.0,12.65,0.0,0,0,0,0.0,12.65,0.0,0,0,0,0.0,12.75,0.0,9,0,0,0.0,4.0,0.0,0,0,0,kForward,0.0,0.0,0.0,0.0,0.0,0.0,0.0,0.0,0.0,0.0,0.0,
317.11136000000005,true,true,true,0.0,-0.0078125,0.0,-0.0078125,false,false,false,false,0.0,-0.0078125,0.0,-0.0078125,true,false,false,false,0.0,12.65,0.0,8979,0,0,0.125,12.700000000000001,0.0,0,0,0,0.0,12.65,0.0,0,0,0,0.0,12.65,0.0,0,0,0,0.0,12.75,0.0,9,0,0,0.0,4.0,0.0,0,0,0,kForward,0.0,0.0,0.0,0.0,0.0,0.0,0.0,0.0,0.0,0.0,0.0,
317.160775,true,true,true,0.0,-0.0078125,0.0,-0.0078125,false,false,false,false,0.0,-0.0078125,0.0,-0.0078125,true,false,false,false,0.0,12.65,0.0,8979,0,0,0.125,12.700000000000001,0.0,0,0,0,0.0,12.65,0.0,0,0,0,0.0,12.65,0.0,0,0,0,0.0,12.75,0.0,9,0,0,0.0,4.0,0.0,0,0,0,kForward,0.0,0.0,0.0,0.0,0.0,0.0,0.0,0.0,0.0,0.0,0.0,
317.214846,true,true,true,0.0,-0.0078125,0.0,-0.0078125,false,false,false,false,0.0,-0.0078125,0.0,-0.0078125,true,false,false,false,0.0,12.65,0.0,8979,0,0,0.125,12.700000000000001,0.0,0,0,0,0.0,12.65,0.0,0,0,0,0.0,12.65,0.0,0,0,0,0.0,12.75,0.0,9,0,0,0.0,4.0,0.0,0,0,0,kForward,0.0,0.0,0.0,0.0,0.0,0.0,0.0,0.0,0.0,0.0,0.0,
317.263804,true,true,true,0.0,-0.0078125,0.0,-0.0078125,false,false,false,false,0.0,-0.0078125,0.0,-0.0078125,true,false,false,false,0.0,12.65,0.0,8979,0,0,0.125,12.700000000000001,0.0,0,0,0,0.0,12.700000000000001,0.0,0,0,0,0.0,12.65,0.0,0,0,0,0.0,12.75,0.0,9,0,0,0.0,4.0,0.0,0,0,0,kForward,0.0,0.0,0.0,0.0,0.0,0.0,0.0,0.0,0.0,0.0,0.0,
317.31462600000003,true,true,true,0.0,-0.0078125,0.0,-0.0078125,false,false,false,false,0.0,-0.0078125,0.0,-0.0078125,true,false,false,false,0.0,12.65,0.0,8979,0,0,0.0,12.700000000000001,0.0,0,0,0,0.0,12.700000000000001,0.0,0,0,0,0.0,12.65,0.0,0,0,0,0.0,12.75,0.0,9,0,0,0.0,4.0,0.0,0,0,0,kForward,0.0,0.0,0.0,0.0,0.0,0.0,0.0,0.0,0.0,0.0,0.0,
317.372987,true,true,true,0.0,-0.0078125,0.0,-0.0078125,false,false,false,false,0.0,-0.0078125,0.0,-0.0078125,true,false,false,false,0.0,12.65,0.0,8979,0,0,0.125,12.700000000000001,0.0,0,0,0,0.0,12.700000000000001,0.0,0,0,0,0.0,12.65,0.0,0,0,0,0.0,12.75,0.0,9,0,0,0.0,4.0,0.0,0,0,0,kForward,0.0,0.0,0.0,0.0,0.0,0.0,0.0,0.0,0.0,0.0,0.0,
317.4296800000001,true,true,true,0.0,-0.0078125,0.0,-0.0078125,false,false,false,false,0.0,-0.0078125,0.0,-0.0078125,true,false,false,false,0.0,12.700000000000001,0.0,8979,0,0,0.125,12.700000000000001,0.0,0,0,0,0.0,12.700000000000001,0.0,0,0,0,0.0,12.700000000000001,0.0,0,0,0,0.0,12.75,0.0,9,0,0,0.0,4.0,0.0,0,0,0,kForward,0.0,0.0,0.0,0.0,0.0,0.0,0.0,0.0,0.0,0.0,0.0,
317.47411200000005,true,true,true,0.0,-0.0078125,0.0,-0.0078125,false,false,false,false,0.0,-0.0078125,0.0,-0.0078125,true,false,false,false,0.0,12.700000000000001,0.0,8979,0,0,0.0,12.700000000000001,0.0,0,0,0,0.0,12.700000000000001,0.0,0,0,0,0.0,12.700000000000001,0.0,0,0,0,0.0,12.75,0.0,9,0,0,0.0,4.0,0.0,0,0,0,kForward,0.0,0.0,0.0,0.0,0.0,0.0,0.0,0.0,0.0,0.0,0.0,
317.52246,true,true,true,0.0,-0.0078125,0.0,-0.0078125,false,false,false,false,0.0,-0.0078125,0.0,-0.0078125,true,false,false,false,0.0,12.700000000000001,0.0,8979,0,0,0.0,12.700000000000001,0.0,0,0,0,0.0,12.700000000000001,0.0,0,0,0,0.0,12.700000000000001,0.0,0,0,0,0.0,12.75,0.0,9,0,0,0.0,4.0,0.0,0,0,0,kForward,0.0,0.0,0.0,0.0,0.0,0.0,0.0,0.0,0.0,0.0,0.0,
317.570222,true,true,true,0.0,-0.0078125,0.0,-0.0078125,false,false,false,false,0.0,-0.0078125,0.0,-0.0078125,true,false,false,false,0.0,12.700000000000001,0.0,8979,0,0,0.125,12.700000000000001,0.0,0,0,0,0.0,12.700000000000001,0.0,0,0,0,0.0,12.700000000000001,0.0,0,0,0,0.0,12.75,0.0,9,0,0,0.0,4.0,0.0,0,0,0,kForward,0.0,0.0,0.0,0.0,0.0,0.0,0.0,0.0,0.0,0.0,0.0,
317.616092,true,true,true,0.0,-0.0078125,0.0,-0.0078125,false,false,false,false,0.0,-0.0078125,0.0,-0.0078125,true,false,false,false,0.0,12.700000000000001,0.0,8979,0,0,0.125,12.700000000000001,0.0,0,0,0,0.0,12.700000000000001,0.0,0,0,0,0.0,12.700000000000001,0.0,0,0,0,0.0,12.8,0.0,9,0,0,0.0,4.0,0.0,0,0,0,kForward,0.0,0.0,0.0,0.0,0.0,0.0,0.0,0.0,0.0,0.0,0.0,
317.666766,true,true,true,0.0,0.14173229038715363,0.0,-0.0078125,false,false,false,false,0.0,-0.0078125,0.0,-0.0078125,true,false,false,false,0.0,12.700000000000001,0.0,8978,-1,0,0.125,12.700000000000001,0.0,0,0,0,0.0,12.700000000000001,0.0,0,0,0,0.0,12.700000000000001,0.0,0,0,0,0.0,12.8,0.0,9,0,0,0.0,4.0,0.0,0,0,0,kForward,0.0,0.0,0.0,0.0,0.0,0.0,0.0,0.0,0.0,0.0,0.0,
317.715481,true,true,true,0.0,0.6456692814826965,0.0,-0.0078125,false,false,false,false,0.0,-0.0078125,0.0,-0.0078125,true,false,false,false,0.0,12.700000000000001,0.0,8975,-4,0,0.0,12.700000000000001,0.0,0,0,0,0.0,12.700000000000001,0.0,0,0,0,0.0,12.700000000000001,0.0,0,0,0,0.0,12.8,0.0,9,0,0,0.0,4.0,0.0,0,0,0,kForward,0.0,0.0,0.0,0.0,0.0,0.0,0.0,0.0,0.0,0.0,0.0,
317.772933,true,true,true,0.0,1.0,0.0,-0.0078125,false,false,false,false,0.0,-0.0078125,0.0,-0.0078125,true,false,false,false,0.0,12.6,0.0,8967,-11,0,0.75,12.65,0.0,0,0,0,1.375,12.6,0.0,0,0,0,0.5,12.6,0.0,0,0,0,0.0,12.700000000000001,0.0,9,0,0,0.0,4.0,0.0,0,0,0,kForward,0.0,0.0,0.0,0.0,0.0,0.0,0.0,0.0,0.0,0.0,0.0,
317.840701,true,true,true,0.0,1.0,0.0,-0.0078125,false,false,false,false,0.0,-0.0078125,0.0,-0.0078125,true,false,false,false,19.5,12.6,0.0,8936,-35,0,19.5,12.65,0.0,0,0,0,20.5,12.6,0.0,0,0,0,14.875,12.6,0.0,0,0,0,0.0,12.700000000000001,0.0,9,0,0,0.0,4.0,0.0,0,0,0,kForward,0.0,0.0,0.0,0.0,0.0,0.0,0.0,0.0,0.0,0.0,0.0,
317.890164,true,true,true,0.0,1.0,0.0,-0.0078125,false,false,false,false,0.0,-0.0078125,0.0,-0.0078125,true,false,false,false,18.125,12.6,0.0,8912,-50,0,22.75,12.65,0.0,0,0,0,20.625,12.6,0.0,0,0,0,19.75,12.6,0.0,0,0,0,0.0,12.700000000000001,0.0,9,0,0,0.0,4.0,0.0,0,0,0,kForward,0.0,0.0,0.0,0.0,0.0,0.0,0.0,0.0,0.0,0.0,0.0,
317.935671,true,true,true,0.0,1.0,0.0,-0.0078125,false,false,false,false,0.0,-0.0078125,0.0,-0.0078125,true,false,false,false,12.875,10.7,0.0,8875,-71,0,17.875,10.8,0.0,0,0,0,15.5,10.7,0.0,0,0,0,14.375,10.55,0.0,0,0,0,0.0,10.9,0.0,9,0,0,0.0,4.0,0.0,0,0,0,kForward,0.0,0.0,0.0,0.0,0.0,0.0,0.0,0.0,0.0,0.0,0.0,
317.999592,true,true,true,0.0,1.0,0.0,-0.0078125,false,false,false,false,0.0,-0.0078125,0.0,-0.0078125,true,false,false,false,12.875,10.7,0.0,8799,-113,0,17.5,10.8,0.0,0,0,0,15.75,10.7,0.0,0,0,0,14.375,10.55,0.0,0,0,0,0.0,10.9,0.0,9,0,0,0.0,4.0,0.0,0,0,0,kForward,0.0,0.0,0.0,0.0,0.0,0.0,0.0,0.0,0.0,0.0,0.0,
318.05485200000004,true,true,true,0.0,1.0,0.0,-0.0078125,false,false,false,false,0.0,-0.0078125,0.0,-0.0078125,true,false,false,false,10.25,10.7,0.0,8700,-153,0,15.375,10.8,0.0,0,0,0,13.25,11.100000000000001,0.0,0,0,0,11.5,11.100000000000001,0.0,0,0,0,0.0,11.3,0.0,9,0,0,0.0,4.0,0.0,0,0,0,kForward,0.0,0.0,0.0,0.0,0.0,0.0,0.0,0.0,0.0,0.0,0.0,
318.11079600000005,true,true,true,0.0,1.0,0.0,-0.0078125,false,false,false,false,0.0,-0.0078125,0.0,-0.0078125,true,false,false,false,7.25,11.100000000000001,0.0,8574,-194,0,12.375,11.15,0.0,0,0,0,11.75,11.100000000000001,0.0,0,0,0,10.0,11.100000000000001,0.0,0,0,0,0.0,11.3,0.0,9,0,0,0.0,4.0,0.0,0,0,0,kForward,0.0,0.0,0.0,0.0,0.0,0.0,0.0,0.0,0.0,0.0,0.0,
318.17061700000005,true,true,true,0.0,1.0,0.0,-0.0078125,false,false,false,false,0.0,-0.0078125,0.0,-0.0078125,true,false,false,false,6.125,11.100000000000001,0.0,8416,-246,0,11.125,11.15,0.0,0,0,0,10.125,11.100000000000001,0.0,0,0,0,8.0,11.100000000000001,0.0,0,0,0,0.0,11.3,0.0,9,0,0,0.0,4.0,0.0,0,0,0,kForward,0.0,0.0,0.0,0.0,0.0,0.0,0.0,0.0,0.0,0.0,0.0,
318.22726300000005,true,true,true,0.0,1.0,0.0,-0.0078125,false,false,false,false,0.0,-0.0078125,0.0,-0.0078125,true,false,false,false,5.375,11.5,0.0,8244,-277,0,10.5,11.5,0.0,0,0,0,9.625,11.5,0.0,0,0,0,7.625,11.5,0.0,0,0,0,0.0,11.600000000000001,0.0,9,0,0,0.0,4.0,0.0,0,0,0,kForward,0.0,0.0,0.0,0.0,0.0,0.0,0.0,0.0,0.0,0.0,0.0,
318.275623,true,true,true,0.0,1.0,0.0,-0.0078125,false,false,false,false,0.0,-0.0078125,0.0,-0.0078125,true,false,false,false,4.875,11.5,0.0,8128,-288,0,9.25,11.5,0.0,0,0,0,7.875,11.5,0.0,0,0,0,5.75,11.5,0.0,0,0,0,0.0,11.600000000000001,0.0,9,0,0,0.0,4.0,0.0,0,0,0,kForward,0.0,0.0,0.0,0.0,0.0,0.0,0.0,0.0,0.0,0.0,0.0,
318.33107100000007,true,true,true,-0.25,1.0,0.0,-0.0078125,false,false,false,false,0.0,-0.0078125,0.0,-0.0078125,true,false,false,false,5.125,11.5,0.0,7944,-302,0,8.25,11.5,0.0,0,0,0,7.375,11.5,0.0,0,0,0,5.125,11.5,0.0,0,0,0,0.0,11.600000000000001,0.0,9,0,0,0.0,4.0,0.0,0,0,0,kForward,0.0,0.0,0.0,0.0,0.0,0.0,0.0,0.0,0.0,0.0,0.0,
318.38194200000004,true,true,true,-0.125,1.0,0.0,-0.0078125,false,false,false,false,0.0,-0.0078125,0.0,-0.0078125,true,false,false,false,5.25,11.75,0.0,7756,-312,0,7.875,11.8,0.0,0,0,0,7.0,11.75,0.0,0,0,0,4.75,11.75,0.0,0,0,0,0.0,11.9,0.0,9,0,0,0.0,4.0,0.0,0,0,0,kForward,0.0,0.0,0.0,0.0,0.0,0.0,0.0,0.0,0.0,0.0,0.0,
318.4323380000001,true,true,true,-0.1640625,1.0,0.0,-0.0078125,false,false,false,false,0.0,-0.0078125,0.0,-0.0078125,true,false,false,false,5.25,11.75,0.0,7629,-315,0,7.625,11.8,0.0,0,0,0,6.625,11.75,0.0,0,0,0,4.75,11.75,0.0,0,0,0,0.0,11.9,0.0,9,0,0,0.0,4.0,0.0,0,0,0,kForward,0.0,0.0,0.0,0.0,0.0,0.0,0.0,0.0,0.0,0.0,0.0,
318.487189,true,true,true,-0.0859375,1.0,0.0,-0.0078125,false,false,false,false,0.0,-0.0078125,0.0,-0.0078125,true,false,false,false,4.0,11.75,0.0,7434,-322,0,7.0,11.8,0.0,0,0,0,6.125,11.75,0.0,0,0,0,4.75,11.75,0.0,0,0,0,0.0,11.9,0.0,9,0,0,0.0,4.0,0.0,0,0,0,kForward,0.0,0.0,0.0,0.0,0.0,0.0,0.0,0.0,0.0,0.0,0.0,
318.53563700000007,true,true,true,-0.1796875,0.9291338324546814,0.0,-0.0078125,false,false,false,false,0.0,-0.0078125,0.0,-0.0078125,true,false,false,false,3.5,11.75,0.0,7302,-327,0,6.75,11.8,0.0,0,0,0,6.0,11.95,0.0,0,0,0,4.875,11.9,0.0,0,0,0,0.0,12.05,0.0,9,0,0,0.0,4.0,0.0,0,0,0,kForward,0.0,0.0,0.0,0.0,0.0,0.0,0.0,0.0,0.0,0.0,0.0,
318.59231900000003,true,true,true,-0.140625,0.34645670652389526,0.0,-0.0078125,false,false,false,false,0.0,-0.0078125,0.0,-0.0078125,true,false,false,false,1.5,11.9,0.0,7104,-330,0,5.875,11.95,0.0,0,0,0,4.875,11.95,0.0,0,0,0,4.625,11.9,0.0,0,0,0,0.0,12.05,0.0,9,0,0,0.0,4.0,0.0,0,0,0,kForward,0.0,0.0,0.0,0.0,0.0,0.0,0.0,0.0,0.0,0.0,0.0,
318.64357300000006,true,true,true,0.0,-0.0078125,0.0,-0.0078125,false,false,false,false,0.0,-0.0078125,0.0,-0.0078125,true,false,false,false,0.0,11.9,0.0,6915,-321,0,2.375,11.95,0.0,0,0,0,1.5,11.95,0.0,0,0,0,1.375,11.9,0.0,0,0,0,0.0,12.05,0.0,9,0,0,0.0,4.0,0.0,0,0,0,kForward,0.0,0.0,0.0,0.0,0.0,0.0,0.0,0.0,0.0,0.0,0.0,
318.692462,true,true,true,0.0,-0.0078125,0.0,-0.0078125,false,false,false,false,0.0,-0.0078125,0.0,-0.0078125,true,false,false,false,0.0,11.9,0.0,6799,-305,0,0.125,11.95,0.0,0,0,0,0.0,11.95,0.0,0,0,0,0.0,12.6,0.0,0,0,0,0.0,12.65,0.0,9,0,0,0.0,4.0,0.0,0,0,0,kForward,0.0,0.0,0.0,0.0,0.0,0.0,0.0,0.0,0.0,0.0,0.0,
318.74422200000004,true,true,true,0.0,-0.0078125,0.0,-0.0078125,false,false,false,false,0.0,-0.0078125,0.0,-0.0078125,true,false,false,false,0.0,12.6,0.0,6629,-286,0,0.0,12.6,0.0,0,0,0,0.0,12.6,0.0,0,0,0,0.0,12.6,0.0,0,0,0,0.0,12.65,0.0,9,0,0,0.0,4.0,0.0,0,0,0,kForward,0.0,0.0,0.0,0.0,0.0,0.0,0.0,0.0,0.0,0.0,0.0,
318.791193,true,true,true,0.0,-0.0078125,0.0,-0.0078125,false,false,false,false,0.0,-0.0078125,0.0,-0.0078125,true,false,false,false,0.0,12.6,0.0,6514,-285,0,0.0,12.6,0.0,0,0,0,0.0,12.6,0.0,0,0,0,0.0,12.6,0.0,0,0,0,0.0,12.65,0.0,9,0,0,0.0,4.0,0.0,0,0,0,kForward,0.0,0.0,0.0,0.0,0.0,0.0,0.0,0.0,0.0,0.0,0.0,
318.840575,true,true,true,0.0,-0.0078125,0.0,-0.0078125,false,false,false,false,0.0,-0.0078125,0.0,-0.0078125,true,false,false,false,0.0,12.6,0.0,6340,-289,0,0.0,12.6,0.0,0,0,0,0.0,12.6,0.0,0,0,0,0.0,12.6,0.0,0,0,0,0.0,12.65,0.0,9,0,0,0.0,4.0,0.0,0,0,0,kForward,0.0,0.0,0.0,0.0,0.0,0.0,0.0,0.0,0.0,0.0,0.0,
318.894105,true,true,true,0.0,-0.0078125,0.0,-0.0078125,false,false,false,false,0.0,-0.0078125,0.0,-0.0078125,true,false,false,false,0.0,12.65,0.0,6226,-288,0,0.0,12.65,0.0,0,0,0,0.0,12.65,0.0,0,0,0,0.0,12.6,0.0,0,0,0,0.0,12.700000000000001,0.0,9,0,0,0.0,4.0,0.0,0,0,0,kForward,0.0,0.0,0.0,0.0,0.0,0.0,0.0,0.0,0.0,0.0,0.0,
318.94955500000003,true,true,true,0.0,-0.0078125,0.0,-0.0078125,false,false,false,false,0.0,-0.0078125,0.0,-0.0078125,true,false,false,false,0.0,12.65,0.0,6063,-277,0,0.125,12.65,0.0,0,0,0,0.0,12.65,0.0,0,0,0,0.0,12.6,0.0,0,0,0,0.0,12.700000000000001,0.0,9,0,0,0.0,4.0,0.0,0,0,0,kForward,0.0,0.0,0.0,0.0,0.0,0.0,0.0,0.0,0.0,0.0,0.0,
