timer,lineLeft,lineCenter,lineRight,driverLeftX,driverLeftY,driverRightX,driverRightY,driverA,driverB,driverX,driverY,operatorLeftX,operatorLeftY,operatorRightX,operatorRightY,operatorA,operatorB,operatorX,operatorY,LeftFrontCurrent,LeftFrontVoltage,LeftFrontValue,LeftFrontPosition,LeftFrontVelocity,LeftFrontFaults,LeftRearCurrent,LeftRearVoltage,LeftRearValue,LeftRearPosition,LeftRearVelocity,LeftRearFaults,RightFrontCurrent,RightFrontVoltage,RightFrontValue,RightFrontPosition,RightFrontVelocity,RightFrontFaults,RightRearCurrent,RightRearVoltage,RightRearValue,RightRearPosition,RightRearVelocity,RightRearFaults,LiftCurrent,LiftVoltage,LiftValue,LiftPosition,LiftVelocity,LiftFaults,RollerCurrent,RollerVoltage,RollerValue,RollerPosition,RollerVelocity,RollerFaults,PushersState,navx_Pitch,navx_Roll,navx_Yaw,navx_XAcc,navx_YAcc,navx_ZAcc,navx_Temp,navx_Bar,navx_Alt,navx_XDis,navx_YDis,
64.58233200000001,true,true,true,0.0,-0.0078125,0.0,-0.0078125,false,false,false,false,0.0,-0.0078125,0.0,-0.0078125,false,false,false,false,0.0,12.200000000000001,0.0,9782,4,0,1.125,12.25,0.0,0,0,0,0.125,12.25,0.0,5722,0,0,0.0,12.200000000000001,0.0,0,0,0,0.0,12.35,0.0,0,0,0,0.0,4.0,0.0,0,0,0,kReverse,0.0,0.0,0.0,0.0,0.0,0.0,0.0,0.0,0.0,0.0,0.0,
64.755167,true,true,true,0.0,-0.0078125,0.0,-0.0078125,false,false,false,false,0.0,-0.0078125,0.0,-0.0078125,false,false,false,false,0.0,12.3,0.0,9776,-3,0,0.0,12.35,0.0,0,0,0,0.0,12.35,0.0,5722,0,0,0.0,12.3,0.0,0,0,0,0.0,12.4,0.0,0,0,0,0.0,4.0,0.0,0,0,0,kReverse,0.0,0.0,0.0,0.0,0.0,0.0,0.0,0.0,0.0,0.0,0.0,
64.899486,true,true,true,0.0,-0.0078125,0.0,-0.0078125,false,false,false,false,0.0,-0.0078125,0.0,-0.0078125,false,false,false,false,0.0,12.35,0.0,9776,0,0,0.0,12.35,0.0,0,0,0,0.0,12.35,0.0,5722,0,0,0.0,12.35,0.0,0,0,0,0.0,12.4,0.0,0,0,0,0.0,4.0,0.0,0,0,0,kReverse,0.0,0.0,0.0,0.0,0.0,0.0,0.0,0.0,0.0,0.0,0.0,
65.069823,true,true,true,0.0,-0.453125,0.0,-0.0078125,false,false,false,false,0.0,-0.0078125,0.0,-0.0078125,false,false,false,false,0.0,12.35,0.0,9776,0,0,0.0,12.35,0.0,0,0,0,1.375,12.35,0.0,5722,0,0,0.0,12.35,0.0,0,0,0,0.0,12.4,0.0,0,0,0,0.0,4.0,0.0,0,0,0,kReverse,0.0,0.0,0.0,0.0,0.0,0.0,0.0,0.0,0.0,0.0,0.0,
65.218385,true,true,true,0.0,-1.0,0.0,-0.0078125,false,false,false,false,0.0,-0.0078125,0.0,-0.0078125,false,false,false,false,6.125,11.4,0.0,9796,16,0,6.75,11.55,0.0,0,0,0,6.75,11.5,0.0,5722,0,0,7.25,11.5,0.0,0,0,0,0.0,11.600000000000001,0.0,0,0,0,0.0,4.0,0.0,0,0,0,kReverse,0.0,0.0,0.0,0.0,0.0,0.0,0.0,0.0,0.0,0.0,0.0,
65.373446,true,true,true,0.0,-1.0,0.0,-0.0078125,false,false,false,false,0.0,-0.0078125,0.0,-0.0078125,false,false,false,false,13.875,9.95,0.0,9850,43,0,20.25,9.95,0.0,0,0,0,17.75,9.9,0.0,5722,0,0,13.375,9.9,0.0,0,0,0,0.0,10.100000000000001,0.0,0,0,0,0.0,4.0,0.0,0,0,0,kReverse,0.0,0.0,0.0,0.0,0.0,0.0,0.0,0.0,0.0,0.0,0.0,
65.496457,true,true,true,0.0,-0.03125,0.8188976645469666,-0.0625,false,false,false,false,0.0,-0.0078125,0.0,-0.0078125,false,false,false,false,7.25,10.5,0.0,9964,89,0,12.75,10.65,0.0,0,0,0,11.375,10.55,0.0,5722,0,0,7.625,10.55,0.0,0,0,0,0.0,10.75,0.0,0,0,0,0.0,4.0,0.0,0,0,0,kReverse,0.0,0.0,0.0,0.0,0.0,0.0,0.0,0.0,0.0,0.0,0.0,
65.72671500000001,true,true,true,0.0,-0.0078125,1.0,-0.0078125,false,false,false,false,0.0,-0.0078125,0.0,-0.0078125,false,false,false,false,4.0,11.5,0.0,10249,137,0,6.5,11.5,0.0,0,0,0,6.25,11.55,0.0,5722,0,0,8.625,11.55,0.0,0,0,0,0.0,11.600000000000001,0.0,0,0,0,0.0,4.0,0.0,0,0,0,kReverse,0.0,0.0,0.0,0.0,0.0,0.0,0.0,0.0,0.0,0.0,0.0,
65.90012800000001,true,true,true,0.0,-0.0078125,1.0,-0.0078125,false,false,false,false,0.0,-0.0078125,0.0,-0.0078125,false,false,false,false,7.0,10.05,0.0,10534,167,0,12.0,10.100000000000001,0.0,0,0,0,25.25,9.95,0.0,5722,0,0,22.875,10.05,0.0,0,0,0,0.0,10.25,0.0,0,0,0,0.0,4.0,0.0,0,0,0,kReverse,0.0,0.0,0.0,0.0,0.0,0.0,0.0,0.0,0.0,0.0,0.0,
66.03452100000001,true,true,true,0.0,-0.0078125,0.33070865273475647,-0.0078125,false,false,false,false,0.0,-0.0078125,0.0,-0.0078125,false,false,false,false,13.125,10.2,0.0,10758,187,0,19.625,10.2,0.0,0,0,0,20.5,10.100000000000001,0.0,5722,0,0,18.25,10.2,0.0,0,0,0,0.0,10.4,0.0,0,0,0,0.0,4.0,0.0,0,0,0,kReverse,0.0,0.0,0.0,0.0,0.0,0.0,0.0,0.0,0.0,0.0,0.0,
66.204982,true,true,true,0.0,-0.0078125,0.0,-0.0078125,false,false,false,false,0.0,-0.0078125,0.0,-0.0078125,false,false,false,false,13.25,10.55,0.0,11041,149,0,21.75,10.600000000000001,0.0,0,0,0,15.25,10.55,0.0,5722,0,0,14.0,10.55,0.0,0,0,0,0.0,10.75,0.0,0,0,0,0.0,4.0,0.0,0,0,0,kReverse,0.0,0.0,0.0,0.0,0.0,0.0,0.0,0.0,0.0,0.0,0.0,
66.336871,true,true,true,0.0,-0.0078125,0.9842519760131836,-0.0078125,false,false,false,false,0.0,-0.0078125,0.0,-0.0078125,false,false,false,false,0.0,12.6,0.0,11191,99,0,0.0,12.65,0.0,0,0,0,0.5,12.6,0.0,5722,0,0,0.0,12.6,0.0,0,0,0,0.0,12.700000000000001,0.0,0,0,0,0.0,4.0,0.0,0,0,0,kReverse,0.0,0.0,0.0,0.0,0.0,0.0,0.0,0.0,0.0,0.0,0.0,
66.442155,true,true,true,0.0,-0.0078125,1.0,-0.0078125,false,false,false,false,0.0,-0.0078125,0.0,-0.0078125,false,false,false,false,25.375,9.3,0.0,11274,82,0,32.0,9.600000000000001,0.0,0,0,0,24.75,9.4,0.0,5722,0,0,22.125,9.45,0.0,0,0,0,0.0,9.65,0.0,0,0,0,0.0,4.0,0.0,0,0,0,kReverse,0.0,0.0,0.0,0.0,0.0,0.0,0.0,0.0,0.0,0.0,0.0,
66.540291,true,true,true,0.0,-0.0078125,0.18897637724876404,-0.0078125,false,false,false,false,0.0,-0.0078125,0.0,-0.0078125,false,false,false,false,17.5,9.3,0.0,11358,84,0,25.875,9.600000000000001,0.0,0,0,0,19.5,9.4,0.0,5722,0,0,18.0,9.45,0.0,0,0,0,0.0,9.65,0.0,0,0,0,0.0,4.0,0.0,0,0,0,kReverse,0.0,0.0,0.0,0.0,0.0,0.0,0.0,0.0,0.0,0.0,0.0,
66.60887000000001,true,true,true,0.0,-0.0078125,0.0,-0.0078125,false,false,false,false,0.0,-0.0078125,0.0,-0.0078125,false,false,false,false,1.125,12.55,0.0,11412,91,0,2.875,12.55,0.0,0,0,0,1.25,12.5,0.0,5722,0,0,1.75,12.55,0.0,0,0,0,0.0,12.6,0.0,0,0,0,0.0,4.0,0.0,0,0,0,kReverse,0.0,0.0,0.0,0.0,0.0,0.0,0.0,0.0,0.0,0.0,0.0,
66.662038,true,true,true,0.0,-0.0078125,-0.0078125,-0.0078125,false,false,false,false,0.0,-0.0078125,0.0,-0.0078125,false,false,false,false,0.0,12.55,0.0,11460,83,0,0.125,12.55,0.0,0,0,0,0.0,12.5,0.0,5722,0,0,0.0,12.55,0.0,0,0,0,0.0,12.6,0.0,0,0,0,0.0,4.0,0.0,0,0,0,kReverse,0.0,0.0,0.0,0.0,0.0,0.0,0.0,0.0,0.0,0.0,0.0,
66.797573,true,true,true,0.0,-0.0078125,-0.625,-0.0078125,false,false,false,false,0.0,-0.0078125,0.0,-0.0078125,false,false,false,false,0.0,12.65,0.0,11528,55,0,0.0,12.700000000000001,0.0,0,0,0,0.0,12.65,0.0,5722,0,0,0.0,12.65,0.0,0,0,0,0.0,12.75,0.0,0,0,0,0.0,4.0,0.0,0,0,0,kReverse,0.0,0.0,0.0,0.0,0.0,0.0,0.0,0.0,0.0,0.0,0.0,
66.91789200000001,true,true,true,0.0,-0.0078125,-0.828125,0.11811023950576782,false,false,false,false,0.0,-0.0078125,0.0,-0.0078125,false,false,false,false,8.125,11.2,0.0,11532,-9,0,11.125,11.4,0.0,0,0,0,11.375,11.25,0.0,5722,0,0,8.5,11.25,0.0,0,0,0,0.0,11.4,0.0,0,0,0,0.0,4.0,0.0,0,0,0,kReverse,0.0,0.0,0.0,0.0,0.0,0.0,0.0,0.0,0.0,0.0,0.0,
66.98908,true,true,true,0.0,-0.0078125,0.6614173054695129,-0.0078125,false,false,false,false,0.0,-0.0078125,0.0,-0.0078125,false,false,false,false,12.625,11.2,0.0,11512,-28,0,16.75,11.4,0.0,0,0,0,16.375,11.25,0.0,5722,0,0,13.0,11.25,0.0,0,0,0,0.0,11.4,0.0,0,0,0,0.0,4.0,0.0,0,0,0,kReverse,0.0,0.0,0.0,0.0,0.0,0.0,0.0,0.0,0.0,0.0,0.0,
67.03958200000001,true,true,true,0.0,-0.0078125,1.0,-0.0078125,false,false,false,false,0.0,-0.0078125,0.0,-0.0078125,false,false,false,false,9.125,11.2,0.0,11498,-28,0,11.25,11.4,0.0,0,0,0,10.75,11.25,0.0,5722,0,0,7.5,11.25,0.0,0,0,0,0.0,11.4,0.0,0,0,0,0.0,4.0,0.0,0,0,0,kReverse,0.0,0.0,0.0,0.0,0.0,0.0,0.0,0.0,0.0,0.0,0.0,
67.090322,true,true,true,0.0,-0.0078125,1.0,-0.0078125,false,false,false,false,0.0,-0.0078125,0.0,-0.0078125,false,false,false,false,20.25,8.850000000000001,0.0,11498,-4,0,32.0,9.05,0.0,0,0,0,26.875,9.100000000000001,0.0,5722,0,0,23.5,9.05,0.0,0,0,0,0.0,9.2,0.0,0,0,0,0.0,4.0,0.0,0,0,0,kReverse,0.0,0.0,0.0,0.0,0.0,0.0,0.0,0.0,0.0,0.0,0.0,
67.247684,true,true,true,0.0,-0.0078125,1.0,-0.0078125,false,false,false,false,0.0,-0.0078125,0.0,-0.0078125,false,false,false,false,16.5,10.25,0.0,11551,44,0,23.25,10.2,0.0,0,0,0,18.875,10.3,0.0,5722,0,0,16.25,10.25,0.0,0,0,0,0.0,10.5,0.0,0,0,0,0.0,4.0,0.0,0,0,0,kReverse,0.0,0.0,0.0,0.0,0.0,0.0,0.0,0.0,0.0,0.0,0.0,
67.440488,true,true,true,0.0,-0.0078125,1.0,-0.0078125,false,false,false,false,0.0,-0.0078125,0.0,-0.0078125,false,false,false,false,12.5,10.65,0.0,11551,0,0,18.5,10.65,0.0,0,0,0,14.75,10.8,0.0,5722,0,0,11.75,10.75,0.0,0,0,0,0.0,10.9,0.0,0,0,0,0.0,4.0,0.0,0,0,0,kReverse,0.0,0.0,0.0,0.0,0.0,0.0,0.0,0.0,0.0,0.0,0.0,
67.523179,true,true,true,0.0,-0.390625,0.11811023950576782,-0.0078125,false,false,false,false,0.0,-0.0078125,0.0,-0.0078125,false,false,false,false,12.375,10.65,0.0,11551,0,0,18.5,10.65,0.0,0,0,0,14.125,10.8,0.0,5722,0,0,11.125,10.75,0.0,0,0,0,0.0,10.9,0.0,0,0,0,0.0,4.0,0.0,0,0,0,kReverse,0.0,0.0,0.0,0.0,0.0,0.0,0.0,0.0,0.0,0.0,0.0,
67.59164,true,true,true,0.0,-1.0,-0.015625,-0.0078125,false,false,false,false,0.0,-0.0078125,0.0,-0.0078125,false,false,false,false,3.5,12.1,0.0,11551,0,0,7.125,12.15,0.0,0,0,0,4.875,12.1,0.0,5722,0,0,1.625,12.0,0.0,0,0,0,0.0,12.1,0.0,0,0,0,0.0,4.0,0.0,0,0,0,kReverse,0.0,0.0,0.0,0.0,0.0,0.0,0.0,0.0,0.0,0.0,0.0,
67.671667,true,true,true,0.0,-1.0,-0.015625,-0.0078125,false,false,false,false,0.0,-0.0078125,0.0,-0.0078125,false,false,false,false,11.0,12.1,0.0,11551,0,0,16.5,12.15,0.0,0,0,0,30.125,12.1,0.0,5722,0,0,26.375,12.0,0.0,0,0,0,0.0,12.1,0.0,0,0,0,0.0,4.0,0.0,0,0,0,kReverse,0.0,0.0,0.0,0.0,0.0,0.0,0.0,0.0,0.0,0.0,0.0,
67.73044600000001,true,true,true,0.0,-1.0,-0.015625,-0.0078125,false,false,false,false,0.0,-0.0078125,0.0,-0.0078125,false,false,false,false,12.75,10.25,0.0,11551,0,0,19.0,10.350000000000001,0.0,0,0,0,23.25,10.2,0.0,5722,0,0,20.75,10.2,0.0,0,0,0,0.0,10.45,0.0,0,0,0,0.0,4.0,0.0,0,0,0,kReverse,0.0,0.0,0.0,0.0,0.0,0.0,0.0,0.0,0.0,0.0,0.0,
67.85985500000001,true,true,true,0.0,-1.0,-0.015625,-0.0078125,false,false,false,false,0.0,-0.0078125,0.0,-0.0078125,false,false,false,false,11.375,10.25,0.0,11551,0,0,17.375,10.350000000000001,0.0,0,0,0,17.5,10.2,0.0,5722,0,0,12.625,10.2,0.0,0,0,0,0.0,10.45,0.0,0,0,0,0.0,4.0,0.0,0,0,0,kReverse,0.0,0.0,0.0,0.0,0.0,0.0,0.0,0.0,0.0,0.0,0.0,
67.93626400000001,true,true,true,0.0,-1.0,-0.015625,-0.0078125,false,false,false,false,0.0,-0.0078125,0.0,-0.0078125,false,false,false,false,9.5,10.850000000000001,0.0,11551,0,0,15.25,11.0,0.0,0,0,0,13.25,10.850000000000001,0.0,5722,0,0,9.25,10.850000000000001,0.0,0,0,0,0.0,11.0,0.0,0,0,0,0.0,4.0,0.0,0,0,0,kReverse,0.0,0.0,0.0,0.0,0.0,0.0,0.0,0.0,0.0,0.0,0.0,
67.995585,true,true,true,0.0,-1.0,0.3858267664909363,-0.0078125,false,false,false,false,0.0,-0.0078125,0.0,-0.0078125,false,false,false,false,8.625,10.850000000000001,0.0,11551,0,0,14.0,11.0,0.0,0,0,0,12.0,10.850000000000001,0.0,5722,0,0,7.625,10.850000000000001,0.0,0,0,0,0.0,11.0,0.0,0,0,0,0.0,4.0,0.0,0,0,0,kReverse,0.0,0.0,0.0,0.0,0.0,0.0,0.0,0.0,0.0,0.0,0.0,
68.072811,true,true,true,0.0,-1.0,0.9921259880065918,-0.0078125,false,false,false,false,0.0,-0.0078125,0.0,-0.0078125,false,false,false,false,21.5,10.55,0.0,11551,0,0,30.0,10.75,0.0,0,0,0,1.5,10.850000000000001,0.0,5722,0,0,0.0,10.850000000000001,0.0,0,0,0,0.0,10.95,0.0,0,0,0,0.0,4.0,0.0,0,0,0,kReverse,0.0,0.0,0.0,0.0,0.0,0.0,0.0,0.0,0.0,0.0,0.0,
68.139607,true,true,true,0.0,-1.0,1.0,-0.0078125,false,false,false,false,0.0,-0.0078125,0.0,-0.0078125,false,false,false,false,29.75,10.55,0.0,11552,1,0,42.875,10.75,0.0,0,0,0,0.0,10.850000000000001,0.0,5722,0,0,0.0,10.850000000000001,0.0,0,0,0,0.0,10.95,0.0,0,0,0,0.0,4.0,0.0,0,0,0,kReverse,0.0,0.0,0.0,0.0,0.0,0.0,0.0,0.0,0.0,0.0,0.0,
68.249072,true,true,true,0.0,-1.0,0.0,-0.0078125,false,false,false,false,0.0,-0.0078125,0.0,-0.0078125,false,false,false,false,23.375,10.3,0.0,11554,2,0,36.875,10.4,0.0,0,0,0,0.0,10.600000000000001,0.0,5722,0,0,0.0,10.600000000000001,0.0,0,0,0,0.0,10.65,0.0,0,0,0,0.0,4.0,0.0,0,0,0,kReverse,0.0,0.0,0.0,0.0,0.0,0.0,0.0,0.0,0.0,0.0,0.0,
68.31956100000001,true,true,true,0.0,-1.0,0.0,-0.0078125,false,false,false,false,0.0,-0.0078125,0.0,-0.0078125,false,false,false,false,5.75,10.3,0.0,11576,23,0,10.0,10.4,0.0,0,0,0,6.625,10.600000000000001,0.0,5722,0,0,5.25,10.600000000000001,0.0,0,0,0,0.0,10.65,0.0,0,0,0,0.0,4.0,0.0,0,0,0,kReverse,0.0,0.0,0.0,0.0,0.0,0.0,0.0,0.0,0.0,0.0,0.0,
68.37899800000001,true,true,true,0.0,-1.0,0.0,-0.0078125,false,false,false,false,0.0,-0.0078125,0.0,-0.0078125,false,false,false,false,2.375,11.75,0.0,11614,54,0,5.125,11.8,0.0,0,0,0,9.5,11.75,0.0,5722,0,0,5.25,11.75,0.0,0,0,0,0.0,11.9,0.0,0,0,0,0.0,4.0,0.0,0,0,0,kReverse,0.0,0.0,0.0,0.0,0.0,0.0,0.0,0.0,0.0,0.0,0.0,
68.459451,true,true,true,0.0,-1.0,0.0,-0.0078125,false,false,false,false,0.0,-0.0078125,0.0,-0.0078125,false,false,false,false,4.625,11.75,0.0,11707,109,0,6.5,11.8,0.0,0,0,0,7.625,11.75,0.0,5722,0,0,5.25,11.75,0.0,0,0,0,0.0,11.9,0.0,0,0,0,0.0,4.0,0.0,0,0,0,kReverse,0.0,0.0,0.0,0.0,0.0,0.0,0.0,0.0,0.0,0.0,0.0,
68.60363900000002,true,true,true,0.0,-1.0,0.7795275449752808,-0.0078125,false,false,false,false,0.0,-0.0078125,0.0,-0.0078125,false,false,false,false,10.125,11.9,0.0,11975,178,0,7.0,11.9,0.0,0,0,0,4.625,11.9,0.0,5722,0,0,1.25,11.9,0.0,0,0,0,0.0,12.05,0.0,0,0,0,0.0,4.0,0.0,0,0,0,kReverse,0.0,0.0,0.0,0.0,0.0,0.0,0.0,0.0,0.0,0.0,0.0,
68.778355,true,true,true,0.0,-1.0,0.0,-0.0078125,false,false,false,false,0.0,-0.0078125,0.0,-0.0078125,false,false,false,false,22.75,10.5,0.0,12503,377,0,31.625,10.600000000000001,0.0,0,0,0,0.0,10.8,0.0,5722,0,0,0.0,10.8,0.0,0,0,0,0.0,10.850000000000001,0.0,0,0,0,0.0,4.0,0.0,0,0,0,kReverse,0.0,0.0,0.0,0.0,0.0,0.0,0.0,0.0,0.0,0.0,0.0,
68.915747,true,true,true,0.0,-1.0,0.0,-0.0078125,false,false,false,false,0.0,-0.0078125,0.0,-0.0078125,false,false,false,false,0.0,12.15,0.0,13054,383,0,1.25,12.15,0.0,0,0,0,12.375,12.15,0.0,5722,0,0,11.625,12.15,0.0,0,0,0,0.0,12.25,0.0,0,0,0,0.0,4.0,0.0,0,0,0,kReverse,0.0,0.0,0.0,0.0,0.0,0.0,0.0,0.0,0.0,0.0,0.0,
69.08023200000001,true,true,true,0.0,-1.0,0.0,-0.0078125,false,false,false,false,0.0,-0.0078125,0.0,-0.0078125,false,false,false,false,16.75,9.600000000000001,0.0,13696,410,0,26.25,9.65,0.0,0,0,0,23.875,9.600000000000001,0.0,5722,0,0,16.875,9.600000000000001,0.0,0,0,0,0.0,9.850000000000001,0.0,0,0,0,0.0,4.0,0.0,0,0,0,kReverse,0.0,0.0,0.0,0.0,0.0,0.0,0.0,0.0,0.0,0.0,0.0,
69.245393,true,true,true,0.0,-1.0,-0.4765625,-0.0078125,false,false,false,false,0.0,-0.0078125,0.0,-0.0078125,false,false,false,false,11.375,10.100000000000001,0.0,14476,446,0,22.125,10.15,0.0,0,0,0,20.0,10.100000000000001,0.0,5722,0,0,13.375,10.15,0.0,0,0,0,0.0,10.350000000000001,0.0,0,0,0,0.0,4.0,0.0,0,0,0,kReverse,0.0,0.0,0.0,0.0,0.0,0.0,0.0,0.0,0.0,0.0,0.0,
69.37655000000001,true,true,true,0.0,-0.328125,-0.3671875,-0.0078125,false,false,false,false,0.0,-0.0078125,0.0,-0.0078125,false,false,false,false,0.0,11.350000000000001,0.0,14946,383,0,0.0,11.350000000000001,0.0,0,0,0,19.0,11.2,0.0,5722,0,0,14.25,11.2,0.0,0,0,0,0.0,11.4,0.0,0,0,0,0.0,4.0,0.0,0,0,0,kReverse,0.0,0.0,0.0,0.0,0.0,0.0,0.0,0.0,0.0,0.0,0.0,
69.496172,true,true,true,0.0,-0.0078125,0.007874015718698502,-0.0078125,false,false,false,false,0.0,-0.0078125,0.0,-0.0078125,false,false,false,false,0.0,12.9,0.0,15412,391,0,0.125,12.9,0.0,0,0,0,0.0,12.9,0.0,5722,0,0,0.0,12.9,0.0,0,0,0,0.0,12.950000000000001,0.0,0,0,0,0.0,4.0,0.0,0,0,0,kReverse,0.0,0.0,0.0,0.0,0.0,0.0,0.0,0.0,0.0,0.0,0.0,
69.64566500000001,true,true,true,0.0,-0.0078125,0.007874015718698502,-0.0078125,false,false,false,false,0.0,-0.0078125,0.0,-0.0078125,false,false,false,false,0.0,12.700000000000001,0.0,16002,364,0,0.125,12.700000000000001,0.0,0,0,0,0.0,12.700000000000001,0.0,5722,0,0,0.0,12.700000000000001,0.0,0,0,0,0.0,12.75,0.0,0,0,0,0.0,4.0,0.0,0,0,0,kReverse,0.0,0.0,0.0,0.0,0.0,0.0,0.0,0.0,0.0,0.0,0.0,
69.80785800000001,true,true,true,0.0,-0.0078125,-1.0,-0.0078125,false,false,false,false,0.0,-0.0078125,0.0,-0.0078125,false,false,false,false,0.0,12.75,0.0,16545,333,0,0.125,12.75,0.0,0,0,0,0.625,12.75,0.0,5722,0,0,0.0,12.700000000000001,0.0,0,0,0,0.0,12.8,0.0,0,0,0,0.0,4.0,0.0,0,0,0,kReverse,0.0,0.0,0.0,0.0,0.0,0.0,0.0,0.0,0.0,0.0,0.0,
70.00630100000001,true,true,true,0.0,-0.0078125,0.0,-0.0078125,false,false,false,false,0.0,-0.0078125,0.0,-0.0078125,false,false,false,false,26.125,9.75,0.0,16692,-19,0,32.25,9.850000000000001,0.0,0,0,0,12.875,9.850000000000001,0.0,5724,0,0,7.375,9.95,0.0,0,0,0,0.0,10.100000000000001,0.0,2,0,0,0.0,4.0,0.0,0,0,0,kReverse,0.0,0.0,0.0,0.0,0.0,0.0,0.0,0.0,0.0,0.0,0.0,
70.200022,true,true,true,0.0,-0.0078125,0.0,-0.0078125,false,false,false,false,0.0,-0.0078125,0.0,-0.0078125,false,false,false,false,4.875,11.5,0.0,16612,-62,0,8.5,11.3,0.0,0,0,0,4.0,11.350000000000001,0.0,5724,0,0,2.75,11.350000000000001,0.0,0,0,0,0.0,11.5,0.0,2,0,0,0.0,4.0,0.0,0,0,0,kReverse,0.0,0.0,0.0,0.0,0.0,0.0,0.0,0.0,0.0,0.0,0.0,
70.34983,true,true,true,0.0,-0.0078125,0.0,-0.0078125,false,false,false,false,0.0,-0.0078125,0.0,-0.0078125,false,false,false,false,0.0,12.65,0.0,16547,-39,0,0.125,12.65,0.0,0,0,0,0.0,12.65,0.0,5724,0,0,0.0,12.65,0.0,0,0,0,0.0,12.75,0.0,2,0,0,0.0,4.0,0.0,0,0,0,kReverse,0.0,0.0,0.0,0.0,0.0,0.0,0.0,0.0,0.0,0.0,0.0,
70.495016,true,true,true,0.0,-0.0078125,-1.0,-0.0078125,false,false,false,false,0.0,-0.0078125,0.0,-0.0078125,false,false,false,false,5.75,12.700000000000001,0.0,16543,0,0,4.625,12.75,0.0,0,0,0,6.625,12.700000000000001,0.0,5724,0,0,5.25,12.700000000000001,0.0,0,0,0,0.0,12.8,0.0,2,0,0,0.0,4.0,0.0,0,0,0,kReverse,0.0,0.0,0.0,0.0,0.0,0.0,0.0,0.0,0.0,0.0,0.0,
70.701131,true,true,true,0.0,-0.0078125,-1.0,-0.0078125,false,false,false,false,0.0,-0.0078125,0.0,-0.0078125,false,false,false,false,17.375,9.55,0.0,16470,-57,0,22.5,9.600000000000001,0.0,0,0,0,21.25,9.65,0.0,5724,0,0,18.0,9.7,0.0,0,0,0,0.0,9.8,0.0,2,0,0,0.0,4.0,0.0,0,0,0,kReverse,0.0,0.0,0.0,0.0,0.0,0.0,0.0,0.0,0.0,0.0,0.0,
70.84195000000001,true,true,true,0.0,-0.1640625,0.0,-0.0078125,false,false,false,false,0.0,-0.0078125,0.0,-0.0078125,false,false,false,false,12.0,10.15,0.0,16300,-132,0,17.75,10.25,0.0,0,0,0,16.125,10.25,0.0,5724,0,0,9.125,10.2,0.0,0,0,0,0.0,10.45,0.0,2,0,0,0.0,4.0,0.0,0,0,0,kReverse,0.0,0.0,0.0,0.0,0.0,0.0,0.0,0.0,0.0,0.0,0.0,
71.06112300000001,true,true,true,0.0,-1.0,0.10236220806837082,-0.0078125,false,false,false,false,0.0,-0.0078125,0.0,-0.0078125,false,false,false,false,2.375,12.55,0.0,16089,-70,0,0.625,12.55,0.0,0,0,0,0.875,12.55,0.0,5724,0,0,0.0,12.55,0.0,0,0,0,0.0,12.65,0.0,2,0,0,0.0,4.0,0.0,0,0,0,kReverse,0.0,0.0,0.0,0.0,0.0,0.0,0.0,0.0,0.0,0.0,0.0,
71.206861,true,true,true,0.0,-1.0,0.6771653294563293,-0.0078125,false,false,false,false,0.0,-0.0078125,0.0,-0.0078125,false,false,false,false,20.875,11.05,0.0,16100,23,0,26.75,11.05,0.0,0,0,0,14.375,11.0,0.0,5724,0,0,8.25,11.05,0.0,0,0,0,0.0,11.3,0.0,2,0,0,0.0,4.0,0.0,0,0,0,kReverse,0.0,0.0,0.0,0.0,0.0,0.0,0.0,0.0,0.0,0.0,0.0,
71.389947,true,true,true,0.0,-1.0,0.0,-0.0078125,false,false,false,false,0.0,-0.0078125,0.0,-0.0078125,false,false,false,false,35.25,9.100000000000001,0.0,16402,210,0,41.0,10.5,0.0,0,0,0,4.5,10.600000000000001,0.0,5724,0,0,5.125,10.65,0.0,0,0,0,0.0,10.7,0.0,2,0,0,0.0,4.0,0.0,0,0,0,kReverse,0.0,0.0,0.0,0.0,0.0,0.0,0.0,0.0,0.0,0.0,0.0,
71.481154,true,true,true,0.0,-1.0,0.5354330539703369,-0.0078125,false,false,false,false,0.0,-0.0078125,0.0,-0.0078125,false,false,false,false,6.0,10.45,0.0,16650,248,0,13.375,10.5,0.0,0,0,0,11.5,10.600000000000001,0.0,5724,0,0,8.625,10.65,0.0,0,0,0,0.0,10.7,0.0,2,0,0,0.0,4.0,0.0,0,0,0,kReverse,0.0,0.0,0.0,0.0,0.0,0.0,0.0,0.0,0.0,0.0,0.0,
71.615808,true,true,true,0.0,-1.0,0.015748031437397003,-0.0078125,false,false,false,false,0.0,-0.0078125,0.0,-0.0078125,false,false,false,false,24.5,10.4,0.0,16998,294,0,35.0,10.5,0.0,0,0,0,0.125,10.7,0.0,5724,0,0,0.0,10.7,0.0,0,0,0,0.0,10.8,0.0,2,0,0,0.0,4.0,0.0,0,0,0,kReverse,0.0,0.0,0.0,0.0,0.0,0.0,0.0,0.0,0.0,0.0,0.0,
71.789765,true,true,true,0.0,-1.0,0.0,-0.0078125,false,false,false,false,0.0,-0.0078125,0.0,-0.0078125,false,false,false,false,6.125,11.600000000000001,0.0,17591,327,0,10.875,11.600000000000001,0.0,0,0,0,6.625,11.65,0.0,5724,0,0,5.25,11.65,0.0,0,0,0,0.0,11.75,0.0,2,0,0,0.0,4.0,0.0,0,0,0,kReverse,0.0,0.0,0.0,0.0,0.0,0.0,0.0,0.0,0.0,0.0,0.0,
71.992056,true,true,true,0.0,-1.0,0.0,-0.0078125,false,false,false,false,0.0,-0.0078125,0.0,-0.0078125,false,false,false,false,5.875,11.8,0.0,18217,305,0,7.25,11.850000000000001,0.0,0,0,0,7.25,11.8,0.0,5724,0,0,5.25,11.75,0.0,0,0,0,0.0,11.9,0.0,2,0,0,0.0,4.0,0.0,0,0,0,kReverse,0.0,0.0,0.0,0.0,0.0,0.0,0.0,0.0,0.0,0.0,0.0,
72.090691,true,true,true,0.0,-1.0,0.0,-0.0078125,false,false,false,false,0.0,-0.0078125,0.0,-0.0078125,false,false,false,false,6.125,11.9,0.0,18591,312,0,6.75,11.9,0.0,0,0,0,6.0,11.9,0.0,5724,0,0,3.5,11.9,0.0,0,0,0,0.0,12.05,0.0,2,0,0,0.0,4.0,0.0,0,0,0,kReverse,0.0,0.0,0.0,0.0,0.0,0.0,0.0,0.0,0.0,0.0,0.0,
72.229073,true,true,true,0.0,-0.0078125,0.6771653294563293,-0.0078125,false,false,false,false,0.0,-0.0078125,0.0,-0.0078125,false,false,false,false,3.125,11.95,0.0,18962,308,0,6.75,12.0,0.0,0,0,0,5.75,11.95,0.0,5724,0,0,3.5,12.0,0.0,0,0,0,0.0,12.1,0.0,2,0,0,0.0,4.0,0.0,0,0,0,kReverse,0.0,0.0,0.0,0.0,0.0,0.0,0.0,0.0,0.0,0.0,0.0,
72.317609,true,true,true,0.0,-0.0078125,0.14173229038715363,-0.0078125,false,false,false,false,0.0,-0.0078125,0.0,-0.0078125,false,false,false,false,0.0,11.95,0.0,19189,288,0,0.0,12.0,0.0,0,0,0,13.0,11.95,0.0,5724,0,0,12.5,12.0,0.0,0,0,0,0.0,12.1,0.0,2,0,0,0.0,4.0,0.0,0,0,0,kReverse,0.0,0.0,0.0,0.0,0.0,0.0,0.0,0.0,0.0,0.0,0.0,
72.376269,true,true,true,0.0,-0.0078125,-0.0078125,-0.0078125,false,false,false,false,0.0,-0.0078125,0.0,-0.0078125,false,false,false,false,0.0,12.3,0.0,19344,263,0,0.0,12.3,0.0,0,0,0,9.75,12.25,0.0,5724,0,0,7.375,12.25,0.0,0,0,0,0.0,12.4,0.0,2,0,0,0.0,4.0,0.0,0,0,0,kReverse,0.0,0.0,0.0,0.0,0.0,0.0,0.0,0.0,0.0,0.0,0.0,
72.446887,true,true,true,0.0,-0.0078125,-0.0078125,-0.0078125,false,false,false,false,0.0,-0.0078125,0.0,-0.0078125,false,false,false,false,0.0,12.3,0.0,19546,253,0,0.0,12.3,0.0,0,0,0,0.0,12.25,0.0,5724,0,0,0.0,12.25,0.0,0,0,0,0.0,12.4,0.0,2,0,0,0.0,4.0,0.0,0,0,0,kReverse,0.0,0.0,0.0,0.0,0.0,0.0,0.0,0.0,0.0,0.0,0.0,
72.594844,true,true,true,0.0,-0.0078125,-0.0078125,-0.0078125,false,false,false,false,0.0,-0.0078125,0.0,-0.0078125,false,false,false,false,0.0,12.700000000000001,0.0,19889,241,0,0.125,12.75,0.0,0,0,0,0.0,12.700000000000001,0.0,5724,0,0,0.0,12.700000000000001,0.0,0,0,0,0.0,12.8,0.0,2,0,0,0.0,4.0,0.0,0,0,0,kReverse,0.0,0.0,0.0,0.0,0.0,0.0,0.0,0.0,0.0,0.0,0.0,
72.69618100000001,true,true,true,0.0,-0.0078125,-0.0078125,-0.0078125,false,false,false,false,0.0,-0.0078125,0.0,-0.0078125,false,false,false,false,0.0,12.75,0.0,20078,179,0,0.125,12.75,0.0,0,0,0,0.0,12.75,0.0,5724,0,0,0.0,12.75,0.0,0,0,0,0.0,12.8,0.0,2,0,0,0.0,4.0,0.0,0,0,0,kReverse,0.0,0.0,0.0,0.0,0.0,0.0,0.0,0.0,0.0,0.0,0.0,
72.892337,true,true,true,0.0,-0.0078125,-0.0078125,-0.0078125,false,false,false,false,0.0,-0.0078125,0.0,-0.0078125,false,false,false,false,0.0,12.75,0.0,20395,148,0,0.125,12.75,0.0,0,0,0,0.0,12.75,0.0,5724,0,0,0.0,12.75,0.0,0,0,0,0.0,12.8,0.0,2,0,0,0.0,4.0,0.0,0,0,0,kReverse,0.0,0.0,0.0,0.0,0.0,0.0,0.0,0.0,0.0,0.0,0.0,
73.07941900000002,true,true,true,0.0,-0.0078125,-0.0078125,-0.0078125,false,false,false,false,0.0,-0.0078125,0.0,-0.0078125,false,false,false,false,0.0,12.75,0.0,20569,80,0,0.125,12.8,0.0,0,0,0,0.0,12.75,0.0,5724,0,0,0.0,12.75,0.0,0,0,0,0.0,12.85,0.0,2,0,0,0.0,4.0,0.0,0,0,0,kReverse,0.0,0.0,0.0,0.0,0.0,0.0,0.0,0.0,0.0,0.0,0.0,
73.21741100000001,true,true,true,0.0,-0.0078125,-0.0078125,-0.0078125,false,false,false,false,0.0,-0.0078125,0.0,-0.0078125,false,false,false,false,0.0,12.75,0.0,20624,33,0,0.125,12.8,0.0,0,0,0,0.0,12.75,0.0,5724,0,0,0.0,12.75,0.0,0,0,0,0.0,12.85,0.0,2,0,0,0.0,4.0,0.0,0,0,0,kReverse,0.0,0.0,0.0,0.0,0.0,0.0,0.0,0.0,0.0,0.0,0.0,
73.292428,true,true,true,0.0,-0.0078125,-0.6171875,-0.0078125,false,false,false,false,0.0,-0.0078125,0.0,-0.0078125,false,false,false,false,0.0,12.75,0.0,20631,11,0,0.125,12.8,0.0,0,0,0,0.0,12.75,0.0,5724,0,0,0.0,12.75,0.0,0,0,0,0.0,12.85,0.0,2,0,0,0.0,4.0,0.0,0,0,0,kReverse,0.0,0.0,0.0,0.0,0.0,0.0,0.0,0.0,0.0,0.0,0.0,
73.348211,true,true,true,0.0,-0.0078125,-1.0,-0.0078125,false,false,false,false,0.0,-0.0078125,0.0,-0.0078125,false,false,false,false,3.125,12.0,0.0,20626,-4,0,4.25,12.05,0.0,0,0,0,6.25,12.05,0.0,5724,0,0,3.875,12.05,0.0,0,0,0,0.0,12.200000000000001,0.0,2,0,0,0.0,4.0,0.0,0,0,0,kReverse,0.0,0.0,0.0,0.0,0.0,0.0,0.0,0.0,0.0,0.0,0.0,
73.52032100000001,true,true,true,0.0,-0.0078125,0.0,-0.0078125,false,false,false,false,0.0,-0.0078125,0.0,-0.0078125,false,false,false,false,12.75,10.0,0.0,20531,-68,0,19.5,10.05,0.0,0,0,0,12.0,10.05,0.0,5724,0,0,10.0,10.05,0.0,0,0,0,0.0,10.25,0.0,2,0,0,0.0,4.0,0.0,0,0,0,kReverse,0.0,0.0,0.0,0.0,0.0,0.0,0.0,0.0,0.0,0.0,0.0,
73.65062700000001,true,true,true,0.0,-0.0078125,0.0,-0.0078125,false,false,false,false,0.0,-0.0078125,0.0,-0.0078125,false,false,false,false,0.0,12.75,0.0,20427,-83,0,0.125,12.75,0.0,0,0,0,0.0,12.75,0.0,5724,0,0,0.0,12.75,0.0,0,0,0,0.0,12.8,0.0,2,0,0,0.0,4.0,0.0,0,0,0,kReverse,0.0,0.0,0.0,0.0,0.0,0.0,0.0,0.0,0.0,0.0,0.0,
73.78363100000001,true,true,true,0.0,-0.0078125,0.0,-0.0078125,false,false,false,false,0.0,-0.0078125,0.0,-0.0078125,false,false,false,false,0.0,12.75,0.0,20332,-64,0,0.125,12.75,0.0,0,0,0,0.0,12.75,0.0,5724,0,0,0.0,12.75,0.0,0,0,0,0.0,12.8,0.0,2,0,0,0.0,4.0,0.0,0,0,0,kReverse,0.0,0.0,0.0,0.0,0.0,0.0,0.0,0.0,0.0,0.0,0.0,
73.982648,true,true,true,0.0,-0.0078125,0.11023622006177902,-0.0078125,false,false,false,false,0.0,-0.0078125,0.0,-0.0078125,false,false,false,false,0.0,12.75,0.0,20289,-9,0,0.125,12.75,0.0,0,0,0,0.0,12.75,0.0,5724,0,0,0.0,12.75,0.0,0,0,0,0.0,12.85,0.0,2,0,0,0.0,4.0,0.0,0,0,0,kReverse,0.0,0.0,0.0,0.0,0.0,0.0,0.0,0.0,0.0,0.0,0.0,
74.193005,true,true,true,0.0,-0.0078125,0.0,-0.0078125,false,false,false,false,0.0,-0.0078125,0.0,-0.0078125,false,false,false,false,0.0,12.75,0.0,20305,4,0,0.25,12.75,0.0,0,0,0,0.125,12.75,0.0,5724,0,0,0.0,12.700000000000001,0.0,0,0,0,0.0,12.8,0.0,2,0,0,0.0,4.0,0.0,0,0,0,kReverse,0.0,0.0,0.0,0.0,0.0,0.0,0.0,0.0,0.0,0.0,0.0,
74.34647500000001,true,true,true,0.0,-0.0078125,0.0,-0.0078125,false,false,false,false,0.0,-0.0078125,0.0,-0.0078125,false,false,false,false,0.0,12.8,0.0,20298,-5,0,0.125,12.8,0.0,0,0,0,0.0,12.8,0.0,5724,0,0,0.0,12.75,0.0,0,0,0,0.0,12.85,0.0,2,0,0,0.0,4.0,0.0,0,0,0,kReverse,0.0,0.0,0.0,0.0,0.0,0.0,0.0,0.0,0.0,0.0,0.0,
74.52477999999999,true,true,true,0.0,-0.0078125,0.0,-0.0078125,false,false,false,false,0.0,-0.0078125,0.0,-0.0078125,false,false,false,false,0.0,12.8,0.0,20298,0,0,0.125,12.8,0.0,0,0,0,0.0,12.8,0.0,5724,0,0,0.0,12.8,0.0,0,0,0,0.0,12.9,0.0,2,0,0,0.0,4.0,0.0,0,0,0,kReverse,0.0,0.0,0.0,0.0,0.0,0.0,0.0,0.0,0.0,0.0,0.0,
74.666802,true,true,true,0.0,-0.0078125,0.0,-0.0078125,false,false,false,false,0.0,-0.0078125,0.0,-0.0078125,false,false,false,false,0.0,12.8,0.0,20298,0,0,0.125,12.8,0.0,0,0,0,0.0,12.8,0.0,5724,0,0,0.0,12.8,0.0,0,0,0,0.0,12.9,0.0,2,0,0,0.0,4.0,0.0,0,0,0,kReverse,0.0,0.0,0.0,0.0,0.0,0.0,0.0,0.0,0.0,0.0,0.0,
74.84127500000001,true,true,true,0.0,-0.0078125,0.0,-0.0078125,false,false,false,false,0.0,-0.0078125,0.0,-0.0078125,false,false,false,false,0.0,12.8,0.0,20298,0,0,0.125,12.8,0.0,0,0,0,0.0,12.8,0.0,5724,0,0,0.0,12.8,0.0,0,0,0,0.0,12.9,0.0,2,0,0,0.0,4.0,0.0,0,0,0,kReverse,0.0,0.0,0.0,0.0,0.0,0.0,0.0,0.0,0.0,0.0,0.0,
74.985478,true,true,true,0.0,-0.0078125,0.0,-0.0078125,false,false,false,false,0.0,-0.0078125,0.0,-0.0078125,false,false,false,false,0.0,12.8,0.0,20298,0,0,0.125,12.8,0.0,0,0,0,0.0,12.8,0.0,5724,0,0,0.0,12.8,0.0,0,0,0,0.0,12.9,0.0,2,0,0,0.0,4.0,0.0,0,0,0,kReverse,0.0,0.0,0.0,0.0,0.0,0.0,0.0,0.0,0.0,0.0,0.0,
75.04113500000001,true,true,true,0.0,-0.0078125,0.31496062874794006,-0.0078125,false,false,false,false,0.0,-0.0078125,0.0,-0.0078125,false,false,false,false,0.0,12.8,0.0,20298,0,0,0.125,12.8,0.0,0,0,0,0.0,12.8,0.0,5724,0,0,0.0,12.8,0.0,0,0,0,0.0,12.9,0.0,2,0,0,0.0,4.0,0.0,0,0,0,kReverse,0.0,0.0,0.0,0.0,0.0,0.0,0.0,0.0,0.0,0.0,0.0,
75.130156,true,true,true,0.0,-0.0078125,0.15748031437397003,-0.0078125,false,false,false,false,0.0,-0.0078125,0.0,-0.0078125,false,false,false,false,1.75,12.55,0.0,20306,8,0,3.125,12.55,0.0,0,0,0,2.0,12.55,0.0,5724,0,0,1.375,12.55,0.0,0,0,0,0.0,12.65,0.0,2,0,0,0.0,4.0,0.0,0,0,0,kReverse,0.0,0.0,0.0,0.0,0.0,0.0,0.0,0.0,0.0,0.0,0.0,
75.24778300000001,true,true,true,0.0,-0.0078125,0.0,-0.0078125,false,false,false,false,0.0,-0.0078125,0.0,-0.0078125,false,false,false,false,0.0,12.65,0.0,20316,8,0,1.0,12.700000000000001,0.0,0,0,0,0.25,12.700000000000001,0.0,5724,0,0,0.0,12.65,0.0,0,0,0,0.0,12.8,0.0,2,0,0,0.0,4.0,0.0,0,0,0,kReverse,0.0,0.0,0.0,0.0,0.0,0.0,0.0,0.0,0.0,0.0,0.0,
75.365113,true,true,true,0.0,-0.0078125,0.0,-0.0078125,false,false,false,false,0.0,-0.0078125,0.0,-0.0078125,false,false,false,false,0.0,12.65,0.0,20313,-4,0,0.125,12.700000000000001,0.0,0,0,0,0.0,12.700000000000001,0.0,5724,0,0,0.0,12.65,0.0,0,0,0,0.0,12.8,0.0,2,0,0,0.0,4.0,0.0,0,0,0,kReverse,0.0,0.0,0.0,0.0,0.0,0.0,0.0,0.0,0.0,0.0,0.0,
75.51244500000001,true,true,true,-0.4609375,0.7086614370346069,0.0,-0.0078125,false,false,false,false,0.0,-0.0078125,0.0,-0.0078125,false,false,false,false,0.0,12.8,0.0,20312,0,0,0.125,12.85,0.0,0,0,0,0.0,12.8,0.0,5724,0,0,0.0,12.8,0.0,0,0,0,0.0,12.9,0.0,2,0,0,0.0,4.0,0.0,0,0,0,kReverse,0.0,0.0,0.0,0.0,0.0,0.0,0.0,0.0,0.0,0.0,0.0,
75.57604400000001,true,true,true,0.0,-0.015625,0.0,-0.0078125,false,false,false,false,0.0,-0.0078125,0.0,-0.0078125,false,false,false,false,5.0,11.600000000000001,0.0,20307,-5,0,6.25,11.55,0.0,0,0,0,8.25,11.600000000000001,0.0,5724,0,0,5.625,11.65,0.0,0,0,0,0.0,11.7,0.0,2,0,0,0.0,4.0,0.0,0,0,0,kReverse,0.0,0.0,0.0,0.0,0.0,0.0,0.0,0.0,0.0,0.0,0.0,
75.681605,true,true,true,0.0,-0.015625,0.0,-0.0078125,false,false,false,false,0.0,-0.0078125,0.0,-0.0078125,false,false,false,false,0.0,11.600000000000001,0.0,20304,3,0,0.125,11.55,0.0,0,0,0,0.0,11.600000000000001,0.0,5724,0,0,0.0,11.65,0.0,0,0,0,0.0,11.7,0.0,2,0,0,0.0,4.0,0.0,0,0,0,kReverse,0.0,0.0,0.0,0.0,0.0,0.0,0.0,0.0,0.0,0.0,0.0,
75.848754,true,true,true,-0.7890625,1.0,0.0,-0.0078125,false,false,false,false,0.0,-0.0078125,0.0,-0.0078125,false,false,false,false,0.0,12.8,0.0,20283,-18,0,0.125,12.8,0.0,0,0,0,0.375,12.8,0.0,5724,0,0,0.0,12.8,0.0,0,0,0,0.0,12.9,0.0,2,0,0,0.0,4.0,0.0,0,0,0,kReverse,0.0,0.0,0.0,0.0,0.0,0.0,0.0,0.0,0.0,0.0,0.0,
75.942672,true,true,true,0.0,0.07086614519357681,0.0,-0.0078125,false,false,false,false,0.0,-0.0078125,0.0,-0.0078125,false,false,false,false,17.25,10.7,0.0,20249,-34,0,22.125,10.8,0.0,0,0,0,23.5,10.7,0.0,5724,0,0,20.625,10.7,0.0,0,0,0,0.0,10.9,0.0,2,0,0,0.0,4.0,0.0,0,0,0,kReverse,0.0,0.0,0.0,0.0,0.0,0.0,0.0,0.0,0.0,0.0,0.0,
75.998478,true,true,true,0.0,-0.0078125,0.0,-0.0078125,false,false,false,false,0.0,-0.0078125,0.0,-0.0078125,false,false,false,false,6.5,10.7,0.0,20217,-57,0,4.5,10.8,0.0,0,0,0,5.625,10.7,0.0,5724,0,0,5.5,10.7,0.0,0,0,0,0.0,10.9,0.0,2,0,0,0.0,4.0,0.0,0,0,0,kReverse,0.0,0.0,0.0,0.0,0.0,0.0,0.0,0.0,0.0,0.0,0.0,
76.076936,true,true,true,0.0,-0.0078125,0.0,-0.0078125,false,false,false,false,0.0,-0.0078125,0.0,-0.0078125,false,false,false,false,0.0,12.75,0.0,20163,-72,0,0.125,12.75,0.0,0,0,0,0.0,12.75,0.0,5724,0,0,0.0,12.75,0.0,0,0,0,0.0,12.8,0.0,2,0,0,0.0,4.0,0.0,0,0,0,kReverse,0.0,0.0,0.0,0.0,0.0,0.0,0.0,0.0,0.0,0.0,0.0,
76.178675,true,true,true,-1.0,0.9527559280395508,0.0,-0.0078125,false,false,false,false,0.0,-0.0078125,0.0,-0.0078125,false,false,false,false,0.0,12.75,0.0,20130,-33,0,0.125,12.75,0.0,0,0,0,0.5,12.75,0.0,5724,0,0,0.0,12.75,0.0,0,0,0,0.0,12.8,0.0,2,0,0,0.0,4.0,0.0,0,0,0,kReverse,0.0,0.0,0.0,0.0,0.0,0.0,0.0,0.0,0.0,0.0,0.0,
76.241204,true,true,true,-0.25,0.35433071851730347,0.0,-0.0078125,false,false,false,false,0.0,-0.0078125,0.0,-0.0078125,false,false,false,false,6.875,11.55,0.0,20130,-6,0,12.375,11.600000000000001,0.0,0,0,0,13.25,11.600000000000001,0.0,5724,0,0,10.25,11.600000000000001,0.0,0,0,0,0.0,11.8,0.0,2,0,0,0.0,4.0,0.0,0,0,0,kReverse,0.0,0.0,0.0,0.0,0.0,0.0,0.0,0.0,0.0,0.0,0.0,
76.335046,true,true,true,0.0,-0.0078125,0.0,-0.0078125,false,false,false,false,0.0,-0.0078125,0.0,-0.0078125,false,false,false,false,0.125,11.55,0.0,20123,-7,0,0.875,11.600000000000001,0.0,0,0,0,1.0,11.600000000000001,0.0,5724,0,0,0.25,11.600000000000001,0.0,0,0,0,0.0,12.8,0.0,2,0,0,0.0,4.0,0.0,0,0,0,kReverse,0.0,0.0,0.0,0.0,0.0,0.0,0.0,0.0,0.0,0.0,0.0,
76.451364,true,true,true,0.0,-0.0078125,0.0,-0.0078125,false,false,false,false,0.0,-0.0078125,0.0,-0.0078125,false,false,false,false,0.0,12.75,0.0,20095,-24,0,0.125,12.75,0.0,0,0,0,0.0,12.75,0.0,5724,0,0,0.0,12.75,0.0,0,0,0,0.0,12.8,0.0,2,0,0,0.0,4.0,0.0,0,0,0,kReverse,0.0,0.0,0.0,0.0,0.0,0.0,0.0,0.0,0.0,0.0,0.0,
76.576991,true,true,true,0.0,-0.0078125,0.36220473051071167,-0.0078125,false,false,false,false,0.0,-0.0078125,0.0,-0.0078125,false,false,false,false,0.0,12.8,0.0,20050,-45,0,0.125,12.8,0.0,0,0,0,0.0,12.8,0.0,5724,0,0,0.0,12.8,0.0,0,0,0,0.0,12.9,0.0,2,0,0,0.0,4.0,0.0,0,0,0,kReverse,0.0,0.0,0.0,0.0,0.0,0.0,0.0,0.0,0.0,0.0,0.0,
76.69771300000001,true,true,true,0.0,-0.0078125,0.05511811003088951,-0.0078125,false,false,false,false,0.0,-0.0078125,0.0,-0.0078125,false,false,false,false,3.75,12.25,0.0,20014,-17,0,7.0,12.25,0.0,0,0,0,1.875,12.3,0.0,5724,0,0,1.75,12.25,0.0,0,0,0,0.0,12.35,0.0,2,0,0,0.0,4.0,0.0,0,0,0,kReverse,0.0,0.0,0.0,0.0,0.0,0.0,0.0,0.0,0.0,0.0,0.0,
76.879295,true,true,true,0.0,-0.0078125,0.0,-0.0078125,false,false,false,false,0.0,-0.0078125,0.0,-0.0078125,false,false,false,false,0.125,12.700000000000001,0.0,20011,0,0,1.25,12.75,0.0,0,0,0,0.25,12.65,0.0,5724,0,0,0.0,12.65,0.0,0,0,0,0.0,12.8,0.0,2,0,0,0.0,4.0,0.0,0,0,0,kReverse,0.0,0.0,0.0,0.0,0.0,0.0,0.0,0.0,0.0,0.0,0.0,
76.97651300000001,true,true,true,0.0,-0.0078125,0.0,-0.0078125,false,false,false,false,0.0,-0.0078125,0.0,-0.0078125,false,false,false,false,0.0,12.700000000000001,0.0,20002,-9,0,0.125,12.75,0.0,0,0,0,0.0,12.65,0.0,5724,0,0,0.0,12.65,0.0,0,0,0,0.0,12.8,0.0,2,0,0,0.0,4.0,0.0,0,0,0,kReverse,0.0,0.0,0.0,0.0,0.0,0.0,0.0,0.0,0.0,0.0,0.0,
77.11997500000001,true,true,true,0.0,-0.0078125,0.09448818862438202,-0.0078125,false,false,false,false,0.0,-0.0078125,0.0,-0.0078125,false,false,false,false,0.0,12.8,0.0,19987,-7,0,0.125,12.8,0.0,0,0,0,0.0,12.8,0.0,5724,0,0,0.0,12.8,0.0,0,0,0,0.0,12.9,0.0,2,0,0,0.0,4.0,0.0,0,0,0,kReverse,0.0,0.0,0.0,0.0,0.0,0.0,0.0,0.0,0.0,0.0,0.0,
77.179019,true,true,true,0.0,-0.0078125,0.0,-0.0078125,false,false,false,false,0.0,-0.0078125,0.0,-0.0078125,false,false,false,false,0.625,12.65,0.0,19988,1,0,1.625,12.65,0.0,0,0,0,0.875,12.65,0.0,5724,0,0,0.875,12.65,0.0,0,0,0,0.0,12.75,0.0,2,0,0,0.0,4.0,0.0,0,0,0,kReverse,0.0,0.0,0.0,0.0,0.0,0.0,0.0,0.0,0.0,0.0,0.0,
77.258244,true,true,true,0.0,-0.0078125,0.0,-0.0078125,false,false,false,false,0.0,-0.0078125,0.0,-0.0078125,false,false,false,false,0.0,12.65,0.0,19990,2,0,0.125,12.65,0.0,0,0,0,0.0,12.65,0.0,5724,0,0,0.0,12.65,0.0,0,0,0,0.0,12.75,0.0,2,0,0,0.0,4.0,0.0,0,0,0,kReverse,0.0,0.0,0.0,0.0,0.0,0.0,0.0,0.0,0.0,0.0,0.0,
77.42967,true,true,true,0.0,-0.0078125,0.5511810779571533,-0.0078125,false,false,false,false,0.0,-0.0078125,0.0,-0.0078125,false,false,false,false,0.0,12.8,0.0,19982,-1,0,0.125,12.85,0.0,0,0,0,2.25,12.8,0.0,5724,0,0,2.125,12.8,0.0,0,0,0,0.0,12.9,0.0,2,0,0,0.0,4.0,0.0,0,0,0,kReverse,0.0,0.0,0.0,0.0,0.0,0.0,0.0,0.0,0.0,0.0,0.0,
77.54093300000001,true,true,true,0.0,-0.0078125,0.0,-0.0078125,false,false,false,false,0.0,-0.0078125,0.0,-0.0078125,false,false,false,false,4.125,12.200000000000001,0.0,20000,16,0,5.25,12.25,0.0,0,0,0,3.5,12.200000000000001,0.0,5724,0,0,1.375,12.200000000000001,0.0,0,0,0,0.0,12.35,0.0,2,0,0,0.0,4.0,0.0,0,0,0,kReverse,0.0,0.0,0.0,0.0,0.0,0.0,0.0,0.0,0.0,0.0,0.0,
77.748923,true,true,true,0.0,-0.0078125,0.4330708682537079,-0.0078125,false,false,false,false,0.0,-0.0078125,0.0,-0.0078125,false,false,false,false,0.0,12.8,0.0,20007,0,0,0.0,12.8,0.0,0,0,0,0.625,12.8,0.0,5724,0,0,0.0,12.8,0.0,0,0,0,0.0,12.9,0.0,2,0,0,0.0,4.0,0.0,0,0,0,kReverse,0.0,0.0,0.0,0.0,0.0,0.0,0.0,0.0,0.0,0.0,0.0,
77.907949,true,true,true,0.0,-0.0078125,0.0,-0.0078125,false,false,false,false,0.0,-0.0078125,0.0,-0.0078125,false,false,false,false,2.5,12.55,0.0,20031,19,0,4.25,12.55,0.0,0,0,0,3.25,12.55,0.0,5724,0,0,2.125,12.55,0.0,0,0,0,0.0,12.65,0.0,2,0,0,0.0,4.0,0.0,0,0,0,kReverse,0.0,0.0,0.0,0.0,0.0,0.0,0.0,0.0,0.0,0.0,0.0,
77.952691,true,true,true,0.0,-0.0078125,0.0,-0.0078125,false,false,false,false,0.0,-0.0078125,0.0,-0.0078125,false,false,false,false,0.75,12.55,0.0,20036,16,0,2.0,12.55,0.0,0,0,0,1.375,12.55,0.0,5724,0,0,0.875,12.55,0.0,0,0,0,0.0,12.65,0.0,2,0,0,0.0,4.0,0.0,0,0,0,kReverse,0.0,0.0,0.0,0.0,0.0,0.0,0.0,0.0,0.0,0.0,0.0,
78.01186200000001,true,true,true,0.0,-0.0078125,0.0,-0.0078125,false,false,false,false,0.0,-0.0078125,0.0,-0.0078125,false,false,false,false,0.0,12.8,0.0,20036,5,0,0.125,12.8,0.0,0,0,0,0.0,12.8,0.0,5724,0,0,0.0,12.8,0.0,0,0,0,0.0,12.9,0.0,2,0,0,0.0,4.0,0.0,0,0,0,kReverse,0.0,0.0,0.0,0.0,0.0,0.0,0.0,0.0,0.0,0.0,0.0,
78.175841,true,true,true,0.0,-0.0078125,0.18897637724876404,-0.0078125,false,false,false,false,0.0,-0.0078125,0.0,-0.0078125,false,false,false,false,0.0,12.85,0.0,20033,0,0,0.375,12.85,0.0,0,0,0,0.0,12.85,0.0,5724,0,0,0.0,12.8,0.0,0,0,0,0.0,12.9,0.0,2,0,0,0.0,4.0,0.0,0,0,0,kReverse,0.0,0.0,0.0,0.0,0.0,0.0,0.0,0.0,0.0,0.0,0.0,
78.304299,true,true,true,0.0,-0.0078125,0.17322835326194763,-0.0078125,false,false,false,false,0.0,-0.0078125,0.0,-0.0078125,false,false,false,false,1.0,12.6,0.0,20041,8,0,2.0,12.6,0.0,0,0,0,1.25,12.55,0.0,5724,0,0,0.75,12.6,0.0,0,0,0,0.0,12.700000000000001,0.0,2,0,0,0.0,4.0,0.0,0,0,0,kReverse,0.0,0.0,0.0,0.0,0.0,0.0,0.0,0.0,0.0,0.0,0.0,
78.449505,true,true,true,0.0,-0.0078125,0.09448818862438202,-0.0078125,false,false,false,false,0.0,-0.0078125,0.0,-0.0078125,false,false,false,false,1.125,12.65,0.0,20042,0,0,1.625,12.65,0.0,0,0,0,0.875,12.65,0.0,5724,0,0,0.375,12.65,0.0,0,0,0,0.0,12.75,0.0,2,0,0,0.0,4.0,0.0,0,0,0,kReverse,0.0,0.0,0.0,0.0,0.0,0.0,0.0,0.0,0.0,0.0,0.0,
78.60410800000001,true,true,true,0.0,-0.0078125,0.14173229038715363,-0.0078125,false,false,false,false,0.0,-0.0078125,0.0,-0.0078125,false,false,false,false,0.0,12.8,0.0,20042,0,0,0.625,12.8,0.0,0,0,0,0.125,12.8,0.0,5724,0,0,0.0,12.8,0.0,0,0,0,0.0,12.9,0.0,2,0,0,0.0,4.0,0.0,0,0,0,kReverse,0.0,0.0,0.0,0.0,0.0,0.0,0.0,0.0,0.0,0.0,0.0,
78.80789600000001,true,true,true,0.0,-0.0078125,0.0,-0.0078125,false,false,false,false,0.0,-0.0078125,0.0,-0.0078125,false,false,false,false,0.0,12.85,0.0,20028,-4,0,0.125,12.9,0.0,0,0,0,0.0,12.85,0.0,5724,0,0,0.0,12.85,0.0,0,0,0,0.0,12.950000000000001,0.0,2,0,0,0.0,4.0,0.0,0,0,0,kReverse,0.0,0.0,0.0,0.0,0.0,0.0,0.0,0.0,0.0,0.0,0.0,
78.943189,true,true,true,0.0,-0.0078125,0.0,-0.0078125,false,false,false,false,0.0,-0.0078125,0.0,-0.0078125,false,false,false,false,0.0,12.85,0.0,20028,0,0,0.125,12.9,0.0,0,0,0,0.0,12.85,0.0,5724,0,0,0.0,12.85,0.0,0,0,0,0.0,12.950000000000001,0.0,2,0,0,0.0,4.0,0.0,0,0,0,kReverse,0.0,0.0,0.0,0.0,0.0,0.0,0.0,0.0,0.0,0.0,0.0,
79.15928,true,true,true,0.0,-0.0078125,0.8818897604942322,-0.0078125,false,false,false,false,0.0,-0.0078125,0.0,-0.0078125,false,false,false,false,0.0,12.85,0.0,20028,0,0,4.625,12.9,0.0,0,0,0,0.375,12.85,0.0,5724,0,0,0.0,12.85,0.0,0,0,0,0.0,12.950000000000001,0.0,2,0,0,0.0,4.0,0.0,0,0,0,kReverse,0.0,0.0,0.0,0.0,0.0,0.0,0.0,0.0,0.0,0.0,0.0,
79.27697500000001,true,true,true,0.0,-0.0078125,-0.015625,-0.0078125,false,false,false,false,0.0,-0.0078125,0.0,-0.0078125,false,false,false,false,18.75,9.850000000000001,0.0,20047,19,0,19.875,10.0,0.0,0,0,0,15.75,10.100000000000001,0.0,5724,0,0,14.625,9.95,0.0,0,0,0,0.0,10.15,0.0,2,0,0,0.0,4.0,0.0,0,0,0,kReverse,0.0,0.0,0.0,0.0,0.0,0.0,0.0,0.0,0.0,0.0,0.0,
79.46288100000001,true,true,true,0.0,-0.0078125,-0.015625,-0.0078125,false,false,false,false,0.0,-0.0078125,0.0,-0.0078125,false,false,false,false,0.0,12.8,0.0,20089,21,0,0.125,12.8,0.0,0,0,0,0.0,12.8,0.0,5724,0,0,0.0,12.8,0.0,0,0,0,0.0,12.9,0.0,2,0,0,0.0,4.0,0.0,0,0,0,kReverse,0.0,0.0,0.0,0.0,0.0,0.0,0.0,0.0,0.0,0.0,0.0,
79.63957,true,true,true,0.0,-0.0078125,-1.0,-0.0078125,false,false,false,false,0.0,-0.0078125,0.0,-0.0078125,false,false,false,false,0.0,12.8,0.0,20095,0,0,1.875,12.85,0.0,0,0,0,0.875,12.8,0.0,5724,0,0,0.0,12.8,0.0,0,0,0,0.0,12.9,0.0,2,0,0,0.0,4.0,0.0,0,0,0,kReverse,0.0,0.0,0.0,0.0,0.0,0.0,0.0,0.0,0.0,0.0,0.0,
79.80291500000001,true,true,true,0.0,-0.0078125,0.0,-0.0078125,false,false,false,false,0.0,-0.0078125,0.0,-0.0078125,false,false,false,false,2.0,12.1,0.0,20056,-30,0,5.125,12.200000000000001,0.0,0,0,0,4.0,12.1,0.0,5724,0,0,1.5,12.200000000000001,0.0,0,0,0,0.0,12.3,0.0,2,0,0,0.0,4.0,0.0,0,0,0,kReverse,0.0,0.0,0.0,0.0,0.0,0.0,0.0,0.0,0.0,0.0,0.0,
79.915554,true,true,true,0.0,-0.0078125,0.0,-0.0078125,false,false,false,false,0.0,-0.0078125,0.0,-0.0078125,false,false,false,false,0.0,12.8,0.0,20046,-4,0,0.125,12.8,0.0,0,0,0,0.0,12.8,0.0,5724,0,0,0.0,12.8,0.0,0,0,0,0.0,12.9,0.0,2,0,0,0.0,4.0,0.0,0,0,0,kReverse,0.0,0.0,0.0,0.0,0.0,0.0,0.0,0.0,0.0,0.0,0.0,
80.05288,true,true,true,0.0,-0.59375,0.0,-0.0078125,false,false,false,false,0.0,-0.0078125,0.0,-0.0078125,false,false,false,false,0.0,12.85,0.0,20046,0,0,0.375,12.85,0.0,0,0,0,0.125,12.85,0.0,5724,0,0,0.0,12.8,0.0,0,0,0,0.0,12.9,0.0,2,0,0,0.0,4.0,0.0,0,0,0,kReverse,0.0,0.0,0.0,0.0,0.0,0.0,0.0,0.0,0.0,0.0,0.0,
80.23605500000001,true,true,true,0.0,-1.0,0.0,-0.0078125,false,false,false,false,0.0,-0.0078125,0.0,-0.0078125,false,false,false,false,1.25,12.6,0.0,20051,3,0,6.625,12.6,0.0,0,0,0,7.125,12.6,0.0,5724,0,0,5.125,12.6,0.0,0,0,0,0.0,12.700000000000001,0.0,2,0,0,0.0,4.0,0.0,0,0,0,kReverse,0.0,0.0,0.0,0.0,0.0,0.0,0.0,0.0,0.0,0.0,0.0,
80.41436600000002,true,true,true,0.0,-1.0,0.0,-0.0078125,false,false,false,false,0.0,-0.0078125,0.0,-0.0078125,false,false,false,false,14.0,10.3,0.0,20128,60,0,20.875,10.5,0.0,0,0,0,19.125,10.3,0.0,5724,0,0,15.25,10.4,0.0,0,0,0,0.0,10.55,0.0,2,0,0,0.0,4.0,0.0,0,0,0,kReverse,0.0,0.0,0.0,0.0,0.0,0.0,0.0,0.0,0.0,0.0,0.0,
80.512087,true,true,true,0.0,-1.0,0.0,-0.0078125,false,false,false,false,0.0,-0.0078125,0.0,-0.0078125,false,false,false,false,11.875,10.3,0.0,20232,104,0,18.625,10.5,0.0,0,0,0,13.125,10.9,0.0,5724,0,0,9.375,10.9,0.0,0,0,0,0.0,11.15,0.0,2,0,0,0.0,4.0,0.0,0,0,0,kReverse,0.0,0.0,0.0,0.0,0.0,0.0,0.0,0.0,0.0,0.0,0.0,
80.58208400000001,true,true,true,0.0,-1.0,0.0,-0.0078125,false,false,false,false,0.0,-0.0078125,0.0,-0.0078125,false,false,false,false,10.0,10.9,0.0,20347,141,0,16.0,11.0,0.0,0,0,0,12.375,10.9,0.0,5724,0,0,8.5,10.9,0.0,0,0,0,0.0,11.15,0.0,2,0,0,0.0,4.0,0.0,0,0,0,kReverse,0.0,0.0,0.0,0.0,0.0,0.0,0.0,0.0,0.0,0.0,0.0,
80.62810800000001,true,true,true,0.0,-1.0,0.0,-0.0078125,false,false,false,false,0.0,-0.0078125,0.0,-0.0078125,false,false,false,false,9.0,10.9,0.0,20414,157,0,14.75,11.0,0.0,0,0,0,11.625,10.9,0.0,5724,0,0,7.625,10.9,0.0,0,0,0,0.0,11.15,0.0,2,0,0,0.0,4.0,0.0,0,0,0,kReverse,0.0,0.0,0.0,0.0,0.0,0.0,0.0,0.0,0.0,0.0,0.0,
80.738775,true,true,true,0.0,-1.0,0.0,-0.0078125,false,false,false,false,0.0,-0.0078125,0.0,-0.0078125,false,false,false,false,7.125,11.3,0.0,20658,208,0,12.0,11.350000000000001,0.0,0,0,0,10.5,11.350000000000001,0.0,5724,0,0,9.25,11.350000000000001,0.0,0,0,0,0.0,11.5,0.0,2,0,0,0.0,4.0,0.0,0,0,0,kReverse,0.0,0.0,0.0,0.0,0.0,0.0,0.0,0.0,0.0,0.0,0.0,
80.885665,true,true,true,0.0,-1.0,0.0,-0.0078125,false,false,false,false,0.0,-0.0078125,0.0,-0.0078125,false,false,false,false,19.125,9.2,0.0,20886,149,0,26.875,9.15,0.0,0,0,0,19.375,9.3,0.0,5724,0,0,16.0,9.15,0.0,0,0,0,0.0,9.45,0.0,4,0,0,0.0,4.0,0.0,0,0,0,kReverse,0.0,0.0,0.0,0.0,0.0,0.0,0.0,0.0,0.0,0.0,0.0,
81.01741,true,true,true,-1.0,1.0,0.0,-0.0078125,false,false,false,false,0.0,-0.0078125,0.0,-0.0078125,false,false,false,false,22.375,9.7,0.0,21024,107,0,29.625,9.7,0.0,0,0,0,22.25,9.8,0.0,5724,0,0,20.5,9.75,0.0,0,0,0,0.0,10.05,0.0,4,0,0,0.0,4.0,0.0,0,0,0,kReverse,0.0,0.0,0.0,0.0,0.0,0.0,0.0,0.0,0.0,0.0,0.0,
81.091549,true,true,true,-1.0,1.0,0.0,-0.0078125,false,false,false,false,0.0,-0.0078125,0.0,-0.0078125,false,false,false,false,14.0,9.7,0.0,21052,44,0,17.625,9.7,0.0,0,0,0,17.0,9.8,0.0,5724,0,0,12.75,9.75,0.0,0,0,0,0.0,10.05,0.0,4,0,0,0.0,4.0,0.0,0,0,0,kReverse,0.0,0.0,0.0,0.0,0.0,0.0,0.0,0.0,0.0,0.0,0.0,
81.143375,true,true,true,-1.0,1.0,0.0,-0.0078125,false,false,false,false,0.0,-0.0078125,0.0,-0.0078125,false,false,false,false,18.5,9.7,0.0,21034,-16,0,24.875,9.7,0.0,0,0,0,22.0,9.8,0.0,5724,0,0,19.375,9.75,0.0,0,0,0,0.0,10.05,0.0,4,0,0,0.0,4.0,0.0,0,0,0,kReverse,0.0,0.0,0.0,0.0,0.0,0.0,0.0,0.0,0.0,0.0,0.0,
81.205419,true,true,true,-1.0,1.0,0.0,-0.0078125,false,false,false,false,0.0,-0.0078125,0.0,-0.0078125,false,false,false,false,9.0,10.55,0.0,20998,-49,0,13.875,10.65,0.0,0,0,0,14.375,10.600000000000001,0.0,5724,0,0,11.375,10.55,0.0,0,0,0,0.0,10.850000000000001,0.0,4,0,0,0.0,4.0,0.0,0,0,0,kReverse,0.0,0.0,0.0,0.0,0.0,0.0,0.0,0.0,0.0,0.0,0.0,
81.30889300000001,true,true,true,-1.0,1.0,0.0,-0.0078125,false,false,false,false,0.0,-0.0078125,0.0,-0.0078125,false,false,false,false,16.0,10.55,0.0,20902,-96,0,22.125,10.65,0.0,0,0,0,19.625,10.600000000000001,0.0,5724,0,0,16.75,10.55,0.0,0,0,0,0.0,10.850000000000001,0.0,4,0,0,0.0,4.0,0.0,0,0,0,kReverse,0.0,0.0,0.0,0.0,0.0,0.0,0.0,0.0,0.0,0.0,0.0,
81.37822,true,true,true,-1.0,1.0,0.0,-0.0078125,false,false,false,false,0.0,-0.0078125,0.0,-0.0078125,false,false,false,false,12.625,10.2,0.0,20820,-125,0,16.375,10.2,0.0,0,0,0,15.75,10.15,0.0,5724,0,0,12.625,10.2,0.0,0,0,0,0.0,10.4,0.0,4,0,0,0.0,4.0,0.0,0,0,0,kReverse,0.0,0.0,0.0,0.0,0.0,0.0,0.0,0.0,0.0,0.0,0.0,
81.438186,true,true,true,-1.0,1.0,0.0,-0.0078125,false,false,false,false,0.0,-0.0078125,0.0,-0.0078125,false,false,false,false,10.0,10.2,0.0,20718,-160,0,15.0,10.2,0.0,0,0,0,15.375,10.15,0.0,5724,0,0,12.25,10.2,0.0,0,0,0,0.0,10.4,0.0,4,0,0,0.0,4.0,0.0,0,0,0,kReverse,0.0,0.0,0.0,0.0,0.0,0.0,0.0,0.0,0.0,0.0,0.0,
81.51879000000001,true,true,true,-1.0,1.0,0.0,-0.0078125,false,false,false,false,0.0,-0.0078125,0.0,-0.0078125,false,false,false,false,8.625,10.850000000000001,0.0,20510,-208,0,12.625,10.850000000000001,0.0,0,0,0,12.0,10.8,0.0,5724,0,0,8.5,10.850000000000001,0.0,0,0,0,0.0,11.0,0.0,4,0,0,0.0,4.0,0.0,0,0,0,kReverse,0.0,0.0,0.0,0.0,0.0,0.0,0.0,0.0,0.0,0.0,0.0,
81.651808,true,true,true,-1.0,1.0,0.0,-0.0078125,false,false,false,false,0.0,-0.0078125,0.0,-0.0078125,false,false,false,false,6.625,11.2,0.0,20208,-253,0,10.125,11.2,0.0,0,0,0,10.5,11.25,0.0,5724,0,0,7.375,11.2,0.0,0,0,0,0.0,11.4,0.0,4,0,0,0.0,4.0,0.0,0,0,0,kReverse,0.0,0.0,0.0,0.0,0.0,0.0,0.0,0.0,0.0,0.0,0.0,
81.83774700000001,true,true,true,-1.0,1.0,0.0,-0.0078125,false,false,false,false,0.0,-0.0078125,0.0,-0.0078125,false,false,false,false,4.875,11.45,0.0,19703,-288,0,8.125,11.55,0.0,0,0,0,8.25,11.55,0.0,5724,0,0,5.0,11.55,0.0,0,0,0,0.0,11.65,0.0,4,0,0,0.0,4.0,0.0,0,0,0,kReverse,0.0,0.0,0.0,0.0,0.0,0.0,0.0,0.0,0.0,0.0,0.0,
82.016409,true,true,true,0.0,-0.0078125,0.0,-0.0078125,false,false,false,false,0.0,-0.0078125,0.0,-0.0078125,false,false,false,false,5.25,11.7,0.0,19098,-304,0,6.75,11.7,0.0,0,0,0,4.875,11.7,0.0,5724,0,0,1.375,11.7,0.0,0,0,0,0.0,11.850000000000001,0.0,4,0,0,0.0,4.0,0.0,0,0,0,kReverse,0.0,0.0,0.0,0.0,0.0,0.0,0.0,0.0,0.0,0.0,0.0,
82.176742,true,true,true,0.0,-0.0078125,0.0,-0.0078125,false,false,false,false,0.0,-0.0078125,0.0,-0.0078125,false,false,false,false,0.0,12.65,0.0,18714,-265,0,0.125,12.700000000000001,0.0,0,0,0,0.0,12.700000000000001,0.0,5724,0,0,0.0,12.65,0.0,0,0,0,0.0,12.75,0.0,4,0,0,0.0,4.0,0.0,0,0,0,kReverse,0.0,0.0,0.0,0.0,0.0,0.0,0.0,0.0,0.0,0.0,0.0,
82.290989,true,true,true,0.0,-0.0078125,0.0,-0.0078125,false,false,false,false,0.0,-0.0078125,0.0,-0.0078125,false,false,false,false,0.0,12.75,0.0,18410,-253,0,0.125,12.75,0.0,0,0,0,0.0,12.75,0.0,5724,0,0,0.0,12.700000000000001,0.0,0,0,0,0.0,12.8,0.0,4,0,0,0.0,4.0,0.0,0,0,0,kReverse,0.0,0.0,0.0,0.0,0.0,0.0,0.0,0.0,0.0,0.0,0.0,
82.363881,true,true,true,0.0,-0.0078125,0.0,-0.0078125,false,false,false,false,0.0,-0.0078125,0.0,-0.0078125,false,false,false,false,0.0,12.75,0.0,18212,-248,0,0.125,12.75,0.0,0,0,0,0.0,12.75,0.0,5724,0,0,0.0,12.700000000000001,0.0,0,0,0,0.0,12.8,0.0,4,0,0,0.0,4.0,0.0,0,0,0,kReverse,0.0,0.0,0.0,0.0,0.0,0.0,0.0,0.0,0.0,0.0,0.0,
82.414259,true,true,true,0.0,-0.0078125,0.0,-0.0078125,false,false,false,false,0.0,-0.0078125,0.0,-0.0078125,false,false,false,false,0.0,12.75,0.0,18117,-243,0,0.125,12.75,0.0,0,0,0,0.0,12.75,0.0,5724,0,0,0.0,12.700000000000001,0.0,0,0,0,0.0,12.8,0.0,4,0,0,0.0,4.0,0.0,0,0,0,kReverse,0.0,0.0,0.0,0.0,0.0,0.0,0.0,0.0,0.0,0.0,0.0,
82.473716,true,true,true,0.0,-0.0078125,0.0,-0.0078125,false,false,false,false,0.0,-0.0078125,0.0,-0.0078125,false,false,false,false,0.0,12.75,0.0,17977,-235,0,0.125,12.75,0.0,0,0,0,0.0,12.75,0.0,5724,0,0,0.0,12.75,0.0,0,0,0,0.0,12.8,0.0,4,0,0,0.0,4.0,0.0,0,0,0,kReverse,0.0,0.0,0.0,0.0,0.0,0.0,0.0,0.0,0.0,0.0,0.0,
82.52024300000001,true,true,true,0.0,-0.0078125,0.0,-0.0078125,false,false,false,false,0.0,-0.0078125,0.0,-0.0078125,false,false,false,false,0.0,12.75,0.0,17887,-230,0,0.125,12.75,0.0,0,0,0,0.0,12.75,0.0,5724,0,0,0.0,12.75,0.0,0,0,0,0.0,12.8,0.0,4,0,0,0.0,4.0,0.0,0,0,0,kReverse,0.0,0.0,0.0,0.0,0.0,0.0,0.0,0.0,0.0,0.0,0.0,
82.609788,true,true,true,0.0,-0.0078125,0.0,-0.0078125,false,false,false,false,0.0,-0.0078125,0.0,-0.0078125,false,false,false,false,0.0,12.75,0.0,17670,-217,0,0.125,12.75,0.0,0,0,0,0.0,12.75,0.0,5724,0,0,0.0,12.75,0.0,0,0,0,0.0,12.85,0.0,4,0,0,0.0,4.0,0.0,0,0,0,kReverse,0.0,0.0,0.0,0.0,0.0,0.0,0.0,0.0,0.0,0.0,0.0,
82.71360100000001,true,true,true,0.0,-0.0078125,0.0,-0.0078125,false,false,false,false,0.0,-0.0078125,0.0,-0.0078125,false,false,false,false,0.0,12.75,0.0,17466,-204,0,0.125,12.75,0.0,0,0,0,0.0,12.75,0.0,5724,0,0,0.0,12.75,0.0,0,0,0,0.0,12.85,0.0,4,0,0,0.0,4.0,0.0,0,0,0,kReverse,0.0,0.0,0.0,0.0,0.0,0.0,0.0,0.0,0.0,0.0,0.0,
82.90280200000001,true,true,true,0.0,-0.0078125,0.0,-0.0078125,false,false,false,false,0.0,-0.0078125,0.0,-0.0078125,false,false,false,false,0.0,12.75,0.0,17108,-171,0,0.125,12.8,0.0,0,0,0,0.0,12.8,0.0,5724,0,0,0.0,12.75,0.0,0,0,0,0.0,12.85,0.0,4,0,0,0.0,4.0,0.0,0,0,0,kReverse,0.0,0.0,0.0,0.0,0.0,0.0,0.0,0.0,0.0,0.0,0.0,
83.072796,true,true,true,0.0,-0.0078125,0.0,-0.0078125,false,false,false,false,0.0,-0.0078125,0.0,-0.0078125,false,false,false,false,0.0,12.8,0.0,16863,-149,0,0.125,12.8,0.0,0,0,0,0.0,12.8,0.0,5724,0,0,0.0,12.75,0.0,0,0,0,0.0,12.85,0.0,4,0,0,0.0,4.0,0.0,0,0,0,kReverse,0.0,0.0,0.0,0.0,0.0,0.0,0.0,0.0,0.0,0.0,0.0,
83.21314699999999,true,true,true,0.0,-0.390625,0.0,-0.0078125,false,false,false,false,0.0,-0.0078125,0.0,-0.0078125,false,false,false,false,0.0,12.8,0.0,16679,-129,0,0.125,12.8,0.0,0,0,0,0.0,12.8,0.0,5724,0,0,0.0,12.8,0.0,0,0,0,0.0,12.55,0.0,4,0,0,0.0,4.0,0.0,0,0,0,kReverse,0.0,0.0,0.0,0.0,0.0,0.0,0.0,0.0,0.0,0.0,0.0,
83.387551,true,true,true,0.0,-0.1328125,0.0,-0.0078125,false,false,false,false,0.0,-0.0078125,0.0,-0.0078125,false,false,false,false,2.625,12.4,0.0,16521,-74,0,4.125,12.450000000000001,0.0,0,0,0,2.5,12.25,0.0,5724,0,0,1.625,12.25,0.0,0,0,0,0.0,12.4,0.0,4,0,0,0.0,4.0,0.0,0,0,0,kReverse,0.0,0.0,0.0,0.0,0.0,0.0,0.0,0.0,0.0,0.0,0.0,
83.57438,true,true,true,0.0,-0.2265625,0.0,-0.0078125,false,false,false,false,0.0,-0.0078125,0.0,-0.0078125,false,false,false,false,0.0,12.700000000000001,0.0,16460,-23,0,0.75,12.75,0.0,0,0,0,0.125,12.700000000000001,0.0,5724,0,0,0.0,12.700000000000001,0.0,0,0,0,0.0,12.8,0.0,4,0,0,0.0,4.0,0.0,0,0,0,kReverse,0.0,0.0,0.0,0.0,0.0,0.0,0.0,0.0,0.0,0.0,0.0,
83.67298400000001,true,true,true,0.0,-0.4453125,0.0,-0.0078125,false,false,false,false,0.0,-0.0078125,0.0,-0.0078125,false,false,false,false,0.625,12.700000000000001,0.0,16462,2,0,1.5,12.75,0.0,0,0,0,0.625,12.700000000000001,0.0,5724,0,0,0.0,12.700000000000001,0.0,0,0,0,0.0,12.8,0.0,4,0,0,0.0,4.0,0.0,0,0,0,kReverse,0.0,0.0,0.0,0.0,0.0,0.0,0.0,0.0,0.0,0.0,0.0,
83.77153200000001,true,true,true,0.0,-0.4453125,0.0,-0.0078125,false,false,false,false,0.0,-0.0078125,0.0,-0.0078125,false,false,false,false,3.625,12.1,0.0,16479,17,0,6.0,12.1,0.0,0,0,0,4.125,12.05,0.0,5724,0,0,2.375,12.05,0.0,0,0,0,0.0,12.200000000000001,0.0,4,0,0,0.0,4.0,0.0,0,0,0,kReverse,0.0,0.0,0.0,0.0,0.0,0.0,0.0,0.0,0.0,0.0,0.0,
83.82074300000001,true,true,true,0.0,-0.4453125,0.0,-0.0078125,false,false,false,false,0.0,-0.0078125,0.0,-0.0078125,false,false,false,false,3.375,12.1,0.0,16488,20,0,5.5,12.1,0.0,0,0,0,4.0,12.05,0.0,5724,0,0,2.25,12.05,0.0,0,0,0,0.0,12.200000000000001,0.0,4,0,0,0.0,4.0,0.0,0,0,0,kReverse,0.0,0.0,0.0,0.0,0.0,0.0,0.0,0.0,0.0,0.0,0.0,
83.8755,true,true,true,0.0,-0.4453125,0.0,-0.0078125,false,false,false,false,0.0,-0.0078125,0.0,-0.0078125,false,false,false,false,3.0,12.1,0.0,16504,25,0,5.125,12.1,0.0,0,0,0,3.75,12.05,0.0,5724,0,0,2.25,12.15,0.0,0,0,0,0.0,12.25,0.0,4,0,0,0.0,4.0,0.0,0,0,0,kReverse,0.0,0.0,0.0,0.0,0.0,0.0,0.0,0.0,0.0,0.0,0.0,
84.011651,true,true,true,0.0,-0.4453125,0.0,-0.0078125,false,false,false,false,0.0,-0.0078125,0.0,-0.0078125,false,false,false,false,2.375,12.15,0.0,16566,46,0,3.875,12.200000000000001,0.0,0,0,0,2.75,12.15,0.0,5724,0,0,2.0,12.15,0.0,0,0,0,0.0,12.25,0.0,4,0,0,0.0,4.0,0.0,0,0,0,kReverse,0.0,0.0,0.0,0.0,0.0,0.0,0.0,0.0,0.0,0.0,0.0,
84.17064300000001,true,true,true,0.0,-0.34375,0.0,-0.0078125,false,false,false,false,0.0,-0.0078125,0.0,-0.0078125,false,false,false,false,2.75,12.25,0.0,16658,59,0,3.0,12.25,0.0,0,0,0,1.875,12.3,0.0,5724,0,0,0.5,12.25,0.0,0,0,0,0.0,12.4,0.0,4,0,0,0.0,4.0,0.0,0,0,0,kReverse,0.0,0.0,0.0,0.0,0.0,0.0,0.0,0.0,0.0,0.0,0.0,
84.32451400000001,true,true,true,0.0,-0.3203125,0.0,-0.0078125,false,false,false,false,0.0,-0.0078125,0.0,-0.0078125,false,false,false,false,0.0,12.55,0.0,16769,72,0,1.0,12.6,0.0,0,0,0,0.375,12.55,0.0,5724,0,0,0.0,12.55,0.0,0,0,0,0.0,12.65,0.0,4,0,0,0.0,4.0,0.0,0,0,0,kReverse,0.0,0.0,0.0,0.0,0.0,0.0,0.0,0.0,0.0,0.0,0.0,
84.38115,true,true,true,0.0,-0.3203125,0.0,-0.0078125,false,false,false,false,0.0,-0.0078125,0.0,-0.0078125,false,false,false,false,0.0,12.65,0.0,16815,76,0,0.75,12.65,0.0,0,0,0,0.375,12.65,0.0,5724,0,0,0.0,12.65,0.0,0,0,0,0.0,12.75,0.0,4,0,0,0.0,4.0,0.0,0,0,0,kReverse,0.0,0.0,0.0,0.0,0.0,0.0,0.0,0.0,0.0,0.0,0.0,
84.45888500000001,true,true,true,0.0,-0.3203125,0.0,-0.0078125,false,false,false,false,0.0,-0.0078125,0.0,-0.0078125,false,false,false,false,0.0,12.65,0.0,16880,81,0,0.75,12.65,0.0,0,0,0,0.125,12.65,0.0,5724,0,0,0.0,12.65,0.0,0,0,0,0.0,12.75,0.0,4,0,0,0.0,4.0,0.0,0,0,0,kReverse,0.0,0.0,0.0,0.0,0.0,0.0,0.0,0.0,0.0,0.0,0.0,
84.672644,true,true,true,0.0,-0.3203125,0.0,-0.0078125,false,false,false,false,0.0,-0.0078125,0.0,-0.0078125,false,false,false,false,0.0,12.65,0.0,17061,93,0,1.25,12.65,0.0,0,0,0,0.375,12.65,0.0,5724,0,0,0.0,12.65,0.0,0,0,0,0.0,12.75,0.0,4,0,0,0.0,4.0,0.0,0,0,0,kReverse,0.0,0.0,0.0,0.0,0.0,0.0,0.0,0.0,0.0,0.0,0.0,
84.822563,true,true,true,0.0,-0.3203125,0.0,-0.0078125,false,false,false,false,0.0,-0.0078125,0.0,-0.0078125,false,false,false,false,0.0,12.6,0.0,17214,95,0,1.25,12.6,0.0,0,0,0,0.5,12.65,0.0,5724,0,0,0.0,12.6,0.0,0,0,0,0.0,12.75,0.0,4,0,0,0.0,4.0,0.0,0,0,0,kReverse,0.0,0.0,0.0,0.0,0.0,0.0,0.0,0.0,0.0,0.0,0.0,
84.93191800000001,true,true,true,0.0,-0.3203125,-0.3203125,-0.0078125,false,false,false,false,0.0,-0.0078125,0.0,-0.0078125,false,false,false,false,0.0,12.6,0.0,17306,92,0,1.5,12.6,0.0,0,0,0,0.625,12.6,0.0,5724,0,0,0.0,12.6,0.0,0,0,0,0.0,12.700000000000001,0.0,4,0,0,0.0,4.0,0.0,0,0,0,kReverse,0.0,0.0,0.0,0.0,0.0,0.0,0.0,0.0,0.0,0.0,0.0,
85.005534,true,true,true,0.0,-0.3203125,-0.375,-0.0078125,false,false,false,false,0.0,-0.0078125,0.0,-0.0078125,false,false,false,false,0.0,12.4,0.0,17373,85,0,0.25,12.4,0.0,0,0,0,4.375,12.35,0.0,5724,0,0,2.75,12.35,0.0,0,0,0,0.0,12.450000000000001,0.0,4,0,0,0.0,4.0,0.0,0,0,0,kReverse,0.0,0.0,0.0,0.0,0.0,0.0,0.0,0.0,0.0,0.0,0.0,
85.056185,true,true,true,0.0,-0.3203125,-0.375,-0.0078125,false,false,false,false,0.0,-0.0078125,0.0,-0.0078125,false,false,false,false,0.0,12.4,0.0,17399,75,0,0.125,12.4,0.0,0,0,0,6.875,12.35,0.0,5724,0,0,4.125,12.35,0.0,0,0,0,0.0,12.450000000000001,0.0,4,0,0,0.0,4.0,0.0,0,0,0,kReverse,0.0,0.0,0.0,0.0,0.0,0.0,0.0,0.0,0.0,0.0,0.0,
85.166943,true,true,true,0.0,-0.3203125,-0.375,-0.0078125,false,false,false,false,0.0,-0.0078125,0.0,-0.0078125,false,false,false,false,0.0,12.200000000000001,0.0,17484,71,0,0.125,12.200000000000001,0.0,0,0,0,7.75,12.0,0.0,5724,0,0,5.125,12.1,0.0,0,0,0,0.0,12.25,0.0,4,0,0,0.0,4.0,0.0,0,0,0,kReverse,0.0,0.0,0.0,0.0,0.0,0.0,0.0,0.0,0.0,0.0,0.0,
85.29442399999999,true,true,true,0.0,-0.3203125,-0.3359375,-0.0078125,false,false,false,false,0.0,-0.0078125,0.0,-0.0078125,false,false,false,false,0.0,12.200000000000001,0.0,17569,71,0,0.125,12.200000000000001,0.0,0,0,0,8.0,12.0,0.0,5724,0,0,5.25,12.1,0.0,0,0,0,0.0,12.25,0.0,4,0,0,0.0,4.0,0.0,0,0,0,kReverse,0.0,0.0,0.0,0.0,0.0,0.0,0.0,0.0,0.0,0.0,0.0,
85.37450100000001,true,true,true,0.0,-0.3203125,0.0,-0.0078125,false,false,false,false,0.0,-0.0078125,0.0,-0.0078125,false,false,false,false,0.0,12.05,0.0,17619,65,0,0.75,12.05,0.0,0,0,0,8.25,12.0,0.0,5724,0,0,6.625,12.0,0.0,0,0,0,0.0,12.1,0.0,4,0,0,0.0,4.0,0.0,0,0,0,kReverse,0.0,0.0,0.0,0.0,0.0,0.0,0.0,0.0,0.0,0.0,0.0,
85.49541400000001,true,true,true,0.0,-0.3203125,0.10236220806837082,-0.0078125,false,false,false,false,0.0,-0.0078125,0.0,-0.0078125,false,false,false,false,0.0,12.65,0.0,17694,63,0,0.375,12.65,0.0,0,0,0,0.375,12.65,0.0,5724,0,0,0.0,12.65,0.0,0,0,0,0.0,12.75,0.0,4,0,0,0.0,4.0,0.0,0,0,0,kReverse,0.0,0.0,0.0,0.0,0.0,0.0,0.0,0.0,0.0,0.0,0.0,
85.555294,true,true,true,0.0,-0.3203125,0.12598425149917603,-0.0078125,false,false,false,false,0.0,-0.0078125,0.0,-0.0078125,false,false,false,false,1.125,12.65,0.0,17736,68,0,2.25,12.65,0.0,0,0,0,0.0,12.65,0.0,5724,0,0,0.0,12.65,0.0,0,0,0,0.0,12.75,0.0,4,0,0,0.0,4.0,0.0,0,0,0,kReverse,0.0,0.0,0.0,0.0,0.0,0.0,0.0,0.0,0.0,0.0,0.0,
85.61127,true,true,true,0.0,-0.3203125,0.12598425149917603,-0.0078125,false,false,false,false,0.0,-0.0078125,0.0,-0.0078125,false,false,false,false,2.625,12.65,0.0,17780,72,0,3.25,12.65,0.0,0,0,0,0.0,12.65,0.0,5724,0,0,0.0,12.65,0.0,0,0,0,0.0,12.75,0.0,4,0,0,0.0,4.0,0.0,0,0,0,kReverse,0.0,0.0,0.0,0.0,0.0,0.0,0.0,0.0,0.0,0.0,0.0,
85.746656,true,true,true,0.0,-0.3203125,0.12598425149917603,-0.0078125,false,false,false,false,0.0,-0.0078125,0.0,-0.0078125,false,false,false,false,2.5,12.450000000000001,0.0,17890,80,0,3.5,12.5,0.0,0,0,0,0.0,12.450000000000001,0.0,5724,0,0,0.0,12.450000000000001,0.0,0,0,0,0.0,12.55,0.0,4,0,0,0.0,4.0,0.0,0,0,0,kReverse,0.0,0.0,0.0,0.0,0.0,0.0,0.0,0.0,0.0,0.0,0.0,
85.813918,true,true,true,0.0,-0.3203125,0.12598425149917603,-0.0078125,false,false,false,false,0.0,-0.0078125,0.0,-0.0078125,false,false,false,false,2.5,12.450000000000001,0.0,17941,84,0,3.5,12.450000000000001,0.0,0,0,0,0.0,12.450000000000001,0.0,5724,0,0,0.0,12.450000000000001,0.0,0,0,0,0.0,12.55,0.0,4,0,0,0.0,4.0,0.0,0,0,0,kReverse,0.0,0.0,0.0,0.0,0.0,0.0,0.0,0.0,0.0,0.0,0.0,
85.87157800000001,true,true,true,0.0,-0.3203125,0.12598425149917603,-0.0078125,false,false,false,false,0.0,-0.0078125,0.0,-0.0078125,false,false,false,false,2.5,12.450000000000001,0.0,17996,90,0,3.625,12.450000000000001,0.0,0,0,0,0.0,12.450000000000001,0.0,5724,0,0,0.0,12.450000000000001,0.0,0,0,0,0.0,12.55,0.0,4,0,0,0.0,4.0,0.0,0,0,0,kReverse,0.0,0.0,0.0,0.0,0.0,0.0,0.0,0.0,0.0,0.0,0.0,
85.931487,true,true,true,0.0,-0.3203125,0.12598425149917603,-0.0078125,false,false,false,false,0.0,-0.0078125,0.0,-0.0078125,false,false,false,false,2.5,12.450000000000001,0.0,18055,96,0,3.625,12.450000000000001,0.0,0,0,0,0.0,12.450000000000001,0.0,5724,0,0,0.0,12.450000000000001,0.0,0,0,0,0.0,12.55,0.0,4,0,0,0.0,4.0,0.0,0,0,0,kReverse,0.0,0.0,0.0,0.0,0.0,0.0,0.0,0.0,0.0,0.0,0.0,
85.98742700000001,true,true,true,0.0,-0.3203125,0.12598425149917603,-0.0078125,false,false,false,false,0.0,-0.0078125,0.0,-0.0078125,false,false,false,false,2.5,12.450000000000001,0.0,18114,98,0,3.625,12.450000000000001,0.0,0,0,0,0.0,12.450000000000001,0.0,5724,0,0,0.0,12.450000000000001,0.0,0,0,0,0.0,12.55,0.0,4,0,0,0.0,4.0,0.0,0,0,0,kReverse,0.0,0.0,0.0,0.0,0.0,0.0,0.0,0.0,0.0,0.0,0.0,
