timer,lineLeft,lineCenter,lineRight,LeftFrontCurrent,LeftFrontVoltage,LeftFrontValue,LeftFrontPosition,LeftFrontVelocity,LeftFrontFaults,LeftRearCurrent,LeftRearVoltage,LeftRearValue,LeftRearPosition,LeftRearVelocity,LeftRearFaults,RightFrontCurrent,RightFrontVoltage,RightFrontValue,RightFrontPosition,RightFrontVelocity,RightFrontFaults,RightRearCurrent,RightRearVoltage,RightRearValue,RightRearPosition,RightRearVelocity,RightRearFaults,LiftCurrent,LiftVoltage,LiftValue,LiftPosition,LiftVelocity,LiftFaults,WristCurrent,WristVoltage,WristValue,WristPosition,WristVelocity,WristFaults,RollerCurrent,RollerVoltage,RollerValue,RollerPosition,RollerVelocity,RollerFaults,PushersState,PivotsState,navx_Pitch,navx_Roll,navx_Yaw,navx_XAcc,navx_YAcc,navx_ZAcc,navx_Temp,navx_Bar,navx_Alt,navx_XDis,navx_YDis,
149.23771,true,true,true,0.0,12.1,0.0,-12533,0,0,0.0,12.1,0.0,0,0,0,0.125,12.1,0.0,-8392,0,0,0.0,12.15,0.0,0,0,0,0.0,12.1,0.0,0,0,0,0.0,12.1,0.0,0,0,0,0.0,12.200000000000001,0.0,0,0,0,kReverse,kOff,-83.74,2.2,-176.88,-0.04724121,-0.8417969,-0.0015869141,24.16,0.0,92.0,-0.08026123,-0.29992676,
149.31391699999998,true,true,true,0.0,12.1,0.0,-12533,0,0,0.0,12.1,0.0,0,0,0,0.125,12.1,0.0,-8392,0,0,0.0,12.15,0.0,0,0,0,0.0,12.1,0.0,0,0,0,0.0,12.1,0.0,0,0,0,0.0,12.200000000000001,0.0,0,0,0,kReverse,kOff,-83.76,2.18,-176.9,0.085998535,-1.2272949,0.18334961,24.2,0.0,-47.0,-0.07946777,-0.2993164,
149.351999,true,true,true,0.0,12.1,0.0,-12533,0,0,0.0,12.1,0.0,0,0,0,0.125,12.1,0.0,-8392,0,0,0.0,12.15,0.0,0,0,0,0.0,12.1,0.0,0,0,0,0.0,12.1,0.0,0,0,0,0.0,12.200000000000001,0.0,0,0,0,kReverse,kOff,-83.78,2.14,-176.94,0.10028076,-1.2958984,0.15979004,24.2,0.0,-54.0,-0.07897949,-0.29919434,
149.3894,true,true,true,0.0,12.1,0.0,-12533,0,0,0.0,12.1,0.0,0,0,0,0.125,12.1,0.0,-8392,0,0,0.0,12.15,0.0,0,0,0,0.0,12.1,0.0,0,0,0,0.0,12.1,0.0,0,0,0,0.0,12.200000000000001,0.0,0,0,0,kReverse,kOff,-83.78,2.14,-176.95,0.04522705,-1.0067749,-0.014770508,24.2,0.0,10.0,-0.07891846,-0.29927063,
149.429644,true,true,true,0.0,12.1,0.0,-12533,0,0,0.0,12.1,0.0,0,0,0,0.0,12.1,0.0,-8392,0,0,0.0,12.15,0.0,0,0,0,0.0,12.1,0.0,0,0,0,0.0,12.1,0.0,0,0,0,0.0,12.200000000000001,0.0,0,0,0,kReverse,kOff,-83.78,2.16,-176.93,-0.043823242,-0.7214966,0.08728027,24.2,0.0,68.0,-0.078430176,-0.2985382,
149.47268400000002,true,true,true,0.0,12.1,0.0,-12533,0,0,0.0,12.1,0.0,0,0,0,0.0,12.1,0.0,-8392,0,0,0.0,12.15,0.0,0,0,0,0.0,12.1,0.0,0,0,0,0.0,12.1,0.0,0,0,0,0.0,12.200000000000001,0.0,0,0,0,kReverse,kOff,-83.79,2.15,-176.93,0.0211792,-0.8404541,0.07684326,24.2,0.0,11.0,-0.07788086,-0.29811096,
149.513834,true,true,true,0.0,12.1,0.0,-12533,0,0,0.0,12.1,0.0,0,0,0,0.0,12.1,0.0,-8392,0,0,0.0,12.15,0.0,0,0,0,0.0,12.1,0.0,0,0,0,0.0,12.1,0.0,0,0,0,0.0,12.200000000000001,0.0,0,0,0,kReverse,kOff,-83.79,2.14,-176.94,0.044921875,-0.9766846,0.20025635,24.2,0.0,-23.0,-0.07774353,-0.29821777,
149.554717,true,true,true,0.0,12.450000000000001,0.0,-12533,0,0,0.0,12.450000000000001,0.0,0,0,0,0.0,12.450000000000001,0.0,-8392,0,0,0.0,12.450000000000001,0.0,0,0,0,0.0,12.450000000000001,0.0,0,0,0,0.0,12.450000000000001,0.0,0,0,0,0.0,12.5,0.0,0,0,0,kReverse,kOff,-83.81,2.15,-176.94,0.0024414062,-1.156311,-0.09082031,24.2,0.0,72.0,-0.07783508,-0.29849243,
149.59949799999998,true,true,true,0.0,12.450000000000001,0.0,-12533,0,0,0.0,12.450000000000001,0.0,0,0,0,0.125,12.450000000000001,0.0,-8392,0,0,0.0,12.450000000000001,0.0,0,0,0,0.0,12.450000000000001,0.0,0,0,0,0.0,12.450000000000001,0.0,0,0,0,0.0,12.5,0.0,0,0,0,kReverse,kOff,-83.8,2.14,-176.94,0.061340332,-0.9411011,0.12121582,24.2,0.0,-29.0,-0.07807922,-0.29856873,
149.64211600000002,true,true,true,0.0,12.450000000000001,0.0,-12533,0,0,0.0,12.450000000000001,0.0,0,0,0,0.125,12.450000000000001,0.0,-8392,0,0,0.0,12.450000000000001,0.0,0,0,0,0.0,12.450000000000001,0.0,0,0,0,0.0,12.450000000000001,0.0,0,0,0,0.0,12.5,0.0,0,0,0,kReverse,kOff,-83.77,2.13,-176.96,0.034179688,-1.0015869,0.18481445,24.2,0.0,-9.0,-0.07823181,-0.29859924,
149.679791,true,true,true,0.0,12.450000000000001,0.0,-12533,0,0,0.0,12.450000000000001,0.0,0,0,0,0.125,12.450000000000001,0.0,-8392,0,0,0.0,12.450000000000001,0.0,0,0,0,0.0,12.450000000000001,0.0,0,0,0,0.0,12.450000000000001,0.0,0,0,0,0.0,12.5,0.0,0,0,0,kReverse,kOff,-83.78,2.15,-176.94,0.02734375,-0.9802246,0.13378906,24.2,0.0,3.0,-0.0783844,-0.29867554,
149.719021,true,true,true,0.0,12.450000000000001,0.0,-12533,0,0,0.0,12.450000000000001,0.0,0,0,0,0.0,12.450000000000001,0.0,-8392,0,0,0.0,12.450000000000001,0.0,0,0,0,0.0,12.450000000000001,0.0,0,0,0,0.0,12.450000000000001,0.0,0,0,0,0.0,12.5,0.0,0,0,0,kReverse,kOff,-83.77,2.14,-176.94,0.046447754,-0.9767456,0.11303711,24.2,0.0,-11.0,-0.078552246,-0.29873657,
149.78814,true,true,true,0.0,12.450000000000001,0.0,-12533,0,0,0.0,12.450000000000001,0.0,0,0,0,0.0,12.450000000000001,0.0,-8392,0,0,0.0,12.450000000000001,0.0,0,0,0,0.0,12.450000000000001,0.0,0,0,0,0.0,12.450000000000001,0.0,0,0,0,0.0,12.5,0.0,0,0,0,kReverse,kOff,-83.77,2.13,-176.95,0.06573486,-0.96643066,0.11480713,24.2,0.0,-31.0,-0.0786438,-0.2987671,
149.833798,true,true,true,0.0,12.450000000000001,0.0,-12533,0,0,0.0,12.450000000000001,0.0,0,0,0,0.0,12.450000000000001,0.0,-8392,0,0,0.0,12.450000000000001,0.0,0,0,0,0.0,12.450000000000001,0.0,0,0,0,0.0,12.450000000000001,0.0,0,0,0,0.0,12.5,0.0,0,0,0,kReverse,kOff,-83.77,2.13,-176.96,0.04095459,-0.9935303,0.08520508,24.2,0.0,-1.0,-0.07867432,-0.2987671,
149.888667,true,true,true,0.0,12.450000000000001,0.0,-12533,0,0,0.0,12.450000000000001,0.0,0,0,0,0.125,12.450000000000001,0.0,-8392,0,0,0.0,12.450000000000001,0.0,0,0,0,0.0,12.450000000000001,0.0,0,0,0,0.0,12.450000000000001,0.0,0,0,0,0.0,12.55,0.0,0,0,0,kReverse,kOff,-83.8,2.13,-176.95,0.032592773,-0.99072266,0.08746338,24.2,0.0,6.0,-0.07867432,-0.2987671,
149.918948,true,true,true,0.0,12.450000000000001,0.0,-12533,0,0,0.0,12.450000000000001,0.0,0,0,0,0.125,12.450000000000001,0.0,-8392,0,0,0.0,12.450000000000001,0.0,0,0,0,0.0,12.450000000000001,0.0,0,0,0,0.0,12.450000000000001,0.0,0,0,0,0.0,12.55,0.0,0,0,0,kReverse,kOff,-83.78,2.13,-176.95,0.042907715,-0.9727783,0.11047363,24.2,0.0,-8.0,-0.07867432,-0.2987671,
149.95291699999999,true,true,true,0.0,12.450000000000001,0.0,-12533,0,0,0.0,12.450000000000001,0.0,0,0,0,0.125,12.450000000000001,0.0,-8392,0,0,0.0,12.450000000000001,0.0,0,0,0,0.0,12.450000000000001,0.0,0,0,0,0.0,12.450000000000001,0.0,0,0,0,0.0,12.55,0.0,0,0,0,kReverse,kOff,-83.78,2.13,-176.96,0.03857422,-0.9822998,0.09057617,24.2,0.0,0.0,-0.07867432,-0.2987671,
149.98511,true,true,true,0.0,12.450000000000001,0.0,-12533,0,0,0.0,12.450000000000001,0.0,0,0,0,0.125,12.450000000000001,0.0,-8392,0,0,0.0,12.450000000000001,0.0,0,0,0,0.0,12.450000000000001,0.0,0,0,0,0.0,12.450000000000001,0.0,0,0,0,0.0,12.55,0.0,0,0,0,kReverse,kOff,-83.78,2.13,-176.95,0.03363037,-0.9854126,0.105895996,24.2,0.0,2.0,-0.07867432,-0.2987671,
150.01743599999998,true,true,true,0.0,12.450000000000001,0.0,-12533,0,0,0.0,12.450000000000001,0.0,0,0,0,0.125,12.450000000000001,0.0,-8392,0,0,0.0,12.450000000000001,0.0,0,0,0,0.0,12.450000000000001,0.0,0,0,0,0.0,12.450000000000001,0.0,0,0,0,0.0,12.55,0.0,0,0,0,kReverse,kOff,-83.79,2.13,-176.96,0.036071777,-0.98272705,0.09814453,24.2,0.0,1.0,-0.07867432,-0.2987671,
150.050943,true,true,true,0.0,12.450000000000001,0.0,-12533,0,0,0.0,12.450000000000001,0.0,0,0,0,0.125,12.450000000000001,0.0,-8392,0,0,0.0,12.5,0.0,0,0,0,0.0,12.450000000000001,0.0,0,0,0,0.0,12.450000000000001,0.0,0,0,0,0.0,12.55,0.0,0,0,0,kReverse,kOff,-83.79,2.13,-176.96,0.03338623,-0.9873657,0.10235596,24.2,0.0,3.0,-0.07867432,-0.2987671,
150.07934,true,true,true,0.0,12.450000000000001,0.0,-12533,0,0,0.0,12.450000000000001,0.0,0,0,0,0.125,12.450000000000001,0.0,-8392,0,0,0.0,12.5,0.0,0,0,0,0.0,12.450000000000001,0.0,0,0,0,0.0,12.450000000000001,0.0,0,0,0,0.0,12.55,0.0,0,0,0,kReverse,kOff,-83.79,2.13,-176.96,0.039367676,-0.984375,0.09265137,24.2,0.0,-1.0,-0.07867432,-0.2987671,
150.11307,true,true,true,0.0,12.450000000000001,0.0,-12533,0,0,0.0,12.450000000000001,0.0,0,0,0,0.125,12.450000000000001,0.0,-8392,0,0,0.0,12.5,0.0,0,0,0,0.0,12.450000000000001,0.0,0,0,0,0.0,12.450000000000001,0.0,0,0,0,0.0,12.55,0.0,0,0,0,kReverse,kOff,-83.78,2.13,-176.95,0.03692627,-0.97735596,0.10418701,24.2,0.0,0.0,-0.07867432,-0.2987671,
150.140666,true,true,true,0.0,12.450000000000001,0.0,-12533,0,0,0.0,12.450000000000001,0.0,0,0,0,0.125,12.450000000000001,0.0,-8392,0,0,0.0,12.5,0.0,0,0,0,0.0,12.450000000000001,0.0,0,0,0,0.0,12.450000000000001,0.0,0,0,0,0.0,12.55,0.0,0,0,0,kReverse,kOff,-83.79,2.13,-176.96,0.039794922,-0.97961426,0.11199951,24.2,0.0,-4.0,-0.07867432,-0.2987671,
150.17473,true,true,true,0.0,12.450000000000001,0.0,-12533,0,0,0.0,12.450000000000001,0.0,0,0,0,0.125,12.450000000000001,0.0,-8392,0,0,0.0,12.5,0.0,0,0,0,0.0,12.450000000000001,0.0,0,0,0,0.0,12.450000000000001,0.0,0,0,0,0.0,12.55,0.0,0,0,0,kReverse,kOff,-83.79,2.13,-176.96,0.035705566,-0.98376465,0.093933105,24.2,0.0,2.0,-0.07867432,-0.2987671,
150.236841,true,true,true,0.0,12.450000000000001,0.0,-12533,0,0,0.0,12.450000000000001,0.0,0,0,0,0.125,12.450000000000001,0.0,-8392,0,0,0.0,12.5,0.0,0,0,0,0.0,12.450000000000001,0.0,0,0,0,0.0,12.450000000000001,0.0,0,0,0,0.0,12.55,0.0,0,0,0,kReverse,kOff,-83.79,2.13,-176.96,0.04083252,-0.97943115,0.10021973,24.2,0.0,-4.0,-0.07867432,-0.2987671,
150.31313,true,true,true,0.0,12.450000000000001,0.0,-12533,0,0,0.0,12.450000000000001,0.0,0,0,0,0.0,12.450000000000001,0.0,-8392,0,0,0.0,12.5,0.0,0,0,0,0.0,12.450000000000001,0.0,0,0,0,0.0,12.450000000000001,0.0,0,0,0,0.0,12.55,0.0,0,0,0,kReverse,kOff,-83.79,2.13,-176.96,0.03778076,-0.9819946,0.10449219,24.2,0.0,-1.0,-0.07867432,-0.2987671,
150.372119,true,true,true,0.0,12.450000000000001,0.0,-12533,0,0,0.0,12.450000000000001,0.0,0,0,0,0.125,12.450000000000001,0.0,-8392,0,0,0.0,12.5,0.0,0,0,0,0.0,12.450000000000001,0.0,0,0,0,0.0,12.450000000000001,0.0,0,0,0,0.0,12.55,0.0,0,0,0,kReverse,kOff,-83.78,2.12,-176.96,0.036193848,-0.98132324,0.10028076,24.21,0.0,0.0,-0.07867432,-0.2987671,
150.408806,true,true,true,0.0,12.450000000000001,0.0,-12533,0,0,0.0,12.450000000000001,0.0,0,0,0,0.125,12.450000000000001,0.0,-8392,0,0,0.0,12.5,0.0,0,0,0,0.0,12.450000000000001,0.0,0,0,0,0.0,12.450000000000001,0.0,0,0,0,0.0,12.55,0.0,0,0,0,kReverse,kOff,-83.78,2.12,-176.96,0.03753662,-0.9835205,0.09460449,24.21,0.0,0.0,-0.07867432,-0.2987671,
150.43703399999998,true,true,true,0.0,12.450000000000001,0.0,-12533,0,0,0.0,12.450000000000001,0.0,0,0,0,0.125,12.450000000000001,0.0,-8392,0,0,0.0,12.5,0.0,0,0,0,0.0,12.450000000000001,0.0,0,0,0,0.0,12.450000000000001,0.0,0,0,0,0.0,12.55,0.0,0,0,0,kReverse,kOff,-83.79,2.12,-176.96,0.036010742,-0.98150635,0.09869385,24.21,0.0,0.0,-0.07867432,-0.2987671,
150.470237,true,true,true,0.0,12.450000000000001,0.0,-12533,0,0,0.0,12.450000000000001,0.0,0,0,0,0.125,12.450000000000001,0.0,-8392,0,0,0.0,12.5,0.0,0,0,0,0.0,12.450000000000001,0.0,0,0,0,0.0,12.450000000000001,0.0,0,0,0,0.0,12.55,0.0,0,0,0,kReverse,kOff,-83.79,2.12,-176.96,0.038330078,-0.98358154,0.09765625,24.21,0.0,-1.0,-0.07867432,-0.2987671,
150.497357,true,true,true,0.0,12.450000000000001,0.0,-12533,0,0,0.0,12.450000000000001,0.0,0,0,0,0.125,12.450000000000001,0.0,-8392,0,0,0.0,12.5,0.0,0,0,0,0.0,12.450000000000001,0.0,0,0,0,0.0,12.450000000000001,0.0,0,0,0,0.0,12.55,0.0,0,0,0,kReverse,kOff,-83.79,2.12,-176.96,0.033203125,-0.98132324,0.1038208,24.21,0.0,2.0,-0.07867432,-0.2987671,
150.52571799999998,true,true,true,0.0,12.450000000000001,0.0,-12533,0,0,0.0,12.450000000000001,0.0,0,0,0,0.125,12.450000000000001,0.0,-8392,0,0,0.0,12.5,0.0,0,0,0,0.0,12.450000000000001,0.0,0,0,0,0.0,12.450000000000001,0.0,0,0,0,0.0,12.55,0.0,0,0,0,kReverse,kOff,-83.78,2.12,-176.96,0.04119873,-0.98083496,0.099731445,24.21,0.0,-4.0,-0.07867432,-0.2987671,
150.556927,true,true,true,0.0,12.450000000000001,0.0,-12533,0,0,0.0,12.450000000000001,0.0,0,0,0,0.125,12.450000000000001,0.0,-8392,0,0,0.0,12.5,0.0,0,0,0,0.0,12.450000000000001,0.0,0,0,0,0.0,12.450000000000001,0.0,0,0,0,0.0,12.55,0.0,0,0,0,kReverse,kOff,-83.79,2.12,-176.96,0.031799316,-0.9812622,0.09802246,24.21,0.0,5.0,-0.07867432,-0.2987671,
150.593145,true,true,true,0.0,12.450000000000001,0.0,-12533,0,0,0.0,12.450000000000001,0.0,0,0,0,0.125,12.450000000000001,0.0,-8392,0,0,0.0,12.5,0.0,0,0,0,0.0,12.450000000000001,0.0,0,0,0,0.0,12.450000000000001,0.0,0,0,0,0.0,12.55,0.0,0,0,0,kReverse,kOff,-83.79,2.12,-176.97,0.037109375,-0.98217773,0.09710693,24.21,0.0,0.0,-0.07867432,-0.2987671,
150.61719,true,true,true,0.0,12.450000000000001,0.0,-12533,0,0,0.0,12.450000000000001,0.0,0,0,0,0.125,12.450000000000001,0.0,-8392,0,0,0.0,12.5,0.0,0,0,0,0.0,12.450000000000001,0.0,0,0,0,0.0,12.450000000000001,0.0,0,0,0,0.0,12.55,0.0,0,0,0,kReverse,kOff,-83.79,2.12,-176.96,0.03466797,-0.98046875,0.10180664,24.21,0.0,1.0,-0.07867432,-0.2987671,
150.644756,true,true,true,0.0,12.450000000000001,0.0,-12533,0,0,0.0,12.450000000000001,0.0,0,0,0,0.125,12.450000000000001,0.0,-8392,0,0,0.0,12.5,0.0,0,0,0,0.0,12.450000000000001,0.0,0,0,0,0.0,12.450000000000001,0.0,0,0,0,0.0,12.55,0.0,0,0,0,kReverse,kOff,-83.79,2.12,-176.96,0.038879395,-0.9807739,0.101745605,24.21,0.0,-2.0,-0.07867432,-0.2987671,
150.676682,true,true,true,0.0,12.450000000000001,0.0,-12533,0,0,0.0,12.5,0.0,0,0,0,0.125,12.450000000000001,0.0,-8392,0,0,0.0,12.5,0.0,0,0,0,0.0,12.450000000000001,0.0,0,0,0,0.0,12.450000000000001,0.0,0,0,0,0.0,12.55,0.0,0,0,0,kReverse,kOff,-83.79,2.12,-176.97,0.035461426,-0.982605,0.10284424,24.21,0.0,0.0,-0.07867432,-0.2987671,
150.701546,true,true,true,0.0,12.450000000000001,0.0,-12533,0,0,0.0,12.5,0.0,0,0,0,0.0,12.450000000000001,0.0,-8392,0,0,0.0,12.5,0.0,0,0,0,0.0,12.450000000000001,0.0,0,0,0,0.0,12.450000000000001,0.0,0,0,0,0.0,12.55,0.0,0,0,0,kReverse,kOff,-83.79,2.12,-176.97,0.03363037,-0.97991943,0.10394287,24.21,0.0,0.0,-0.07867432,-0.2987671,
150.729272,true,true,true,0.0,12.450000000000001,0.0,-12533,0,0,0.0,12.5,0.0,0,0,0,0.0,12.450000000000001,0.0,-8392,0,0,0.0,12.5,0.0,0,0,0,0.0,12.450000000000001,0.0,0,0,0,0.0,12.450000000000001,0.0,0,0,0,0.0,12.55,0.0,0,0,0,kReverse,kOff,-83.79,2.11,-176.97,0.034851074,-0.98443604,0.103759766,24.21,0.0,1.0,-0.07867432,-0.2987671,
150.75884299999998,true,true,true,0.0,12.450000000000001,0.0,-12533,0,0,0.0,12.5,0.0,0,0,0,0.125,12.450000000000001,0.0,-8392,0,0,0.0,12.5,0.0,0,0,0,0.0,12.450000000000001,0.0,0,0,0,0.0,12.450000000000001,0.0,0,0,0,0.0,12.55,0.0,0,0,0,kReverse,kOff,-83.79,2.12,-176.97,0.03491211,-0.9837036,0.09692383,24.21,0.0,2.0,-0.07867432,-0.2987671,
150.786971,true,true,true,0.0,12.450000000000001,0.0,-12533,0,0,0.0,12.5,0.0,0,0,0,0.125,12.450000000000001,0.0,-8392,0,0,0.0,12.5,0.0,0,0,0,0.0,12.450000000000001,0.0,0,0,0,0.0,12.450000000000001,0.0,0,0,0,0.0,12.55,0.0,0,0,0,kReverse,kOff,-83.79,2.12,-176.97,0.037475586,-0.9807739,0.10058594,24.21,0.0,0.0,-0.07867432,-0.2987671,
150.81652499999998,true,true,true,0.0,12.450000000000001,0.0,-12533,0,0,0.0,12.5,0.0,0,0,0,0.125,12.450000000000001,0.0,-8392,0,0,0.0,12.5,0.0,0,0,0,0.0,12.450000000000001,0.0,0,0,0,0.0,12.450000000000001,0.0,0,0,0,0.0,12.55,0.0,0,0,0,kReverse,kOff,-83.79,2.12,-176.97,0.037109375,-0.9821167,0.099243164,24.21,0.0,0.0,-0.07867432,-0.2987671,
150.842848,true,true,true,0.0,12.450000000000001,0.0,-12533,0,0,0.0,12.450000000000001,0.0,0,0,0,0.125,12.450000000000001,0.0,-8392,0,0,0.0,12.5,0.0,0,0,0,0.0,12.450000000000001,0.0,0,0,0,0.0,12.450000000000001,0.0,0,0,0,0.0,12.55,0.0,0,0,0,kReverse,kOff,-83.79,2.12,-176.97,0.036865234,-0.97979736,0.099975586,24.21,0.0,0.0,-0.07867432,-0.2987671,
150.873514,true,true,true,0.0,12.450000000000001,0.0,-12533,0,0,0.0,12.450000000000001,0.0,0,0,0,0.125,12.450000000000001,0.0,-8392,0,0,0.0,12.5,0.0,0,0,0,0.0,12.450000000000001,0.0,0,0,0,0.0,12.450000000000001,0.0,0,0,0,0.0,12.55,0.0,0,0,0,kReverse,kOff,-83.79,2.12,-176.97,0.035583496,-0.9810791,0.10687256,24.18,0.0,0.0,-0.07867432,-0.2987671,
150.903753,true,true,true,0.0,12.450000000000001,0.0,-12533,0,0,0.0,12.450000000000001,0.0,0,0,0,0.0,12.450000000000001,0.0,-8392,0,0,0.0,12.5,0.0,0,0,0,0.0,12.450000000000001,0.0,0,0,0,0.0,12.450000000000001,0.0,0,0,0,0.0,12.55,0.0,0,0,0,kReverse,kOff,-83.79,2.11,-176.98,0.034362793,-0.98095703,0.09851074,24.18,0.0,2.0,-0.07867432,-0.2987671,
150.94125699999998,true,true,true,0.0,12.450000000000001,0.0,-12533,0,0,0.0,12.450000000000001,0.0,0,0,0,0.0,12.450000000000001,0.0,-8392,0,0,0.0,12.5,0.0,0,0,0,0.0,12.450000000000001,0.0,0,0,0,0.0,12.450000000000001,0.0,0,0,0,0.0,12.55,0.0,0,0,0,kReverse,kOff,-83.8,2.11,-176.98,0.035827637,-0.9812622,0.103515625,24.18,0.0,0.0,-0.07867432,-0.2987671,
150.976809,true,true,true,0.0,12.450000000000001,0.0,-12533,0,0,0.0,12.450000000000001,0.0,0,0,0,0.125,12.450000000000001,0.0,-8392,0,0,0.0,12.5,0.0,0,0,0,0.0,12.450000000000001,0.0,0,0,0,0.0,12.450000000000001,0.0,0,0,0,0.0,12.55,0.0,0,0,0,kReverse,kOff,-83.8,2.11,-176.98,0.038024902,-0.9822998,0.10369873,24.18,0.0,-2.0,-0.07867432,-0.2987671,
151.003511,true,true,true,0.0,12.450000000000001,0.0,-12533,0,0,0.0,12.5,0.0,0,0,0,0.125,12.450000000000001,0.0,-8392,0,0,0.0,12.5,0.0,0,0,0,0.0,12.5,0.0,0,0,0,0.0,12.450000000000001,0.0,0,0,0,0.0,12.55,0.0,0,0,0,kReverse,kOff,-83.79,2.11,-176.98,0.036376953,-0.9797363,0.1005249,24.18,0.0,0.0,-0.07867432,-0.2987671,
151.03411,true,true,true,0.0,12.450000000000001,0.0,-12533,0,0,0.0,12.5,0.0,0,0,0,0.125,12.450000000000001,0.0,-8392,0,0,0.0,12.5,0.0,0,0,0,0.0,12.5,0.0,0,0,0,0.0,12.450000000000001,0.0,0,0,0,0.0,12.55,0.0,0,0,0,kReverse,kOff,-83.78,2.11,-176.97,0.037353516,-0.9800415,0.10040283,24.18,0.0,0.0,-0.07867432,-0.2987671,
151.060118,true,true,true,0.0,12.450000000000001,0.0,-12533,0,0,0.0,12.5,0.0,0,0,0,0.125,12.450000000000001,0.0,-8392,0,0,0.0,12.5,0.0,0,0,0,0.0,12.5,0.0,0,0,0,0.0,12.450000000000001,0.0,0,0,0,0.0,12.55,0.0,0,0,0,kReverse,kOff,-83.79,2.12,-176.97,0.03466797,-0.9785156,0.09680176,24.18,0.0,2.0,-0.07867432,-0.2987671,
151.091149,true,true,true,0.0,12.450000000000001,0.0,-12533,0,0,0.0,12.5,0.0,0,0,0,0.125,12.450000000000001,0.0,-8392,0,0,0.0,12.5,0.0,0,0,0,0.0,12.5,0.0,0,0,0,0.0,12.450000000000001,0.0,0,0,0,0.0,12.55,0.0,0,0,0,kReverse,kOff,-83.78,2.11,-176.97,0.038513184,-0.9821167,0.10253906,24.18,0.0,-2.0,-0.07867432,-0.2987671,
151.12619800000002,true,true,true,0.0,12.450000000000001,0.0,-12533,0,0,0.0,12.5,0.0,0,0,0,0.125,12.450000000000001,0.0,-8392,0,0,0.0,12.5,0.0,0,0,0,0.0,12.5,0.0,0,0,0,0.0,12.450000000000001,0.0,0,0,0,0.0,12.55,0.0,0,0,0,kReverse,kOff,-83.79,2.12,-176.97,0.035888672,-0.98095703,0.10076904,24.18,0.0,0.0,-0.07867432,-0.2987671,
151.15586,true,true,true,0.0,12.5,0.0,-12533,0,0,0.0,12.5,0.0,0,0,0,0.0,12.450000000000001,0.0,-8392,0,0,0.0,12.5,0.0,0,0,0,0.0,12.5,0.0,0,0,0,0.0,12.450000000000001,0.0,0,0,0,0.0,12.55,0.0,0,0,0,kReverse,kOff,-83.79,2.12,-176.97,0.035217285,-0.9798584,0.103515625,24.18,0.0,0.0,-0.07867432,-0.2987671,
151.1832,true,true,true,0.0,12.5,0.0,-12533,0,0,0.0,12.5,0.0,0,0,0,0.0,12.450000000000001,0.0,-8392,0,0,0.0,12.5,0.0,0,0,0,0.0,12.5,0.0,0,0,0,0.0,12.450000000000001,0.0,0,0,0,0.0,12.55,0.0,0,0,0,kReverse,kOff,-83.78,2.12,-176.97,0.034118652,-0.98132324,0.097717285,24.18,0.0,2.0,-0.07867432,-0.2987671,
151.212715,true,true,true,0.0,12.5,0.0,-12533,0,0,0.0,12.5,0.0,0,0,0,0.0,12.450000000000001,0.0,-8392,0,0,0.0,12.5,0.0,0,0,0,0.0,12.5,0.0,0,0,0,0.0,12.450000000000001,0.0,0,0,0,0.0,12.55,0.0,0,0,0,kReverse,kOff,-83.78,2.12,-176.97,0.040222168,-0.9788208,0.10070801,24.18,0.0,-3.0,-0.07867432,-0.2987671,
151.240818,true,true,true,0.0,12.5,0.0,-12533,0,0,0.0,12.5,0.0,0,0,0,0.0,12.450000000000001,0.0,-8392,0,0,0.0,12.5,0.0,0,0,0,0.0,12.5,0.0,0,0,0,0.0,12.450000000000001,0.0,0,0,0,0.0,12.55,0.0,0,0,0,kReverse,kOff,-83.78,2.12,-176.97,0.032287598,-0.98101807,0.09942627,24.18,0.0,4.0,-0.07867432,-0.2987671,
151.269991,true,true,true,0.0,12.5,0.0,-12533,0,0,0.0,12.5,0.0,0,0,0,0.125,12.450000000000001,0.0,-8392,0,0,0.0,12.5,0.0,0,0,0,0.0,12.5,0.0,0,0,0,0.0,12.450000000000001,0.0,0,0,0,0.0,12.55,0.0,0,0,0,kReverse,kOff,-83.78,2.11,-176.97,0.037719727,-0.9794922,0.10345459,24.18,0.0,-1.0,-0.07867432,-0.2987671,
151.296023,true,true,true,1.0,12.5,0.0,-12530,0,0,0.5,12.5,0.0,0,0,0,1.25,12.450000000000001,0.0,-8390,0,0,0.75,12.5,0.0,0,0,0,0.0,12.5,0.0,0,0,0,0.0,12.450000000000001,0.0,0,0,0,0.0,12.55,0.0,0,0,0,kReverse,kOff,-83.78,2.12,-176.97,0.036743164,-0.9859009,0.12628174,24.18,0.0,-3.0,-0.07867432,-0.29878235,
151.319202,true,true,true,6.125,11.350000000000001,0.0,-12514,3,0,1.5,11.5,0.0,0,0,0,14.25,11.0,0.0,-8371,3,0,9.625,11.2,0.0,0,0,0,0.0,11.45,0.0,0,0,0,0.0,11.350000000000001,0.0,0,0,0,0.0,11.350000000000001,0.0,0,0,0,kReverse,kOff,-83.69,2.17,-176.88,-0.27368164,0.42462158,-0.49505615,24.18,0.0,323.0,-0.079208374,-0.29710388,
151.36444500000002,true,true,true,25.875,11.350000000000001,0.0,-12473,29,0,20.375,11.5,0.0,0,0,0,35.125,11.0,0.0,-8298,55,0,30.125,11.2,0.0,0,0,0,0.0,11.45,0.0,0,0,0,0.0,11.350000000000001,0.0,0,0,0,0.0,11.350000000000001,0.0,0,0,0,kReverse,kOff,-82.46,2.41,-176.54,0.50115967,-1.5150146,1.999939,24.23,0.0,-687.0,-0.08023071,-0.29797363,
151.394858,true,true,true,13.125,11.350000000000001,0.0,-12431,71,0,19.0,11.5,0.0,0,0,0,20.875,11.0,0.0,-8275,79,0,20.875,11.2,0.0,0,0,0,0.0,11.45,0.0,0,0,0,0.0,11.350000000000001,0.0,0,0,0,0.0,11.350000000000001,0.0,0,0,0,kReverse,kOff,-80.5,2.8,-176.01,-0.673645,-0.070007324,1.3684692,24.23,0.0,502.0,-0.08375549,-0.30773926,
151.42033299999997,true,true,true,7.375,11.350000000000001,0.0,-12418,86,0,10.0,11.5,0.0,0,0,0,10.0,11.0,0.0,-8262,98,0,5.125,11.2,0.0,0,0,0,0.0,11.45,0.0,0,0,0,0.0,11.350000000000001,0.0,0,0,0,0.0,11.350000000000001,0.0,0,0,0,kReverse,kOff,-78.98,2.71,-175.82,0.047302246,-0.3743286,0.4940796,24.23,0.0,-83.0,-0.08782959,-0.3223114,
151.452729,true,true,true,0.75,11.350000000000001,0.0,-12395,90,0,0.75,11.5,0.0,0,0,0,0.5,11.0,0.0,-8251,100,0,0.375,11.2,0.0,0,0,0,0.0,11.45,0.0,0,0,0,0.0,11.350000000000001,0.0,0,0,0,0.0,11.350000000000001,0.0,0,0,0,kReverse,kOff,-78.78,2.35,-175.92,-0.30249023,-1.4344482,0.6644287,24.23,0.0,300.0,-0.091934204,-0.3400116,
151.483669,true,true,true,0.0,12.35,0.0,-12388,81,0,0.0,12.35,0.0,0,0,0,0.0,12.35,0.0,-8241,63,0,0.0,12.4,0.0,0,0,0,0.0,12.35,0.0,0,0,0,0.0,12.35,0.0,0,0,0,0.0,12.4,0.0,0,0,0,kReverse,kOff,-80.69,1.57,-176.71,0.09411621,-1.4139404,-0.34649658,24.23,0.0,49.0,-0.09385681,-0.3577423,
151.51164799999998,true,true,true,0.0,12.35,0.0,-12373,57,0,0.0,12.35,0.0,0,0,0,0.0,12.35,0.0,-8229,47,0,0.0,12.4,0.0,0,0,0,0.0,12.35,0.0,0,0,0,0.0,12.35,0.0,0,0,0,0.0,12.4,0.0,0,0,0,kReverse,kOff,-80.51,2.25,-176.05,0.17028809,-0.123291016,-1.4474487,24.23,0.0,95.0,-0.096084595,-0.37513733,
151.539175,true,true,true,0.0,12.35,0.0,-12361,48,0,0.0,12.35,0.0,0,0,0,0.125,12.35,0.0,-8207,35,0,0.0,12.4,0.0,0,0,0,0.0,12.35,0.0,0,0,0,0.0,12.35,0.0,0,0,0,0.0,12.4,0.0,0,0,0,kReverse,kOff,-81.31,2.36,-176.11,-0.02722168,-0.57543945,-0.22039795,24.23,0.0,103.0,-0.09677124,-0.37828064,
151.575921,true,true,true,0.0,12.35,0.0,-12323,49,0,0.0,12.35,0.0,0,0,0,0.125,12.35,0.0,-8189,40,0,0.0,12.4,0.0,0,0,0,0.0,12.35,0.0,0,0,0,0.0,12.35,0.0,0,0,0,0.0,12.4,0.0,0,0,0,kReverse,kOff,-83.31,1.76,-177.08,0.33776855,-1.3571777,0.9760132,24.23,0.0,-433.0,-0.09799194,-0.38658142,
151.5997,true,true,true,0.0,12.35,0.0,-12304,57,0,0.0,12.35,0.0,0,0,0,0.125,12.35,0.0,-8173,50,0,0.0,12.4,0.0,0,0,0,0.0,12.35,0.0,0,0,0,0.0,12.35,0.0,0,0,0,0.0,12.4,0.0,0,0,0,kReverse,kOff,-83.81,2.14,-176.91,-0.023803711,-0.8417969,0.18756104,24.23,0.0,38.0,-0.10055542,-0.39753723,
151.631701,true,true,true,0.0,12.4,0.0,-12272,79,0,0.0,12.4,0.0,0,0,0,0.0,12.4,0.0,-8148,66,0,0.0,12.450000000000001,0.0,0,0,0,0.0,12.4,0.0,0,0,0,0.0,12.4,0.0,0,0,0,0.0,12.450000000000001,0.0,0,0,0,kReverse,kOff,-83.69,2.12,-176.97,-0.1439209,-0.9915161,0.6144409,24.23,0.0,102.0,-0.10340881,-0.41012573,
151.660045,true,true,true,0.0,12.4,0.0,-12259,84,0,0.0,12.4,0.0,0,0,0,0.0,12.4,0.0,-8138,69,0,0.0,12.450000000000001,0.0,0,0,0,0.0,12.4,0.0,0,0,0,0.0,12.4,0.0,0,0,0,0.0,12.450000000000001,0.0,0,0,0,kReverse,kOff,-83.24,2.1,-176.92,0.09667969,-1.3613281,0.5501709,24.23,0.0,-103.0,-0.10484314,-0.4173584,
151.687344,true,true,true,0.0,12.4,0.0,-12247,84,0,0.0,12.4,0.0,0,0,0,0.0,12.4,0.0,-8122,63,0,0.0,12.450000000000001,0.0,0,0,0,0.0,12.4,0.0,0,0,0,0.0,12.4,0.0,0,0,0,0.0,12.450000000000001,0.0,0,0,0,kReverse,kOff,-82.27,2.2,-176.64,0.12261963,-1.2467651,-0.35107422,24.23,0.0,3.0,-0.10803223,-0.43185425,
151.71163199999998,true,true,true,0.0,12.4,0.0,-12227,72,0,0.0,12.4,0.0,0,0,0,0.0,12.4,0.0,-8115,56,0,0.0,12.450000000000001,0.0,0,0,0,0.0,12.4,0.0,0,0,0,0.0,12.4,0.0,0,0,0,0.0,12.450000000000001,0.0,0,0,0,kReverse,kOff,-82.01,2.19,-176.58,-0.09185791,-0.9954834,-0.22698975,24.23,0.0,184.0,-0.111083984,-0.44421387,
151.74613,true,true,true,0.0,12.4,0.0,-12218,64,0,0.0,12.4,0.0,0,0,0,0.125,12.4,0.0,-8102,43,0,0.0,12.450000000000001,0.0,0,0,0,0.0,12.4,0.0,0,0,0,0.0,12.4,0.0,0,0,0,0.0,12.450000000000001,0.0,0,0,0,kReverse,kOff,-82.29,2.01,-176.81,0.06341553,-1.0231934,-0.28424072,24.23,0.0,36.0,-0.1133728,-0.45439148,
151.77342499999997,true,true,true,0.0,12.4,0.0,-12200,53,0,0.0,12.4,0.0,0,0,0,0.125,12.4,0.0,-8094,39,0,0.0,12.450000000000001,0.0,0,0,0,0.0,12.4,0.0,0,0,0,0.0,12.4,0.0,0,0,0,0.0,12.450000000000001,0.0,0,0,0,kReverse,kOff,-83.27,2.16,-176.87,-0.066711426,-0.90930176,-0.2709961,24.23,0.0,154.0,-0.11555481,-0.4626007,
151.796932,true,true,true,0.0,12.450000000000001,0.0,-12192,49,0,0.0,12.450000000000001,0.0,0,0,0,0.0,12.4,0.0,-8087,36,0,0.0,12.450000000000001,0.0,0,0,0,0.0,12.450000000000001,0.0,0,0,0,0.0,12.450000000000001,0.0,0,0,0,0.0,12.5,0.0,0,0,0,kReverse,kOff,-83.77,2.1,-177.03,-0.16033936,-0.96051025,-0.14691162,24.23,0.0,228.0,-0.116363525,-0.46946716,
151.82442600000002,true,true,true,0.0,12.450000000000001,0.0,-12183,46,0,0.0,12.450000000000001,0.0,0,0,0,0.0,12.4,0.0,-8074,35,0,0.0,12.450000000000001,0.0,0,0,0,0.0,12.450000000000001,0.0,0,0,0,0.0,12.450000000000001,0.0,0,0,0,0.0,12.5,0.0,0,0,0,kReverse,kOff,-84.18,2.03,-177.2,0.175354,-1.078186,0.34588623,24.23,0.0,-168.0,-0.1182251,-0.4766388,
151.860084,true,true,true,0.0,12.450000000000001,0.0,-12170,42,0,0.0,12.450000000000001,0.0,0,0,0,0.125,12.4,0.0,-8070,34,0,0.0,12.450000000000001,0.0,0,0,0,0.0,12.450000000000001,0.0,0,0,0,0.0,12.450000000000001,0.0,0,0,0,0.0,12.5,0.0,0,0,0,kReverse,kOff,-83.67,2.16,-177.0,0.055541992,-0.8569336,0.15692139,24.23,0.0,-31.0,-0.12019348,-0.4846344,
151.886976,true,true,true,0.0,12.450000000000001,0.0,-12164,40,0,0.0,12.450000000000001,0.0,0,0,0,0.125,12.4,0.0,-8064,29,0,0.0,12.450000000000001,0.0,0,0,0,0.0,12.450000000000001,0.0,0,0,0,0.0,12.450000000000001,0.0,0,0,0,0.0,12.5,0.0,0,0,0,kReverse,kOff,-83.41,2.13,-176.98,0.044799805,-1.0454712,-0.03857422,24.22,0.0,15.0,-0.12214661,-0.49243164,
151.915449,true,true,true,0.0,12.450000000000001,0.0,-12157,33,0,0.0,12.450000000000001,0.0,0,0,0,0.125,12.4,0.0,-8063,25,0,0.0,12.450000000000001,0.0,0,0,0,0.0,12.450000000000001,0.0,0,0,0,0.0,12.450000000000001,0.0,0,0,0,0.0,12.5,0.0,0,0,0,kReverse,kOff,-83.31,2.12,-177.0,0.0770874,-0.9215698,-0.1730957,24.22,0.0,-5.0,-0.12309265,-0.4959259,
151.939681,true,true,true,0.0,12.450000000000001,0.0,-12154,29,0,0.0,12.450000000000001,0.0,0,0,0,0.125,12.4,0.0,-8062,20,0,0.0,12.450000000000001,0.0,0,0,0,0.0,12.450000000000001,0.0,0,0,0,0.0,12.450000000000001,0.0,0,0,0,0.0,12.5,0.0,0,0,0,kReverse,kOff,-83.85,2.15,-177.06,-0.02960205,-1.0024414,-0.037841797,24.22,0.0,85.0,-0.123031616,-0.5019531,
151.96919599999998,true,true,true,0.0,12.450000000000001,0.0,-12150,20,0,0.0,12.450000000000001,0.0,0,0,0,0.125,12.450000000000001,0.0,-8060,11,0,0.0,12.450000000000001,0.0,0,0,0,0.0,12.450000000000001,0.0,0,0,0,0.0,12.450000000000001,0.0,0,0,0,0.0,12.5,0.0,0,0,0,kReverse,kOff,-84.3,2.07,-177.22,0.03692627,-0.9761963,-0.04296875,24.22,0.0,15.0,-0.12258911,-0.5073242,
151.996847,true,true,true,0.0,12.450000000000001,0.0,-12148,16,0,0.0,12.450000000000001,0.0,0,0,0,0.0,12.450000000000001,0.0,-8059,8,0,0.0,12.450000000000001,0.0,0,0,0,0.0,12.450000000000001,0.0,0,0,0,0.0,12.450000000000001,0.0,0,0,0,0.0,12.5,0.0,0,0,0,kReverse,kOff,-84.41,2.13,-177.19,0.031982422,-0.99334717,-0.0064697266,24.22,0.0,17.0,-0.12214661,-0.51200867,
152.01829999999998,true,true,true,0.0,12.450000000000001,0.0,-12146,14,0,0.0,12.450000000000001,0.0,0,0,0,0.0,12.450000000000001,0.0,-8057,6,0,0.0,12.450000000000001,0.0,0,0,0,0.0,12.450000000000001,0.0,0,0,0,0.0,12.450000000000001,0.0,0,0,0,0.0,12.5,0.0,0,0,0,kReverse,kOff,-84.3,2.11,-177.19,-0.061767578,-0.93133545,-0.010009766,24.22,0.0,107.0,-0.12184143,-0.51416016,
152.04206200000002,true,true,true,0.0,12.450000000000001,0.0,-12145,11,0,0.0,12.450000000000001,0.0,0,0,0,0.0,12.450000000000001,0.0,-8057,5,0,0.0,12.450000000000001,0.0,0,0,0,0.0,12.450000000000001,0.0,0,0,0,0.0,12.450000000000001,0.0,0,0,0,0.0,12.5,0.0,0,0,0,kReverse,kOff,-84.19,2.06,-177.23,0.13720703,-1.0627441,0.050842285,24.22,0.0,-91.0,-0.12106323,-0.5181122,
152.06894,true,true,true,0.0,12.450000000000001,0.0,-12144,8,0,0.0,12.450000000000001,0.0,0,0,0,0.0,12.450000000000001,0.0,-8057,4,0,0.0,12.450000000000001,0.0,0,0,0,0.0,12.450000000000001,0.0,0,0,0,0.0,12.450000000000001,0.0,0,0,0,0.0,12.5,0.0,0,0,0,kReverse,kOff,-84.14,2.17,-177.12,0.030151367,-0.96533203,0.077819824,24.22,0.0,8.0,-0.12062073,-0.52175903,
152.096217,true,true,true,0.0,12.450000000000001,0.0,-12144,6,0,0.0,12.450000000000001,0.0,0,0,0,0.0,12.450000000000001,0.0,-8057,3,0,0.0,12.450000000000001,0.0,0,0,0,0.0,12.450000000000001,0.0,0,0,0,0.0,12.450000000000001,0.0,0,0,0,0.0,12.5,0.0,0,0,0,kReverse,kOff,-84.23,2.11,-177.19,0.026184082,-0.96813965,0.16351318,24.22,0.0,0.0,-0.12011719,-0.5254822,
152.12196400000002,true,true,true,0.0,12.450000000000001,0.0,-12144,4,0,0.0,12.450000000000001,0.0,0,0,0,0.125,12.450000000000001,0.0,-8057,2,0,0.0,12.450000000000001,0.0,0,0,0,0.0,12.450000000000001,0.0,0,0,0,0.0,12.450000000000001,0.0,0,0,0,0.0,12.5,0.0,0,0,0,kReverse,kOff,-84.29,2.11,-177.2,0.06817627,-0.9974365,0.14208984,24.22,0.0,-36.0,-0.11987305,-0.5274658,
152.15188999999998,true,true,true,0.0,12.450000000000001,0.0,-12144,2,0,0.0,12.450000000000001,0.0,0,0,0,0.125,12.450000000000001,0.0,-8057,0,0,0.0,12.450000000000001,0.0,0,0,0,0.0,12.450000000000001,0.0,0,0,0,0.0,12.450000000000001,0.0,0,0,0,0.0,12.5,0.0,0,0,0,kReverse,kOff,-84.33,2.15,-177.17,0.03778076,-1.022583,0.14819336,24.22,0.0,-5.0,-0.119522095,-0.5316162,
152.17629,true,true,true,0.0,12.450000000000001,0.0,-12144,1,0,0.0,12.450000000000001,0.0,0,0,0,0.125,12.450000000000001,0.0,-8057,0,0,0.0,12.450000000000001,0.0,0,0,0,0.0,12.450000000000001,0.0,0,0,0,0.0,12.450000000000001,0.0,0,0,0,0.0,12.5,0.0,0,0,0,kReverse,kOff,-84.26,2.13,-177.18,0.0211792,-1.0050049,0.07928467,24.22,0.0,18.0,-0.119522095,-0.5359497,
152.199818,true,true,true,0.0,12.450000000000001,0.0,-12144,0,0,0.0,12.450000000000001,0.0,0,0,0,0.125,12.450000000000001,0.0,-8057,0,0,0.0,12.450000000000001,0.0,0,0,0,0.0,12.450000000000001,0.0,0,0,0,0.0,12.450000000000001,0.0,0,0,0,0.0,12.5,0.0,0,0,0,kReverse,kOff,-84.24,2.13,-177.18,0.033569336,-0.96307373,0.068481445,24.22,0.0,5.0,-0.119522095,-0.53811646,
152.22412,true,true,true,1.875,12.450000000000001,0.0,-12145,0,0,0.0,12.450000000000001,0.0,0,0,0,0.125,12.450000000000001,0.0,-8057,0,0,2.5,12.450000000000001,0.0,0,0,0,0.0,12.450000000000001,0.0,0,0,0,0.0,12.450000000000001,0.0,0,0,0,0.0,12.5,0.0,0,0,0,kReverse,kOff,-84.19,2.11,-177.18,-0.0020751953,-1.0444946,0.18450928,24.22,0.0,29.0,-0.11949158,-0.54241943,
152.247594,true,true,true,9.625,12.450000000000001,0.0,-12167,-3,0,15.0,12.450000000000001,0.0,0,0,0,17.125,12.450000000000001,0.0,-8012,10,0,10.5,12.450000000000001,0.0,0,0,0,0.0,12.450000000000001,0.0,0,0,0,0.0,12.450000000000001,0.0,0,0,0,0.0,12.5,0.0,0,0,0,kReverse,kOff,-84.39,2.01,-177.29,0.115112305,-1.2305908,-1.0073853,24.22,0.0,73.0,-0.11906433,-0.5469055,
152.274134,true,true,true,38.0,8.25,0.0,-12207,-29,0,28.125,8.65,0.0,0,0,0,33.125,8.4,0.0,-7982,30,0,18.875,8.75,0.0,0,0,0,0.0,8.95,0.0,0,0,0,0.0,8.850000000000001,0.0,0,0,0,0.0,8.95,0.0,0,0,0,kReverse,kOff,-85.34,2.58,-176.74,0.015808105,-0.661438,-0.7477417,24.22,0.0,148.0,-0.11897278,-0.54696655,
152.29888,true,true,true,46.125,8.25,0.0,-12243,-53,0,38.875,8.65,0.0,0,0,0,41.0,8.4,0.0,-7945,58,0,28.625,8.75,0.0,0,0,0,0.0,8.95,0.0,0,0,0,0.0,8.850000000000001,0.0,0,0,0,0.0,8.95,0.0,0,0,0,kReverse,kOff,-85.47,2.68,-176.56,0.022583008,-0.9212036,0.6029053,24.22,0.0,-88.0,-0.11895752,-0.54626465,
152.320793,true,true,true,50.0,8.25,0.0,-12282,-80,0,45.875,8.65,0.0,0,0,0,43.625,8.4,0.0,-7902,93,0,33.0,8.75,0.0,0,0,0,0.0,8.95,0.0,0,0,0,0.0,8.850000000000001,0.0,0,0,0,0.0,8.95,0.0,0,0,0,kReverse,kOff,-86.09,2.58,-176.56,-0.08074951,-0.6478882,-0.54486084,24.22,0.0,266.0,-0.1182251,-0.5449219,
152.349337,true,true,true,42.0,8.25,0.0,-12380,-145,0,42.375,8.65,0.0,0,0,0,35.625,8.4,0.0,-7798,166,0,32.625,8.75,0.0,0,0,0,0.0,8.95,0.0,0,0,0,0.0,8.850000000000001,0.0,0,0,0,0.0,8.95,0.0,0,0,0,kReverse,kOff,-86.38,2.64,-176.49,0.087646484,-0.9561157,-0.17370605,24.22,0.0,29.0,-0.11746216,-0.5435028,
152.37500599999998,true,true,true,39.0,8.25,0.0,-12436,-178,0,39.375,8.65,0.0,0,0,0,32.875,8.4,0.0,-7745,196,0,30.75,8.75,0.0,0,0,0,0.0,8.95,0.0,0,0,0,0.0,8.850000000000001,0.0,0,0,0,0.0,8.95,0.0,0,0,0,kReverse,kOff,-85.78,2.98,-175.57,-0.01965332,-1.0021973,-0.14709473,24.22,0.0,151.0,-0.1158905,-0.5406494,
152.397241,true,true,true,34.5,8.25,0.0,-12499,-210,0,36.625,8.65,0.0,0,0,0,28.375,8.4,0.0,-7685,224,0,27.625,8.75,0.0,0,0,0,0.0,8.95,0.0,0,0,0,0.0,8.850000000000001,0.0,0,0,0,0.0,8.95,0.0,0,0,0,kReverse,kOff,-85.74,2.95,-174.97,-0.5009155,-0.98291016,0.021911621,24.19,0.0,473.0,-0.112716675,-0.53733826,
152.420568,true,true,true,26.875,8.25,0.0,-12556,-238,0,31.625,8.65,0.0,0,0,0,21.0,8.4,0.0,-7633,244,0,20.875,8.75,0.0,0,0,0,0.0,11.9,0.0,0,0,0,0.0,11.95,0.0,0,0,0,0.0,11.9,0.0,0,0,0,kReverse,kOff,-85.64,2.89,-174.53,-0.03479004,-1.1992188,0.057373047,24.19,0.0,81.0,-0.1104126,-0.5359497,
152.450358,true,true,true,5.375,11.850000000000001,0.0,-12623,-265,0,10.0,11.75,0.0,0,0,0,4.125,11.75,0.0,-7576,257,0,4.5,11.8,0.0,0,0,0,0.0,11.9,0.0,0,0,0,0.0,11.95,0.0,0,0,0,0.0,11.9,0.0,0,0,0,kReverse,kOff,-85.03,3.28,-172.78,-0.12878418,-1.22229,0.34191895,24.19,0.0,-54.0,-0.106170654,-0.5341034,
152.476865,true,true,true,1.0,11.850000000000001,0.0,-12644,-254,0,2.75,11.75,0.0,0,0,0,1.375,11.75,0.0,-7550,239,0,0.875,11.8,0.0,0,0,0,0.0,11.9,0.0,0,0,0,0.0,11.95,0.0,0,0,0,0.0,11.9,0.0,0,0,0,kReverse,kOff,-84.19,3.23,-170.35,-0.1395874,-1.6920166,0.7926636,24.19,0.0,-378.0,-0.10305786,-0.5346985,
152.504646,true,true,true,3.5,11.850000000000001,0.0,-12663,-226,0,2.0,11.75,0.0,0,0,0,12.75,11.75,0.0,-7533,170,0,8.625,11.8,0.0,0,0,0,0.0,11.9,0.0,0,0,0,0.0,11.95,0.0,0,0,0,0.0,11.9,0.0,0,0,0,kReverse,kOff,-83.88,2.73,-168.83,-0.5840454,-1.2958984,0.7440796,24.19,0.0,-171.0,-0.1018219,-0.539032,
152.526644,true,true,true,9.125,11.850000000000001,0.0,-12674,-186,0,14.75,11.75,0.0,0,0,0,22.5,11.75,0.0,-7541,127,0,16.625,11.8,0.0,0,0,0,0.0,11.9,0.0,0,0,0,0.0,11.95,0.0,0,0,0,0.0,11.9,0.0,0,0,0,kReverse,kOff,-84.02,2.14,-168.92,-0.8748169,-0.74383545,0.73223877,24.19,0.0,-85.0,-0.10157776,-0.54312134,
152.553785,true,true,true,23.5,11.850000000000001,0.0,-12659,-98,0,21.125,11.75,0.0,0,0,0,28.0,11.75,0.0,-7552,83,0,21.125,11.8,0.0,0,0,0,0.0,11.9,0.0,0,0,0,0.0,11.95,0.0,0,0,0,0.0,11.9,0.0,0,0,0,kReverse,kOff,-84.16,1.24,-169.59,-0.12554932,-1.2068481,0.28216553,24.19,0.0,-57.0,-0.10160828,-0.5547638,
152.578148,true,true,true,22.375,11.850000000000001,0.0,-12640,-58,0,22.75,11.75,0.0,0,0,0,28.25,11.75,0.0,-7564,44,0,20.75,11.8,0.0,0,0,0,0.0,11.9,0.0,0,0,0,0.0,11.95,0.0,0,0,0,0.0,11.9,0.0,0,0,0,kReverse,kOff,-84.48,1.27,-170.53,0.26086426,-0.71765137,0.11602783,24.19,0.0,-173.0,-0.10151672,-0.5673828,
152.610131,true,true,true,7.0,11.15,0.0,-12623,15,0,9.5,11.100000000000001,0.0,0,0,0,10.75,11.15,0.0,-7590,-22,0,7.875,11.350000000000001,0.0,0,0,0,0.0,11.3,0.0,0,0,0,0.0,11.350000000000001,0.0,0,0,0,0.0,11.4,0.0,0,0,0,kReverse,kOff,-84.17,1.32,-170.7,0.08465576,-0.8916626,0.9362793,24.19,0.0,-725.0,-0.10244751,-0.57995605,
152.63618100000002,true,true,true,1.25,11.15,0.0,-12624,38,0,3.625,11.100000000000001,0.0,0,0,0,3.125,11.15,0.0,-7595,-43,0,2.0,11.350000000000001,0.0,0,0,0,0.0,11.3,0.0,0,0,0,0.0,11.350000000000001,0.0,0,0,0,0.0,11.4,0.0,0,0,0,kReverse,kOff,-84.13,1.28,-171.27,-0.09057617,-0.7845459,-0.58135986,24.19,0.0,587.0,-0.10482788,-0.5936127,
152.659776,true,true,true,0.0,11.15,0.0,-12624,46,0,0.5,11.100000000000001,0.0,0,0,0,0.5,11.15,0.0,-7597,-51,0,0.5,11.350000000000001,0.0,0,0,0,0.0,11.3,0.0,0,0,0,0.0,11.350000000000001,0.0,0,0,0,0.0,11.4,0.0,0,0,0,kReverse,kOff,-84.52,1.31,-171.88,0.12371826,-0.57995605,-0.15673828,24.19,0.0,98.0,-0.105392456,-0.6000519,
152.681344,true,true,true,0.0,11.15,0.0,-12624,40,0,0.0,11.100000000000001,0.0,0,0,0,0.0,11.15,0.0,-7600,-49,0,0.0,11.350000000000001,0.0,0,0,0,0.0,11.3,0.0,0,0,0,0.0,11.350000000000001,0.0,0,0,0,0.0,11.4,0.0,0,0,0,kReverse,kOff,-84.39,1.62,-171.61,0.3814087,-0.78460693,0.15093994,24.19,0.0,-281.0,-0.10765076,-0.61231995,
152.70338199999998,true,true,true,0.0,11.15,0.0,-12624,26,0,0.0,11.100000000000001,0.0,0,0,0,0.0,11.15,0.0,-7606,-41,0,0.0,11.350000000000001,0.0,0,0,0,0.0,11.3,0.0,0,0,0,0.0,11.350000000000001,0.0,0,0,0,0.0,11.4,0.0,0,0,0,kReverse,kOff,-84.47,1.89,-171.58,0.54833984,-1.0700684,0.087524414,24.19,0.0,-309.0,-0.109451294,-0.61790466,
152.723088,true,true,true,0.0,11.15,0.0,-12624,11,0,0.0,11.100000000000001,0.0,0,0,0,0.0,11.15,0.0,-7612,-33,0,0.0,11.350000000000001,0.0,0,0,0,0.0,11.3,0.0,0,0,0,0.0,11.350000000000001,0.0,0,0,0,0.0,11.4,0.0,0,0,0,kReverse,kOff,-84.37,2.3,-171.27,0.44189453,-1.0490723,0.008361816,24.19,0.0,-180.0,-0.111572266,-0.6229706,
152.746823,true,true,true,0.0,11.15,0.0,-12624,2,0,0.0,11.100000000000001,0.0,0,0,0,0.125,12.35,0.0,-7620,-23,0,0.0,12.35,0.0,0,0,0,0.0,12.35,0.0,0,0,0,0.0,12.35,0.0,0,0,0,0.0,12.4,0.0,0,0,0,kReverse,kOff,-84.29,2.01,-171.33,-0.6054077,-0.92993164,0.101501465,24.19,0.0,385.0,-0.11581421,-0.63383484,
152.774095,true,true,true,0.0,12.35,0.0,-12624,0,0,0.0,12.35,0.0,0,0,0,0.125,12.35,0.0,-7624,-22,0,0.0,12.35,0.0,0,0,0,0.0,12.35,0.0,0,0,0,0.0,12.35,0.0,0,0,0,0.0,12.4,0.0,0,0,0,kReverse,kOff,-84.39,1.52,-171.75,0.025268555,-0.8903198,0.093811035,24.19,0.0,-8.0,-0.11882019,-0.64663696,
152.794198,true,true,true,0.0,12.35,0.0,-12624,0,0,0.0,12.35,0.0,0,0,0,0.125,12.35,0.0,-7627,-22,0,0.0,12.35,0.0,0,0,0,0.0,12.35,0.0,0,0,0,0.0,12.35,0.0,0,0,0,0.0,12.4,0.0,0,0,0,kReverse,kOff,-84.24,1.61,-171.54,0.22650146,-0.9963379,-0.042114258,24.19,0.0,-16.0,-0.120269775,-0.6529846,
152.815642,true,true,true,0.0,12.35,0.0,-12624,0,0,0.0,12.35,0.0,0,0,0,0.0,12.35,0.0,-7627,-21,0,0.0,12.35,0.0,0,0,0,0.0,12.35,0.0,0,0,0,0.0,12.35,0.0,0,0,0,0.0,12.4,0.0,0,0,0,kReverse,kOff,-84.27,1.82,-171.49,-0.08404541,-1.0319824,-0.023864746,24.19,0.0,167.0,-0.120162964,-0.66500854,
152.836307,true,true,true,0.0,12.35,0.0,-12624,0,0,0.0,12.35,0.0,0,0,0,0.0,12.35,0.0,-7627,-17,0,0.0,12.35,0.0,0,0,0,0.0,12.35,0.0,0,0,0,0.0,12.35,0.0,0,0,0,0.0,12.4,0.0,0,0,0,kReverse,kOff,-84.4,1.71,-171.71,-0.110839844,-1.1645508,0.14324951,24.19,0.0,64.0,-0.119888306,-0.671051,
152.858566,true,true,true,0.0,12.35,0.0,-12624,0,0,0.0,12.35,0.0,0,0,0,0.0,12.35,0.0,-7627,-13,0,0.0,12.35,0.0,0,0,0,0.0,12.35,0.0,0,0,0,0.0,12.35,0.0,0,0,0,0.0,12.4,0.0,0,0,0,kReverse,kOff,-84.01,1.94,-171.05,0.4588623,-0.9848633,0.12261963,24.19,0.0,-284.0,-0.12008667,-0.6829529,
152.88248199999998,true,true,true,0.0,12.35,0.0,-12624,0,0,0.0,12.35,0.0,0,0,0,0.125,12.35,0.0,-7627,-5,0,0.0,12.35,0.0,0,0,0,0.0,12.35,0.0,0,0,0,0.0,12.35,0.0,0,0,0,0.0,12.4,0.0,0,0,0,kReverse,kOff,-83.86,2.16,-170.72,0.06304932,-0.8742676,-0.11541748,24.19,0.0,139.0,-0.1204834,-0.68844604,
152.90638199999998,true,true,true,0.0,12.35,0.0,-12624,0,0,0.0,12.35,0.0,0,0,0,0.125,12.35,0.0,-7627,-2,0,0.0,12.4,0.0,0,0,0,0.0,12.4,0.0,0,0,0,0.0,12.35,0.0,0,0,0,0.0,12.450000000000001,0.0,0,0,0,kReverse,kOff,-84.12,1.98,-171.1,-0.11456299,-0.99005127,0.23901367,24.17,0.0,-19.0,-0.12083435,-0.6996765,
152.938507,true,true,true,0.0,12.4,0.0,-12624,0,0,0.0,12.4,0.0,0,0,0,0.125,12.35,0.0,-7627,0,0,0.0,12.4,0.0,0,0,0,0.0,12.4,0.0,0,0,0,0.0,12.35,0.0,0,0,0,0.0,12.450000000000001,0.0,0,0,0,kReverse,kOff,-83.85,1.93,-170.78,0.02368164,-0.95928955,0.007751465,24.17,0.0,75.0,-0.12124634,-0.7115021,
152.960657,true,true,true,0.0,12.4,0.0,-12624,0,0,0.0,12.4,0.0,0,0,0,0.125,12.35,0.0,-7627,0,0,0.0,12.4,0.0,0,0,0,0.0,12.4,0.0,0,0,0,0.0,12.35,0.0,0,0,0,0.0,12.450000000000001,0.0,0,0,0,kReverse,kOff,-84.15,1.85,-171.18,0.006591797,-1.0222778,0.21789551,24.17,0.0,-76.0,-0.12155151,-0.7234497,
152.98771899999997,true,true,true,0.0,12.4,0.0,-12624,0,0,0.0,12.4,0.0,0,0,0,0.125,12.35,0.0,-7627,0,0,0.0,12.4,0.0,0,0,0,0.0,12.4,0.0,0,0,0,0.0,12.35,0.0,0,0,0,0.0,12.450000000000001,0.0,0,0,0,kReverse,kOff,-84.06,1.87,-171.07,0.094055176,-1.0275879,0.14935303,24.17,0.0,-74.0,-0.12182617,-0.72953796,
153.009303,true,true,true,0.0,12.4,0.0,-12624,0,0,0.0,12.4,0.0,0,0,0,0.125,12.35,0.0,-7627,0,0,0.0,12.4,0.0,0,0,0,0.0,12.4,0.0,0,0,0,0.0,12.35,0.0,0,0,0,0.0,12.450000000000001,0.0,0,0,0,kReverse,kOff,-83.92,1.91,-170.89,-0.009399414,-0.8640137,0.10028076,24.17,0.0,13.0,-0.12237549,-0.74157715,
153.032672,true,true,true,0.0,12.4,0.0,-12624,0,0,0.0,12.4,0.0,0,0,0,0.125,12.35,0.0,-7627,0,0,0.0,12.4,0.0,0,0,0,0.0,12.4,0.0,0,0,0,0.0,12.35,0.0,0,0,0,0.0,12.450000000000001,0.0,0,0,0,kReverse,kOff,-83.96,1.95,-170.94,0.07055664,-0.93652344,0.036987305,24.17,0.0,20.0,-0.123062134,-0.7536011,
153.057328,true,true,true,0.0,12.4,0.0,-12624,0,0,0.0,12.4,0.0,0,0,0,0.125,12.35,0.0,-7627,0,0,0.0,12.4,0.0,0,0,0,0.0,12.4,0.0,0,0,0,0.0,12.35,0.0,0,0,0,0.0,12.450000000000001,0.0,0,0,0,kReverse,kOff,-83.93,1.97,-170.9,-0.024536133,-0.9152832,-5.493164E-4,24.17,0.0,106.0,-0.12333679,-0.7595215,
153.079169,true,true,true,0.0,12.4,0.0,-12624,0,0,0.0,12.4,0.0,0,0,0,0.125,12.4,0.0,-7627,0,0,0.0,12.4,0.0,0,0,0,0.0,12.4,0.0,0,0,0,0.0,12.4,0.0,0,0,0,0.0,12.450000000000001,0.0,0,0,0,kReverse,kOff,-84.06,1.93,-171.13,0.08874512,-0.97247314,0.1048584,24.17,0.0,-42.0,-0.12374878,-0.7714081,
153.10190099999997,true,true,true,0.0,12.4,0.0,-12624,0,0,0.0,12.4,0.0,0,0,0,0.125,12.4,0.0,-7627,0,0,0.0,12.4,0.0,0,0,0,0.0,12.4,0.0,0,0,0,0.0,12.4,0.0,0,0,0,0.0,12.450000000000001,0.0,0,0,0,kReverse,kOff,-84.11,1.97,-171.17,0.06774902,-1.0006714,0.03314209,24.17,0.0,29.0,-0.1239624,-0.7772827,
153.123119,true,true,true,0.0,12.4,0.0,-12624,0,0,0.0,12.4,0.0,0,0,0,0.125,12.4,0.0,-7627,0,0,0.0,12.4,0.0,0,0,0,0.0,12.4,0.0,0,0,0,0.0,12.4,0.0,0,0,0,0.0,12.450000000000001,0.0,0,0,0,kReverse,kOff,-84.15,1.97,-171.23,0.005432129,-0.9979248,0.103759766,24.17,0.0,12.0,-0.12416077,-0.78312683,
153.147669,true,true,true,0.0,12.4,0.0,-12624,0,0,0.0,12.4,0.0,0,0,0,0.0,12.4,0.0,-7627,0,0,0.0,12.4,0.0,0,0,0,0.0,12.4,0.0,0,0,0,0.0,12.4,0.0,0,0,0,0.0,12.450000000000001,0.0,0,0,0,kReverse,kOff,-84.16,1.93,-171.24,0.043640137,-0.9550781,0.033813477,24.17,0.0,38.0,-0.124572754,-0.7949219,
153.172702,true,true,true,0.0,12.4,0.0,-12624,0,0,0.0,12.4,0.0,0,0,0,0.0,12.4,0.0,-7627,0,0,0.0,12.4,0.0,0,0,0,0.0,12.4,0.0,0,0,0,0.0,12.4,0.0,0,0,0,0.0,12.450000000000001,0.0,0,0,0,kReverse,kOff,-84.14,1.98,-171.17,0.05493164,-0.9755249,0.042053223,24.17,0.0,27.0,-0.12484741,-0.8063812,
153.196375,true,true,true,0.0,12.4,0.0,-12624,0,0,0.0,12.4,0.0,0,0,0,0.0,12.4,0.0,-7627,0,0,0.0,12.4,0.0,0,0,0,0.0,12.4,0.0,0,0,0,0.0,12.4,0.0,0,0,0,0.0,12.450000000000001,0.0,0,0,0,kReverse,kOff,-84.18,1.96,-171.21,0.015197754,-0.9942627,0.08117676,24.17,0.0,22.0,-0.12495422,-0.812027,
153.219452,true,true,true,0.0,12.4,0.0,-12624,0,0,0.0,12.4,0.0,0,0,0,0.125,12.4,0.0,-7627,0,0,0.0,12.4,0.0,0,0,0,0.0,12.4,0.0,0,0,0,0.0,12.4,0.0,0,0,0,0.0,12.450000000000001,0.0,0,0,0,kReverse,kOff,-84.16,1.96,-171.18,0.08581543,-1.0285645,0.121520996,24.17,0.0,-48.0,-0.12501526,-0.8120117,
153.24446899999998,true,true,true,0.0,12.4,0.0,-12624,0,0,0.0,12.4,0.0,0,0,0,0.125,12.4,0.0,-7627,0,0,0.0,12.4,0.0,0,0,0,0.0,12.4,0.0,0,0,0,0.0,12.4,0.0,0,0,0,0.0,12.450000000000001,0.0,0,0,0,kReverse,kOff,-84.06,2.01,-171.01,0.043945312,-0.99139404,0.101745605,24.17,0.0,-9.0,-0.12528992,-0.81192017,
153.26851399999998,true,true,true,0.0,12.4,0.0,-12624,0,0,0.0,12.4,0.0,0,0,0,0.125,12.4,0.0,-7627,0,0,0.0,12.4,0.0,0,0,0,0.0,12.4,0.0,0,0,0,0.0,12.4,0.0,0,0,0,0.0,12.450000000000001,0.0,0,0,0,kReverse,kOff,-84.08,2.0,-171.05,0.024169922,-1.0632324,0.14483643,24.17,0.0,-23.0,-0.12547302,-0.81188965,
153.286518,true,true,true,0.0,12.4,0.0,-12624,0,0,0.0,12.4,0.0,0,0,0,0.125,12.4,0.0,-7627,0,0,0.0,12.4,0.0,0,0,0,0.0,12.4,0.0,0,0,0,0.0,12.4,0.0,0,0,0,0.0,12.450000000000001,0.0,0,0,0,kReverse,kOff,-84.08,1.99,-171.06,0.026977539,-0.9621582,0.10723877,24.17,0.0,-6.0,-0.12568665,-0.81188965,
153.309092,true,true,true,0.0,12.4,0.0,-12624,0,0,0.0,12.4,0.0,0,0,0,0.125,12.4,0.0,-7627,0,0,0.0,12.4,0.0,0,0,0,0.0,12.4,0.0,0,0,0,0.0,12.4,0.0,0,0,0,0.0,12.450000000000001,0.0,0,0,0,kReverse,kOff,-84.07,2.01,-171.03,0.045776367,-0.99505615,0.08654785,24.17,0.0,1.0,-0.12615967,-0.8118439,
153.331116,true,true,true,0.0,12.4,0.0,-12624,0,0,0.0,12.4,0.0,0,0,0,0.125,12.4,0.0,-7627,0,0,0.0,12.4,0.0,0,0,0,0.0,12.4,0.0,0,0,0,0.0,12.4,0.0,0,0,0,0.0,12.450000000000001,0.0,0,0,0,kReverse,kOff,-84.11,2.01,-171.09,-0.001159668,-0.98657227,0.09106445,24.17,0.0,25.0,-0.12638855,-0.8118286,
153.356757,true,true,true,0.0,12.4,0.0,-12624,0,0,0.0,12.4,0.0,0,0,0,0.125,12.4,0.0,-7627,0,0,0.0,12.4,0.0,0,0,0,0.0,12.4,0.0,0,0,0,0.0,12.4,0.0,0,0,0,0.0,12.450000000000001,0.0,0,0,0,kReverse,kOff,-84.12,1.99,-171.12,0.051513672,-0.97698975,0.09643555,24.17,0.0,-12.0,-0.12683105,-0.8117981,
153.384037,true,true,true,0.0,12.4,0.0,-12624,0,0,0.0,12.4,0.0,0,0,0,0.125,12.4,0.0,-7627,0,0,0.0,12.450000000000001,0.0,0,0,0,0.0,12.4,0.0,0,0,0,0.0,12.4,0.0,0,0,0,0.0,12.450000000000001,0.0,0,0,0,kReverse,kOff,-84.07,2.0,-171.04,0.012573242,-0.94348145,0.092285156,24.17,0.0,12.0,-0.12683105,-0.8117981,
153.408432,true,true,true,0.0,12.4,0.0,-12624,0,0,0.0,12.4,0.0,0,0,0,0.0,12.4,0.0,-7627,0,0,0.0,12.450000000000001,0.0,0,0,0,0.0,12.4,0.0,0,0,0,0.0,12.4,0.0,0,0,0,0.0,12.450000000000001,0.0,0,0,0,kReverse,kOff,-84.06,1.99,-171.04,0.039001465,-0.93566895,0.12609863,24.17,0.0,-30.0,-0.12684631,-0.8117981,
153.430586,true,true,true,0.0,12.4,0.0,-12624,0,0,0.0,12.4,0.0,0,0,0,0.0,12.4,0.0,-7627,0,0,0.0,12.450000000000001,0.0,0,0,0,0.0,12.4,0.0,0,0,0,0.0,12.4,0.0,0,0,0,0.0,12.450000000000001,0.0,0,0,0,kReverse,kOff,-84.03,2.02,-170.98,0.039978027,-0.9574585,0.089416504,24.17,0.0,0.0,-0.12693787,-0.8117523,
153.449772,true,true,true,0.0,12.4,0.0,-12624,0,0,0.0,12.4,0.0,0,0,0,0.0,12.4,0.0,-7627,0,0,0.0,12.450000000000001,0.0,0,0,0,0.0,12.4,0.0,0,0,0,0.0,12.4,0.0,0,0,0,0.0,12.450000000000001,0.0,0,0,0,kReverse,kOff,-84.04,2.02,-170.99,0.030578613,-0.9822998,0.13232422,24.17,0.0,-25.0,-0.12695312,-0.811676,
153.478504,true,true,true,0.0,12.4,0.0,-12624,0,0,0.0,12.4,0.0,0,0,0,0.0,12.4,0.0,-7627,0,0,0.0,12.450000000000001,0.0,0,0,0,0.0,12.4,0.0,0,0,0,0.0,12.4,0.0,0,0,0,0.0,12.450000000000001,0.0,0,0,0,kReverse,kOff,-84.03,2.03,-170.98,0.05432129,-0.96606445,0.06939697,24.17,0.0,7.0,-0.12696838,-0.8116455,
153.507014,true,true,true,0.0,12.4,0.0,-12624,0,0,0.0,12.4,0.0,0,0,0,0.0,12.4,0.0,-7627,0,0,0.0,12.450000000000001,0.0,0,0,0,0.0,12.4,0.0,0,0,0,0.0,12.4,0.0,0,0,0,0.0,12.450000000000001,0.0,0,0,0,kReverse,kOff,-84.06,2.03,-171.01,0.024108887,-0.9831543,0.10809326,24.17,0.0,-2.0,-0.12698364,-0.81159973,
153.532011,true,true,true,0.0,12.4,0.0,-12624,0,0,0.0,12.4,0.0,0,0,0,0.125,12.4,0.0,-7627,0,0,0.0,12.450000000000001,0.0,0,0,0,0.0,12.4,0.0,0,0,0,0.0,12.4,0.0,0,0,0,0.0,12.450000000000001,0.0,0,0,0,kReverse,kOff,-84.05,2.03,-170.99,0.034729004,-0.97735596,0.10217285,24.17,0.0,-4.0,-0.12698364,-0.81159973,
153.557919,true,true,true,0.0,12.4,0.0,-12624,0,0,0.0,12.4,0.0,0,0,0,0.125,12.4,0.0,-7627,0,0,0.0,12.450000000000001,0.0,0,0,0,0.0,12.4,0.0,0,0,0,0.0,12.4,0.0,0,0,0,0.0,12.450000000000001,0.0,0,0,0,kReverse,kOff,-84.03,2.04,-170.98,0.04559326,-0.98168945,0.08911133,24.17,0.0,0.0,-0.12698364,-0.81159973,
153.580108,true,true,true,0.0,12.4,0.0,-12624,0,0,0.0,12.4,0.0,0,0,0,0.125,12.4,0.0,-7627,0,0,0.0,12.450000000000001,0.0,0,0,0,0.0,12.4,0.0,0,0,0,0.0,12.4,0.0,0,0,0,0.0,12.450000000000001,0.0,0,0,0,kReverse,kOff,-84.04,2.04,-170.98,0.030090332,-0.9854126,0.09484863,24.17,0.0,4.0,-0.12698364,-0.81159973,
153.600318,true,true,true,0.0,12.4,0.0,-12624,0,0,0.0,12.4,0.0,0,0,0,0.125,12.4,0.0,-7627,0,0,0.0,12.450000000000001,0.0,0,0,0,0.0,12.4,0.0,0,0,0,0.0,12.4,0.0,0,0,0,0.0,12.450000000000001,0.0,0,0,0,kReverse,kOff,-84.04,2.04,-170.98,0.048950195,-0.98742676,0.08758545,24.17,0.0,-1.0,-0.12698364,-0.81159973,
153.62270900000001,true,true,true,0.0,12.4,0.0,-12624,0,0,0.0,12.4,0.0,0,0,0,0.125,12.4,0.0,-7627,0,0,0.0,12.450000000000001,0.0,0,0,0,0.0,12.4,0.0,0,0,0,0.0,12.4,0.0,0,0,0,0.0,12.450000000000001,0.0,0,0,0,kReverse,kOff,-84.04,2.05,-170.97,0.04815674,-0.9765625,0.08258057,24.17,0.0,2.0,-0.12698364,-0.81159973,
153.652726,true,true,true,0.0,12.4,0.0,-12624,0,0,0.0,12.4,0.0,0,0,0,0.125,12.4,0.0,-7627,0,0,0.0,12.450000000000001,0.0,0,0,0,0.0,12.4,0.0,0,0,0,0.0,12.4,0.0,0,0,0,0.0,12.450000000000001,0.0,0,0,0,kReverse,kOff,-84.05,2.05,-171.0,0.035827637,-0.98095703,0.08496094,24.17,0.0,8.0,-0.12698364,-0.81159973,
153.677402,true,true,true,0.0,12.4,0.0,-12624,0,0,0.0,12.4,0.0,0,0,0,0.125,12.4,0.0,-7627,0,0,0.0,12.450000000000001,0.0,0,0,0,0.0,12.4,0.0,0,0,0,0.0,12.4,0.0,0,0,0,0.0,12.450000000000001,0.0,0,0,0,kReverse,kOff,-84.05,2.06,-170.99,0.04296875,-0.98583984,0.09539795,24.17,0.0,-3.0,-0.12698364,-0.81159973,
153.69844,true,true,true,0.0,12.4,0.0,-12624,0,0,0.0,12.4,0.0,0,0,0,0.0,12.4,0.0,-7627,0,0,0.0,12.450000000000001,0.0,0,0,0,0.0,12.4,0.0,0,0,0,0.0,12.4,0.0,0,0,0,0.0,12.450000000000001,0.0,0,0,0,kReverse,kOff,-84.06,2.06,-171.0,0.034118652,-0.98010254,0.09844971,24.17,0.0,-1.0,-0.12698364,-0.81159973,
153.72077,true,true,true,0.0,12.4,0.0,-12624,0,0,0.0,12.4,0.0,0,0,0,0.0,12.4,0.0,-7627,0,0,0.0,12.450000000000001,0.0,0,0,0,0.0,12.4,0.0,0,0,0,0.0,12.4,0.0,0,0,0,0.0,12.450000000000001,0.0,0,0,0,kReverse,kOff,-84.05,2.07,-170.99,0.046203613,-0.98223877,0.10418701,24.17,0.0,-13.0,-0.12698364,-0.81159973,
153.74469,true,true,true,0.0,12.4,0.0,-12624,0,0,0.0,12.4,0.0,0,0,0,0.0,12.4,0.0,-7627,0,0,0.0,12.450000000000001,0.0,0,0,0,0.0,12.4,0.0,0,0,0,0.0,12.4,0.0,0,0,0,0.0,12.450000000000001,0.0,0,0,0,kReverse,kOff,-84.05,2.07,-170.97,0.039916992,-0.97979736,0.10424805,24.17,0.0,-9.0,-0.12698364,-0.81159973,
153.76396100000002,true,true,true,0.0,12.4,0.0,-12624,0,0,0.0,12.4,0.0,0,0,0,0.125,12.4,0.0,-7627,0,0,0.0,12.450000000000001,0.0,0,0,0,0.0,12.4,0.0,0,0,0,0.0,12.4,0.0,0,0,0,0.0,12.450000000000001,0.0,0,0,0,kReverse,kOff,-84.04,2.08,-170.96,0.035339355,-0.9767456,0.10241699,24.17,0.0,-5.0,-0.12698364,-0.81159973,
153.787827,true,true,true,0.0,12.4,0.0,-12624,0,0,0.0,12.4,0.0,0,0,0,0.125,12.4,0.0,-7627,0,0,0.0,12.450000000000001,0.0,0,0,0,0.0,12.4,0.0,0,0,0,0.0,12.4,0.0,0,0,0,0.0,12.450000000000001,0.0,0,0,0,kReverse,kOff,-84.03,2.08,-170.95,0.038391113,-0.98553467,0.105407715,24.17,0.0,-8.0,-0.12698364,-0.81159973,
153.818067,true,true,true,0.0,12.4,0.0,-12624,0,0,0.0,12.4,0.0,0,0,0,0.125,12.4,0.0,-7627,0,0,0.0,12.450000000000001,0.0,0,0,0,0.0,12.4,0.0,0,0,0,0.0,12.4,0.0,0,0,0,0.0,12.450000000000001,0.0,0,0,0,kReverse,kOff,-84.03,2.08,-170.94,0.03717041,-0.97473145,0.09851074,24.17,0.0,-3.0,-0.12698364,-0.81159973,
153.84181399999997,true,true,true,0.0,12.4,0.0,-12624,0,0,0.0,12.4,0.0,0,0,0,0.125,12.4,0.0,-7627,0,0,0.0,12.450000000000001,0.0,0,0,0,0.0,12.4,0.0,0,0,0,0.0,12.4,0.0,0,0,0,0.0,12.450000000000001,0.0,0,0,0,kReverse,kOff,-84.02,2.09,-170.93,0.04272461,-0.97784424,0.0892334,24.17,0.0,0.0,-0.12698364,-0.81159973,
153.863077,true,true,true,0.0,12.4,0.0,-12624,0,0,0.0,12.4,0.0,0,0,0,0.125,12.4,0.0,-7627,0,0,0.0,12.450000000000001,0.0,0,0,0,0.0,12.450000000000001,0.0,0,0,0,0.0,12.4,0.0,0,0,0,0.0,12.5,0.0,0,0,0,kReverse,kOff,-84.03,2.09,-170.94,0.037963867,-0.98620605,0.09698486,24.17,0.0,-1.0,-0.12698364,-0.81159973,
153.89410199999998,true,true,true,0.0,12.450000000000001,0.0,-12624,0,0,0.0,12.450000000000001,0.0,0,0,0,0.0,12.4,0.0,-7627,0,0,0.0,12.450000000000001,0.0,0,0,0,0.0,12.450000000000001,0.0,0,0,0,0.0,12.4,0.0,0,0,0,0.0,12.5,0.0,0,0,0,kReverse,kOff,-84.03,2.09,-170.95,0.03881836,-0.9960327,0.09136963,24.17,0.0,3.0,-0.12698364,-0.81159973,
153.92058,true,true,true,0.0,12.450000000000001,0.0,-12624,0,0,0.0,12.450000000000001,0.0,0,0,0,0.0,12.4,0.0,-7627,0,0,0.0,12.450000000000001,0.0,0,0,0,0.0,12.450000000000001,0.0,0,0,0,0.0,12.4,0.0,0,0,0,0.0,12.5,0.0,0,0,0,kReverse,kOff,-84.03,2.1,-170.94,0.044921875,-0.98168945,0.0925293,24.18,0.0,-2.0,-0.12698364,-0.81159973,
153.943487,true,true,true,0.0,12.450000000000001,0.0,-12624,0,0,0.0,12.450000000000001,0.0,0,0,0,0.125,12.4,0.0,-7627,0,0,0.0,12.450000000000001,0.0,0,0,0,0.0,12.450000000000001,0.0,0,0,0,0.0,12.4,0.0,0,0,0,0.0,12.5,0.0,0,0,0,kReverse,kOff,-84.04,2.1,-170.95,0.039733887,-0.98547363,0.09069824,24.18,0.0,2.0,-0.12698364,-0.81159973,
153.966827,true,true,true,0.0,12.450000000000001,0.0,-12624,0,0,0.0,12.450000000000001,0.0,0,0,0,0.125,12.4,0.0,-7627,0,0,0.0,12.450000000000001,0.0,0,0,0,0.0,12.450000000000001,0.0,0,0,0,0.0,12.4,0.0,0,0,0,0.0,12.5,0.0,0,0,0,kReverse,kOff,-84.03,2.1,-170.94,0.041015625,-0.97839355,0.09716797,24.18,0.0,-4.0,-0.12698364,-0.81159973,
153.988537,true,true,true,0.0,12.450000000000001,0.0,-12624,0,0,0.0,12.450000000000001,0.0,0,0,0,0.125,12.4,0.0,-7627,0,0,0.0,12.450000000000001,0.0,0,0,0,0.0,12.450000000000001,0.0,0,0,0,0.0,12.4,0.0,0,0,0,0.0,12.5,0.0,0,0,0,kReverse,kOff,-84.03,2.1,-170.94,0.03515625,-0.9807129,0.10089111,24.18,0.0,-3.0,-0.12698364,-0.81159973,
154.014851,true,true,true,0.0,12.450000000000001,0.0,-12624,0,0,0.0,12.450000000000001,0.0,0,0,0,0.125,12.4,0.0,-7627,0,0,0.0,12.450000000000001,0.0,0,0,0,0.0,12.450000000000001,0.0,0,0,0,0.0,12.4,0.0,0,0,0,0.0,12.5,0.0,0,0,0,kReverse,kOff,-84.02,2.11,-170.93,0.032409668,-0.9831543,0.095458984,24.18,0.0,3.0,-0.12698364,-0.81159973,
154.039412,true,true,true,0.0,12.450000000000001,0.0,-12624,0,0,0.0,12.450000000000001,0.0,0,0,0,0.125,12.4,0.0,-7627,0,0,0.0,12.450000000000001,0.0,0,0,0,0.0,12.450000000000001,0.0,0,0,0,0.0,12.450000000000001,0.0,0,0,0,0.0,12.5,0.0,0,0,0,kReverse,kOff,-84.03,2.11,-170.93,0.046142578,-0.980896,0.09857178,24.18,0.0,-8.0,-0.12698364,-0.81159973,
154.062469,true,true,true,0.0,12.450000000000001,0.0,-12624,0,0,0.0,12.450000000000001,0.0,0,0,0,0.125,12.4,0.0,-7627,0,0,0.0,12.450000000000001,0.0,0,0,0,0.0,12.450000000000001,0.0,0,0,0,0.0,12.450000000000001,0.0,0,0,0,0.0,12.5,0.0,0,0,0,kReverse,kOff,-84.02,2.11,-170.92,0.037597656,-0.98150635,0.08721924,24.18,0.0,6.0,-0.12698364,-0.81159973,
154.086987,true,true,true,0.0,12.450000000000001,0.0,-12624,0,0,0.0,12.450000000000001,0.0,0,0,0,0.125,12.4,0.0,-7627,0,0,0.0,12.450000000000001,0.0,0,0,0,0.0,12.450000000000001,0.0,0,0,0,0.0,12.450000000000001,0.0,0,0,0,0.0,12.5,0.0,0,0,0,kReverse,kOff,-84.03,2.12,-170.93,0.039611816,-0.98223877,0.095336914,24.18,0.0,-1.0,-0.12698364,-0.81159973,
154.112334,true,true,true,0.0,12.450000000000001,0.0,-12624,0,0,0.0,12.450000000000001,0.0,0,0,0,0.125,12.4,0.0,-7627,0,0,0.0,12.450000000000001,0.0,0,0,0,0.0,12.450000000000001,0.0,0,0,0,0.0,12.450000000000001,0.0,0,0,0,0.0,12.5,0.0,0,0,0,kReverse,kOff,-84.03,2.12,-170.93,0.035888672,-0.98339844,0.09350586,24.18,0.0,2.0,-0.12698364,-0.81159973,
154.13934899999998,true,true,true,0.0,12.450000000000001,0.0,-12624,0,0,0.0,12.450000000000001,0.0,0,0,0,0.125,12.4,0.0,-7627,0,0,0.0,12.450000000000001,0.0,0,0,0,0.0,12.450000000000001,0.0,0,0,0,0.0,12.450000000000001,0.0,0,0,0,0.0,12.5,0.0,0,0,0,kReverse,kOff,-84.03,2.12,-170.93,0.039367676,-0.98291016,0.10119629,24.18,0.0,-5.0,-0.12698364,-0.81159973,
154.16321299999998,true,true,true,0.0,12.450000000000001,0.0,-12624,0,0,0.0,12.450000000000001,0.0,0,0,0,0.125,12.4,0.0,-7627,0,0,0.0,12.450000000000001,0.0,0,0,0,0.0,12.450000000000001,0.0,0,0,0,0.0,12.450000000000001,0.0,0,0,0,0.0,12.5,0.0,0,0,0,kReverse,kOff,-84.03,2.12,-170.92,0.043945312,-0.986145,0.095336914,24.18,0.0,-3.0,-0.12698364,-0.81159973,
154.184913,true,true,true,0.0,12.450000000000001,0.0,-12624,0,0,0.0,12.450000000000001,0.0,0,0,0,0.125,12.4,0.0,-7627,0,0,0.0,12.450000000000001,0.0,0,0,0,0.0,12.450000000000001,0.0,0,0,0,0.0,12.450000000000001,0.0,0,0,0,0.0,12.5,0.0,0,0,0,kReverse,kOff,-84.02,2.13,-170.92,0.036010742,-0.9831543,0.094177246,24.18,0.0,1.0,-0.12698364,-0.81159973,
154.21643400000002,true,true,true,0.0,12.450000000000001,0.0,-12624,0,0,0.0,12.450000000000001,0.0,0,0,0,0.125,12.4,0.0,-7627,0,0,0.0,12.450000000000001,0.0,0,0,0,0.0,12.450000000000001,0.0,0,0,0,0.0,12.450000000000001,0.0,0,0,0,0.0,12.5,0.0,0,0,0,kReverse,kOff,-84.02,2.13,-170.92,0.037597656,-0.9802246,0.09423828,24.18,0.0,0.0,-0.12698364,-0.81159973,
154.238681,true,true,true,0.0,12.450000000000001,0.0,-12624,0,0,0.0,12.450000000000001,0.0,0,0,0,0.125,12.4,0.0,-7627,0,0,0.0,12.450000000000001,0.0,0,0,0,0.0,12.450000000000001,0.0,0,0,0,0.0,12.450000000000001,0.0,0,0,0,0.0,12.5,0.0,0,0,0,kReverse,kOff,-84.02,2.13,-170.91,0.043029785,-0.98413086,0.09515381,24.18,0.0,-3.0,-0.12698364,-0.81159973,
154.260516,true,true,true,0.0,12.450000000000001,0.0,-12624,0,0,0.0,12.450000000000001,0.0,0,0,0,0.125,12.4,0.0,-7627,0,0,0.0,12.450000000000001,0.0,0,0,0,0.0,12.450000000000001,0.0,0,0,0,0.0,12.450000000000001,0.0,0,0,0,0.0,12.5,0.0,0,0,0,kReverse,kOff,-84.02,2.13,-170.91,0.041809082,-0.9788208,0.09008789,24.18,0.0,1.0,-0.12698364,-0.81159973,
154.28403899999998,true,true,true,0.0,12.450000000000001,0.0,-12624,0,0,0.0,12.450000000000001,0.0,0,0,0,0.125,12.4,0.0,-7627,0,0,0.0,12.450000000000001,0.0,0,0,0,0.0,12.450000000000001,0.0,0,0,0,0.0,12.450000000000001,0.0,0,0,0,0.0,12.5,0.0,0,0,0,kReverse,kOff,-84.03,2.13,-170.92,0.04321289,-0.9830322,0.09466553,24.18,0.0,-2.0,-0.12698364,-0.81159973,
154.309699,true,true,true,0.0,12.450000000000001,0.0,-12624,0,0,0.0,12.450000000000001,0.0,0,0,0,0.125,12.4,0.0,-7627,0,0,0.0,12.450000000000001,0.0,0,0,0,0.0,12.450000000000001,0.0,0,0,0,0.0,12.450000000000001,0.0,0,0,0,0.0,12.5,0.0,0,0,0,kReverse,kOff,-84.03,2.13,-170.92,0.038146973,-0.98046875,0.097717285,24.18,0.0,-2.0,-0.12698364,-0.81159973,
154.333418,true,true,true,0.0,12.450000000000001,0.0,-12624,0,0,0.0,12.450000000000001,0.0,0,0,0,0.125,12.4,0.0,-7627,0,0,0.0,12.450000000000001,0.0,0,0,0,0.0,12.450000000000001,0.0,0,0,0,0.0,12.450000000000001,0.0,0,0,0,0.0,12.5,0.0,0,0,0,kReverse,kOff,-84.03,2.13,-170.92,0.0345459,-0.9822998,0.10192871,24.18,0.0,-5.0,-0.12698364,-0.81159973,
154.356073,true,true,true,0.0,12.450000000000001,0.0,-12624,0,0,0.0,12.450000000000001,0.0,0,0,0,0.125,12.450000000000001,0.0,-7627,0,0,0.0,12.450000000000001,0.0,0,0,0,0.0,12.450000000000001,0.0,0,0,0,0.0,12.450000000000001,0.0,0,0,0,0.0,12.5,0.0,0,0,0,kReverse,kOff,-84.02,2.14,-170.91,0.04083252,-0.98254395,0.09729004,24.18,0.0,-3.0,-0.12698364,-0.81159973,
154.378806,true,true,true,0.0,12.450000000000001,0.0,-12624,0,0,0.0,12.450000000000001,0.0,0,0,0,0.125,12.450000000000001,0.0,-7627,0,0,0.0,12.450000000000001,0.0,0,0,0,0.0,12.450000000000001,0.0,0,0,0,0.0,12.450000000000001,0.0,0,0,0,0.0,12.5,0.0,0,0,0,kReverse,kOff,-84.02,2.14,-170.9,0.038330078,-0.98205566,0.09680176,24.18,0.0,-1.0,-0.12698364,-0.81159973,
154.400248,true,true,true,0.0,12.450000000000001,0.0,-12624,0,0,0.0,12.450000000000001,0.0,0,0,0,0.125,12.450000000000001,0.0,-7627,0,0,0.0,12.450000000000001,0.0,0,0,0,0.0,12.450000000000001,0.0,0,0,0,0.0,12.450000000000001,0.0,0,0,0,0.0,12.5,0.0,0,0,0,kReverse,kOff,-84.02,2.14,-170.9,0.037841797,-0.97753906,0.09832764,24.18,0.0,-2.0,-0.12698364,-0.81159973,
154.42515,true,true,true,0.0,12.450000000000001,0.0,-12624,0,0,0.0,12.450000000000001,0.0,0,0,0,0.125,12.450000000000001,0.0,-7627,0,0,0.0,12.450000000000001,0.0,0,0,0,0.0,12.450000000000001,0.0,0,0,0,0.0,12.450000000000001,0.0,0,0,0,0.0,12.5,0.0,0,0,0,kReverse,kOff,-84.01,2.15,-170.89,0.03857422,-0.97943115,0.09460449,24.19,0.0,0.0,-0.12698364,-0.81159973,
