timer,lineLeft,lineCenter,lineRight,LeftFrontCurrent,LeftFrontVoltage,LeftFrontValue,LeftFrontPosition,LeftFrontVelocity,LeftFrontFaults,LeftRearCurrent,LeftRearVoltage,LeftRearValue,LeftRearPosition,LeftRearVelocity,LeftRearFaults,RightFrontCurrent,RightFrontVoltage,RightFrontValue,RightFrontPosition,RightFrontVelocity,RightFrontFaults,RightRearCurrent,RightRearVoltage,RightRearValue,RightRearPosition,RightRearVelocity,RightRearFaults,LiftCurrent,LiftVoltage,LiftValue,LiftPosition,LiftVelocity,LiftFaults,WristCurrent,WristVoltage,WristValue,WristPosition,WristVelocity,WristFaults,RollerCurrent,RollerVoltage,RollerValue,RollerPosition,RollerVelocity,RollerFaults,PushersState,PivotsState,navx_Pitch,navx_Roll,navx_Yaw,navx_XAcc,navx_YAcc,navx_ZAcc,navx_Temp,navx_Bar,navx_Alt,navx_XDis,navx_YDis,
414.710668,true,true,true,0.0,12.6,0.0,-14049,0,0,0.0,12.6,0.0,0,0,0,0.125,12.6,0.0,-6465,0,0,0.0,12.65,0.0,0,0,0,0.0,12.65,0.0,0,0,0,0.0,12.6,0.0,0,0,0,0.0,12.65,0.0,0,0,0,kOff,kOff,-84.47,1.92,1.87,0.032836914,-0.9822998,0.091430664,26.33,0.0,0.0,-9.765625E-4,-0.67658997,
414.728409,true,true,true,0.0,12.6,0.0,-14049,0,0,0.0,12.6,0.0,0,0,0,0.125,12.6,0.0,-6465,0,0,0.0,12.65,0.0,0,0,0,0.0,12.65,0.0,0,0,0,0.0,12.6,0.0,0,0,0,0.0,12.65,0.0,0,0,0,kReverse,kOff,-84.47,1.92,1.86,0.032409668,-0.97906494,0.087768555,26.33,0.0,0.0,-9.765625E-4,-0.67658997,
414.747122,true,true,true,0.0,12.6,0.0,-14049,0,0,0.0,12.6,0.0,0,0,0,0.125,12.6,0.0,-6465,0,0,0.0,12.65,0.0,0,0,0,0.0,12.65,0.0,0,0,0,0.0,12.6,0.0,0,0,0,0.0,12.65,0.0,0,0,0,kReverse,kOff,-84.47,1.92,1.87,0.03314209,-0.98083496,0.08605957,26.33,0.0,0.0,-9.765625E-4,-0.67658997,
414.767446,true,true,true,0.0,12.6,0.0,-14049,0,0,0.0,12.6,0.0,0,0,0,0.125,12.6,0.0,-6465,0,0,0.0,12.65,0.0,0,0,0,0.0,12.65,0.0,0,0,0,0.0,12.6,0.0,0,0,0,0.0,12.65,0.0,0,0,0,kReverse,kOff,-84.47,1.92,1.87,0.03338623,-0.98327637,0.09033203,26.33,0.0,0.0,-9.765625E-4,-0.67658997,
414.787086,true,true,true,0.0,12.6,0.0,-14049,0,0,0.0,12.6,0.0,0,0,0,0.125,12.6,0.0,-6465,0,0,0.0,12.65,0.0,0,0,0,0.0,12.65,0.0,0,0,0,0.0,12.6,0.0,0,0,0,0.0,12.65,0.0,0,0,0,kReverse,kOff,-84.47,1.92,1.87,0.03289795,-0.9802246,0.08905029,26.33,0.0,0.0,-9.765625E-4,-0.67658997,
414.806979,true,true,true,0.0,12.6,0.0,-14049,0,0,0.0,12.6,0.0,0,0,0,0.125,12.6,0.0,-6465,0,0,0.0,12.65,0.0,0,0,0,0.0,12.65,0.0,0,0,0,0.0,12.6,0.0,0,0,0,0.0,12.65,0.0,0,0,0,kReverse,kOff,-84.47,1.92,1.86,0.032287598,-0.9824829,0.094055176,26.33,0.0,0.0,-9.765625E-4,-0.67658997,
414.82725400000004,true,true,true,0.0,12.6,0.0,-14049,0,0,0.0,12.65,0.0,0,0,0,0.125,12.6,0.0,-6465,0,0,0.0,12.65,0.0,0,0,0,0.0,12.65,0.0,0,0,0,0.0,12.6,0.0,0,0,0,0.0,12.700000000000001,0.0,0,0,0,kReverse,kOff,-84.47,1.92,1.86,0.032287598,-0.9824829,0.094055176,26.33,0.0,0.0,-9.765625E-4,-0.67658997,
414.847716,true,true,true,0.0,12.65,0.0,-14049,0,0,0.0,12.65,0.0,0,0,0,0.125,12.6,0.0,-6465,0,0,0.0,12.65,0.0,0,0,0,0.0,12.65,0.0,0,0,0,0.0,12.6,0.0,0,0,0,0.0,12.700000000000001,0.0,0,0,0,kReverse,kOff,-84.47,1.92,1.87,0.034179688,-0.98553467,0.0869751,26.33,0.0,0.0,-9.765625E-4,-0.67658997,
414.86706599999997,true,true,true,0.0,12.65,0.0,-14049,0,0,0.0,12.65,0.0,0,0,0,0.125,12.6,0.0,-6465,0,0,0.0,12.65,0.0,0,0,0,0.0,12.65,0.0,0,0,0,0.0,12.6,0.0,0,0,0,0.0,12.700000000000001,0.0,0,0,0,kReverse,kOff,-84.47,1.92,1.87,0.031921387,-0.98168945,0.0904541,26.33,0.0,-1.0,-9.765625E-4,-0.67658997,
414.887252,true,true,true,0.0,12.65,0.0,-14049,0,0,0.0,12.65,0.0,0,0,0,0.125,12.6,0.0,-6465,0,0,0.0,12.65,0.0,0,0,0,0.0,12.65,0.0,0,0,0,0.0,12.6,0.0,0,0,0,0.0,12.700000000000001,0.0,0,0,0,kReverse,kOff,-84.47,1.92,1.87,0.03253174,-0.9821167,0.08355713,26.33,0.0,0.0,-9.765625E-4,-0.67658997,
414.907126,true,true,true,0.0,12.65,0.0,-14049,0,0,0.0,12.65,0.0,0,0,0,0.125,12.6,0.0,-6465,0,0,0.0,12.65,0.0,0,0,0,0.0,12.65,0.0,0,0,0,0.0,12.6,0.0,0,0,0,0.0,12.700000000000001,0.0,0,0,0,kReverse,kOff,-84.48,1.92,1.87,0.034851074,-0.9818115,0.0859375,26.33,0.0,1.0,-9.765625E-4,-0.67658997,
414.927622,true,true,true,0.0,12.65,0.0,-14049,0,0,0.0,12.65,0.0,0,0,0,0.125,12.6,0.0,-6465,0,0,0.0,12.65,0.0,0,0,0,0.0,12.65,0.0,0,0,0,0.0,12.6,0.0,0,0,0,0.0,12.700000000000001,0.0,0,0,0,kReverse,kOff,-84.47,1.93,1.87,0.035217285,-0.98101807,0.08911133,26.33,0.0,1.0,-9.765625E-4,-0.67658997,
414.94701299999997,true,true,true,0.0,12.65,0.0,-14049,0,0,0.0,12.65,0.0,0,0,0,0.125,12.6,0.0,-6465,0,0,0.0,12.65,0.0,0,0,0,0.0,12.65,0.0,0,0,0,0.0,12.6,0.0,0,0,0,0.0,12.700000000000001,0.0,0,0,0,kReverse,kOff,-84.48,1.92,1.87,0.03527832,-0.97875977,0.0859375,26.33,0.0,2.0,-9.765625E-4,-0.67658997,
414.967955,true,true,true,0.0,12.65,0.0,-14049,0,0,0.0,12.65,0.0,0,0,0,0.125,12.6,0.0,-6465,0,0,0.0,12.65,0.0,0,0,0,0.0,12.65,0.0,0,0,0,0.0,12.6,0.0,0,0,0,0.0,12.700000000000001,0.0,0,0,0,kReverse,kOff,-84.48,1.92,1.87,0.033081055,-0.9805908,0.092163086,26.33,0.0,0.0,-9.765625E-4,-0.67658997,
414.987363,true,true,true,0.0,12.65,0.0,-14049,0,0,0.0,12.65,0.0,0,0,0,0.125,12.6,0.0,-6465,0,0,0.0,12.65,0.0,0,0,0,0.0,12.6,0.0,0,0,0,0.0,12.65,0.0,0,0,0,0.0,12.700000000000001,0.0,0,0,0,kReverse,kOff,-84.48,1.92,1.87,0.036376953,-0.98083496,0.08660889,26.33,0.0,3.0,-9.765625E-4,-0.67658997,
415.007951,true,true,true,0.0,12.6,0.0,-14049,0,0,0.0,12.65,0.0,0,0,0,0.125,12.6,0.0,-6465,0,0,0.0,12.65,0.0,0,0,0,0.0,12.6,0.0,0,0,0,0.0,12.65,0.0,0,0,0,0.0,12.700000000000001,0.0,0,0,0,kReverse,kOff,-84.48,1.92,1.87,0.03338623,-0.9822998,0.08673096,26.33,0.0,0.0,-9.765625E-4,-0.67658997,
415.02789399999995,true,true,true,0.0,12.6,0.0,-14049,0,0,0.0,12.65,0.0,0,0,0,0.125,12.6,0.0,-6465,0,0,0.0,12.65,0.0,0,0,0,0.0,12.6,0.0,0,0,0,0.0,12.65,0.0,0,0,0,0.0,12.700000000000001,0.0,0,0,0,kReverse,kOff,-84.47,1.93,1.87,0.030517578,-0.9831543,0.08502197,26.33,0.0,-2.0,-9.765625E-4,-0.67658997,
415.04732,true,true,true,0.0,12.6,0.0,-14049,0,0,0.0,12.65,0.0,0,0,0,0.125,12.6,0.0,-6465,0,0,0.0,12.65,0.0,0,0,0,0.0,12.6,0.0,0,0,0,0.0,12.65,0.0,0,0,0,0.0,12.700000000000001,0.0,0,0,0,kReverse,kOff,-84.48,1.92,1.86,0.030456543,-0.97869873,0.09051514,26.33,0.0,-2.0,-9.765625E-4,-0.67658997,
415.067016,true,true,true,0.0,12.6,0.0,-14049,0,0,0.0,12.65,0.0,0,0,0,0.125,12.6,0.0,-6465,0,0,0.0,12.65,0.0,0,0,0,0.0,12.6,0.0,0,0,0,0.0,12.65,0.0,0,0,0,0.0,12.700000000000001,0.0,0,0,0,kReverse,kOff,-84.48,1.92,1.87,0.033569336,-0.98028564,0.088134766,26.33,0.0,0.0,-9.765625E-4,-0.67658997,
415.087522,true,true,true,0.0,12.6,0.0,-14049,0,0,0.0,12.65,0.0,0,0,0,0.125,12.6,0.0,-6465,0,0,0.0,12.65,0.0,0,0,0,0.0,12.6,0.0,0,0,0,0.0,12.65,0.0,0,0,0,0.0,12.700000000000001,0.0,0,0,0,kReverse,kOff,-84.48,1.92,1.87,0.033203125,-0.97979736,0.09051514,26.34,0.0,0.0,-9.765625E-4,-0.67658997,
415.107004,true,true,true,0.0,12.6,0.0,-14049,0,0,0.0,12.65,0.0,0,0,0,0.125,12.6,0.0,-6465,0,0,0.0,12.65,0.0,0,0,0,0.0,12.6,0.0,0,0,0,0.0,12.65,0.0,0,0,0,0.0,12.700000000000001,0.0,0,0,0,kReverse,kOff,-84.48,1.92,1.87,0.03387451,-0.9800415,0.09240723,26.34,0.0,0.0,-9.765625E-4,-0.67658997,
415.12737400000003,true,true,true,0.0,12.6,0.0,-14049,0,0,0.0,12.65,0.0,0,0,0,0.125,12.6,0.0,-6465,0,0,0.0,12.65,0.0,0,0,0,0.0,12.6,0.0,0,0,0,0.0,12.65,0.0,0,0,0,0.0,12.700000000000001,0.0,0,0,0,kReverse,kOff,-84.48,1.92,1.87,0.030090332,-0.98339844,0.09161377,26.34,0.0,-3.0,-9.765625E-4,-0.67658997,
415.148668,true,true,true,0.0,12.65,0.0,-14049,0,0,0.0,12.65,0.0,0,0,0,0.125,12.6,0.0,-6465,0,0,0.0,12.65,0.0,0,0,0,0.0,12.65,0.0,0,0,0,0.0,12.65,0.0,0,0,0,0.0,12.65,0.0,0,0,0,kReverse,kOff,-84.48,1.92,1.87,0.03161621,-0.9821167,0.08685303,26.34,0.0,-1.0,-9.765625E-4,-0.67658997,
415.17958600000003,true,true,true,0.0,12.65,0.0,-14049,0,0,0.0,12.65,0.0,0,0,0,0.125,12.6,0.0,-6465,0,0,0.0,12.65,0.0,0,0,0,0.0,12.65,0.0,0,0,0,0.0,12.65,0.0,0,0,0,0.0,12.65,0.0,0,0,0,kReverse,kOff,-84.48,1.92,1.86,0.031921387,-0.9819336,0.08441162,26.34,0.0,-1.0,-9.765625E-4,-0.67658997,
415.20576500000004,true,true,true,0.0,12.65,0.0,-14049,0,0,0.0,12.65,0.0,0,0,0,0.125,12.6,0.0,-6465,0,0,0.0,12.65,0.0,0,0,0,0.0,12.65,0.0,0,0,0,0.0,12.65,0.0,0,0,0,0.0,12.65,0.0,0,0,0,kReverse,kOff,-84.48,1.92,1.86,0.033996582,-0.9818115,0.08520508,26.34,0.0,0.0,-9.765625E-4,-0.67658997,
415.22725099999997,true,true,true,0.0,12.65,0.0,-14049,0,0,0.0,12.65,0.0,0,0,0,0.125,12.6,0.0,-6465,0,0,0.0,12.65,0.0,0,0,0,0.0,12.65,0.0,0,0,0,0.0,12.65,0.0,0,0,0,0.0,12.65,0.0,0,0,0,kReverse,kOff,-84.48,1.92,1.87,0.033569336,-0.982605,0.08935547,26.34,0.0,0.0,-9.765625E-4,-0.67658997,
415.244805,true,true,true,0.0,12.65,0.0,-14049,0,0,0.0,12.65,0.0,0,0,0,0.125,12.6,0.0,-6465,0,0,0.0,12.65,0.0,0,0,0,0.0,12.65,0.0,0,0,0,0.0,12.65,0.0,0,0,0,0.0,12.65,0.0,0,0,0,kReverse,kOff,-84.48,1.92,1.87,0.0335083,-0.9804077,0.08428955,26.34,0.0,0.0,-9.765625E-4,-0.67658997,
415.268999,true,true,true,0.0,12.65,0.0,-14049,0,0,0.0,12.65,0.0,0,0,0,0.125,12.6,0.0,-6465,0,0,0.0,12.65,0.0,0,0,0,0.0,12.65,0.0,0,0,0,0.0,12.65,0.0,0,0,0,0.0,12.65,0.0,0,0,0,kReverse,kOff,-84.48,1.92,1.87,0.033996582,-0.9807129,0.08984375,26.34,0.0,0.0,-9.765625E-4,-0.67658997,
415.28814500000004,true,true,true,0.0,12.65,0.0,-14049,0,0,0.0,12.65,0.0,0,0,0,0.125,12.6,0.0,-6465,0,0,0.0,12.65,0.0,0,0,0,0.0,12.65,0.0,0,0,0,0.0,12.65,0.0,0,0,0,0.0,12.65,0.0,0,0,0,kReverse,kOff,-84.48,1.92,1.87,0.034179688,-0.9810791,0.08654785,26.34,0.0,1.0,-9.765625E-4,-0.67658997,
415.301216,true,true,true,0.0,12.65,0.0,-14049,0,0,0.0,12.65,0.0,0,0,0,0.125,12.6,0.0,-6465,0,0,0.0,12.65,0.0,0,0,0,0.0,12.65,0.0,0,0,0,0.0,12.65,0.0,0,0,0,0.0,12.700000000000001,0.0,0,0,0,kReverse,kOff,-84.48,1.92,1.87,0.033203125,-0.97869873,0.08984375,26.34,0.0,0.0,-9.765625E-4,-0.67658997,
415.329479,true,true,true,0.0,12.65,0.0,-14049,0,0,0.0,12.65,0.0,0,0,0,0.125,12.6,0.0,-6465,0,0,0.0,12.65,0.0,0,0,0,0.0,12.65,0.0,0,0,0,0.0,12.65,0.0,0,0,0,0.0,12.700000000000001,0.0,0,0,0,kReverse,kOff,-84.48,1.92,1.87,0.03253174,-0.98205566,0.08728027,26.34,0.0,0.0,-9.765625E-4,-0.67658997,
415.348061,true,true,true,0.0,12.65,0.0,-14049,0,0,0.0,12.65,0.0,0,0,0,0.0,12.6,0.0,-6465,0,0,0.0,12.65,0.0,0,0,0,0.0,12.65,0.0,0,0,0,0.0,12.65,0.0,0,0,0,0.0,12.700000000000001,0.0,0,0,0,kReverse,kOff,-84.48,1.92,1.87,0.033996582,-0.9793701,0.091674805,26.34,0.0,0.0,-9.765625E-4,-0.67658997,
415.36639299999996,true,true,true,0.0,12.65,0.0,-14049,0,0,0.0,12.65,0.0,0,0,0,0.0,12.6,0.0,-6465,0,0,0.0,12.65,0.0,0,0,0,0.0,12.65,0.0,0,0,0,0.0,12.65,0.0,0,0,0,0.0,12.700000000000001,0.0,0,0,0,kReverse,kOff,-84.48,1.92,1.87,0.030151367,-0.9795532,0.090026855,26.34,0.0,-2.0,-9.765625E-4,-0.67658997,
415.387839,true,true,true,0.0,12.65,0.0,-14049,0,0,0.0,12.65,0.0,0,0,0,0.0,12.6,0.0,-6465,0,0,0.0,12.65,0.0,0,0,0,0.0,12.65,0.0,0,0,0,0.0,12.65,0.0,0,0,0,0.0,12.700000000000001,0.0,0,0,0,kReverse,kOff,-84.48,1.92,1.87,0.03387451,-0.9789429,0.08465576,26.34,0.0,0.0,-9.765625E-4,-0.67658997,
415.408822,true,true,true,0.0,12.65,0.0,-14049,0,0,0.0,12.65,0.0,0,0,0,0.125,12.6,0.0,-6465,0,0,0.0,12.65,0.0,0,0,0,0.0,12.65,0.0,0,0,0,0.0,12.65,0.0,0,0,0,0.0,12.700000000000001,0.0,0,0,0,kReverse,kOff,-84.48,1.92,1.87,0.035461426,-0.98168945,0.08807373,26.34,0.0,2.0,-9.765625E-4,-0.67658997,
415.428278,true,true,true,0.0,12.65,0.0,-14049,0,0,0.0,12.65,0.0,0,0,0,0.125,12.6,0.0,-6465,0,0,0.0,12.65,0.0,0,0,0,0.0,12.65,0.0,0,0,0,0.0,12.65,0.0,0,0,0,0.0,12.700000000000001,0.0,0,0,0,kReverse,kOff,-84.48,1.92,1.87,0.03479004,-0.9822998,0.093444824,26.34,0.0,1.0,-9.765625E-4,-0.67658997,
415.45262199999996,true,true,true,0.0,12.65,0.0,-14049,0,0,0.0,12.65,0.0,0,0,0,0.125,12.6,0.0,-6465,0,0,0.0,12.65,0.0,0,0,0,0.0,12.65,0.0,0,0,0,0.0,12.65,0.0,0,0,0,0.0,12.700000000000001,0.0,0,0,0,kReverse,kOff,-84.48,1.92,1.87,0.030700684,-0.97998047,0.086242676,26.34,0.0,-2.0,-9.765625E-4,-0.67658997,
415.471802,true,true,true,0.0,12.6,0.0,-14049,0,0,0.0,12.6,0.0,0,0,0,0.125,12.6,0.0,-6465,0,0,0.0,12.65,0.0,0,0,0,0.0,12.6,0.0,0,0,0,0.0,12.6,0.0,0,0,0,0.0,12.700000000000001,0.0,0,0,0,kReverse,kOff,-84.48,1.92,1.87,0.032287598,-0.9824219,0.08642578,26.34,0.0,0.0,-9.765625E-4,-0.67658997,
415.495737,true,true,true,0.0,12.6,0.0,-14049,0,0,0.0,12.6,0.0,0,0,0,0.125,12.6,0.0,-6465,0,0,0.0,12.65,0.0,0,0,0,0.0,12.6,0.0,0,0,0,0.0,12.6,0.0,0,0,0,0.0,12.700000000000001,0.0,0,0,0,kReverse,kOff,-84.49,1.92,1.87,0.03466797,-0.98101807,0.08929443,26.34,0.0,1.0,-9.765625E-4,-0.67658997,
415.514279,true,true,true,0.0,12.6,0.0,-14049,0,0,0.0,12.6,0.0,0,0,0,0.125,12.6,0.0,-6465,0,0,0.0,12.65,0.0,0,0,0,0.0,12.6,0.0,0,0,0,0.0,12.6,0.0,0,0,0,0.0,12.700000000000001,0.0,0,0,0,kReverse,kOff,-84.49,1.92,1.87,0.03173828,-0.9796753,0.086364746,26.34,0.0,-1.0,-9.765625E-4,-0.67658997,
415.535961,true,true,true,0.0,12.6,0.0,-14049,0,0,0.0,12.6,0.0,0,0,0,0.125,12.6,0.0,-6465,0,0,0.0,12.65,0.0,0,0,0,0.0,12.6,0.0,0,0,0,0.0,12.6,0.0,0,0,0,0.0,12.700000000000001,0.0,0,0,0,kReverse,kOff,-84.49,1.92,1.87,0.033813477,-0.98132324,0.08428955,26.34,0.0,0.0,-9.765625E-4,-0.67658997,
415.556044,true,true,true,0.0,12.6,0.0,-14049,0,0,0.0,12.6,0.0,0,0,0,0.125,12.6,0.0,-6465,0,0,0.0,12.65,0.0,0,0,0,0.0,12.6,0.0,0,0,0,0.0,12.6,0.0,0,0,0,0.0,12.700000000000001,0.0,0,0,0,kReverse,kOff,-84.49,1.92,1.87,0.03100586,-0.982605,0.08666992,26.34,0.0,-2.0,-9.765625E-4,-0.67658997,
415.577087,true,true,true,0.0,12.6,0.0,-14049,0,0,0.0,12.6,0.0,0,0,0,0.125,12.6,0.0,-6465,0,0,0.0,12.65,0.0,0,0,0,0.0,12.6,0.0,0,0,0,0.0,12.6,0.0,0,0,0,0.0,12.700000000000001,0.0,0,0,0,kReverse,kOff,-84.49,1.92,1.87,0.03656006,-0.9816284,0.090148926,26.34,0.0,3.0,-9.765625E-4,-0.67658997,
415.597788,true,true,true,0.0,12.6,0.0,-14049,0,0,0.0,12.6,0.0,0,0,0,0.125,12.6,0.0,-6465,0,0,0.0,12.65,0.0,0,0,0,0.0,12.6,0.0,0,0,0,0.0,12.6,0.0,0,0,0,0.0,12.700000000000001,0.0,0,0,0,kReverse,kOff,-84.49,1.92,1.87,0.032287598,-0.98309326,0.08996582,26.37,0.0,0.0,-9.765625E-4,-0.67658997,
415.619036,true,true,true,0.0,12.6,0.0,-14049,0,0,0.0,12.6,0.0,0,0,0,0.125,12.6,0.0,-6465,0,0,0.0,12.65,0.0,0,0,0,0.0,12.6,0.0,0,0,0,0.0,12.6,0.0,0,0,0,0.0,12.700000000000001,0.0,0,0,0,kReverse,kOff,-84.49,1.92,1.87,0.03540039,-0.98150635,0.08758545,26.37,0.0,2.0,-9.765625E-4,-0.67658997,
415.642581,true,true,true,0.0,12.65,0.0,-14049,0,0,0.0,12.65,0.0,0,0,0,0.125,12.6,0.0,-6465,0,0,0.0,12.65,0.0,0,0,0,0.0,12.65,0.0,0,0,0,0.0,12.6,0.0,0,0,0,0.0,12.700000000000001,0.0,0,0,0,kReverse,kOff,-84.49,1.92,1.87,0.030822754,-0.9813843,0.087768555,26.37,0.0,-2.0,-9.765625E-4,-0.67658997,
415.659839,true,true,true,0.0,12.65,0.0,-14049,0,0,0.0,12.65,0.0,0,0,0,0.125,12.6,0.0,-6465,0,0,0.0,12.65,0.0,0,0,0,0.0,12.65,0.0,0,0,0,0.0,12.6,0.0,0,0,0,0.0,12.700000000000001,0.0,0,0,0,kReverse,kOff,-84.49,1.92,1.87,0.034484863,-0.9830322,0.08782959,26.37,0.0,1.0,-9.765625E-4,-0.67658997,
415.689547,true,true,true,0.0,12.65,0.0,-14049,0,0,0.0,12.65,0.0,0,0,0,0.125,12.6,0.0,-6465,0,0,0.0,12.65,0.0,0,0,0,0.0,12.65,0.0,0,0,0,0.0,12.6,0.0,0,0,0,0.0,12.700000000000001,0.0,0,0,0,kReverse,kOff,-84.49,1.92,1.87,0.033935547,-0.9830322,0.089660645,26.37,0.0,0.0,-9.765625E-4,-0.67658997,
415.714853,true,true,true,1.625,12.65,0.0,-14053,0,0,0.75,12.65,0.0,0,0,0,1.125,12.6,0.0,-6468,0,0,0.875,12.65,0.0,0,0,0,0.0,12.65,0.0,0,0,0,0.0,12.6,0.0,0,0,0,0.0,12.700000000000001,0.0,0,0,0,kReverse,kOff,-84.49,1.92,1.87,-0.0048828125,-0.8914795,0.05432129,26.37,0.0,-34.0,-0.0010070801,-0.6766052,
415.73549699999995,true,true,true,2.875,12.65,0.0,-14071,-4,0,2.125,12.65,0.0,0,0,0,2.625,12.6,0.0,-6482,-3,0,2.75,12.65,0.0,0,0,0,0.0,12.65,0.0,0,0,0,0.0,12.6,0.0,0,0,0,0.0,12.700000000000001,0.0,0,0,0,kReverse,kOff,-84.53,1.87,1.81,0.14245605,-1.0410156,0.21575928,26.37,0.0,106.0,-0.0010223389,-0.67637634,
415.755808,true,true,true,6.125,12.65,0.0,-14080,-13,0,4.0,12.65,0.0,0,0,0,4.75,12.6,0.0,-6492,-10,0,4.125,12.65,0.0,0,0,0,0.0,12.65,0.0,0,0,0,0.0,12.6,0.0,0,0,0,0.0,12.700000000000001,0.0,0,0,0,kReverse,kOff,-84.66,1.94,1.9,0.19354248,-0.800354,-0.34381104,26.37,0.0,170.0,-7.9345703E-4,-0.6763916,
415.777562,true,true,true,10.75,12.65,0.0,-14093,-24,0,9.125,12.65,0.0,0,0,0,9.0,12.6,0.0,-6503,-20,0,8.25,12.65,0.0,0,0,0,0.0,12.65,0.0,0,0,0,0.0,12.6,0.0,0,0,0,0.0,11.3,0.0,0,0,0,kReverse,kOff,-85.1,1.94,1.95,-0.26428223,-1.2613525,-0.89764404,26.37,0.0,-307.0,-4.8828125E-4,-0.6789551,
415.798878,true,true,true,14.125,11.0,0.0,-14114,-39,0,12.625,11.05,0.0,0,0,0,11.5,11.05,0.0,-6521,-32,0,10.875,11.15,0.0,0,0,0,0.0,11.2,0.0,0,0,0,0.0,11.2,0.0,0,0,0,0.0,11.3,0.0,0,0,0,kReverse,kOff,-85.34,1.79,1.81,-0.103271484,-0.6758423,-0.800354,26.37,0.0,-126.0,-7.6293945E-4,-0.6820526,
415.820725,true,true,true,16.0,11.0,0.0,-14139,-54,0,15.0,11.05,0.0,0,0,0,14.0,11.05,0.0,-6543,-47,0,13.125,11.15,0.0,0,0,0,0.0,11.2,0.0,0,0,0,0.0,11.2,0.0,0,0,0,0.0,11.3,0.0,0,0,0,kReverse,kOff,-86.16,1.68,1.71,0.114990234,-0.7379761,-0.6819458,26.37,0.0,88.0,-0.0018005371,-0.6918793,
415.843967,true,true,true,14.5,11.0,0.0,-14161,-71,0,15.125,11.05,0.0,0,0,0,14.75,11.05,0.0,-6584,-75,0,13.5,11.15,0.0,0,0,0,0.0,11.2,0.0,0,0,0,0.0,11.2,0.0,0,0,0,0.0,11.3,0.0,0,0,0,kReverse,kOff,-86.56,1.76,1.79,0.11981201,-0.82714844,-0.3942871,26.37,0.0,91.0,-0.002243042,-0.6981659,
415.86555300000003,true,true,true,14.625,11.0,0.0,-14183,-85,0,16.75,11.05,0.0,0,0,0,18.5,11.05,0.0,-6609,-87,0,17.625,11.15,0.0,0,0,0,0.0,11.2,0.0,0,0,0,0.0,11.2,0.0,0,0,0,0.0,11.3,0.0,0,0,0,kReverse,kOff,-86.81,1.8,1.82,-0.03967285,-1.109314,-0.23791504,26.37,0.0,-76.0,-0.0026550293,-0.7049408,
415.885318,true,true,true,18.0,11.0,0.0,-14207,-96,0,21.125,11.05,0.0,0,0,0,25.5,11.05,0.0,-6642,-98,0,23.5,11.15,0.0,0,0,0,0.0,11.2,0.0,0,0,0,0.0,11.2,0.0,0,0,0,0.0,11.3,0.0,0,0,0,kReverse,kOff,-87.12,1.74,1.76,-0.0056762695,-1.1043701,-0.07373047,26.37,0.0,-39.0,-0.0031585693,-0.7120056,
415.912305,true,true,true,32.125,11.0,0.0,-14278,-118,0,26.875,11.05,0.0,0,0,0,33.5,11.05,0.0,-6681,-113,0,31.125,11.15,0.0,0,0,0,0.0,11.2,0.0,0,0,0,0.0,11.2,0.0,0,0,0,0.0,11.3,0.0,0,0,0,kReverse,kOff,-87.73,1.82,1.82,0.2755127,-0.9873047,-0.3696289,26.37,0.0,243.0,-0.0040740967,-0.72766113,
415.93102600000003,true,true,true,36.5,11.0,0.0,-14328,-134,0,33.625,11.05,0.0,0,0,0,38.125,11.05,0.0,-6727,-129,0,36.625,11.15,0.0,0,0,0,0.0,11.2,0.0,0,0,0,0.0,11.2,0.0,0,0,0,0.0,11.3,0.0,0,0,0,kReverse,kOff,-87.83,1.9,1.9,0.13653564,-1.1640625,-0.284729,26.37,0.0,97.0,-0.004211426,-0.7362976,
415.953729,true,true,true,37.625,8.9,0.0,-14379,-154,0,37.25,8.850000000000001,0.0,0,0,0,38.5,8.9,0.0,-6777,-150,0,37.875,9.0,0.0,0,0,0,0.0,9.2,0.0,0,0,0,0.0,9.2,0.0,0,0,0,0.0,9.25,0.0,0,0,0,kReverse,kOff,-87.92,1.88,1.88,-0.08404541,-0.8297119,-0.6470947,26.37,0.0,-112.0,-0.0043640137,-0.74557495,
415.972643,true,true,true,36.75,8.9,0.0,-14432,-181,0,38.5,8.850000000000001,0.0,0,0,0,36.125,8.9,0.0,-6830,-176,0,36.375,9.0,0.0,0,0,0,0.0,9.2,0.0,0,0,0,0.0,9.2,0.0,0,0,0,0.0,9.25,0.0,0,0,0,kReverse,kOff,-88.2,1.74,1.74,0.058654785,-1.177002,-0.78674316,26.37,0.0,17.0,-0.0050201416,-0.76701355,
415.99280699999997,true,true,true,35.75,8.9,0.0,-14488,-208,0,37.625,8.850000000000001,0.0,0,0,0,33.625,8.9,0.0,-6886,-203,0,34.5,9.0,0.0,0,0,0,0.0,9.2,0.0,0,0,0,0.0,9.2,0.0,0,0,0,0.0,9.25,0.0,0,0,0,kReverse,kOff,-88.19,1.76,1.77,0.10083008,-1.0081177,-0.42132568,26.37,0.0,65.0,-0.0053100586,-0.77908325,
416.01464799999997,true,true,true,34.75,8.9,0.0,-14544,-231,0,36.5,8.850000000000001,0.0,0,0,0,31.625,8.9,0.0,-6946,-229,0,33.125,9.0,0.0,0,0,0,0.0,9.2,0.0,0,0,0,0.0,9.2,0.0,0,0,0,0.0,9.25,0.0,0,0,0,kReverse,kOff,-88.22,1.77,1.77,-0.12298584,-1.0133667,-0.6599121,26.37,0.0,-159.0,-0.0061950684,-0.8052521,
416.03414000000004,true,true,true,33.125,8.9,0.0,-14606,-252,0,34.25,8.850000000000001,0.0,0,0,0,30.625,8.9,0.0,-7007,-251,0,32.0,9.0,0.0,0,0,0,0.0,9.2,0.0,0,0,0,0.0,9.2,0.0,0,0,0,0.0,9.25,0.0,0,0,0,kReverse,kOff,-88.17,1.69,1.69,0.10266113,-1.2052612,-0.6085205,26.37,0.0,62.0,-0.00680542,-0.81959534,
416.055616,true,true,true,31.125,8.9,0.0,-14675,-270,0,32.375,8.850000000000001,0.0,0,0,0,29.25,8.9,0.0,-7070,-269,0,31.125,9.0,0.0,0,0,0,0.0,9.2,0.0,0,0,0,0.0,9.2,0.0,0,0,0,0.0,9.25,0.0,0,0,0,kReverse,kOff,-87.54,1.83,1.83,-0.001159668,-0.7392578,-0.36688232,26.37,0.0,-26.0,-0.0077667236,-0.8498993,
416.075265,true,true,true,29.25,8.9,0.0,-14745,-286,0,30.625,8.850000000000001,0.0,0,0,0,28.125,8.9,0.0,-7138,-285,0,30.0,9.0,0.0,0,0,0,0.0,9.2,0.0,0,0,0,0.0,9.2,0.0,0,0,0,0.0,9.25,0.0,0,0,0,kReverse,kOff,-87.14,1.81,1.8,0.07006836,-1.1005249,-0.21875,26.37,0.0,34.0,-0.0082092285,-0.8656311,
416.097019,true,true,true,27.375,8.9,0.0,-14819,-302,0,28.875,8.850000000000001,0.0,0,0,0,27.0,8.9,0.0,-7210,-299,0,28.375,9.0,0.0,0,0,0,0.0,9.2,0.0,0,0,0,0.0,9.2,0.0,0,0,0,0.0,10.100000000000001,0.0,0,0,0,kReverse,kOff,-86.73,1.76,1.76,0.012145996,-1.3699951,-0.1953125,26.37,0.0,-30.0,-0.008651733,-0.8815613,
416.118511,true,true,true,26.125,9.850000000000001,0.0,-14889,-318,0,27.125,9.8,0.0,0,0,0,25.75,9.850000000000001,0.0,-7285,-314,0,26.5,9.95,0.0,0,0,0,0.0,10.100000000000001,0.0,0,0,0,0.0,10.100000000000001,0.0,0,0,0,0.0,10.100000000000001,0.0,0,0,0,kReverse,kOff,-86.83,1.8,1.79,0.2088623,-1.239685,-0.076171875,26.36,0.0,169.0,-0.009399414,-0.9136505,
416.13818699999996,true,true,true,24.625,9.850000000000001,0.0,-14965,-335,0,26.0,9.8,0.0,0,0,0,25.0,9.850000000000001,0.0,-7356,-329,0,25.5,9.95,0.0,0,0,0,0.0,10.100000000000001,0.0,0,0,0,0.0,10.100000000000001,0.0,0,0,0,0.0,10.100000000000001,0.0,0,0,0,kReverse,kOff,-86.98,1.84,1.83,0.02331543,-1.1291504,-0.50268555,26.36,0.0,-15.0,-0.009613037,-0.93003845,
416.159425,true,true,true,23.875,9.850000000000001,0.0,-15048,-351,0,25.375,9.8,0.0,0,0,0,24.25,9.850000000000001,0.0,-7437,-345,0,24.875,9.95,0.0,0,0,0,0.0,10.100000000000001,0.0,0,0,0,0.0,10.100000000000001,0.0,0,0,0,0.0,10.100000000000001,0.0,0,0,0,kReverse,kOff,-86.76,1.7,1.67,0.04119873,-1.0909424,0.057250977,26.36,0.0,9.0,-0.010345459,-0.96429443,
416.183815,true,true,true,22.75,9.850000000000001,0.0,-15131,-365,0,23.0,9.8,0.0,0,0,0,22.625,9.850000000000001,0.0,-7602,-372,0,23.125,9.95,0.0,0,0,0,0.0,10.100000000000001,0.0,0,0,0,0.0,10.100000000000001,0.0,0,0,0,0.0,10.100000000000001,0.0,0,0,0,kReverse,kOff,-86.77,1.76,1.73,0.028625488,-1.0995483,-0.18682861,26.36,0.0,-6.0,-0.0107421875,-0.9815521,
416.20244799999995,true,true,true,22.5,9.850000000000001,0.0,-15209,-377,0,23.0,9.8,0.0,0,0,0,21.25,9.850000000000001,0.0,-7689,-385,0,21.875,9.95,0.0,0,0,0,0.0,10.100000000000001,0.0,0,0,0,0.0,10.100000000000001,0.0,0,0,0,0.0,10.100000000000001,0.0,0,0,0,kReverse,kOff,-86.5,1.8,1.77,0.25769043,-1.46521,-0.6553345,26.36,0.0,205.0,-0.011016846,-0.99931335,
416.223544,true,true,true,21.5,9.850000000000001,0.0,-15296,-389,0,21.0,9.8,0.0,0,0,0,21.25,9.850000000000001,0.0,-7775,-396,0,21.125,9.95,0.0,0,0,0,0.0,10.100000000000001,0.0,0,0,0,0.0,10.100000000000001,0.0,0,0,0,0.0,10.100000000000001,0.0,0,0,0,kReverse,kOff,-85.91,1.79,1.75,0.03265381,-1.3460693,0.13922119,26.36,0.0,-7.0,-0.011444092,-1.0361023,
416.25536999999997,true,true,true,18.875,9.850000000000001,0.0,-15469,-410,0,19.75,9.8,0.0,0,0,0,18.625,9.850000000000001,0.0,-7861,-407,0,19.5,9.95,0.0,0,0,0,0.0,10.100000000000001,0.0,0,0,0,0.0,10.100000000000001,0.0,0,0,0,0.0,10.100000000000001,0.0,0,0,0,kReverse,kOff,-85.79,1.85,1.82,0.10418701,-0.6992798,-0.54248047,26.36,0.0,76.0,-0.01171875,-1.073288,
416.277452,true,true,true,15.25,11.0,0.0,-15558,-419,0,18.375,10.850000000000001,0.0,0,0,0,13.375,11.0,0.0,-7946,-417,0,14.75,11.0,0.0,0,0,0,0.0,11.100000000000001,0.0,0,0,0,0.0,11.2,0.0,0,0,0,0.0,11.2,0.0,0,0,0,kReverse,kOff,-85.94,1.89,1.86,0.041503906,-1.1743164,0.07348633,26.36,0.0,4.0,-0.011642456,-1.1112976,
416.29909299999997,true,true,true,9.5,11.0,0.0,-15638,-426,0,12.625,10.850000000000001,0.0,0,0,0,8.25,11.0,0.0,-8017,-422,0,9.0,11.0,0.0,0,0,0,0.0,11.100000000000001,0.0,0,0,0,0.0,11.2,0.0,0,0,0,0.0,11.2,0.0,0,0,0,kReverse,kOff,-86.07,1.85,1.82,0.033691406,-0.64697266,-0.008728027,26.36,0.0,13.0,-0.011566162,-1.1300964,
416.31870000000004,true,true,true,4.75,11.0,0.0,-15707,-427,0,7.625,10.850000000000001,0.0,0,0,0,3.875,11.0,0.0,-8089,-420,0,5.0,11.0,0.0,0,0,0,0.0,11.100000000000001,0.0,0,0,0,0.0,11.2,0.0,0,0,0,0.0,11.2,0.0,0,0,0,kReverse,kOff,-85.98,1.82,1.78,-0.022399902,-0.72821045,0.21490479,26.36,0.0,30.0,-0.011444092,-1.1671448,
416.34239299999996,true,true,true,0.0,11.0,0.0,-15771,-417,0,3.625,10.850000000000001,0.0,0,0,0,0.0,11.0,0.0,-8151,-409,0,0.0,11.0,0.0,0,0,0,0.0,11.100000000000001,0.0,0,0,0,0.0,11.2,0.0,0,0,0,0.0,11.2,0.0,0,0,0,kReverse,kOff,-86.26,1.71,1.66,-0.08337402,-0.53204346,0.22662354,26.36,0.0,-95.0,-0.011444092,-1.1854095,
416.36271,true,true,true,0.0,11.0,0.0,-15843,-401,0,0.0,10.850000000000001,0.0,0,0,0,0.0,11.0,0.0,-8290,-374,0,0.0,11.0,0.0,0,0,0,0.0,11.100000000000001,0.0,0,0,0,0.0,11.2,0.0,0,0,0,0.0,11.2,0.0,0,0,0,kReverse,kOff,-86.94,1.78,1.74,-0.059753418,-1.0262451,0.93566895,26.36,0.0,-75.0,-0.011550903,-1.2028351,
416.38855,true,true,true,0.0,11.0,0.0,-15974,-363,0,0.0,10.850000000000001,0.0,0,0,0,0.0,11.0,0.0,-8350,-357,0,0.0,11.0,0.0,0,0,0,0.0,11.100000000000001,0.0,0,0,0,0.0,11.2,0.0,0,0,0,0.0,11.2,0.0,0,0,0,kReverse,kOff,-88.09,1.82,1.82,0.128479,-0.31622314,0.7366333,26.36,0.0,122.0,-0.011489868,-1.2334595,
416.414174,true,true,true,0.0,11.0,0.0,-16029,-346,0,0.0,10.850000000000001,0.0,0,0,0,0.0,11.0,0.0,-8407,-342,0,0.0,11.0,0.0,0,0,0,0.0,11.100000000000001,0.0,0,0,0,0.0,11.2,0.0,0,0,0,0.0,11.2,0.0,0,0,0,kReverse,kOff,-88.07,1.9,1.9,0.115112305,-1.177185,0.73724365,26.36,0.0,80.0,-0.011276245,-1.2601318,
416.437916,true,true,true,0.375,12.700000000000001,0.0,-16083,-331,0,0.0,12.75,0.0,0,0,0,0.125,12.75,0.0,-8464,-328,0,0.0,12.9,0.0,0,0,0,0.0,12.75,0.0,0,0,0,0.0,12.75,0.0,0,0,0,0.0,12.8,0.0,0,0,0,kReverse,kOff,-87.49,1.91,1.93,-0.17492676,-0.27520752,1.2137451,26.36,0.0,-165.0,-0.011276245,-1.2820892,
416.462473,true,true,true,6.25,12.700000000000001,0.0,-16124,-315,0,1.875,12.75,0.0,0,0,0,0.0,12.75,0.0,-8523,-317,0,1.0,12.9,0.0,0,0,0,0.0,12.75,0.0,0,0,0,0.0,12.75,0.0,0,0,0,0.0,12.8,0.0,0,0,0,kReverse,kOff,-86.86,1.97,2.02,-0.115722656,-1.0575562,0.58807373,26.36,0.0,-143.0,-0.011581421,-1.2911377,
416.48470000000003,true,true,true,19.875,12.700000000000001,0.0,-16136,-289,0,24.125,12.75,0.0,0,0,0,3.625,12.75,0.0,-8667,-305,0,5.625,12.9,0.0,0,0,0,0.0,12.75,0.0,0,0,0,0.0,12.75,0.0,0,0,0,0.0,12.8,0.0,0,0,0,kReverse,kOff,-86.45,2.02,2.07,-0.41888428,0.44921875,0.5228882,26.36,0.0,-393.0,-0.012252808,-1.2994232,
416.507143,true,true,true,48.75,12.700000000000001,0.0,-16093,-187,0,36.25,12.75,0.0,0,0,0,8.75,12.75,0.0,-8751,-311,0,10.25,12.9,0.0,0,0,0,0.0,12.75,0.0,0,0,0,0.0,12.75,0.0,0,0,0,0.0,12.8,0.0,0,0,0,kReverse,kOff,-85.2,1.68,1.68,-0.2290039,-0.49365234,1.2511597,26.36,0.0,-244.0,-0.013885498,-1.3106079,
416.53130200000004,true,true,true,50.5,12.700000000000001,0.0,-16058,-110,0,43.75,12.75,0.0,0,0,0,12.375,12.75,0.0,-8829,-330,0,14.75,12.9,0.0,0,0,0,0.0,12.75,0.0,0,0,0,0.0,12.75,0.0,0,0,0,0.0,12.8,0.0,0,0,0,kReverse,kOff,-84.99,1.56,1.48,-0.13275146,-1.0817871,1.2948608,26.36,0.0,-185.0,-0.01499939,-1.3135223,
416.55071000000004,true,true,true,46.375,12.700000000000001,0.0,-16010,-25,0,45.375,12.75,0.0,0,0,0,16.0,12.75,0.0,-8903,-350,0,17.875,12.9,0.0,0,0,0,0.0,12.75,0.0,0,0,0,0.0,12.75,0.0,0,0,0,0.0,12.8,0.0,0,0,0,kReverse,kOff,-84.82,1.36,0.99,0.17956543,-1.0732422,0.744751,26.36,0.0,104.0,-0.018005371,-1.3143768,
416.569564,true,true,true,42.0,12.700000000000001,0.0,-15951,60,0,42.875,12.75,0.0,0,0,0,18.125,12.75,0.0,-8980,-367,0,19.875,12.9,0.0,0,0,0,0.0,12.75,0.0,0,0,0,0.0,9.850000000000001,0.0,0,0,0,0.0,9.850000000000001,0.0,0,0,0,kReverse,kOff,-84.29,1.34,0.26,0.0064086914,-0.98516846,0.3147583,26.36,0.0,-58.0,-0.023498535,-1.315445,
416.63136,true,true,true,31.125,9.600000000000001,0.0,-15763,246,0,31.875,9.5,0.0,0,0,0,19.375,9.65,0.0,-9217,-385,0,20.75,9.75,0.0,0,0,0,0.0,9.850000000000001,0.0,0,0,0,0.0,9.850000000000001,0.0,0,0,0,0.0,9.850000000000001,0.0,0,0,0,kReverse,kOff,-83.79,1.27,-1.67,-0.6060791,-0.7010498,0.0107421875,26.3,0.0,-531.0,-0.03804016,-1.3139038,
416.690554,true,true,true,32.25,9.600000000000001,0.0,-15587,303,0,33.25,9.5,0.0,0,0,0,17.125,9.65,0.0,-9471,-400,0,18.5,9.75,0.0,0,0,0,0.0,9.850000000000001,0.0,0,0,0,0.0,9.850000000000001,0.0,0,0,0,0.0,9.850000000000001,0.0,0,0,0,kReverse,kOff,-83.88,1.02,-2.34,-0.3998413,-1.4119263,0.8475952,26.3,0.0,-607.0,-0.047531128,-1.3114166,
416.713924,true,true,true,33.5,9.600000000000001,0.0,-15528,303,0,34.375,9.5,0.0,0,0,0,16.375,9.65,0.0,-9555,-407,0,17.625,9.75,0.0,0,0,0,0.0,9.850000000000001,0.0,0,0,0,0.0,9.850000000000001,0.0,0,0,0,0.0,9.850000000000001,0.0,0,0,0,kReverse,kOff,-82.66,0.78,-4.55,-0.0115356445,-0.9784546,1.1617432,26.3,0.0,-630.0,-0.05355835,-1.3087921,
416.73438500000003,true,true,true,33.875,9.600000000000001,0.0,-15470,299,0,34.875,9.5,0.0,0,0,0,16.625,9.65,0.0,-9639,-413,0,17.5,9.75,0.0,0,0,0,0.0,9.850000000000001,0.0,0,0,0,0.0,9.850000000000001,0.0,0,0,0,0.0,9.850000000000001,0.0,0,0,0,kReverse,kOff,-82.08,1.04,-5.53,0.019714355,-1.0861206,0.24707031,26.3,0.0,-62.0,-0.060073853,-1.3055573,
416.756148,true,true,true,32.25,9.65,0.0,-15406,296,0,33.5,9.8,0.0,0,0,0,17.125,9.8,0.0,-9723,-418,0,18.0,9.850000000000001,0.0,0,0,0,0.0,10.0,0.0,0,0,0,0.0,9.95,0.0,0,0,0,0.0,10.0,0.0,0,0,0,kReverse,kOff,-81.64,1.65,-7.42,0.20043945,-1.2706299,0.04333496,26.3,0.0,212.0,-0.07247925,-1.2984009,
416.778343,true,true,true,29.5,9.65,0.0,-15332,297,0,30.75,9.8,0.0,0,0,0,18.0,9.8,0.0,-9806,-421,0,18.625,9.850000000000001,0.0,0,0,0,0.0,10.0,0.0,0,0,0,0.0,9.95,0.0,0,0,0,0.0,10.0,0.0,0,0,0,kReverse,kOff,-81.27,2.03,-8.89,0.08013916,-0.98876953,-0.045166016,26.3,0.0,178.0,-0.07826233,-1.2947388,
416.798875,true,true,true,26.625,9.65,0.0,-15262,304,0,28.125,9.8,0.0,0,0,0,18.75,9.8,0.0,-9890,-422,0,19.375,9.850000000000001,0.0,0,0,0,0.0,10.0,0.0,0,0,0,0.0,9.95,0.0,0,0,0,0.0,10.0,0.0,0,0,0,kReverse,kOff,-81.14,2.5,-12.87,-0.056762695,-1.2686768,-0.1385498,26.3,0.0,232.0,-0.08892822,-1.2881927,
416.82271399999996,true,true,true,24.125,9.65,0.0,-15187,316,0,25.875,9.8,0.0,0,0,0,18.625,9.8,0.0,-10055,-418,0,20.25,9.850000000000001,0.0,0,0,0,0.0,10.0,0.0,0,0,0,0.0,9.95,0.0,0,0,0,0.0,10.0,0.0,0,0,0,kReverse,kOff,-81.58,2.65,-19.76,-0.11871338,-0.5999756,0.2642212,26.3,0.0,-216.0,-0.09907532,-1.2827148,
416.851166,true,true,true,18.75,9.65,0.0,-15040,348,0,22.75,9.8,0.0,0,0,0,15.5,9.8,0.0,-10133,-416,0,16.125,9.850000000000001,0.0,0,0,0,0.0,10.0,0.0,0,0,0,0.0,9.95,0.0,0,0,0,0.0,10.0,0.0,0,0,0,kReverse,kOff,-81.9,2.7,-25.92,-0.15319824,-1.0238647,0.39245605,26.3,0.0,-294.0,-0.10456848,-1.2802124,
416.87478600000003,true,true,true,12.125,9.65,0.0,-14976,358,0,17.125,9.8,0.0,0,0,0,10.0,9.8,0.0,-10207,-412,0,10.875,9.850000000000001,0.0,0,0,0,0.0,10.0,0.0,0,0,0,0.0,9.95,0.0,0,0,0,0.0,10.0,0.0,0,0,0,kReverse,kOff,-82.37,2.78,-59.09,-0.07476807,-1.0991211,0.18414307,26.3,0.0,-56.0,-0.11621094,-1.2760773,
416.896995,true,true,true,5.375,9.65,0.0,-14925,358,0,10.5,9.8,0.0,0,0,0,4.125,9.8,0.0,-10263,-404,0,5.0,9.850000000000001,0.0,0,0,0,0.0,10.0,0.0,0,0,0,0.0,9.95,0.0,0,0,0,0.0,10.0,0.0,0,0,0,kReverse,kOff,-82.64,2.87,-95.18,-0.22796631,-1.1270142,-0.1251831,26.3,0.0,250.0,-0.12731934,-1.2729492,
416.918952,true,true,true,1.125,12.35,0.0,-14889,344,0,2.75,12.35,0.0,0,0,0,1.375,12.35,0.0,-10305,-384,0,2.0,12.4,0.0,0,0,0,0.0,12.35,0.0,0,0,0,0.0,12.35,0.0,0,0,0,0.0,12.4,0.0,0,0,0,kReverse,kOff,-83.34,3.11,-145.7,0.333313,-0.81500244,-0.9751587,26.3,0.0,992.0,-0.1318512,-1.2711945,
416.941396,true,true,true,0.0,12.35,0.0,-14853,316,0,0.0,12.35,0.0,0,0,0,0.0,12.35,0.0,-10344,-356,0,0.0,12.4,0.0,0,0,0,0.0,12.35,0.0,0,0,0,0.0,12.35,0.0,0,0,0,0.0,12.4,0.0,0,0,0,kReverse,kOff,-83.61,3.46,-154.77,0.67077637,-0.57366943,-0.4772339,26.3,0.0,373.0,-0.13545227,-1.2686005,
416.96300099999996,true,true,true,0.125,12.35,0.0,-14805,283,0,0.0,12.35,0.0,0,0,0,0.125,12.35,0.0,-10428,-280,0,0.125,12.4,0.0,0,0,0,0.0,12.35,0.0,0,0,0,0.0,12.35,0.0,0,0,0,0.0,12.4,0.0,0,0,0,kReverse,kOff,-83.78,4.13,-162.78,0.3894043,-1.0870972,-0.038269043,26.3,0.0,19.0,-0.1421814,-1.2612915,
416.985554,true,true,true,0.0,12.35,0.0,-14756,252,0,0.0,12.35,0.0,0,0,0,0.125,12.35,0.0,-10460,-245,0,0.125,12.4,0.0,0,0,0,0.0,12.35,0.0,0,0,0,0.0,12.35,0.0,0,0,0,0.0,12.4,0.0,0,0,0,kReverse,kOff,-83.66,4.26,-164.37,0.22998047,-0.727417,-0.32006836,26.3,0.0,285.0,-0.14533997,-1.2569275,
417.011445,true,true,true,0.0,12.35,0.0,-14665,221,0,0.0,12.35,0.0,0,0,0,0.125,12.35,0.0,-10491,-216,0,0.125,12.4,0.0,0,0,0,0.0,12.35,0.0,0,0,0,0.0,12.35,0.0,0,0,0,0.0,12.4,0.0,0,0,0,kReverse,kOff,-84.08,4.38,-167.98,0.16082764,-0.9573364,-0.04425049,26.3,0.0,58.0,-0.1510315,-1.2474365,
417.03547399999997,true,true,true,0.0,12.35,0.0,-14627,221,0,0.0,12.35,0.0,0,0,0,0.125,12.35,0.0,-10517,-195,0,0.125,12.4,0.0,0,0,0,0.0,12.35,0.0,0,0,0,0.0,12.35,0.0,0,0,0,0.0,12.4,0.0,0,0,0,kReverse,kOff,-84.36,4.47,-170.02,0.28216553,-1.277832,0.2666626,26.3,0.0,-256.0,-0.1572113,-1.237503,
417.057525,true,true,true,0.125,12.35,0.0,-14595,221,0,0.0,12.35,0.0,0,0,0,0.125,12.35,0.0,-10540,-178,0,0.125,12.4,0.0,0,0,0,0.0,12.35,0.0,0,0,0,0.0,12.35,0.0,0,0,0,0.0,12.25,0.0,0,0,0,kReverse,kOff,-84.34,4.52,-170.42,0.16577148,-1.0071411,0.19683838,26.3,0.0,-161.0,-0.16075134,-1.2324677,
417.081049,true,true,true,2.625,12.200000000000001,0.0,-14580,213,0,0.25,12.3,0.0,0,0,0,0.125,12.25,0.0,-10559,-162,0,5.75,12.25,0.0,0,0,0,0.0,12.25,0.0,0,0,0,0.0,12.1,0.0,0,0,0,0.0,12.25,0.0,0,0,0,kReverse,kOff,-84.4,4.53,-170.91,0.13421631,-2.0,0.20904541,26.3,0.0,-62.0,-0.16444397,-1.2274933,
417.10198099999997,true,true,true,8.5,12.200000000000001,0.0,-14579,190,0,5.875,12.3,0.0,0,0,0,6.5,12.25,0.0,-10563,-140,0,5.75,12.25,0.0,0,0,0,0.0,12.25,0.0,0,0,0,0.0,12.1,0.0,0,0,0,0.0,12.25,0.0,0,0,0,kReverse,kOff,-84.49,4.38,-171.27,-0.16137695,-1.2959595,-0.8168335,26.3,0.0,864.0,-0.16758728,-1.2223358,
417.128685,true,true,true,31.0,12.200000000000001,0.0,-14586,111,0,24.0,12.3,0.0,0,0,0,26.625,12.25,0.0,-10540,-83,0,22.125,12.25,0.0,0,0,0,0.0,12.25,0.0,0,0,0,0.0,12.1,0.0,0,0,0,0.0,12.25,0.0,0,0,0,kReverse,kOff,-84.88,4.65,-172.7,0.576355,-0.8034668,-0.4156494,26.23,0.0,32.0,-0.17114258,-1.2088623,
417.15676299999996,true,true,true,39.625,12.200000000000001,0.0,-14597,66,0,34.5,12.3,0.0,0,0,0,32.0,12.25,0.0,-10516,-45,0,27.0,12.25,0.0,0,0,0,0.0,12.25,0.0,0,0,0,0.0,12.1,0.0,0,0,0,0.0,12.25,0.0,0,0,0,kReverse,kOff,-84.74,5.03,-173.02,-0.14776611,-0.98205566,-0.920105,26.23,0.0,891.0,-0.17393494,-1.1923523,
417.17956599999997,true,true,true,44.25,12.200000000000001,0.0,-14616,24,0,41.375,12.3,0.0,0,0,0,32.125,12.25,0.0,-10482,0,0,27.25,12.25,0.0,0,0,0,0.0,12.25,0.0,0,0,0,0.0,12.1,0.0,0,0,0,0.0,12.25,0.0,0,0,0,kReverse,kOff,-85.35,4.63,-175.07,-0.041992188,-1.2144165,-0.17041016,26.23,0.0,223.0,-0.17274475,-1.1744385,
417.205941,true,true,true,42.375,12.200000000000001,0.0,-14642,-13,0,38.0,12.3,0.0,0,0,0,23.625,12.25,0.0,-10406,91,0,21.625,12.25,0.0,0,0,0,0.0,12.25,0.0,0,0,0,0.0,12.1,0.0,0,0,0,0.0,12.25,0.0,0,0,0,kReverse,kOff,-85.32,4.66,-174.81,0.12390137,-1.4789429,-0.17254639,26.23,0.0,149.0,-0.17144775,-1.1653748,
417.235638,true,true,true,26.125,10.5,0.0,-14700,-74,0,30.625,10.45,0.0,0,0,0,16.5,10.600000000000001,0.0,-10375,130,0,16.125,10.65,0.0,0,0,0,0.0,10.7,0.0,0,0,0,0.0,10.8,0.0,0,0,0,0.0,10.850000000000001,0.0,0,0,0,kReverse,kOff,-84.91,5.05,-173.94,0.2748413,-1.420105,-0.2949829,26.23,0.0,194.0,-0.16777039,-1.1459656,
417.254867,true,true,true,16.375,10.5,0.0,-14731,-99,0,21.5,10.45,0.0,0,0,0,9.625,10.600000000000001,0.0,-10342,154,0,10.5,10.65,0.0,0,0,0,0.0,10.7,0.0,0,0,0,0.0,10.8,0.0,0,0,0,0.0,10.850000000000001,0.0,0,0,0,kReverse,kOff,-84.45,5.49,-172.98,-0.024719238,-0.8590698,0.08026123,26.23,0.0,-18.0,-0.16377258,-1.1257477,
417.284684,true,true,true,8.625,10.5,0.0,-14760,-120,0,4.75,10.45,0.0,0,0,0,1.75,10.600000000000001,0.0,-10294,166,0,2.25,10.65,0.0,0,0,0,0.0,10.7,0.0,0,0,0,0.0,10.8,0.0,0,0,0,0.0,10.850000000000001,0.0,0,0,0,kReverse,kOff,-84.23,5.56,-170.34,-0.11791992,-0.8359375,-0.078430176,26.23,0.0,163.0,-0.1599884,-1.1062622,
417.318397,true,true,true,0.25,10.5,0.0,-14807,-141,0,1.25,10.45,0.0,0,0,0,0.125,10.600000000000001,0.0,-10278,156,0,0.125,10.65,0.0,0,0,0,0.0,10.7,0.0,0,0,0,0.0,10.8,0.0,0,0,0,0.0,10.850000000000001,0.0,0,0,0,kReverse,kOff,-84.2,5.37,-167.18,-0.20367432,-1.1057129,0.13763428,26.23,0.0,-6.0,-0.15797424,-1.0879364,
417.337918,true,true,true,0.0,10.5,0.0,-14826,-139,0,0.125,10.45,0.0,0,0,0,0.125,10.600000000000001,0.0,-10267,139,0,0.0,10.65,0.0,0,0,0,0.0,10.7,0.0,0,0,0,0.0,10.8,0.0,0,0,0,0.0,10.850000000000001,0.0,0,0,0,kReverse,kOff,-84.28,5.25,-165.99,-0.1439209,-1.0337524,-0.035949707,26.23,0.0,132.0,-0.15788269,-1.0793304,
417.358851,true,true,true,0.0,10.5,0.0,-14848,-132,0,0.125,10.45,0.0,0,0,0,0.125,10.600000000000001,0.0,-10253,120,0,0.0,10.65,0.0,0,0,0,0.0,10.7,0.0,0,0,0,0.0,10.8,0.0,0,0,0,0.0,10.850000000000001,0.0,0,0,0,kReverse,kOff,-84.47,5.02,-163.46,-0.16375732,-0.97314453,0.23132324,26.23,0.0,-141.0,-0.15744019,-1.0632172,
417.378996,true,true,true,0.0,10.5,0.0,-14871,-123,0,0.0,10.45,0.0,0,0,0,0.125,10.600000000000001,0.0,-10234,102,0,0.0,10.65,0.0,0,0,0,0.0,10.7,0.0,0,0,0,0.0,10.8,0.0,0,0,0,0.0,12.4,0.0,0,0,0,kReverse,kOff,-84.49,4.9,-160.94,-0.13580322,-0.8986206,0.12384033,26.23,0.0,-48.0,-0.15736389,-1.0556946,
417.401701,true,true,true,0.0,12.35,0.0,-14896,-115,0,0.0,12.35,0.0,0,0,0,0.125,12.3,0.0,-10219,89,0,0.0,12.35,0.0,0,0,0,0.0,12.35,0.0,0,0,0,0.0,12.35,0.0,0,0,0,0.0,12.4,0.0,0,0,0,kReverse,kOff,-84.52,4.86,-158.87,0.044555664,-1.0279541,0.11895752,26.23,0.0,-66.0,-0.15736389,-1.0483704,
417.423747,true,true,true,0.0,12.35,0.0,-14918,-111,0,0.0,12.35,0.0,0,0,0,0.125,12.3,0.0,-10197,73,0,0.0,12.35,0.0,0,0,0,0.0,12.35,0.0,0,0,0,0.0,12.35,0.0,0,0,0,0.0,12.4,0.0,0,0,0,kReverse,kOff,-84.48,4.94,-153.5,0.043029785,-1.1398926,0.23394775,26.23,0.0,-178.0,-0.15785217,-1.033844,
417.444092,true,true,true,0.0,12.35,0.0,-14939,-110,0,0.0,12.35,0.0,0,0,0,0.125,12.3,0.0,-10188,70,0,0.0,12.35,0.0,0,0,0,0.0,12.35,0.0,0,0,0,0.0,12.35,0.0,0,0,0,0.0,12.4,0.0,0,0,0,kReverse,kOff,-84.45,4.9,-148.11,-0.016479492,-0.89123535,0.06842041,26.23,0.0,-20.0,-0.1583252,-1.0267334,
417.467062,true,true,true,0.0,12.35,0.0,-14974,-110,0,0.0,12.35,0.0,0,0,0,0.125,12.3,0.0,-10181,65,0,0.0,12.35,0.0,0,0,0,0.0,12.35,0.0,0,0,0,0.0,12.35,0.0,0,0,0,0.0,12.4,0.0,0,0,0,kReverse,kOff,-84.43,4.81,-132.89,0.010559082,-1.0582886,0.043823242,26.23,0.0,11.0,-0.15911865,-1.0128784,
417.49057799999997,true,true,true,0.0,12.35,0.0,-14990,-106,0,0.0,12.35,0.0,0,0,0,0.125,12.3,0.0,-10174,59,0,0.0,12.35,0.0,0,0,0,0.0,12.35,0.0,0,0,0,0.0,12.35,0.0,0,0,0,0.0,12.4,0.0,0,0,0,kReverse,kOff,-84.43,4.76,-121.23,-0.019958496,-1.0184937,0.17529297,26.23,0.0,-120.0,-0.1595459,-1.006134,
417.51259600000003,true,true,true,0.0,12.35,0.0,-15006,-99,0,0.0,12.35,0.0,0,0,0,0.125,12.3,0.0,-10168,51,0,0.0,12.35,0.0,0,0,0,0.0,12.35,0.0,0,0,0,0.0,12.35,0.0,0,0,0,0.0,12.4,0.0,0,0,0,kReverse,kOff,-84.41,4.64,-95.24,-0.037231445,-0.92718506,0.09423828,26.23,0.0,-43.0,-0.16073608,-0.9931488,
417.53199199999995,true,true,true,0.0,12.35,0.0,-15021,-92,0,0.0,12.35,0.0,0,0,0,0.125,12.3,0.0,-10164,43,0,0.0,12.35,0.0,0,0,0,0.0,12.35,0.0,0,0,0,0.0,12.35,0.0,0,0,0,0.0,12.4,0.0,0,0,0,kReverse,kOff,-84.45,4.59,-82.62,0.0053710938,-0.96661377,0.031982422,26.23,0.0,19.0,-0.16137695,-0.9868622,
417.55521999999996,true,true,true,0.0,12.35,0.0,-15034,-85,0,0.0,12.4,0.0,0,0,0,0.125,12.35,0.0,-10161,36,0,0.0,12.4,0.0,0,0,0,0.0,12.4,0.0,0,0,0,0.0,12.4,0.0,0,0,0,0.0,12.4,0.0,0,0,0,kReverse,kOff,-84.4,4.52,-62.9,0.02178955,-1.0726318,0.16937256,26.23,0.0,-109.0,-0.16305542,-0.97447205,
417.575577,true,true,true,0.0,12.35,0.0,-15046,-79,0,0.0,12.4,0.0,0,0,0,0.125,12.35,0.0,-10159,30,0,0.0,12.4,0.0,0,0,0,0.0,12.4,0.0,0,0,0,0.0,12.4,0.0,0,0,0,0.0,12.4,0.0,0,0,0,kReverse,kOff,-84.33,4.48,-57.49,-0.021240234,-0.94885254,0.1430664,26.23,0.0,-88.0,-0.16412354,-0.96842957,
417.597614,true,true,true,0.125,12.35,0.0,-15057,-74,0,0.0,12.4,0.0,0,0,0,0.375,12.35,0.0,-10156,24,0,0.25,12.4,0.0,0,0,0,0.0,12.4,0.0,0,0,0,0.0,12.4,0.0,0,0,0,0.0,12.4,0.0,0,0,0,kReverse,kOff,-84.26,4.44,-50.13,0.048095703,-0.9720459,0.14190674,26.23,0.0,-81.0,-0.16664124,-0.95651245,
417.618793,true,true,true,0.5,12.35,0.0,-15071,-69,0,0.25,12.4,0.0,0,0,0,0.5,12.35,0.0,-10147,21,0,0.625,12.4,0.0,0,0,0,0.0,12.4,0.0,0,0,0,0.0,12.4,0.0,0,0,0,0.0,12.4,0.0,0,0,0,kReverse,kOff,-84.24,4.4,-48.17,-0.058532715,-0.8532715,0.11114502,26.23,0.0,-62.0,-0.1680603,-0.95066833,
417.640698,true,true,true,1.5,12.35,0.0,-15090,-67,0,1.0,12.4,0.0,0,0,0,1.125,12.35,0.0,-10135,21,0,2.625,12.4,0.0,0,0,0,0.0,12.4,0.0,0,0,0,0.0,12.4,0.0,0,0,0,0.0,12.4,0.0,0,0,0,kReverse,kOff,-84.37,4.17,-44.92,-0.112854004,-0.81347656,-0.10223389,26.19,0.0,144.0,-0.1710968,-0.939682,
417.665303,true,true,true,2.5,12.35,0.0,-15109,-68,0,3.375,12.4,0.0,0,0,0,3.75,12.35,0.0,-10129,28,0,3.875,12.4,0.0,0,0,0,0.0,12.4,0.0,0,0,0,0.0,12.4,0.0,0,0,0,0.0,12.4,0.0,0,0,0,kReverse,kOff,-84.4,4.22,-40.7,0.30493164,-0.7200928,-0.40881348,26.19,0.0,470.0,-0.17218018,-0.9342804,
417.687644,true,true,true,3.625,12.35,0.0,-15120,-71,0,4.25,12.4,0.0,0,0,0,4.375,12.35,0.0,-10123,30,0,4.375,12.4,0.0,0,0,0,0.0,12.4,0.0,0,0,0,0.0,12.4,0.0,0,0,0,0.0,12.4,0.0,0,0,0,kReverse,kOff,-84.42,4.49,-27.99,-0.18939209,-0.94018555,0.36627197,26.19,0.0,-335.0,-0.17410278,-0.922699,
417.708928,true,true,true,4.5,11.9,0.0,-15152,-76,0,4.625,11.9,0.0,0,0,0,4.625,11.850000000000001,0.0,-10115,31,0,4.625,11.9,0.0,0,0,0,0.0,11.9,0.0,0,0,0,0.0,11.9,0.0,0,0,0,0.0,12.0,0.0,0,0,0,kReverse,kOff,-84.46,4.27,-26.16,-0.33520508,-0.8954468,0.052368164,26.19,0.0,-40.0,-0.17547607,-0.9173126,
417.728051,true,true,true,4.125,11.9,0.0,-15170,-78,0,4.375,11.9,0.0,0,0,0,4.375,11.850000000000001,0.0,-10107,30,0,4.125,11.9,0.0,0,0,0,0.0,11.9,0.0,0,0,0,0.0,11.9,0.0,0,0,0,0.0,12.0,0.0,0,0,0,kReverse,kOff,-84.56,4.07,-23.39,0.055725098,-1.0048218,-0.22827148,26.19,0.0,286.0,-0.17666626,-0.91223145,
417.749955,true,true,true,4.0,11.9,0.0,-15190,-79,0,4.0,11.9,0.0,0,0,0,4.375,11.850000000000001,0.0,-10096,30,0,4.0,11.9,0.0,0,0,0,0.0,11.9,0.0,0,0,0,0.0,11.9,0.0,0,0,0,0.0,12.0,0.0,0,0,0,kReverse,kOff,-84.28,4.3,-18.17,0.16729736,-0.8491821,0.06341553,26.19,0.0,9.0,-0.17884827,-0.9014435,
417.776178,true,true,true,3.25,11.9,0.0,-15208,-81,0,3.25,11.9,0.0,0,0,0,3.5,11.850000000000001,0.0,-10085,33,0,3.375,11.9,0.0,0,0,0,0.0,11.9,0.0,0,0,0,0.0,11.9,0.0,0,0,0,0.0,12.0,0.0,0,0,0,kReverse,kOff,-84.44,4.16,-13.5,-0.12243652,-1.0249634,-0.086364746,26.19,0.0,109.0,-0.18074036,-0.8907471,
417.80859399999997,true,true,true,0.875,11.9,0.0,-15242,-87,0,1.0,11.9,0.0,0,0,0,1.25,11.850000000000001,0.0,-10067,44,0,1.25,11.9,0.0,0,0,0,0.0,11.9,0.0,0,0,0,0.0,11.9,0.0,0,0,0,0.0,12.0,0.0,0,0,0,kReverse,kOff,-84.3,4.1,-11.65,0.07110596,-0.98895264,0.18383789,26.19,0.0,-111.0,-0.18276978,-0.8806,
417.83036300000003,true,true,true,0.25,11.9,0.0,-15256,-89,0,0.25,11.9,0.0,0,0,0,0.5,11.850000000000001,0.0,-10064,47,0,0.375,11.9,0.0,0,0,0,0.0,11.9,0.0,0,0,0,0.0,11.9,0.0,0,0,0,0.0,12.0,0.0,0,0,0,kReverse,kOff,-84.29,4.09,-10.65,-0.011108398,-0.9885864,0.059020996,26.19,0.0,-11.0,-0.18395996,-0.87553406,
417.855499,true,true,true,0.0,11.9,0.0,-15267,-87,0,0.125,11.9,0.0,0,0,0,0.125,11.850000000000001,0.0,-10064,45,0,0.125,11.9,0.0,0,0,0,0.0,11.9,0.0,0,0,0,0.0,11.9,0.0,0,0,0,0.0,12.0,0.0,0,0,0,kReverse,kOff,-84.31,3.86,-9.67,-0.06677246,-0.88201904,0.23925781,26.19,0.0,-204.0,-0.18695068,-0.8658447,
417.878295,true,true,true,0.0,12.4,0.0,-15277,-81,0,0.0,12.4,0.0,0,0,0,0.125,12.4,0.0,-10062,38,0,0.0,12.4,0.0,0,0,0,0.0,12.4,0.0,0,0,0,0.0,12.4,0.0,0,0,0,0.0,12.450000000000001,0.0,0,0,0,kReverse,kOff,-84.26,3.73,-9.21,-0.11260986,-0.98358154,-0.049194336,26.19,0.0,61.0,-0.19049072,-0.8566284,
417.901264,true,true,true,0.0,12.4,0.0,-15287,-73,0,0.0,12.4,0.0,0,0,0,0.125,12.4,0.0,-10057,29,0,0.0,12.4,0.0,0,0,0,0.0,12.4,0.0,0,0,0,0.0,12.4,0.0,0,0,0,0.0,12.450000000000001,0.0,0,0,0,kReverse,kOff,-84.38,3.6,-8.8,-0.1217041,-0.95825195,0.12805176,26.19,0.0,-112.0,-0.192276,-0.8523712,
417.92164,true,true,true,0.0,12.4,0.0,-15300,-66,0,0.0,12.4,0.0,0,0,0,0.125,12.4,0.0,-10053,21,0,0.0,12.4,0.0,0,0,0,0.0,12.4,0.0,0,0,0,0.0,12.4,0.0,0,0,0,0.0,12.450000000000001,0.0,0,0,0,kReverse,kOff,-84.41,3.51,-8.38,0.08782959,-0.9598999,0.12799072,26.19,0.0,-41.0,-0.19630432,-0.84394836,
417.947793,true,true,true,0.0,12.4,0.0,-15325,-58,0,0.0,12.4,0.0,0,0,0,0.125,12.4,0.0,-10050,13,0,0.0,12.4,0.0,0,0,0,0.0,12.4,0.0,0,0,0,0.0,12.4,0.0,0,0,0,0.0,12.450000000000001,0.0,0,0,0,kReverse,kOff,-84.45,3.52,-7.97,0.054138184,-1.0557251,0.0803833,26.19,0.0,-5.0,-0.19841003,-0.83969116,
417.970106,true,true,true,0.0,12.4,0.0,-15335,-57,0,0.0,12.4,0.0,0,0,0,0.125,12.4,0.0,-10050,12,0,0.0,12.4,0.0,0,0,0,0.0,12.4,0.0,0,0,0,0.0,12.4,0.0,0,0,0,0.0,12.450000000000001,0.0,0,0,0,kReverse,kOff,-84.31,3.48,-8.12,0.030334473,-0.93304443,0.15075684,26.19,0.0,-81.0,-0.2028656,-0.83114624,
417.991698,true,true,true,0.0,12.4,0.0,-15342,-57,0,0.0,12.4,0.0,0,0,0,0.125,12.4,0.0,-10050,11,0,0.0,12.4,0.0,0,0,0,0.0,12.4,0.0,0,0,0,0.0,12.4,0.0,0,0,0,0.0,12.450000000000001,0.0,0,0,0,kReverse,kOff,-84.22,3.49,-8.25,0.07116699,-0.9383545,0.07244873,26.19,0.0,7.0,-0.20521545,-0.82684326,
418.01372499999997,true,true,true,0.0,12.4,0.0,-15347,-55,0,0.0,12.4,0.0,0,0,0,0.125,12.4,0.0,-10050,9,0,0.0,12.4,0.0,0,0,0,0.0,12.4,0.0,0,0,0,0.0,12.4,0.0,0,0,0,0.0,12.450000000000001,0.0,0,0,0,kReverse,kOff,-84.22,3.48,-8.14,0.012939453,-1.012146,0.1005249,26.19,0.0,-96.0,-0.21000671,-0.8183594,
418.034869,true,true,true,0.0,12.4,0.0,-15351,-50,0,0.0,12.4,0.0,0,0,0,0.125,12.4,0.0,-10050,5,0,0.0,12.4,0.0,0,0,0,0.0,12.4,0.0,0,0,0,0.0,12.4,0.0,0,0,0,0.0,12.450000000000001,0.0,0,0,0,kReverse,kOff,-84.19,3.38,-8.36,-0.040405273,-1.0128784,0.19519043,26.19,0.0,-140.0,-0.21263123,-0.814209,
418.057621,true,true,true,0.0,12.4,0.0,-15355,-42,0,0.0,12.4,0.0,0,0,0,0.125,12.4,0.0,-10050,2,0,0.0,12.4,0.0,0,0,0,0.0,12.4,0.0,0,0,0,0.0,12.4,0.0,0,0,0,0.0,12.450000000000001,0.0,0,0,0,kReverse,kOff,-84.17,3.28,-8.72,0.008178711,-0.99035645,0.23693848,26.19,0.0,-160.0,-0.21850586,-0.8060303,
418.078956,true,true,true,0.0,12.4,0.0,-15359,-34,0,0.0,12.4,0.0,0,0,0,0.125,12.4,0.0,-10050,1,0,0.0,12.4,0.0,0,0,0,0.0,12.4,0.0,0,0,0,0.0,12.4,0.0,0,0,0,0.0,12.450000000000001,0.0,0,0,0,kReverse,kOff,-84.15,3.23,-8.91,0.025634766,-0.9585571,0.14685059,26.19,0.0,-71.0,-0.22172546,-0.8060303,
418.103971,true,true,true,0.125,12.4,0.0,-15362,-28,0,0.25,12.4,0.0,0,0,0,0.125,12.4,0.0,-10053,0,0,0.0,12.4,0.0,0,0,0,0.0,12.4,0.0,0,0,0,0.0,12.4,0.0,0,0,0,0.0,12.450000000000001,0.0,0,0,0,kReverse,kOff,-84.05,3.2,-9.36,0.030456543,-1.0192261,0.1473999,26.19,0.0,-63.0,-0.22850037,-0.80599976,
418.13005,true,true,true,0.625,12.4,0.0,-15377,-21,0,0.375,12.4,0.0,0,0,0,0.5,12.4,0.0,-10062,-2,0,0.375,12.4,0.0,0,0,0,0.0,12.4,0.0,0,0,0,0.0,12.4,0.0,0,0,0,0.0,12.450000000000001,0.0,0,0,0,kReverse,kOff,-84.07,3.17,-9.46,0.050048828,-1.1133423,0.0881958,26.21,0.0,4.0,-0.23197937,-0.8060303,
418.15533899999997,true,true,true,1.25,12.4,0.0,-15390,-23,0,1.0,12.4,0.0,0,0,0,0.75,12.4,0.0,-10077,-8,0,0.875,12.4,0.0,0,0,0,0.0,12.4,0.0,0,0,0,0.0,12.4,0.0,0,0,0,0.0,12.450000000000001,0.0,0,0,0,kReverse,kOff,-84.07,3.27,-9.21,0.25317383,-1.09375,-0.33911133,26.21,0.0,472.0,-0.23147583,-0.8060608,
418.178154,true,true,true,2.0,12.4,0.0,-15397,-29,0,1.875,12.4,0.0,0,0,0,1.125,12.4,0.0,-10090,-19,0,1.25,12.4,0.0,0,0,0,0.0,12.4,0.0,0,0,0,0.0,12.4,0.0,0,0,0,0.0,12.450000000000001,0.0,0,0,0,kReverse,kOff,-84.07,3.27,-9.21,0.25317383,-1.09375,-0.33911133,26.21,0.0,472.0,-0.23147583,-0.8060608,
418.191147,true,true,true,2.625,12.1,0.0,-15404,-35,0,2.625,12.1,0.0,0,0,0,1.625,12.05,0.0,-10095,-30,0,2.0,12.1,0.0,0,0,0,0.0,12.1,0.0,0,0,0,0.0,12.1,0.0,0,0,0,0.0,12.15,0.0,0,0,0,kReverse,kOff,-84.18,3.37,-8.54,0.020202637,-0.951355,-0.1928711,26.21,0.0,239.0,-0.2305603,-0.8061218,
418.204159,true,true,true,2.625,12.1,0.0,-15404,-35,0,2.625,12.1,0.0,0,0,0,1.625,12.05,0.0,-10095,-30,0,2.0,12.1,0.0,0,0,0,0.0,12.1,0.0,0,0,0,0.0,12.1,0.0,0,0,0,0.0,12.15,0.0,0,0,0,kReverse,kOff,-84.36,3.27,-8.21,-0.16864014,-1.0477905,-0.20184326,26.21,0.0,216.0,-0.22825623,-0.80708313,
418.228777,true,true,true,3.125,12.1,0.0,-15421,-42,0,3.25,12.1,0.0,0,0,0,2.375,12.05,0.0,-10112,-47,0,2.5,12.1,0.0,0,0,0,0.0,12.1,0.0,0,0,0,0.0,12.1,0.0,0,0,0,0.0,12.15,0.0,0,0,0,kReverse,kOff,-84.72,3.07,-7.65,0.0927124,-1.0194702,-0.38146973,26.21,0.0,438.0,-0.22657776,-0.8079376,
418.255883,true,true,true,3.0,12.1,0.0,-15431,-44,0,3.25,12.1,0.0,0,0,0,2.75,12.05,0.0,-10120,-48,0,2.625,12.1,0.0,0,0,0,0.0,12.1,0.0,0,0,0,0.0,12.1,0.0,0,0,0,0.0,12.15,0.0,0,0,0,kReverse,kOff,-84.95,3.08,-6.94,-0.0126953125,-1.0055542,-0.043518066,26.21,0.0,80.0,-0.22218323,-0.81010437,
418.276085,true,true,true,3.375,12.1,0.0,-15441,-43,0,3.5,12.1,0.0,0,0,0,2.875,12.05,0.0,-10130,-46,0,2.875,12.1,0.0,0,0,0,0.0,12.1,0.0,0,0,0,0.0,12.1,0.0,0,0,0,0.0,12.15,0.0,0,0,0,kReverse,kOff,-84.95,3.08,-6.94,-0.0126953125,-1.0055542,-0.043518066,26.21,0.0,80.0,-0.22218323,-0.81010437,
418.297381,true,true,true,3.5,12.1,0.0,-15453,-44,0,3.75,12.1,0.0,0,0,0,3.125,12.05,0.0,-10141,-43,0,3.125,12.1,0.0,0,0,0,0.0,12.1,0.0,0,0,0,0.0,12.1,0.0,0,0,0,0.0,12.15,0.0,0,0,0,kReverse,kOff,-85.21,3.08,-6.1,0.09020996,-0.97076416,-0.10461426,26.21,0.0,168.0,-0.21707153,-0.8126373,
418.318874,true,true,true,3.5,12.1,0.0,-15466,-46,0,3.75,12.1,0.0,0,0,0,3.125,12.05,0.0,-10153,-43,0,3.125,12.1,0.0,0,0,0,0.0,12.1,0.0,0,0,0,0.0,12.1,0.0,0,0,0,0.0,12.15,0.0,0,0,0,kReverse,kOff,-85.27,3.1,-5.84,0.0579834,-1.0263672,0.11468506,26.21,0.0,-46.0,-0.21432495,-0.81391907,
418.339385,true,true,true,3.375,12.1,0.0,-15480,-51,0,3.625,12.1,0.0,0,0,0,2.875,12.05,0.0,-10166,-46,0,2.875,12.1,0.0,0,0,0,0.0,12.1,0.0,0,0,0,0.0,12.1,0.0,0,0,0,0.0,12.15,0.0,0,0,0,kReverse,kOff,-85.33,3.04,-5.82,-0.026672363,-0.86083984,-0.08380127,26.21,0.0,100.0,-0.20881653,-0.8166504,
418.370191,true,true,true,3.0,12.0,0.0,-15513,-61,0,3.25,12.05,0.0,0,0,0,2.5,12.05,0.0,-10195,-56,0,2.625,12.1,0.0,0,0,0,0.0,12.1,0.0,0,0,0,0.0,12.1,0.0,0,0,0,0.0,12.15,0.0,0,0,0,kReverse,kOff,-85.5,2.96,-5.41,0.032836914,-1.0397949,-0.2164917,26.21,0.0,249.0,-0.19950867,-0.8217163,
418.392201,true,true,true,2.875,12.0,0.0,-15530,-67,0,3.0,12.05,0.0,0,0,0,2.5,12.05,0.0,-10212,-62,0,2.625,12.1,0.0,0,0,0,0.0,12.1,0.0,0,0,0,0.0,12.1,0.0,0,0,0,0.0,12.15,0.0,0,0,0,kReverse,kOff,-85.62,2.94,-5.04,0.090270996,-0.9576416,-0.21447754,26.21,0.0,264.0,-0.19589233,-0.8236542,
418.41379,true,true,true,2.625,12.0,0.0,-15548,-73,0,2.875,12.05,0.0,0,0,0,2.5,12.05,0.0,-10228,-67,0,2.5,12.1,0.0,0,0,0,0.0,12.1,0.0,0,0,0,0.0,12.1,0.0,0,0,0,0.0,12.15,0.0,0,0,0,kReverse,kOff,-85.76,2.95,-4.55,0.0041503906,-0.98895264,-0.025634766,26.21,0.0,54.0,-0.19206238,-0.82569885,
418.434076,true,true,true,2.625,12.0,0.0,-15567,-79,0,2.75,12.05,0.0,0,0,0,2.375,12.05,0.0,-10244,-72,0,2.5,12.1,0.0,0,0,0,0.0,12.1,0.0,0,0,0,0.0,12.1,0.0,0,0,0,0.0,12.15,0.0,0,0,0,kReverse,kOff,-85.8,2.92,-4.45,0.0018920898,-1.0534058,0.028015137,26.21,0.0,5.0,-0.18818665,-0.8278198,
418.454527,true,true,true,2.5,12.0,0.0,-15587,-84,0,2.625,12.05,0.0,0,0,0,2.125,12.05,0.0,-10261,-75,0,2.375,12.1,0.0,0,0,0,0.0,12.1,0.0,0,0,0,0.0,12.1,0.0,0,0,0,0.0,12.15,0.0,0,0,0,kReverse,kOff,-85.84,2.89,-4.44,0.0814209,-0.9909668,0.028930664,26.21,0.0,32.0,-0.18429565,-0.8299866,
418.475984,true,true,true,2.375,12.0,0.0,-15607,-88,0,2.5,12.05,0.0,0,0,0,2.125,12.05,0.0,-10279,-79,0,2.375,12.1,0.0,0,0,0,0.0,12.1,0.0,0,0,0,0.0,12.1,0.0,0,0,0,0.0,12.15,0.0,0,0,0,kReverse,kOff,-85.88,2.9,-4.18,0.025268555,-1.0678711,0.035888672,26.21,0.0,6.0,-0.17628479,-0.83439636,
418.496004,true,true,true,2.25,12.0,0.0,-15629,-92,0,2.5,12.05,0.0,0,0,0,2.0,12.05,0.0,-10297,-81,0,2.25,12.1,0.0,0,0,0,0.0,12.1,0.0,0,0,0,0.0,12.1,0.0,0,0,0,0.0,12.15,0.0,0,0,0,kReverse,kOff,-85.92,2.88,-4.11,1.2207031E-4,-1.0198975,0.04333496,26.21,0.0,-12.0,-0.17628479,-0.8366852,
418.516771,true,true,true,2.25,12.1,0.0,-15651,-95,0,2.375,12.1,0.0,0,0,0,2.0,12.15,0.0,-10316,-84,0,2.25,12.15,0.0,0,0,0,0.0,12.15,0.0,0,0,0,0.0,12.15,0.0,0,0,0,0.0,12.200000000000001,0.0,0,0,0,kReverse,kOff,-85.94,2.84,-4.13,0.03668213,-0.6897583,-0.06854248,26.21,0.0,96.0,-0.17631531,-0.84135437,
418.538261,true,true,true,2.25,12.1,0.0,-15673,-99,0,2.375,12.1,0.0,0,0,0,1.75,12.15,0.0,-10335,-87,0,2.375,12.15,0.0,0,0,0,0.0,12.15,0.0,0,0,0,0.0,12.15,0.0,0,0,0,0.0,12.200000000000001,0.0,0,0,0,kReverse,kOff,-86.01,2.83,-3.9,0.016662598,-0.8996582,9.765625E-4,26.21,0.0,29.0,-0.17623901,-0.84375,
418.55886,true,true,true,2.25,12.1,0.0,-15695,-102,0,2.375,12.1,0.0,0,0,0,1.75,12.15,0.0,-10356,-90,0,2.375,12.15,0.0,0,0,0,0.0,12.15,0.0,0,0,0,0.0,12.15,0.0,0,0,0,0.0,12.200000000000001,0.0,0,0,0,kReverse,kOff,-86.06,2.8,-3.77,-0.044067383,-0.84680176,0.038635254,26.21,0.0,-31.0,-0.17614746,-0.8462219,
418.581157,true,true,true,2.25,12.1,0.0,-15718,-105,0,2.375,12.1,0.0,0,0,0,1.75,12.15,0.0,-10376,-93,0,2.25,12.15,0.0,0,0,0,0.0,12.15,0.0,0,0,0,0.0,12.15,0.0,0,0,0,0.0,12.200000000000001,0.0,0,0,0,kReverse,kOff,-86.15,2.74,-3.61,0.029174805,-1.0394287,-0.038146973,26.21,0.0,71.0,-0.1759491,-0.851532,
418.603545,true,true,true,2.125,12.1,0.0,-15741,-108,0,2.375,12.1,0.0,0,0,0,1.75,12.15,0.0,-10417,-98,0,2.25,12.15,0.0,0,0,0,0.0,12.15,0.0,0,0,0,0.0,12.15,0.0,0,0,0,0.0,12.200000000000001,0.0,0,0,0,kReverse,kOff,-86.17,2.74,-3.54,-0.019104004,-0.928833,-0.032470703,26.21,0.0,44.0,-0.17575073,-0.85432434,
418.623185,true,true,true,2.125,12.1,0.0,-15764,-110,0,2.375,12.1,0.0,0,0,0,1.625,12.15,0.0,-10438,-99,0,2.25,12.15,0.0,0,0,0,0.0,12.15,0.0,0,0,0,0.0,12.15,0.0,0,0,0,0.0,12.200000000000001,0.0,0,0,0,kReverse,kOff,-86.23,2.68,-3.49,0.06994629,-0.9204712,0.05407715,26.21,0.0,0.0,-0.17552185,-0.86013794,
418.649014,true,true,true,2.0,12.1,0.0,-15811,-114,0,2.125,12.1,0.0,0,0,0,1.625,12.15,0.0,-10460,-101,0,2.125,12.15,0.0,0,0,0,0.0,12.15,0.0,0,0,0,0.0,12.15,0.0,0,0,0,0.0,12.200000000000001,0.0,0,0,0,kReverse,kOff,-86.21,2.7,-3.47,0.023010254,-0.86712646,0.053466797,26.21,0.0,-19.0,-0.17552185,-0.86305237,
418.672011,true,true,true,1.875,12.15,0.0,-15836,-116,0,2.125,12.15,0.0,0,0,0,1.625,12.15,0.0,-10482,-103,0,2.125,12.200000000000001,0.0,0,0,0,0.0,12.200000000000001,0.0,0,0,0,0.0,12.200000000000001,0.0,0,0,0,0.0,12.25,0.0,0,0,0,kReverse,kOff,-86.19,2.65,-3.62,0.0071411133,-1.105957,0.0725708,26.24,0.0,-35.0,-0.17550659,-0.86912537,
418.692644,true,true,true,1.875,12.15,0.0,-15861,-118,0,2.0,12.15,0.0,0,0,0,1.375,12.15,0.0,-10505,-105,0,2.125,12.200000000000001,0.0,0,0,0,0.0,12.200000000000001,0.0,0,0,0,0.0,12.200000000000001,0.0,0,0,0,0.0,12.25,0.0,0,0,0,kReverse,kOff,-86.2,2.62,-3.64,0.046020508,-1.2385864,0.075927734,26.24,0.0,-19.0,-0.17553711,-0.87223816,
418.7127,true,true,true,1.75,12.15,0.0,-15887,-120,0,1.75,12.15,0.0,0,0,0,1.25,12.15,0.0,-10528,-107,0,1.875,12.200000000000001,0.0,0,0,0,0.0,12.200000000000001,0.0,0,0,0,0.0,12.200000000000001,0.0,0,0,0,0.0,12.25,0.0,0,0,0,kReverse,kOff,-86.21,2.61,-3.61,0.053100586,-0.923584,0.05267334,26.24,0.0,-3.0,-0.17553711,-0.8787079,
418.73584700000004,true,true,true,1.625,12.15,0.0,-15912,-122,0,1.75,12.15,0.0,0,0,0,1.25,12.15,0.0,-10551,-109,0,1.875,12.200000000000001,0.0,0,0,0,0.0,12.200000000000001,0.0,0,0,0,0.0,12.200000000000001,0.0,0,0,0,0.0,12.25,0.0,0,0,0,kReverse,kOff,-86.18,2.64,-3.58,0.15539551,-1.2662354,0.09515381,26.24,0.0,7.0,-0.17553711,-0.881897,
418.755889,true,true,true,1.625,12.15,0.0,-15938,-124,0,1.75,12.15,0.0,0,0,0,1.25,12.15,0.0,-10574,-111,0,1.875,12.200000000000001,0.0,0,0,0,0.0,12.200000000000001,0.0,0,0,0,0.0,12.200000000000001,0.0,0,0,0,0.0,12.25,0.0,0,0,0,kReverse,kOff,-86.17,2.67,-3.49,-0.026794434,-0.6939087,0.0037841797,26.24,0.0,2.0,-0.17553711,-0.8850708,
418.774825,true,true,true,1.625,12.15,0.0,-15964,-125,0,1.625,12.15,0.0,0,0,0,1.25,12.15,0.0,-10597,-112,0,1.625,12.200000000000001,0.0,0,0,0,0.0,12.200000000000001,0.0,0,0,0,0.0,12.200000000000001,0.0,0,0,0,0.0,12.25,0.0,0,0,0,kReverse,kOff,-86.2,2.64,-3.44,0.14923096,-1.3413086,0.06347656,26.24,0.0,36.0,-0.17564392,-0.89151,
418.794675,true,true,true,1.625,12.15,0.0,-15990,-127,0,1.625,12.15,0.0,0,0,0,1.25,12.15,0.0,-10621,-113,0,1.625,12.200000000000001,0.0,0,0,0,0.0,12.200000000000001,0.0,0,0,0,0.0,12.200000000000001,0.0,0,0,0,0.0,12.25,0.0,0,0,0,kReverse,kOff,-86.12,2.68,-3.51,-0.023254395,-0.4732666,-0.06359863,26.24,0.0,60.0,-0.17562866,-0.89471436,
418.815877,true,true,true,1.625,12.15,0.0,-16017,-128,0,1.625,12.15,0.0,0,0,0,1.375,12.15,0.0,-10644,-114,0,2.125,12.200000000000001,0.0,0,0,0,0.0,12.200000000000001,0.0,0,0,0,0.0,12.200000000000001,0.0,0,0,0,0.0,12.25,0.0,0,0,0,kReverse,kOff,-86.1,2.66,-3.59,-0.066711426,-0.88568115,0.056762695,26.24,0.0,-56.0,-0.17549133,-0.90141296,
418.836907,true,true,true,2.5,12.1,0.0,-16045,-129,0,2.0,12.1,0.0,0,0,0,2.0,12.1,0.0,-10669,-116,0,2.75,12.1,0.0,0,0,0,0.0,12.1,0.0,0,0,0,0.0,12.1,0.0,0,0,0,0.0,12.15,0.0,0,0,0,kReverse,kOff,-86.12,2.61,-3.67,0.013305664,-1.0482788,0.07989502,26.24,0.0,-39.0,-0.17549133,-0.9048767,
418.85882699999996,true,true,true,4.0,12.1,0.0,-16076,-131,0,3.5,12.1,0.0,0,0,0,3.375,12.1,0.0,-10696,-117,0,3.875,12.1,0.0,0,0,0,0.0,12.1,0.0,0,0,0,0.0,12.1,0.0,0,0,0,0.0,12.15,0.0,0,0,0,kReverse,kOff,-86.06,2.66,-3.59,0.24249268,-1.5499878,0.020202637,26.24,0.0,123.0,-0.17533875,-0.9118347,
418.878969,true,true,true,5.25,12.1,0.0,-16108,-135,0,4.875,12.1,0.0,0,0,0,4.625,12.1,0.0,-10727,-121,0,5.0,12.1,0.0,0,0,0,0.0,12.1,0.0,0,0,0,0.0,12.1,0.0,0,0,0,0.0,12.15,0.0,0,0,0,kReverse,kOff,-86.11,2.68,-3.38,0.0592041,-0.9175415,-0.12042236,26.24,0.0,156.0,-0.17501831,-0.9152374,
418.900673,true,true,true,6.25,12.1,0.0,-16142,-139,0,6.125,12.1,0.0,0,0,0,5.625,12.1,0.0,-10757,-125,0,6.5,12.1,0.0,0,0,0,0.0,12.1,0.0,0,0,0,0.0,12.1,0.0,0,0,0,0.0,12.15,0.0,0,0,0,kReverse,kOff,-86.5,2.57,-2.44,0.02911377,-1.3088379,-0.093566895,26.24,0.0,120.0,-0.1737976,-0.92233276,
418.928408,true,true,true,6.75,12.1,0.0,-16212,-153,0,7.125,12.1,0.0,0,0,0,6.625,12.1,0.0,-10823,-139,0,6.875,12.1,0.0,0,0,0,0.0,12.1,0.0,0,0,0,0.0,12.1,0.0,0,0,0,0.0,12.15,0.0,0,0,0,kReverse,kOff,-86.75,2.54,-1.69,-0.046081543,-1.1942139,-0.19274902,26.24,0.0,169.0,-0.17289734,-0.92614746,
418.954224,true,true,true,8.25,12.1,0.0,-16249,-161,0,8.25,12.1,0.0,0,0,0,7.75,12.1,0.0,-10858,-147,0,7.875,12.1,0.0,0,0,0,0.0,12.1,0.0,0,0,0,0.0,12.1,0.0,0,0,0,0.0,12.15,0.0,0,0,0,kReverse,kOff,-86.98,2.46,-1.2,-0.012451172,-1.0507202,-0.1685791,26.24,0.0,156.0,-0.17051697,-0.9343567,
418.97718699999996,true,true,true,10.75,12.1,0.0,-16290,-170,0,9.5,12.1,0.0,0,0,0,10.125,12.1,0.0,-10897,-155,0,10.5,12.1,0.0,0,0,0,0.0,12.1,0.0,0,0,0,0.0,12.1,0.0,0,0,0,0.0,10.65,0.0,0,0,0,kReverse,kOff,-87.04,2.49,-0.87,0.18450928,-1.0049438,-0.29992676,26.24,0.0,356.0,-0.16697693,-0.9430542,
419.002756,true,true,true,15.875,10.45,0.0,-16329,-177,0,18.625,10.55,0.0,0,0,0,19.5,10.45,0.0,-10982,-174,0,19.125,10.65,0.0,0,0,0,0.0,10.7,0.0,0,0,0,0.0,10.55,0.0,0,0,0,0.0,10.65,0.0,0,0,0,kReverse,kOff,-87.06,2.53,-0.54,0.045959473,-1.0778198,-0.23278809,26.24,0.0,234.0,-0.1645813,-0.94750977,
419.02681,true,true,true,29.375,10.45,0.0,-16429,-196,0,23.875,10.55,0.0,0,0,0,25.75,10.45,0.0,-11035,-187,0,25.75,10.65,0.0,0,0,0,0.0,10.7,0.0,0,0,0,0.0,10.55,0.0,0,0,0,0.0,10.65,0.0,0,0,0,kReverse,kOff,-87.24,2.52,0.18,0.04650879,-1.038147,-0.569397,26.24,0.0,532.0,-0.1586914,-0.95713806,
419.04565399999996,true,true,true,29.375,10.45,0.0,-16485,-209,0,29.75,10.55,0.0,0,0,0,29.5,10.45,0.0,-11091,-202,0,29.875,10.65,0.0,0,0,0,0.0,10.7,0.0,0,0,0,0.0,10.55,0.0,0,0,0,0.0,10.65,0.0,0,0,0,kReverse,kOff,-87.39,2.5,1.03,-0.09210205,-0.8422241,-0.4696045,26.24,0.0,377.0,-0.15487671,-0.9624939,
419.07228299999997,true,true,true,34.75,10.45,0.0,-16544,-226,0,32.375,10.55,0.0,0,0,0,30.75,10.45,0.0,-11151,-221,0,31.625,10.65,0.0,0,0,0,0.0,10.7,0.0,0,0,0,0.0,10.55,0.0,0,0,0,0.0,10.65,0.0,0,0,0,kReverse,kOff,-87.55,2.42,1.78,0.18804932,-1.1189575,-0.39508057,26.24,0.0,422.0,-0.1457367,-0.97421265,
419.09022600000003,true,true,true,34.75,10.45,0.0,-16604,-244,0,33.625,10.55,0.0,0,0,0,29.25,10.45,0.0,-11212,-242,0,30.75,10.65,0.0,0,0,0,0.0,10.7,0.0,0,0,0,0.0,10.55,0.0,0,0,0,0.0,10.65,0.0,0,0,0,kReverse,kOff,-87.47,2.51,2.16,-0.04272461,-0.697876,-0.9281616,26.24,0.0,806.0,-0.14006042,-0.98054504,
