timer,lineLeft,lineCenter,lineRight,LeftFrontCurrent,LeftFrontVoltage,LeftFrontValue,LeftFrontPosition,LeftFrontVelocity,LeftFrontFaults,LeftRearCurrent,LeftRearVoltage,LeftRearValue,LeftRearPosition,LeftRearVelocity,LeftRearFaults,RightFrontCurrent,RightFrontVoltage,RightFrontValue,RightFrontPosition,RightFrontVelocity,RightFrontFaults,RightRearCurrent,RightRearVoltage,RightRearValue,RightRearPosition,RightRearVelocity,RightRearFaults,LiftCurrent,LiftVoltage,LiftValue,LiftPosition,LiftVelocity,LiftFaults,WristCurrent,WristVoltage,WristValue,WristPosition,WristVelocity,WristFaults,RollerCurrent,RollerVoltage,RollerValue,RollerPosition,RollerVelocity,RollerFaults,PushersState,PivotsState,navx_Pitch,navx_Roll,navx_Yaw,navx_XAcc,navx_YAcc,navx_ZAcc,navx_Temp,navx_Bar,navx_Alt,navx_XDis,navx_YDis,
298.41072499999996,true,true,true,0.0,12.6,0.0,-12619,0,0,0.0,12.6,0.0,0,0,0,0.125,12.6,0.0,-7625,0,0,0.0,12.65,0.0,0,0,0,0.0,12.6,0.0,0,0,0,0.0,12.6,0.0,0,0,0,0.0,12.65,0.0,0,0,0,kOff,kOff,-84.02,2.24,-171.13,0.0413208,-0.98272705,0.09637451,25.53,0.0,-2.0,-0.12887573,-0.829895,
298.429285,true,true,true,0.0,12.6,0.0,-12619,0,0,0.0,12.6,0.0,0,0,0,0.125,12.6,0.0,-7625,0,0,0.0,12.65,0.0,0,0,0,0.0,12.6,0.0,0,0,0,0.0,12.6,0.0,0,0,0,0.0,12.65,0.0,0,0,0,kReverse,kOff,-84.02,2.24,-171.13,0.037109375,-0.9802246,0.09899902,25.53,0.0,-2.0,-0.12887573,-0.829895,
298.448162,true,true,true,0.0,12.6,0.0,-12619,0,0,0.0,12.6,0.0,0,0,0,0.125,12.6,0.0,-7625,0,0,0.0,12.65,0.0,0,0,0,0.0,12.6,0.0,0,0,0,0.0,12.6,0.0,0,0,0,0.0,12.65,0.0,0,0,0,kReverse,kOff,-84.02,2.24,-171.13,0.037109375,-0.9802246,0.09899902,25.53,0.0,-2.0,-0.12887573,-0.829895,
298.466973,true,true,true,0.0,12.6,0.0,-12619,0,0,0.0,12.6,0.0,0,0,0,0.125,12.6,0.0,-7625,0,0,0.0,12.65,0.0,0,0,0,0.0,12.6,0.0,0,0,0,0.0,12.6,0.0,0,0,0,0.0,12.65,0.0,0,0,0,kReverse,kOff,-84.02,2.24,-171.13,0.040771484,-0.98272705,0.09484863,25.53,0.0,0.0,-0.12887573,-0.829895,
298.487,true,true,true,0.0,12.6,0.0,-12619,0,0,0.0,12.6,0.0,0,0,0,0.125,12.6,0.0,-7625,0,0,0.0,12.65,0.0,0,0,0,0.0,12.6,0.0,0,0,0,0.0,12.6,0.0,0,0,0,0.0,12.65,0.0,0,0,0,kReverse,kOff,-84.02,2.24,-171.14,0.039978027,-0.98132324,0.0949707,25.53,0.0,0.0,-0.12887573,-0.829895,
298.507057,true,true,true,0.0,12.6,0.0,-12619,0,0,0.0,12.6,0.0,0,0,0,0.125,12.6,0.0,-7625,0,0,0.0,12.65,0.0,0,0,0,0.0,12.6,0.0,0,0,0,0.0,12.6,0.0,0,0,0,0.0,12.65,0.0,0,0,0,kReverse,kOff,-84.02,2.24,-171.14,0.03656006,-0.9819946,0.089782715,25.53,0.0,5.0,-0.12887573,-0.829895,
298.528178,true,true,true,0.0,12.6,0.0,-12619,0,0,0.0,12.65,0.0,0,0,0,0.125,12.6,0.0,-7625,0,0,0.0,12.65,0.0,0,0,0,0.0,12.6,0.0,0,0,0,0.0,12.6,0.0,0,0,0,0.0,12.65,0.0,0,0,0,kReverse,kOff,-84.02,2.24,-171.14,0.03753662,-0.9847412,0.093566895,25.53,0.0,2.0,-0.12887573,-0.829895,
298.54708500000004,true,true,true,0.0,12.6,0.0,-12619,0,0,0.0,12.65,0.0,0,0,0,0.125,12.6,0.0,-7625,0,0,0.0,12.65,0.0,0,0,0,0.0,12.6,0.0,0,0,0,0.0,12.6,0.0,0,0,0,0.0,12.65,0.0,0,0,0,kReverse,kOff,-84.02,2.24,-171.14,0.03704834,-0.9827881,0.10192871,25.53,0.0,-4.0,-0.12887573,-0.829895,
298.567037,true,true,true,0.0,12.6,0.0,-12619,0,0,0.0,12.65,0.0,0,0,0,0.125,12.6,0.0,-7625,0,0,0.0,12.65,0.0,0,0,0,0.0,12.6,0.0,0,0,0,0.0,12.6,0.0,0,0,0,0.0,12.65,0.0,0,0,0,kReverse,kOff,-84.02,2.24,-171.14,0.03753662,-0.98339844,0.091674805,25.53,0.0,3.0,-0.12887573,-0.829895,
298.586995,true,true,true,0.0,12.6,0.0,-12619,0,0,0.0,12.65,0.0,0,0,0,0.125,12.6,0.0,-7625,0,0,0.0,12.65,0.0,0,0,0,0.0,12.6,0.0,0,0,0,0.0,12.6,0.0,0,0,0,0.0,12.65,0.0,0,0,0,kReverse,kOff,-84.02,2.23,-171.15,0.040100098,-0.982605,0.097229004,25.53,0.0,-2.0,-0.12887573,-0.829895,
298.607017,true,true,true,0.0,12.6,0.0,-12619,0,0,0.0,12.65,0.0,0,0,0,0.125,12.6,0.0,-7625,0,0,0.0,12.65,0.0,0,0,0,0.0,12.6,0.0,0,0,0,0.0,12.6,0.0,0,0,0,0.0,12.65,0.0,0,0,0,kReverse,kOff,-84.02,2.24,-171.13,0.040100098,-0.98101807,0.091308594,25.53,0.0,2.0,-0.12887573,-0.829895,
298.627593,true,true,true,0.0,12.6,0.0,-12619,0,0,0.0,12.65,0.0,0,0,0,0.125,12.6,0.0,-7625,0,0,0.0,12.65,0.0,0,0,0,0.0,12.6,0.0,0,0,0,0.0,12.6,0.0,0,0,0,0.0,12.65,0.0,0,0,0,kReverse,kOff,-84.02,2.24,-171.13,0.03753662,-0.9805298,0.09350586,25.53,0.0,1.0,-0.12887573,-0.829895,
298.647704,true,true,true,0.0,12.6,0.0,-12619,0,0,0.0,12.65,0.0,0,0,0,0.125,12.6,0.0,-7625,0,0,0.0,12.65,0.0,0,0,0,0.0,12.6,0.0,0,0,0,0.0,12.6,0.0,0,0,0,0.0,12.65,0.0,0,0,0,kReverse,kOff,-84.02,2.24,-171.14,0.038879395,-0.9784546,0.095703125,25.53,0.0,0.0,-0.12887573,-0.829895,
298.667914,true,true,true,0.0,12.6,0.0,-12619,0,0,0.0,12.65,0.0,0,0,0,0.125,12.6,0.0,-7625,0,0,0.0,12.65,0.0,0,0,0,0.0,12.6,0.0,0,0,0,0.0,12.6,0.0,0,0,0,0.0,12.65,0.0,0,0,0,kReverse,kOff,-84.01,2.24,-171.13,0.036865234,-0.98254395,0.09082031,25.53,0.0,4.0,-0.12887573,-0.829895,
298.68706,true,true,true,0.0,12.6,0.0,-12619,0,0,0.0,12.6,0.0,0,0,0,0.125,12.6,0.0,-7625,0,0,0.0,12.65,0.0,0,0,0,0.0,12.6,0.0,0,0,0,0.0,12.6,0.0,0,0,0,0.0,12.65,0.0,0,0,0,kReverse,kOff,-84.02,2.23,-171.14,0.03704834,-0.98095703,0.09484863,25.53,0.0,1.0,-0.12887573,-0.829895,
298.707123,true,true,true,0.0,12.6,0.0,-12619,0,0,0.0,12.6,0.0,0,0,0,0.125,12.6,0.0,-7625,0,0,0.0,12.65,0.0,0,0,0,0.0,12.6,0.0,0,0,0,0.0,12.6,0.0,0,0,0,0.0,12.65,0.0,0,0,0,kReverse,kOff,-84.02,2.23,-171.14,0.037902832,-0.98254395,0.095581055,25.53,0.0,0.0,-0.12887573,-0.829895,
298.72734,true,true,true,0.0,12.6,0.0,-12619,0,0,0.0,12.6,0.0,0,0,0,0.125,12.6,0.0,-7625,0,0,0.0,12.65,0.0,0,0,0,0.0,12.6,0.0,0,0,0,0.0,12.6,0.0,0,0,0,0.0,12.65,0.0,0,0,0,kReverse,kOff,-84.02,2.23,-171.14,0.03656006,-0.98291016,0.093688965,25.53,0.0,2.0,-0.12887573,-0.829895,
298.747593,true,true,true,0.0,12.6,0.0,-12619,0,0,0.0,12.6,0.0,0,0,0,0.125,12.6,0.0,-7625,0,0,0.0,12.65,0.0,0,0,0,0.0,12.6,0.0,0,0,0,0.0,12.6,0.0,0,0,0,0.0,12.65,0.0,0,0,0,kReverse,kOff,-84.01,2.23,-171.13,0.038146973,-0.98254395,0.09338379,25.53,0.0,1.0,-0.12887573,-0.829895,
298.768109,true,true,true,0.0,12.6,0.0,-12619,0,0,0.0,12.6,0.0,0,0,0,0.125,12.6,0.0,-7625,0,0,0.0,12.65,0.0,0,0,0,0.0,12.6,0.0,0,0,0,0.0,12.6,0.0,0,0,0,0.0,12.65,0.0,0,0,0,kReverse,kOff,-84.02,2.23,-171.14,0.0368042,-0.98431396,0.097717285,25.53,0.0,0.0,-0.12887573,-0.829895,
298.78773700000005,true,true,true,0.0,12.6,0.0,-12619,0,0,0.0,12.6,0.0,0,0,0,0.125,12.6,0.0,-7625,0,0,0.0,12.65,0.0,0,0,0,0.0,12.6,0.0,0,0,0,0.0,12.6,0.0,0,0,0,0.0,12.65,0.0,0,0,0,kReverse,kOff,-84.02,2.23,-171.14,0.037231445,-0.9818115,0.09460449,25.53,0.0,1.0,-0.12887573,-0.829895,
298.810085,true,true,true,0.0,12.6,0.0,-12619,0,0,0.0,12.6,0.0,0,0,0,0.125,12.6,0.0,-7625,0,0,0.0,12.65,0.0,0,0,0,0.0,12.6,0.0,0,0,0,0.0,12.6,0.0,0,0,0,0.0,12.65,0.0,0,0,0,kReverse,kOff,-84.02,2.23,-171.14,0.039978027,-0.9840698,0.09881592,25.54,0.0,-3.0,-0.12887573,-0.829895,
298.83156,true,true,true,0.0,12.6,0.0,-12619,0,0,0.0,12.6,0.0,0,0,0,0.125,12.6,0.0,-7625,0,0,0.0,12.65,0.0,0,0,0,0.0,12.65,0.0,0,0,0,0.0,12.6,0.0,0,0,0,0.0,12.65,0.0,0,0,0,kReverse,kOff,-84.01,2.23,-171.13,0.040527344,-0.9827881,0.095947266,25.54,0.0,-1.0,-0.12887573,-0.829895,
298.85035700000003,true,true,true,0.0,12.6,0.0,-12619,0,0,0.0,12.6,0.0,0,0,0,0.125,12.6,0.0,-7625,0,0,0.0,12.65,0.0,0,0,0,0.0,12.65,0.0,0,0,0,0.0,12.6,0.0,0,0,0,0.0,12.65,0.0,0,0,0,kReverse,kOff,-84.01,2.23,-171.13,0.03967285,-0.9837036,0.0960083,25.54,0.0,0.0,-0.12887573,-0.829895,
298.86745399999995,true,true,true,0.0,12.6,0.0,-12619,0,0,0.0,12.6,0.0,0,0,0,0.125,12.6,0.0,-7625,0,0,0.0,12.65,0.0,0,0,0,0.0,12.65,0.0,0,0,0,0.0,12.6,0.0,0,0,0,0.0,12.65,0.0,0,0,0,kReverse,kOff,-84.01,2.23,-171.13,0.03741455,-0.9812622,0.09674072,25.54,0.0,0.0,-0.12887573,-0.829895,
298.887255,true,true,true,0.0,12.6,0.0,-12619,0,0,0.0,12.6,0.0,0,0,0,0.125,12.6,0.0,-7625,0,0,0.0,12.65,0.0,0,0,0,0.0,12.65,0.0,0,0,0,0.0,12.6,0.0,0,0,0,0.0,12.65,0.0,0,0,0,kReverse,kOff,-84.01,2.23,-171.13,0.03729248,-0.98028564,0.0927124,25.54,0.0,2.0,-0.12887573,-0.829895,
298.907305,true,true,true,0.0,12.6,0.0,-12619,0,0,0.0,12.6,0.0,0,0,0,0.125,12.6,0.0,-7625,0,0,0.0,12.65,0.0,0,0,0,0.0,12.65,0.0,0,0,0,0.0,12.6,0.0,0,0,0,0.0,12.65,0.0,0,0,0,kReverse,kOff,-84.01,2.23,-171.13,0.03894043,-0.98376465,0.09692383,25.54,0.0,-1.0,-0.12887573,-0.829895,
298.927304,true,true,true,0.0,12.6,0.0,-12619,0,0,0.0,12.6,0.0,0,0,0,0.125,12.6,0.0,-7625,0,0,0.0,12.65,0.0,0,0,0,0.0,12.65,0.0,0,0,0,0.0,12.6,0.0,0,0,0,0.0,12.65,0.0,0,0,0,kReverse,kOff,-84.01,2.23,-171.13,0.036987305,-0.9830322,0.0949707,25.54,0.0,1.0,-0.12887573,-0.829895,
298.946989,true,true,true,0.0,12.6,0.0,-12619,0,0,0.0,12.6,0.0,0,0,0,0.125,12.6,0.0,-7625,0,0,0.0,12.65,0.0,0,0,0,0.0,12.65,0.0,0,0,0,0.0,12.6,0.0,0,0,0,0.0,12.65,0.0,0,0,0,kReverse,kOff,-84.01,2.23,-171.13,0.036621094,-0.98028564,0.09350586,25.54,0.0,2.0,-0.12887573,-0.829895,
298.96732000000003,true,true,true,0.0,12.6,0.0,-12619,0,0,0.0,12.6,0.0,0,0,0,0.125,12.6,0.0,-7625,0,0,0.0,12.65,0.0,0,0,0,0.0,12.65,0.0,0,0,0,0.0,12.6,0.0,0,0,0,0.0,12.65,0.0,0,0,0,kReverse,kOff,-84.01,2.23,-171.13,0.039855957,-0.98223877,0.09222412,25.54,0.0,1.0,-0.12887573,-0.829895,
298.988429,true,true,true,0.0,12.6,0.0,-12619,0,0,0.0,12.6,0.0,0,0,0,0.125,12.6,0.0,-7625,0,0,0.0,12.65,0.0,0,0,0,0.0,12.6,0.0,0,0,0,0.0,12.6,0.0,0,0,0,0.0,12.65,0.0,0,0,0,kReverse,kOff,-84.01,2.23,-171.13,0.038208008,-0.9813843,0.09857178,25.54,0.0,-2.0,-0.12887573,-0.829895,
299.00852399999997,true,true,true,0.0,12.6,0.0,-12619,0,0,0.0,12.6,0.0,0,0,0,0.125,12.6,0.0,-7625,0,0,0.0,12.65,0.0,0,0,0,0.0,12.6,0.0,0,0,0,0.0,12.6,0.0,0,0,0,0.0,12.65,0.0,0,0,0,kReverse,kOff,-84.01,2.23,-171.13,0.03643799,-0.9829712,0.10058594,25.54,0.0,-2.0,-0.12887573,-0.829895,
299.02746399999995,true,true,true,0.0,12.6,0.0,-12619,0,0,0.0,12.6,0.0,0,0,0,0.125,12.6,0.0,-7625,0,0,0.0,12.65,0.0,0,0,0,0.0,12.6,0.0,0,0,0,0.0,12.6,0.0,0,0,0,0.0,12.65,0.0,0,0,0,kReverse,kOff,-84.01,2.23,-171.13,0.03881836,-0.98168945,0.09838867,25.54,0.0,-2.0,-0.12887573,-0.829895,
299.04803100000004,true,true,true,0.0,12.6,0.0,-12619,0,0,0.0,12.6,0.0,0,0,0,0.125,12.6,0.0,-7625,0,0,0.0,12.65,0.0,0,0,0,0.0,12.6,0.0,0,0,0,0.0,12.6,0.0,0,0,0,0.0,12.65,0.0,0,0,0,kReverse,kOff,-84.01,2.23,-171.13,0.03729248,-0.9803467,0.092041016,25.54,0.0,3.0,-0.12887573,-0.829895,
299.067337,true,true,true,0.0,12.6,0.0,-12619,0,0,0.0,12.6,0.0,0,0,0,0.125,12.6,0.0,-7625,0,0,0.0,12.65,0.0,0,0,0,0.0,12.6,0.0,0,0,0,0.0,12.6,0.0,0,0,0,0.0,12.65,0.0,0,0,0,kReverse,kOff,-84.02,2.22,-171.14,0.03845215,-0.98083496,0.096191406,25.54,0.0,0.0,-0.12887573,-0.829895,
299.087221,true,true,true,0.0,12.6,0.0,-12619,0,0,0.0,12.6,0.0,0,0,0,0.125,12.6,0.0,-7625,0,0,0.0,12.65,0.0,0,0,0,0.0,12.6,0.0,0,0,0,0.0,12.6,0.0,0,0,0,0.0,12.65,0.0,0,0,0,kReverse,kOff,-84.02,2.22,-171.14,0.039245605,-0.9845581,0.10015869,25.54,0.0,-3.0,-0.12887573,-0.829895,
299.10764,true,true,true,0.0,12.6,0.0,-12619,0,0,0.0,12.6,0.0,0,0,0,0.125,12.6,0.0,-7625,0,0,0.0,12.65,0.0,0,0,0,0.0,12.6,0.0,0,0,0,0.0,12.6,0.0,0,0,0,0.0,12.65,0.0,0,0,0,kReverse,kOff,-84.02,2.22,-171.14,0.035705566,-0.98223877,0.09503174,25.54,0.0,1.0,-0.12887573,-0.829895,
299.127526,true,true,true,0.0,12.6,0.0,-12619,0,0,0.0,12.6,0.0,0,0,0,0.125,12.6,0.0,-7625,0,0,0.0,12.65,0.0,0,0,0,0.0,12.6,0.0,0,0,0,0.0,12.6,0.0,0,0,0,0.0,12.65,0.0,0,0,0,kReverse,kOff,-84.02,2.22,-171.14,0.040039062,-0.9817505,0.09631348,25.54,0.0,-1.0,-0.12887573,-0.829895,
299.148005,true,true,true,0.0,12.6,0.0,-12619,0,0,0.0,12.6,0.0,0,0,0,0.125,12.6,0.0,-7625,0,0,0.0,12.65,0.0,0,0,0,0.0,12.6,0.0,0,0,0,0.0,12.6,0.0,0,0,0,0.0,12.65,0.0,0,0,0,kReverse,kOff,-84.02,2.22,-171.14,0.041503906,-0.9785156,0.099243164,25.54,0.0,-5.0,-0.12887573,-0.829895,
299.166968,true,true,true,0.0,12.6,0.0,-12619,0,0,0.0,12.6,0.0,0,0,0,0.125,12.6,0.0,-7625,0,0,0.0,12.65,0.0,0,0,0,0.0,12.6,0.0,0,0,0,0.0,12.6,0.0,0,0,0,0.0,12.65,0.0,0,0,0,kReverse,kOff,-84.01,2.22,-171.14,0.038146973,-0.9805908,0.095825195,25.54,0.0,0.0,-0.12887573,-0.829895,
299.187113,true,true,true,0.0,12.6,0.0,-12619,0,0,0.0,12.6,0.0,0,0,0,0.125,12.6,0.0,-7625,0,0,0.0,12.65,0.0,0,0,0,0.0,12.6,0.0,0,0,0,0.0,12.6,0.0,0,0,0,0.0,12.65,0.0,0,0,0,kReverse,kOff,-84.01,2.22,-171.14,0.03704834,-0.982605,0.09124756,25.54,0.0,4.0,-0.12887573,-0.829895,
299.20806699999997,true,true,true,0.0,12.6,0.0,-12619,0,0,0.0,12.6,0.0,0,0,0,0.125,12.6,0.0,-7625,0,0,0.0,12.65,0.0,0,0,0,0.0,12.6,0.0,0,0,0,0.0,12.6,0.0,0,0,0,0.0,12.65,0.0,0,0,0,kReverse,kOff,-84.02,2.22,-171.14,0.040893555,-0.9812012,0.095581055,25.54,0.0,-1.0,-0.12887573,-0.829895,
299.227433,true,true,true,0.0,12.6,0.0,-12619,0,0,0.0,12.6,0.0,0,0,0,0.125,12.6,0.0,-7625,0,0,0.0,12.65,0.0,0,0,0,0.0,12.6,0.0,0,0,0,0.0,12.6,0.0,0,0,0,0.0,12.65,0.0,0,0,0,kReverse,kOff,-84.02,2.22,-171.14,0.03540039,-0.9830322,0.09118652,25.54,0.0,5.0,-0.12887573,-0.829895,
299.247745,true,true,true,0.0,12.6,0.0,-12619,0,0,0.0,12.6,0.0,0,0,0,0.125,12.6,0.0,-7625,0,0,0.0,12.65,0.0,0,0,0,0.0,12.6,0.0,0,0,0,0.0,12.6,0.0,0,0,0,0.0,12.65,0.0,0,0,0,kReverse,kOff,-84.02,2.22,-171.14,0.037109375,-0.9793701,0.09234619,25.54,0.0,2.0,-0.12887573,-0.829895,
299.267059,true,true,true,0.0,12.6,0.0,-12619,0,0,0.0,12.6,0.0,0,0,0,0.125,12.6,0.0,-7625,0,0,0.0,12.65,0.0,0,0,0,0.0,12.6,0.0,0,0,0,0.0,12.6,0.0,0,0,0,0.0,12.65,0.0,0,0,0,kReverse,kOff,-84.02,2.22,-171.14,0.03717041,-0.9827881,0.09881592,25.54,0.0,-1.0,-0.12887573,-0.829895,
299.28727299999997,true,true,true,0.0,12.6,0.0,-12619,0,0,0.0,12.6,0.0,0,0,0,0.125,12.6,0.0,-7625,0,0,0.0,12.65,0.0,0,0,0,0.0,12.6,0.0,0,0,0,0.0,12.6,0.0,0,0,0,0.0,12.65,0.0,0,0,0,kReverse,kOff,-84.02,2.22,-171.14,0.036132812,-0.9805298,0.094177246,25.54,0.0,2.0,-0.12887573,-0.829895,
299.307399,true,true,true,0.0,12.6,0.0,-12619,0,0,0.0,12.6,0.0,0,0,0,0.125,12.6,0.0,-7625,0,0,0.0,12.65,0.0,0,0,0,0.0,12.6,0.0,0,0,0,0.0,12.6,0.0,0,0,0,0.0,12.65,0.0,0,0,0,kReverse,kOff,-84.02,2.22,-171.14,0.039001465,-0.9807739,0.09692383,25.55,0.0,-1.0,-0.12887573,-0.829895,
299.327071,true,true,true,0.0,12.65,0.0,-12619,0,0,0.0,12.6,0.0,0,0,0,0.125,12.6,0.0,-7625,0,0,0.0,12.65,0.0,0,0,0,0.0,12.6,0.0,0,0,0,0.0,12.6,0.0,0,0,0,0.0,12.65,0.0,0,0,0,kReverse,kOff,-84.02,2.22,-171.14,0.03857422,-0.9824219,0.10095215,25.55,0.0,-4.0,-0.12887573,-0.829895,
299.347038,true,true,true,0.0,12.65,0.0,-12619,0,0,0.0,12.6,0.0,0,0,0,0.125,12.6,0.0,-7625,0,0,0.0,12.65,0.0,0,0,0,0.0,12.6,0.0,0,0,0,0.0,12.6,0.0,0,0,0,0.0,12.65,0.0,0,0,0,kReverse,kOff,-84.01,2.22,-171.14,0.038635254,-0.982666,0.09863281,25.55,0.0,-2.0,-0.12887573,-0.829895,
299.367369,true,true,true,0.0,12.65,0.0,-12619,0,0,0.0,12.6,0.0,0,0,0,0.125,12.6,0.0,-7625,0,0,0.0,12.65,0.0,0,0,0,0.0,12.6,0.0,0,0,0,0.0,12.6,0.0,0,0,0,0.0,12.65,0.0,0,0,0,kReverse,kOff,-84.01,2.22,-171.13,0.039367676,-0.9812622,0.097961426,25.55,0.0,-2.0,-0.12887573,-0.829895,
299.38719799999996,true,true,true,0.0,12.65,0.0,-12619,0,0,0.0,12.6,0.0,0,0,0,0.125,12.6,0.0,-7625,0,0,0.0,12.65,0.0,0,0,0,0.0,12.6,0.0,0,0,0,0.0,12.6,0.0,0,0,0,0.0,12.65,0.0,0,0,0,kReverse,kOff,-84.01,2.22,-171.14,0.04034424,-0.98272705,0.09100342,25.55,0.0,2.0,-0.12887573,-0.829895,
299.407059,true,true,true,0.0,12.65,0.0,-12619,0,0,0.0,12.6,0.0,0,0,0,0.125,12.6,0.0,-7625,0,0,0.0,12.65,0.0,0,0,0,0.0,12.6,0.0,0,0,0,0.0,12.6,0.0,0,0,0,0.0,12.65,0.0,0,0,0,kReverse,kOff,-84.01,2.23,-171.14,0.0368042,-0.9812622,0.09881592,25.55,0.0,-1.0,-0.12887573,-0.829895,
299.42711599999996,true,true,true,0.0,12.65,0.0,-12619,0,0,0.0,12.6,0.0,0,0,0,0.125,12.6,0.0,-7625,0,0,0.0,12.65,0.0,0,0,0,0.0,12.6,0.0,0,0,0,0.0,12.6,0.0,0,0,0,0.0,12.65,0.0,0,0,0,kReverse,kOff,-84.01,2.23,-171.14,0.042297363,-0.9807739,0.09460449,25.55,0.0,-1.0,-0.12887573,-0.829895,
299.447594,true,true,true,0.0,12.65,0.0,-12619,0,0,0.0,12.6,0.0,0,0,0,0.125,12.6,0.0,-7625,0,0,0.0,12.65,0.0,0,0,0,0.0,12.6,0.0,0,0,0,0.0,12.6,0.0,0,0,0,0.0,12.65,0.0,0,0,0,kReverse,kOff,-84.01,2.23,-171.14,0.038635254,-0.9810791,0.09564209,25.55,0.0,0.0,-0.12887573,-0.829895,
299.467154,true,true,true,0.0,12.65,0.0,-12619,0,0,0.0,12.6,0.0,0,0,0,0.125,12.6,0.0,-7625,0,0,0.0,12.65,0.0,0,0,0,0.0,12.6,0.0,0,0,0,0.0,12.6,0.0,0,0,0,0.0,12.65,0.0,0,0,0,kReverse,kOff,-84.01,2.23,-171.14,0.039611816,-0.9842529,0.093322754,25.55,0.0,1.0,-0.12887573,-0.829895,
299.487163,true,true,true,0.0,12.6,0.0,-12619,0,0,0.0,12.6,0.0,0,0,0,0.125,12.6,0.0,-7625,0,0,0.0,12.65,0.0,0,0,0,0.0,12.6,0.0,0,0,0,0.0,12.6,0.0,0,0,0,0.0,12.65,0.0,0,0,0,kReverse,kOff,-84.01,2.23,-171.14,0.040100098,-0.9768677,0.09527588,25.55,0.0,-1.0,-0.12887573,-0.829895,
299.507079,true,true,true,0.0,12.6,0.0,-12619,0,0,0.0,12.6,0.0,0,0,0,0.125,12.6,0.0,-7625,0,0,0.0,12.65,0.0,0,0,0,0.0,12.6,0.0,0,0,0,0.0,12.6,0.0,0,0,0,0.0,12.65,0.0,0,0,0,kReverse,kOff,-84.01,2.23,-171.14,0.04119873,-0.98065186,0.09259033,25.55,0.0,0.0,-0.12887573,-0.829895,
299.527176,true,true,true,0.0,12.6,0.0,-12619,0,0,0.0,12.6,0.0,0,0,0,0.125,12.6,0.0,-7625,0,0,0.0,12.65,0.0,0,0,0,0.0,12.6,0.0,0,0,0,0.0,12.6,0.0,0,0,0,0.0,12.65,0.0,0,0,0,kReverse,kOff,-84.01,2.23,-171.14,0.041015625,-0.97857666,0.09564209,25.55,0.0,-2.0,-0.12887573,-0.829895,
299.547404,true,true,true,0.0,12.6,0.0,-12619,0,0,0.0,12.6,0.0,0,0,0,0.125,12.6,0.0,-7625,0,0,0.0,12.65,0.0,0,0,0,0.0,12.6,0.0,0,0,0,0.0,12.6,0.0,0,0,0,0.0,12.65,0.0,0,0,0,kReverse,kOff,-84.01,2.22,-171.13,0.0390625,-0.98083496,0.097717285,25.55,0.0,-2.0,-0.12887573,-0.829895,
299.567174,true,true,true,0.0,12.6,0.0,-12619,0,0,0.0,12.6,0.0,0,0,0,0.125,12.6,0.0,-7625,0,0,0.0,12.65,0.0,0,0,0,0.0,12.6,0.0,0,0,0,0.0,12.6,0.0,0,0,0,0.0,12.65,0.0,0,0,0,kReverse,kOff,-84.01,2.22,-171.13,0.03942871,-0.9798584,0.104003906,25.55,0.0,-7.0,-0.12887573,-0.829895,
299.588551,true,true,true,0.0,12.6,0.0,-12619,0,0,0.0,12.6,0.0,0,0,0,0.125,12.6,0.0,-7625,0,0,0.0,12.65,0.0,0,0,0,0.0,12.6,0.0,0,0,0,0.0,12.6,0.0,0,0,0,0.0,12.65,0.0,0,0,0,kReverse,kOff,-84.01,2.22,-171.13,0.03942871,-0.9798584,0.104003906,25.55,0.0,-7.0,-0.12887573,-0.829895,
299.607369,true,true,true,0.0,12.6,0.0,-12619,0,0,0.0,12.6,0.0,0,0,0,0.125,12.6,0.0,-7625,0,0,0.0,12.65,0.0,0,0,0,0.0,12.6,0.0,0,0,0,0.0,12.6,0.0,0,0,0,0.0,12.65,0.0,0,0,0,kReverse,kOff,-84.01,2.22,-171.13,0.036865234,-0.9863281,0.095825195,25.55,0.0,1.0,-0.12887573,-0.829895,
299.627444,true,true,true,0.0,12.6,0.0,-12619,0,0,0.0,12.6,0.0,0,0,0,0.125,12.6,0.0,-7625,0,0,0.0,12.65,0.0,0,0,0,0.0,12.6,0.0,0,0,0,0.0,12.6,0.0,0,0,0,0.0,12.65,0.0,0,0,0,kReverse,kOff,-84.01,2.22,-171.13,0.038879395,-0.98187256,0.09033203,25.55,0.0,3.0,-0.12887573,-0.829895,
299.647522,true,true,true,0.0,12.6,0.0,-12619,0,0,0.0,12.6,0.0,0,0,0,0.125,12.6,0.0,-7625,0,0,0.0,12.65,0.0,0,0,0,0.0,12.6,0.0,0,0,0,0.0,12.6,0.0,0,0,0,0.0,12.65,0.0,0,0,0,kReverse,kOff,-84.01,2.22,-171.14,0.036987305,-0.98205566,0.0927124,25.55,0.0,3.0,-0.12887573,-0.829895,
299.667282,true,true,true,0.0,12.6,0.0,-12619,0,0,0.0,12.6,0.0,0,0,0,0.125,12.6,0.0,-7625,0,0,0.0,12.65,0.0,0,0,0,0.0,12.6,0.0,0,0,0,0.0,12.6,0.0,0,0,0,0.0,12.65,0.0,0,0,0,kReverse,kOff,-84.01,2.22,-171.13,0.038330078,-0.98095703,0.09161377,25.55,0.0,2.0,-0.12887573,-0.829895,
299.68742499999996,true,true,true,0.0,12.6,0.0,-12619,0,0,0.0,12.6,0.0,0,0,0,0.125,12.6,0.0,-7625,0,0,0.0,12.65,0.0,0,0,0,0.0,12.6,0.0,0,0,0,0.0,12.6,0.0,0,0,0,0.0,12.65,0.0,0,0,0,kReverse,kOff,-84.01,2.22,-171.14,0.03704834,-0.9818115,0.09686279,25.55,0.0,0.0,-0.12887573,-0.829895,
299.70756300000005,true,true,true,0.0,12.6,0.0,-12619,0,0,0.0,12.6,0.0,0,0,0,0.125,12.6,0.0,-7625,0,0,0.0,12.65,0.0,0,0,0,0.0,12.6,0.0,0,0,0,0.0,12.6,0.0,0,0,0,0.0,12.65,0.0,0,0,0,kReverse,kOff,-84.01,2.22,-171.14,0.038513184,-0.98321533,0.09820557,25.55,0.0,-2.0,-0.12887573,-0.829895,
299.728071,true,true,true,2.625,12.6,0.0,-12624,0,0,1.0,12.6,0.0,0,0,0,1.375,12.6,0.0,-7623,0,0,1.375,12.65,0.0,0,0,0,0.0,12.6,0.0,0,0,0,0.0,12.6,0.0,0,0,0,0.0,12.65,0.0,0,0,0,kReverse,kOff,-84.01,2.22,-171.13,0.041992188,-0.9834595,0.091552734,25.55,0.0,0.0,-0.12887573,-0.829895,
299.747727,true,true,true,2.625,12.6,0.0,-12648,-5,0,6.625,12.6,0.0,0,0,0,7.875,12.6,0.0,-7602,3,0,6.125,12.65,0.0,0,0,0,0.0,12.6,0.0,0,0,0,0.0,12.6,0.0,0,0,0,0.0,12.65,0.0,0,0,0,kReverse,kOff,-84.02,2.22,-171.15,0.03955078,-0.89611816,0.1416626,25.55,0.0,-44.0,-0.12890625,-0.82992554,
299.768516,true,true,true,11.125,12.6,0.0,-12669,-18,0,17.125,12.6,0.0,0,0,0,18.625,12.6,0.0,-7579,15,0,15.0,12.65,0.0,0,0,0,0.0,12.6,0.0,0,0,0,0.0,12.6,0.0,0,0,0,0.0,12.65,0.0,0,0,0,kReverse,kOff,-84.07,2.16,-171.26,-0.06463623,-1.2791748,0.29992676,25.55,0.0,-62.0,-0.12901306,-0.8301239,
299.787261,true,true,true,27.75,12.6,0.0,-12669,-18,0,33.375,12.6,0.0,0,0,0,31.5,12.6,0.0,-7555,33,0,26.375,12.65,0.0,0,0,0,0.0,8.55,0.0,0,0,0,0.0,8.45,0.0,0,0,0,0.0,8.55,0.0,0,0,0,kReverse,kOff,-84.3,2.15,-171.5,0.1763916,-0.6003418,-0.9081421,25.55,0.0,641.0,-0.1278534,-0.8287506,
299.807504,true,true,true,42.75,8.05,0.0,-12693,-37,0,44.25,8.15,0.0,0,0,0,40.75,8.2,0.0,-7517,58,0,35.0,8.4,0.0,0,0,0,0.0,8.55,0.0,0,0,0,0.0,8.45,0.0,0,0,0,0.0,8.55,0.0,0,0,0,kReverse,kOff,-85.34,2.82,-172.26,0.37957764,-0.8949585,-0.30889893,25.55,0.0,92.0,-0.1268158,-0.82666016,
299.827882,true,true,true,49.25,8.05,0.0,-12771,-90,0,48.625,8.15,0.0,0,0,0,42.875,8.2,0.0,-7473,89,0,38.25,8.4,0.0,0,0,0,0.0,8.55,0.0,0,0,0,0.0,8.45,0.0,0,0,0,0.0,8.55,0.0,0,0,0,kReverse,kOff,-85.49,2.92,-172.15,-0.125,-1.2492676,0.50042725,25.55,0.0,-242.0,-0.12586975,-0.8245239,
299.847305,true,true,true,49.25,8.05,0.0,-12771,-123,0,45.125,8.15,0.0,0,0,0,39.625,8.2,0.0,-7423,124,0,36.125,8.4,0.0,0,0,0,0.0,8.55,0.0,0,0,0,0.0,8.45,0.0,0,0,0,0.0,8.55,0.0,0,0,0,kReverse,kOff,-86.04,2.7,-172.23,-0.016052246,-1.2778931,-0.40112305,25.55,0.0,441.0,-0.123794556,-0.8210602,
299.866968,true,true,true,44.375,8.05,0.0,-12819,-123,0,42.125,8.15,0.0,0,0,0,34.875,8.2,0.0,-7370,159,0,32.75,8.4,0.0,0,0,0,0.0,8.55,0.0,0,0,0,0.0,8.45,0.0,0,0,0,0.0,8.55,0.0,0,0,0,kReverse,kOff,-86.25,2.75,-172.11,0.057800293,-0.8623657,0.1307373,25.55,0.0,-90.0,-0.12231445,-0.8192444,
299.88700900000003,true,true,true,40.5,8.05,0.0,-12872,-155,0,39.5,8.15,0.0,0,0,0,31.375,8.2,0.0,-7309,192,0,30.5,8.4,0.0,0,0,0,0.0,8.55,0.0,0,0,0,0.0,8.45,0.0,0,0,0,0.0,8.55,0.0,0,0,0,kReverse,kOff,-85.84,2.93,-170.09,0.10546875,-0.78411865,0.34222412,25.55,0.0,-303.0,-0.12112427,-0.81747437,
299.91067200000003,true,true,true,34.875,8.05,0.0,-12993,-217,0,36.875,8.15,0.0,0,0,0,28.25,8.2,0.0,-7244,223,0,28.375,8.4,0.0,0,0,0,0.0,8.55,0.0,0,0,0,0.0,8.45,0.0,0,0,0,0.0,8.55,0.0,0,0,0,kReverse,kOff,-85.59,2.9,-165.01,-0.34161377,-0.8280029,-1.092102,25.55,0.0,1197.0,-0.117111206,-0.81414795,
299.929751,true,true,true,32.25,8.05,0.0,-13062,-249,0,34.0,8.15,0.0,0,0,0,26.0,8.2,0.0,-7176,254,0,26.625,8.4,0.0,0,0,0,0.0,8.55,0.0,0,0,0,0.0,8.45,0.0,0,0,0,0.0,8.55,0.0,0,0,0,kReverse,kOff,-85.81,2.86,-161.28,-0.1638794,-1.1742554,-0.34509277,25.55,0.0,440.0,-0.1133728,-0.81266785,
299.948941,true,true,true,30.25,8.05,0.0,-13127,-273,0,31.75,9.65,0.0,0,0,0,24.375,9.8,0.0,-7106,281,0,25.5,9.8,0.0,0,0,0,0.0,9.95,0.0,0,0,0,0.0,9.95,0.0,0,0,0,0.0,10.0,0.0,0,0,0,kReverse,kOff,-85.48,3.04,-111.11,0.0061035156,-1.1531372,-0.19281006,25.55,0.0,260.0,-0.104644775,-0.80892944,
299.983877,true,true,true,28.125,9.65,0.0,-13203,-297,0,28.0,9.65,0.0,0,0,0,21.75,9.8,0.0,-6951,327,0,22.75,9.8,0.0,0,0,0,0.0,9.95,0.0,0,0,0,0.0,9.95,0.0,0,0,0,0.0,10.0,0.0,0,0,0,kReverse,kOff,-85.61,3.15,-17.64,-0.3369751,-0.53253174,-0.076660156,25.55,0.0,52.0,-0.09486389,-0.8083496,
300.010606,true,true,true,24.75,9.65,0.0,-13352,-334,0,26.625,9.65,0.0,0,0,0,21.0,9.8,0.0,-6873,346,0,21.75,9.8,0.0,0,0,0,0.0,9.95,0.0,0,0,0,0.0,9.95,0.0,0,0,0,0.0,10.0,0.0,0,0,0,kReverse,kOff,-85.54,3.24,-6.21,-0.27856445,-0.8309326,-0.23248291,25.55,0.0,163.0,-0.08457947,-0.80833435,
300.02790600000003,true,true,true,24.25,9.65,0.0,-13427,-349,0,25.375,9.65,0.0,0,0,0,20.875,9.8,0.0,-6796,361,0,21.125,9.8,0.0,0,0,0,0.0,9.95,0.0,0,0,0,0.0,9.95,0.0,0,0,0,0.0,10.0,0.0,0,0,0,kReverse,kOff,-85.6,3.23,-3.8,-0.39831543,-1.4058838,-0.46862793,25.55,0.0,313.0,-0.07902527,-0.8092346,
300.047748,true,true,true,24.25,9.65,0.0,-13508,-362,0,25.25,9.65,0.0,0,0,0,21.0,9.8,0.0,-6716,374,0,21.0,9.8,0.0,0,0,0,0.0,9.95,0.0,0,0,0,0.0,9.95,0.0,0,0,0,0.0,10.0,0.0,0,0,0,kReverse,kOff,-86.4,2.69,-0.89,-0.7189331,-0.87939453,0.07550049,25.55,0.0,-453.0,-0.06793213,-0.8139496,
300.073064,true,true,true,23.75,9.65,0.0,-13584,-371,0,25.125,9.65,0.0,0,0,0,20.25,9.8,0.0,-6633,383,0,20.375,9.8,0.0,0,0,0,0.0,9.95,0.0,0,0,0,0.0,9.95,0.0,0,0,0,0.0,10.0,0.0,0,0,0,kReverse,kOff,-86.46,2.59,-0.34,-0.34936523,-1.2736816,0.05987549,25.55,0.0,-262.0,-0.06304932,-0.81741333,
300.09229999999997,true,true,true,22.75,9.65,0.0,-13668,-379,0,24.625,9.65,0.0,0,0,0,19.375,9.8,0.0,-6548,392,0,19.5,9.8,0.0,0,0,0,0.0,9.95,0.0,0,0,0,0.0,9.95,0.0,0,0,0,0.0,10.0,0.0,0,0,0,kReverse,kOff,-86.37,2.57,-0.01,0.0040893555,-1.1364746,-0.20819092,25.55,0.0,151.0,-0.058242798,-0.821228,
300.111575,true,true,true,22.5,10.2,0.0,-13748,-385,0,24.0,10.2,0.0,0,0,0,18.5,10.2,0.0,-6462,399,0,18.625,10.3,0.0,0,0,0,0.0,10.45,0.0,0,0,0,0.0,10.4,0.0,0,0,0,0.0,10.45,0.0,0,0,0,kReverse,kOff,-86.21,2.72,0.95,-0.35754395,-0.760437,0.19329834,25.55,0.0,-414.0,-0.048965454,-0.829834,
300.13415100000003,true,true,true,22.375,10.2,0.0,-13824,-390,0,24.0,10.2,0.0,0,0,0,18.375,10.2,0.0,-6378,406,0,18.5,10.3,0.0,0,0,0,0.0,10.45,0.0,0,0,0,0.0,10.4,0.0,0,0,0,0.0,10.45,0.0,0,0,0,kReverse,kOff,-86.05,2.84,1.35,0.061279297,-0.99560547,0.0435791,25.55,0.0,12.0,-0.044784546,-0.83432007,
300.15627,true,true,true,22.25,10.2,0.0,-13905,-394,0,23.875,10.2,0.0,0,0,0,18.75,10.2,0.0,-6296,413,0,18.75,10.3,0.0,0,0,0,0.0,10.45,0.0,0,0,0,0.0,10.4,0.0,0,0,0,0.0,10.45,0.0,0,0,0,kReverse,kOff,-86.04,2.97,2.11,-0.43292236,-1.3554688,-0.3692627,25.55,0.0,-341.0,-0.03729248,-0.8445282,
300.178628,true,true,true,20.625,10.2,0.0,-13982,-397,0,24.5,10.2,0.0,0,0,0,16.625,10.2,0.0,-6215,417,0,17.0,10.3,0.0,0,0,0,0.0,10.45,0.0,0,0,0,0.0,10.4,0.0,0,0,0,0.0,10.45,0.0,0,0,0,kReverse,kOff,-86.39,2.8,2.27,-0.7941284,-0.8640747,-0.093933105,25.55,0.0,-785.0,-0.0345459,-0.8505554,
300.202805,true,true,true,14.75,10.2,0.0,-14060,-398,0,20.875,10.2,0.0,0,0,0,12.125,10.2,0.0,-6137,418,0,8.125,10.3,0.0,0,0,0,0.0,10.45,0.0,0,0,0,0.0,10.4,0.0,0,0,0,0.0,10.45,0.0,0,0,0,kReverse,kOff,-87.02,2.4,2.34,-0.29156494,-1.4971313,-0.072631836,25.55,0.0,-349.0,-0.031784058,-0.8630829,
300.22546,true,true,true,8.875,10.2,0.0,-14126,-394,0,6.5,10.2,0.0,0,0,0,1.875,10.2,0.0,-6014,402,0,2.375,10.3,0.0,0,0,0,0.0,10.45,0.0,0,0,0,0.0,10.4,0.0,0,0,0,0.0,10.45,0.0,0,0,0,kReverse,kOff,-86.98,2.45,2.55,-0.3768921,-0.95947266,-0.17437744,25.55,0.0,-428.0,-0.031295776,-0.86958313,
300.24847,true,true,true,0.0,10.2,0.0,-14238,-367,0,1.25,10.2,0.0,0,0,0,0.5,10.2,0.0,-5974,380,0,0.75,10.3,0.0,0,0,0,0.0,10.45,0.0,0,0,0,0.0,10.4,0.0,0,0,0,0.0,10.45,0.0,0,0,0,kReverse,kOff,-87.1,2.12,2.59,-0.8000488,-0.93078613,-0.095214844,25.55,0.0,-840.0,-0.032562256,-0.8831482,
300.269381,true,true,true,0.0,12.35,0.0,-14296,-347,0,0.0,12.35,0.0,0,0,0,0.0,12.35,0.0,-5930,347,0,0.0,12.4,0.0,0,0,0,0.0,12.35,0.0,0,0,0,0.0,12.35,0.0,0,0,0,0.0,12.4,0.0,0,0,0,kReverse,kOff,-87.32,1.75,2.41,-0.8848877,-0.97888184,0.068481445,25.55,0.0,-858.0,-0.034820557,-0.8896942,
300.290061,true,true,true,0.0,12.35,0.0,-14353,-326,0,0.0,12.35,0.0,0,0,0,0.125,12.35,0.0,-5884,311,0,0.0,12.4,0.0,0,0,0,0.0,12.35,0.0,0,0,0,0.0,12.35,0.0,0,0,0,0.0,12.4,0.0,0,0,0,kReverse,kOff,-87.32,1.2,2.37,-0.20709229,-0.8823242,-0.2397461,25.55,0.0,-323.0,-0.041931152,-0.9016876,
300.309735,true,true,true,0.0,12.35,0.0,-14408,-307,0,0.0,12.35,0.0,0,0,0,0.125,12.35,0.0,-5843,276,0,0.0,12.4,0.0,0,0,0,0.0,12.35,0.0,0,0,0,0.0,12.35,0.0,0,0,0,0.0,12.4,0.0,0,0,0,kReverse,kOff,-87.09,1.35,2.79,-0.012145996,-1.0748901,-0.42279053,25.55,0.0,-263.0,-0.046203613,-0.90797424,
300.332088,true,true,true,0.0,12.35,0.0,-14460,-293,0,0.0,12.35,0.0,0,0,0,0.125,12.35,0.0,-5807,245,0,0.0,12.4,0.0,0,0,0,0.0,12.35,0.0,0,0,0,0.0,12.35,0.0,0,0,0,0.0,12.4,0.0,0,0,0,kReverse,kOff,-87.68,1.52,2.77,-0.25787354,-0.91955566,-0.16052246,25.51,0.0,-338.0,-0.05644226,-0.9216614,
300.353949,true,true,true,0.0,12.35,0.0,-14509,-283,0,0.0,12.35,0.0,0,0,0,0.125,12.35,0.0,-5775,222,0,0.0,12.4,0.0,0,0,0,0.0,12.35,0.0,0,0,0,0.0,12.35,0.0,0,0,0,0.0,12.4,0.0,0,0,0,kReverse,kOff,-87.64,1.61,2.98,-0.034057617,-0.91851807,0.5526123,25.51,0.0,281.0,-0.061904907,-0.9282837,
300.375344,true,true,true,0.0,12.35,0.0,-14557,-274,0,0.0,12.35,0.0,0,0,0,0.125,12.35,0.0,-5751,204,0,0.0,12.4,0.0,0,0,0,0.0,12.35,0.0,0,0,0,0.0,12.35,0.0,0,0,0,0.0,12.4,0.0,0,0,0,kReverse,kOff,-87.34,1.84,3.52,0.28204346,-1.0167847,0.47021484,25.51,0.0,474.0,-0.066848755,-0.9405365,
300.397357,true,true,true,0.0,12.35,0.0,-14603,-265,0,0.0,12.35,0.0,0,0,0,0.125,12.35,0.0,-5736,187,0,0.0,12.4,0.0,0,0,0,0.0,12.35,0.0,0,0,0,0.0,12.35,0.0,0,0,0,0.0,12.4,0.0,0,0,0,kReverse,kOff,-86.62,2.5,4.75,-0.19891357,-0.66204834,-0.046569824,25.51,0.0,-212.0,-0.074920654,-0.9464569,
300.419346,true,true,true,0.25,12.35,0.0,-14643,-255,0,0.0,12.35,0.0,0,0,0,0.125,12.35,0.0,-5727,164,0,0.0,12.4,0.0,0,0,0,0.0,12.35,0.0,0,0,0,0.0,12.0,0.0,0,0,0,0.0,12.1,0.0,0,0,0,kReverse,kOff,-87.87,1.67,3.14,-1.1339111,-1.272583,0.2543335,25.51,0.0,-607.0,-0.08518982,-0.9566498,
300.443804,true,true,true,4.0,12.200000000000001,0.0,-14664,-241,0,0.75,12.200000000000001,0.0,0,0,0,14.5,12.15,0.0,-5738,97,0,10.125,12.200000000000001,0.0,0,0,0,0.0,12.200000000000001,0.0,0,0,0,0.0,12.0,0.0,0,0,0,0.0,12.1,0.0,0,0,0,kReverse,kOff,-88.38,1.05,2.53,-0.58483887,-2.0,0.21826172,25.51,0.0,-260.0,-0.091430664,-0.9601593,
300.465982,true,true,true,17.25,12.200000000000001,0.0,-14663,-214,0,21.375,12.200000000000001,0.0,0,0,0,25.5,12.15,0.0,-5767,57,0,20.5,12.200000000000001,0.0,0,0,0,0.0,12.200000000000001,0.0,0,0,0,0.0,12.0,0.0,0,0,0,0.0,12.1,0.0,0,0,0,kReverse,kOff,-87.31,0.39,3.88,0.004272461,-0.5170288,1.999939,25.51,0.0,1571.0,-0.10192871,-0.9630432,
300.487174,true,true,true,35.625,12.200000000000001,0.0,-14658,-177,0,35.875,12.200000000000001,0.0,0,0,0,37.125,12.15,0.0,-5801,12,0,30.5,12.200000000000001,0.0,0,0,0,0.0,12.200000000000001,0.0,0,0,0,0.0,12.0,0.0,0,0,0,0.0,12.1,0.0,0,0,0,kReverse,kOff,-86.05,0.63,5.72,1.163208,-0.90563965,1.999939,25.51,0.0,2236.0,-0.10383606,-0.962677,
300.508688,true,true,true,52.5,12.200000000000001,0.0,-14618,-72,0,46.0,12.200000000000001,0.0,0,0,0,42.25,12.15,0.0,-5829,-35,0,38.0,12.200000000000001,0.0,0,0,0,0.0,12.200000000000001,0.0,0,0,0,0.0,12.0,0.0,0,0,0,0.0,12.1,0.0,0,0,0,kReverse,kOff,-85.04,1.14,7.21,-0.015258789,-0.32592773,1.4217529,25.51,0.0,1076.0,-0.10348511,-0.9615326,
300.528616,true,true,true,47.0,12.200000000000001,0.0,-14583,-11,0,49.375,12.200000000000001,0.0,0,0,0,44.5,12.15,0.0,-5865,-78,0,40.5,12.200000000000001,0.0,0,0,0,0.0,12.200000000000001,0.0,0,0,0,0.0,12.0,0.0,0,0,0,0.0,12.1,0.0,0,0,0,kReverse,kOff,-84.73,0.2,6.15,-1.0302124,-0.38269043,-0.31750488,25.51,0.0,-944.0,-0.102127075,-0.95588684,
300.547772,true,true,true,41.375,12.200000000000001,0.0,-14536,46,0,44.875,12.200000000000001,0.0,0,0,0,44.875,12.15,0.0,-5908,-117,0,41.0,12.200000000000001,0.0,0,0,0,0.0,12.200000000000001,0.0,0,0,0,0.0,12.0,0.0,0,0,0,0.0,12.1,0.0,0,0,0,kReverse,kOff,-85.03,-0.53,4.75,-0.052368164,-1.9089355,-0.15289307,25.51,0.0,-255.0,-0.1026001,-0.9523468,
300.571726,true,true,true,36.0,12.200000000000001,0.0,-14485,99,0,39.5,12.200000000000001,0.0,0,0,0,42.875,12.15,0.0,-5951,-147,0,39.5,12.200000000000001,0.0,0,0,0,0.0,12.200000000000001,0.0,0,0,0,0.0,12.0,0.0,0,0,0,0.0,12.1,0.0,0,0,0,kReverse,kOff,-85.21,-0.45,4.19,0.15350342,-1.1813965,0.18933105,25.51,0.0,179.0,-0.10523987,-0.94625854,
300.58970500000004,true,true,true,33.375,12.200000000000001,0.0,-14434,147,0,36.0,8.75,0.0,0,0,0,40.0,8.75,0.0,-6002,-173,0,37.5,8.850000000000001,0.0,0,0,0,0.0,9.100000000000001,0.0,0,0,0,0.0,9.100000000000001,0.0,0,0,0,0.0,9.100000000000001,0.0,0,0,0,kReverse,kOff,-84.73,-0.22,4.4,0.44708252,-1.3348999,1.2344971,25.51,0.0,1072.0,-0.105895996,-0.9430084,
300.61461099999997,true,true,true,33.125,8.8,0.0,-14387,185,0,35.125,8.75,0.0,0,0,0,37.5,8.75,0.0,-6053,-193,0,35.875,8.850000000000001,0.0,0,0,0,0.0,9.100000000000001,0.0,0,0,0,0.0,9.100000000000001,0.0,0,0,0,0.0,9.100000000000001,0.0,0,0,0,kReverse,kOff,-84.54,-0.01,4.34,0.28912354,-0.17059326,1.0160522,25.51,0.0,848.0,-0.10523987,-0.9390106,
300.63246100000003,true,true,true,32.25,8.8,0.0,-14336,213,0,35.75,8.75,0.0,0,0,0,32.5,8.75,0.0,-6108,-211,0,32.375,8.850000000000001,0.0,0,0,0,0.0,9.100000000000001,0.0,0,0,0,0.0,9.100000000000001,0.0,0,0,0,0.0,9.100000000000001,0.0,0,0,0,kReverse,kOff,-85.61,-0.07,2.71,-0.042663574,-0.80633545,0.4697876,25.51,0.0,183.0,-0.10354614,-0.9303131,
300.65585,true,true,true,28.75,8.8,0.0,-14287,232,0,33.5,8.75,0.0,0,0,0,27.25,8.75,0.0,-6161,-230,0,27.5,8.850000000000001,0.0,0,0,0,0.0,9.100000000000001,0.0,0,0,0,0.0,9.100000000000001,0.0,0,0,0,0.0,9.100000000000001,0.0,0,0,0,kReverse,kOff,-85.07,0.05,2.42,-0.15197754,-1.1793823,0.062927246,25.51,0.0,-154.0,-0.10133362,-0.9196167,
300.677566,true,true,true,23.75,8.8,0.0,-14243,241,0,30.5,8.75,0.0,0,0,0,18.625,8.75,0.0,-6207,-244,0,19.75,8.850000000000001,0.0,0,0,0,0.0,9.100000000000001,0.0,0,0,0,0.0,9.100000000000001,0.0,0,0,0,0.0,9.100000000000001,0.0,0,0,0,kReverse,kOff,-84.43,0.03,2.32,-0.21765137,-0.53692627,0.039855957,25.51,0.0,-206.0,-0.10044861,-0.91397095,
300.697564,true,true,true,13.5,8.8,0.0,-14213,241,0,20.0,8.75,0.0,0,0,0,9.625,8.75,0.0,-6237,-249,0,10.5,8.850000000000001,0.0,0,0,0,0.0,9.100000000000001,0.0,0,0,0,0.0,9.100000000000001,0.0,0,0,0,0.0,9.100000000000001,0.0,0,0,0,kReverse,kOff,-84.04,0.02,2.09,0.15991211,-2.0,0.7866821,25.51,0.0,339.0,-0.09945679,-0.90792847,
300.718279,true,true,true,7.125,8.8,0.0,-14196,229,0,10.5,8.75,0.0,0,0,0,3.625,8.75,0.0,-6259,-241,0,4.5,8.850000000000001,0.0,0,0,0,0.0,9.100000000000001,0.0,0,0,0,0.0,9.100000000000001,0.0,0,0,0,0.0,9.100000000000001,0.0,0,0,0,kReverse,kOff,-84.12,0.36,1.78,0.48376465,-1.5966797,-0.54919434,25.51,0.0,293.0,-0.097335815,-0.89663696,
300.73832600000003,true,true,true,0.0,8.8,0.0,-14175,208,0,3.125,8.75,0.0,0,0,0,0.0,8.75,0.0,-6285,-222,0,0.0,8.850000000000001,0.0,0,0,0,0.0,9.100000000000001,0.0,0,0,0,0.0,9.100000000000001,0.0,0,0,0,0.0,12.35,0.0,0,0,0,kReverse,kOff,-84.5,0.68,1.79,0.24353027,-1.367981,-0.91833496,25.51,0.0,14.0,-0.09605408,-0.8926697,
300.75913299999996,true,true,true,0.0,12.3,0.0,-14143,181,0,0.0,12.3,0.0,0,0,0,0.0,12.25,0.0,-6316,-197,0,0.0,12.3,0.0,0,0,0,0.0,12.3,0.0,0,0,0,0.0,12.3,0.0,0,0,0,0.0,12.35,0.0,0,0,0,kReverse,kOff,-84.74,0.48,1.27,-0.54919434,-1.123352,0.19238281,25.51,0.0,-538.0,-0.09429932,-0.886322,
300.7788,true,true,true,0.0,12.3,0.0,-14113,158,0,0.0,12.3,0.0,0,0,0,0.0,12.25,0.0,-6338,-170,0,0.0,12.3,0.0,0,0,0,0.0,12.3,0.0,0,0,0,0.0,12.3,0.0,0,0,0,0.0,12.35,0.0,0,0,0,kReverse,kOff,-84.84,0.21,0.9,-0.35516357,-0.98742676,0.4022827,25.51,0.0,-313.0,-0.09428406,-0.882782,
300.798972,true,true,true,0.0,12.3,0.0,-14092,140,0,0.0,12.3,0.0,0,0,0,0.125,12.25,0.0,-6354,-147,0,0.0,12.3,0.0,0,0,0,0.0,12.3,0.0,0,0,0,0.0,12.3,0.0,0,0,0,0.0,12.35,0.0,0,0,0,kReverse,kOff,-84.83,0.16,0.77,0.25976562,-1.1723633,0.7872925,25.51,0.0,334.0,-0.09423828,-0.87854004,
300.82513,true,true,true,0.0,12.3,0.0,-14086,127,0,0.0,12.3,0.0,0,0,0,0.125,12.25,0.0,-6382,-114,0,0.0,12.3,0.0,0,0,0,0.0,12.3,0.0,0,0,0,0.0,12.3,0.0,0,0,0,0.0,12.35,0.0,0,0,0,kReverse,kOff,-84.65,0.93,1.37,0.60339355,-1.050293,-0.40350342,25.52,0.0,541.0,-0.0921936,-0.8693695,
300.84493,true,true,true,0.0,12.3,0.0,-14085,114,0,0.0,12.3,0.0,0,0,0,0.125,12.25,0.0,-6394,-102,0,0.0,12.3,0.0,0,0,0,0.0,12.3,0.0,0,0,0,0.0,12.3,0.0,0,0,0,0.0,12.35,0.0,0,0,0,kReverse,kOff,-84.65,0.93,1.37,0.60339355,-1.050293,-0.40350342,25.52,0.0,541.0,-0.0921936,-0.8693695,
300.86555599999997,true,true,true,0.0,12.3,0.0,-14085,98,0,0.0,12.3,0.0,0,0,0,0.125,12.25,0.0,-6404,-89,0,0.0,12.3,0.0,0,0,0,0.0,12.3,0.0,0,0,0,0.0,12.3,0.0,0,0,0,0.0,12.35,0.0,0,0,0,kReverse,kOff,-85.65,0.98,1.2,-0.3310547,-0.7939453,-0.0357666,25.52,0.0,-349.0,-0.087020874,-0.85939026,
300.888078,true,true,true,0.0,12.3,0.0,-14080,48,0,0.0,12.3,0.0,0,0,0,0.125,12.25,0.0,-6412,-74,0,0.0,12.3,0.0,0,0,0,0.0,12.3,0.0,0,0,0,0.0,12.3,0.0,0,0,0,0.0,12.35,0.0,0,0,0,kReverse,kOff,-85.65,0.98,1.2,-0.3310547,-0.7939453,-0.0357666,25.52,0.0,-349.0,-0.087020874,-0.85939026,
300.910226,true,true,true,0.0,12.4,0.0,-14080,25,0,0.0,12.4,0.0,0,0,0,0.125,12.35,0.0,-6418,-63,0,0.0,12.4,0.0,0,0,0,0.0,12.4,0.0,0,0,0,0.0,12.35,0.0,0,0,0,0.0,12.450000000000001,0.0,0,0,0,kReverse,kOff,-85.74,1.05,1.24,0.23449707,0.14208984,0.43139648,25.52,0.0,256.0,-0.08432007,-0.8533478,
300.934319,true,true,true,0.0,12.4,0.0,-14079,12,0,0.0,12.4,0.0,0,0,0,0.125,12.35,0.0,-6425,-54,0,0.0,12.4,0.0,0,0,0,0.0,12.4,0.0,0,0,0,0.0,12.35,0.0,0,0,0,0.0,12.450000000000001,0.0,0,0,0,kReverse,kOff,-85.28,1.34,1.51,0.40600586,-1.6278687,0.5272217,25.52,0.0,381.0,-0.08239746,-0.8495941,
300.954548,true,true,true,0.0,12.4,0.0,-14073,7,0,0.0,12.4,0.0,0,0,0,0.125,12.35,0.0,-6436,-47,0,0.0,12.4,0.0,0,0,0,0.0,12.4,0.0,0,0,0,0.0,12.35,0.0,0,0,0,0.0,12.450000000000001,0.0,0,0,0,kReverse,kOff,-84.78,1.31,1.37,-0.2854004,-1.8279419,-0.103881836,25.52,0.0,-330.0,-0.07772827,-0.8410492,
300.976765,true,true,true,0.0,12.4,0.0,-14064,9,0,0.0,12.4,0.0,0,0,0,0.125,12.35,0.0,-6446,-43,0,0.0,12.4,0.0,0,0,0,0.0,12.4,0.0,0,0,0,0.0,12.35,0.0,0,0,0,0.0,12.450000000000001,0.0,0,0,0,kReverse,kOff,-84.86,0.95,0.96,-0.6890869,-0.40179443,-0.7579956,25.52,0.0,-697.0,-0.0761261,-0.8374634,
300.997315,true,true,true,0.0,12.4,0.0,-14056,15,0,0.0,12.4,0.0,0,0,0,0.125,12.35,0.0,-6455,-41,0,0.0,12.4,0.0,0,0,0,0.0,12.4,0.0,0,0,0,0.0,12.35,0.0,0,0,0,0.0,12.450000000000001,0.0,0,0,0,kReverse,kOff,-84.62,0.71,0.68,0.380188,-1.0610962,0.09033203,25.52,0.0,367.0,-0.073776245,-0.8314209,
301.01845000000003,true,true,true,0.0,12.4,0.0,-14051,21,0,0.0,12.4,0.0,0,0,0,0.125,12.35,0.0,-6460,-42,0,0.0,12.4,0.0,0,0,0,0.0,12.4,0.0,0,0,0,0.0,12.35,0.0,0,0,0,0.0,12.450000000000001,0.0,0,0,0,kReverse,kOff,-84.51,1.04,0.98,0.670105,-0.5515137,-0.2111206,25.52,0.0,662.0,-0.07180786,-0.82858276,
301.038771,true,true,true,0.0,12.4,0.0,-14047,26,0,0.0,12.4,0.0,0,0,0,0.125,12.35,0.0,-6462,-41,0,0.0,12.4,0.0,0,0,0,0.0,12.4,0.0,0,0,0,0.0,12.35,0.0,0,0,0,0.0,12.450000000000001,0.0,0,0,0,kReverse,kOff,-84.83,1.43,1.35,0.4873047,-0.9747925,0.029968262,25.52,0.0,463.0,-0.06906128,-0.825943,
301.05953999999997,true,true,true,0.0,12.4,0.0,-14046,28,0,0.0,12.4,0.0,0,0,0,0.125,12.35,0.0,-6463,-38,0,0.0,12.4,0.0,0,0,0,0.0,12.4,0.0,0,0,0,0.0,12.4,0.0,0,0,0,0.0,12.450000000000001,0.0,0,0,0,kReverse,kOff,-85.26,1.64,1.54,-0.18115234,-1.203186,-0.09613037,25.52,0.0,-211.0,-0.06291199,-0.8208313,
301.083671,true,true,true,0.0,12.4,0.0,-14046,27,0,0.0,12.4,0.0,0,0,0,0.125,12.4,0.0,-6465,-23,0,0.0,12.4,0.0,0,0,0,0.0,12.4,0.0,0,0,0,0.0,12.4,0.0,0,0,0,0.0,12.450000000000001,0.0,0,0,0,kReverse,kOff,-85.23,1.44,1.33,-0.402771,-1.0352173,-0.01739502,25.52,0.0,-426.0,-0.060317993,-0.8185272,
301.102245,true,true,true,0.0,12.4,0.0,-14046,22,0,0.0,12.4,0.0,0,0,0,0.125,12.4,0.0,-6465,-15,0,0.0,12.4,0.0,0,0,0,0.0,12.4,0.0,0,0,0,0.0,12.4,0.0,0,0,0,0.0,12.450000000000001,0.0,0,0,0,kReverse,kOff,-85.14,1.05,0.96,0.1539917,-1.0238647,0.32104492,25.52,0.0,130.0,-0.05619812,-0.81414795,
301.122528,true,true,true,0.0,12.4,0.0,-14046,14,0,0.0,12.4,0.0,0,0,0,0.125,12.4,0.0,-6465,-8,0,0.0,12.4,0.0,0,0,0,0.0,12.4,0.0,0,0,0,0.0,12.4,0.0,0,0,0,0.0,12.450000000000001,0.0,0,0,0,kReverse,kOff,-84.94,1.42,1.34,0.35858154,-0.9360962,0.114868164,25.52,0.0,334.0,-0.051086426,-0.8088379,
301.15794900000003,true,true,true,0.0,12.4,0.0,-14046,3,0,0.0,12.4,0.0,0,0,0,0.125,12.4,0.0,-6465,-4,0,0.0,12.4,0.0,0,0,0,0.0,12.4,0.0,0,0,0,0.0,12.4,0.0,0,0,0,0.0,12.450000000000001,0.0,0,0,0,kReverse,kOff,-84.9,1.46,1.38,-0.22937012,-0.99523926,0.101257324,25.52,0.0,-255.0,-0.045288086,-0.8036194,
301.181885,true,true,true,0.0,12.4,0.0,-14047,1,0,0.0,12.4,0.0,0,0,0,0.125,12.4,0.0,-6465,-2,0,0.0,12.4,0.0,0,0,0,0.0,12.4,0.0,0,0,0,0.0,12.4,0.0,0,0,0,0.0,12.450000000000001,0.0,0,0,0,kReverse,kOff,-84.95,1.33,1.27,0.016174316,-0.93188477,0.24243164,25.52,0.0,-8.0,-0.042678833,-0.80093384,
301.20721000000003,true,true,true,0.0,12.4,0.0,-14048,-1,0,0.0,12.4,0.0,0,0,0,0.125,12.4,0.0,-6465,0,0,0.0,12.4,0.0,0,0,0,0.0,12.4,0.0,0,0,0,0.0,12.4,0.0,0,0,0,0.0,12.450000000000001,0.0,0,0,0,kReverse,kOff,-84.89,1.35,1.29,0.06317139,-0.9918823,0.17602539,25.52,0.0,38.0,-0.040039062,-0.79808044,
301.22754399999997,true,true,true,0.0,12.4,0.0,-14048,-1,0,0.0,12.4,0.0,0,0,0,0.125,12.4,0.0,-6465,0,0,0.0,12.450000000000001,0.0,0,0,0,0.0,12.4,0.0,0,0,0,0.0,12.4,0.0,0,0,0,0.0,12.450000000000001,0.0,0,0,0,kReverse,kOff,-84.92,1.33,1.26,-0.09124756,-0.9394531,0.049316406,25.52,0.0,-112.0,-0.03489685,-0.7922058,
301.25179099999997,true,true,true,0.0,12.4,0.0,-14048,-2,0,0.0,12.4,0.0,0,0,0,0.125,12.4,0.0,-6465,0,0,0.0,12.450000000000001,0.0,0,0,0,0.0,12.4,0.0,0,0,0,0.0,12.4,0.0,0,0,0,0.0,12.450000000000001,0.0,0,0,0,kReverse,kOff,-84.9,1.26,1.19,0.036376953,-1.0041504,0.15618896,25.52,0.0,12.0,-0.032440186,-0.78926086,
301.273153,true,true,true,0.0,12.4,0.0,-14048,-1,0,0.0,12.4,0.0,0,0,0,0.125,12.4,0.0,-6465,0,0,0.0,12.450000000000001,0.0,0,0,0,0.0,12.4,0.0,0,0,0,0.0,12.4,0.0,0,0,0,0.0,12.450000000000001,0.0,0,0,0,kReverse,kOff,-84.85,1.41,1.33,0.14422607,-0.89678955,0.0048828125,25.52,0.0,123.0,-0.027130127,-0.78341675,
301.29223099999996,true,true,true,0.0,12.4,0.0,-14048,-1,0,0.0,12.4,0.0,0,0,0,0.125,12.4,0.0,-6465,0,0,0.0,12.450000000000001,0.0,0,0,0,0.0,12.4,0.0,0,0,0,0.0,12.4,0.0,0,0,0,0.0,12.450000000000001,0.0,0,0,0,kReverse,kOff,-84.96,1.46,1.39,0.027770996,-1.0162354,0.14337158,25.52,0.0,0.0,-0.024291992,-0.7805481,
301.309363,true,true,true,0.0,12.4,0.0,-14048,0,0,0.0,12.4,0.0,0,0,0,0.125,12.4,0.0,-6465,0,0,0.0,12.450000000000001,0.0,0,0,0,0.0,12.4,0.0,0,0,0,0.0,12.4,0.0,0,0,0,0.0,12.450000000000001,0.0,0,0,0,kReverse,kOff,-84.9,1.42,1.35,-0.006591797,-0.89208984,0.079711914,25.52,0.0,-28.0,-0.018737793,-0.7746124,
301.33235599999995,true,true,true,0.0,12.4,0.0,-14048,0,0,0.0,12.4,0.0,0,0,0,0.125,12.4,0.0,-6465,0,0,0.0,12.450000000000001,0.0,0,0,0,0.0,12.4,0.0,0,0,0,0.0,12.4,0.0,0,0,0,0.0,12.450000000000001,0.0,0,0,0,kReverse,kOff,-84.89,1.41,1.35,0.027832031,-1.0149536,0.093566895,25.52,0.0,2.0,-0.01600647,-0.7716217,
301.352232,true,true,true,0.0,12.4,0.0,-14049,0,0,0.0,12.4,0.0,0,0,0,0.125,12.4,0.0,-6465,0,0,0.0,12.450000000000001,0.0,0,0,0,0.0,12.4,0.0,0,0,0,0.0,12.4,0.0,0,0,0,0.0,12.450000000000001,0.0,0,0,0,kReverse,kOff,-84.84,1.45,1.41,0.057250977,-0.96868896,0.16229248,25.52,0.0,31.0,-0.010406494,-0.7654419,
301.37781900000004,true,true,true,0.0,12.4,0.0,-14049,0,0,0.0,12.4,0.0,0,0,0,0.125,12.4,0.0,-6465,0,0,0.0,12.450000000000001,0.0,0,0,0,0.0,12.4,0.0,0,0,0,0.0,12.4,0.0,0,0,0,0.0,12.5,0.0,0,0,0,kReverse,kOff,-84.79,1.47,1.43,0.027770996,-0.9769287,0.13574219,25.52,0.0,4.0,-0.0075531006,-0.75894165,
301.40588299999996,true,true,true,0.0,12.450000000000001,0.0,-14049,0,0,0.0,12.450000000000001,0.0,0,0,0,0.125,12.4,0.0,-6465,0,0,0.0,12.450000000000001,0.0,0,0,0,0.0,12.450000000000001,0.0,0,0,0,0.0,12.4,0.0,0,0,0,0.0,12.5,0.0,0,0,0,kReverse,kOff,-84.76,1.47,1.44,0.018920898,-0.9609375,0.12054443,25.52,0.0,-6.0,-0.0075531006,-0.7556,
301.424686,true,true,true,0.0,12.450000000000001,0.0,-14049,-1,0,0.0,12.450000000000001,0.0,0,0,0,0.125,12.4,0.0,-6465,0,0,0.0,12.450000000000001,0.0,0,0,0,0.0,12.450000000000001,0.0,0,0,0,0.0,12.4,0.0,0,0,0,0.0,12.5,0.0,0,0,0,kReverse,kOff,-84.77,1.47,1.45,-0.01373291,-0.9790039,0.1026001,25.52,0.0,-39.0,-0.007583618,-0.7522278,
301.442056,true,true,true,0.0,12.450000000000001,0.0,-14049,-1,0,0.0,12.450000000000001,0.0,0,0,0,0.125,12.4,0.0,-6465,0,0,0.0,12.450000000000001,0.0,0,0,0,0.0,12.450000000000001,0.0,0,0,0,0.0,12.4,0.0,0,0,0,0.0,12.5,0.0,0,0,0,kReverse,kOff,-84.76,1.41,1.4,3.0517578E-4,-0.97332764,0.082336426,25.52,0.0,-23.0,-0.007827759,-0.74554443,
301.471477,true,true,true,0.0,12.450000000000001,0.0,-14049,0,0,0.0,12.450000000000001,0.0,0,0,0,0.125,12.4,0.0,-6465,0,0,0.0,12.450000000000001,0.0,0,0,0,0.0,12.450000000000001,0.0,0,0,0,0.0,12.4,0.0,0,0,0,0.0,12.5,0.0,0,0,0,kReverse,kOff,-84.76,1.42,1.41,0.07989502,-1.0012817,0.08343506,25.52,0.0,54.0,-0.007949829,-0.742218,
301.49474699999996,true,true,true,0.0,12.450000000000001,0.0,-14049,0,0,0.0,12.450000000000001,0.0,0,0,0,0.125,12.4,0.0,-6465,0,0,0.0,12.450000000000001,0.0,0,0,0,0.0,12.450000000000001,0.0,0,0,0,0.0,12.4,0.0,0,0,0,0.0,12.5,0.0,0,0,0,kReverse,kOff,-84.78,1.5,1.49,0.033813477,-0.99212646,0.052246094,25.52,0.0,7.0,-0.007980347,-0.735672,
301.516469,true,true,true,0.0,12.450000000000001,0.0,-14049,0,0,0.0,12.450000000000001,0.0,0,0,0,0.125,12.4,0.0,-6465,0,0,0.0,12.450000000000001,0.0,0,0,0,0.0,12.450000000000001,0.0,0,0,0,0.0,12.4,0.0,0,0,0,0.0,12.5,0.0,0,0,0,kReverse,kOff,-84.78,1.49,1.48,-0.0026855469,-0.97283936,0.070495605,25.52,0.0,-28.0,-0.007980347,-0.73243713,
301.536688,true,true,true,0.0,12.450000000000001,0.0,-14049,0,0,0.0,12.450000000000001,0.0,0,0,0,0.125,12.4,0.0,-6465,0,0,0.0,12.450000000000001,0.0,0,0,0,0.0,12.450000000000001,0.0,0,0,0,0.0,12.4,0.0,0,0,0,0.0,12.5,0.0,0,0,0,kReverse,kOff,-84.79,1.47,1.45,-0.0053710938,-0.9904175,0.02154541,25.52,0.0,-30.0,-0.008087158,-0.72621155,
301.55523900000003,true,true,true,0.0,12.450000000000001,0.0,-14049,0,0,0.0,12.450000000000001,0.0,0,0,0,0.125,12.450000000000001,0.0,-6465,0,0,0.0,12.450000000000001,0.0,0,0,0,0.0,12.450000000000001,0.0,0,0,0,0.0,12.450000000000001,0.0,0,0,0,0.0,12.5,0.0,0,0,0,kReverse,kOff,-84.83,1.48,1.46,0.07446289,-0.967041,0.034057617,25.52,0.0,49.0,-0.008087158,-0.7232361,
301.575051,true,true,true,0.0,12.450000000000001,0.0,-14049,0,0,0.0,12.450000000000001,0.0,0,0,0,0.125,12.450000000000001,0.0,-6465,0,0,0.0,12.450000000000001,0.0,0,0,0,0.0,12.450000000000001,0.0,0,0,0,0.0,12.450000000000001,0.0,0,0,0,0.0,12.5,0.0,0,0,0,kReverse,kOff,-84.84,1.51,1.49,0.050109863,-0.9771118,0.057373047,25.52,0.0,24.0,-0.008041382,-0.72032166,
301.595718,true,true,true,0.0,12.450000000000001,0.0,-14049,0,0,0.0,12.450000000000001,0.0,0,0,0,0.125,12.450000000000001,0.0,-6465,0,0,0.0,12.450000000000001,0.0,0,0,0,0.0,12.450000000000001,0.0,0,0,0,0.0,12.450000000000001,0.0,0,0,0,0.0,12.5,0.0,0,0,0,kReverse,kOff,-84.86,1.5,1.48,-0.030700684,-0.9949951,0.06317139,25.52,0.0,-56.0,-0.008026123,-0.71743774,
301.615292,true,true,true,0.0,12.450000000000001,0.0,-14049,0,0,0.0,12.450000000000001,0.0,0,0,0,0.125,12.450000000000001,0.0,-6465,0,0,0.0,12.450000000000001,0.0,0,0,0,0.0,12.450000000000001,0.0,0,0,0,0.0,12.450000000000001,0.0,0,0,0,0.0,12.5,0.0,0,0,0,kReverse,kOff,-84.85,1.47,1.45,0.09967041,-0.95410156,0.13909912,25.52,0.0,74.0,-0.008087158,-0.71162415,
301.636595,true,true,true,0.0,12.450000000000001,0.0,-14049,0,0,0.0,12.450000000000001,0.0,0,0,0,0.125,12.450000000000001,0.0,-6465,0,0,0.0,12.450000000000001,0.0,0,0,0,0.0,12.450000000000001,0.0,0,0,0,0.0,12.450000000000001,0.0,0,0,0,0.0,12.5,0.0,0,0,0,kReverse,kOff,-84.81,1.53,1.53,0.014099121,-1.06073,0.12237549,25.52,0.0,-15.0,-0.007858276,-0.7055359,
301.657822,true,true,true,0.0,12.450000000000001,0.0,-14049,0,0,0.0,12.450000000000001,0.0,0,0,0,0.125,12.450000000000001,0.0,-6465,0,0,0.0,12.450000000000001,0.0,0,0,0,0.0,12.450000000000001,0.0,0,0,0,0.0,12.450000000000001,0.0,0,0,0,0.0,12.5,0.0,0,0,0,kReverse,kOff,-84.82,1.53,1.5,-0.030029297,-1.0300293,0.093688965,25.52,0.0,-57.0,-0.0077667236,-0.7024536,
301.678424,true,true,true,0.0,12.450000000000001,0.0,-14049,0,0,0.0,12.450000000000001,0.0,0,0,0,0.125,12.450000000000001,0.0,-6465,0,0,0.0,12.450000000000001,0.0,0,0,0,0.0,12.450000000000001,0.0,0,0,0,0.0,12.450000000000001,0.0,0,0,0,0.0,12.5,0.0,0,0,0,kReverse,kOff,-84.79,1.49,1.46,0.026672363,-0.96881104,0.08300781,25.52,0.0,1.0,-0.0077209473,-0.6993561,
301.69933399999996,true,true,true,0.0,12.450000000000001,0.0,-14049,0,0,0.0,12.450000000000001,0.0,0,0,0,0.125,12.450000000000001,0.0,-6465,0,0,0.0,12.450000000000001,0.0,0,0,0,0.0,12.450000000000001,0.0,0,0,0,0.0,12.450000000000001,0.0,0,0,0,0.0,12.5,0.0,0,0,0,kReverse,kOff,-84.75,1.54,1.5,0.052246094,-0.9758911,0.12890625,25.52,0.0,25.0,-0.007507324,-0.6932068,
301.721021,true,true,true,0.0,12.450000000000001,0.0,-14049,0,0,0.0,12.450000000000001,0.0,0,0,0,0.125,12.450000000000001,0.0,-6465,0,0,0.0,12.450000000000001,0.0,0,0,0,0.0,12.450000000000001,0.0,0,0,0,0.0,12.450000000000001,0.0,0,0,0,0.0,12.5,0.0,0,0,0,kReverse,kOff,-84.75,1.55,1.51,0.028259277,-1.0067139,0.1517334,25.52,0.0,0.0,-0.0073547363,-0.6900635,
301.742628,true,true,true,0.0,12.450000000000001,0.0,-14049,0,0,0.0,12.450000000000001,0.0,0,0,0,0.125,12.450000000000001,0.0,-6465,0,0,0.0,12.450000000000001,0.0,0,0,0,0.0,12.450000000000001,0.0,0,0,0,0.0,12.450000000000001,0.0,0,0,0,0.0,12.5,0.0,0,0,0,kReverse,kOff,-84.72,1.55,1.5,0.032958984,-0.9558716,0.13464355,25.52,0.0,6.0,-0.0073547363,-0.6868439,
301.75941700000004,true,true,true,0.0,12.450000000000001,0.0,-14049,0,0,0.0,12.450000000000001,0.0,0,0,0,0.125,12.450000000000001,0.0,-6465,0,0,0.0,12.450000000000001,0.0,0,0,0,0.0,12.450000000000001,0.0,0,0,0,0.0,12.450000000000001,0.0,0,0,0,0.0,12.5,0.0,0,0,0,kReverse,kOff,-84.69,1.56,1.51,0.032958984,-1.0093994,0.11846924,25.52,0.0,4.0,-0.0073547363,-0.6802826,
301.778386,true,true,true,0.0,12.450000000000001,0.0,-14049,0,0,0.0,12.450000000000001,0.0,0,0,0,0.125,12.450000000000001,0.0,-6465,0,0,0.0,12.450000000000001,0.0,0,0,0,0.0,12.450000000000001,0.0,0,0,0,0.0,12.450000000000001,0.0,0,0,0,0.0,12.5,0.0,0,0,0,kReverse,kOff,-84.66,1.56,1.52,0.043823242,-0.9906006,0.10821533,25.52,0.0,16.0,-0.0073547363,-0.67697144,
301.801892,true,true,true,0.0,12.450000000000001,0.0,-14049,0,0,0.0,12.450000000000001,0.0,0,0,0,0.125,12.450000000000001,0.0,-6465,0,0,0.0,12.450000000000001,0.0,0,0,0,0.0,12.450000000000001,0.0,0,0,0,0.0,12.450000000000001,0.0,0,0,0,0.0,12.5,0.0,0,0,0,kReverse,kOff,-84.61,1.6,1.55,0.057922363,-0.96051025,0.09979248,25.52,0.0,30.0,-0.0072631836,-0.673645,
301.823772,true,true,true,0.0,12.450000000000001,0.0,-14049,0,0,0.0,12.450000000000001,0.0,0,0,0,0.125,12.450000000000001,0.0,-6465,0,0,0.0,12.450000000000001,0.0,0,0,0,0.0,12.450000000000001,0.0,0,0,0,0.0,12.450000000000001,0.0,0,0,0,0.0,12.5,0.0,0,0,0,kReverse,kOff,-84.63,1.62,1.57,0.055541992,-0.9786377,0.11706543,25.52,0.0,27.0,-0.007156372,-0.6736145,
301.84250799999995,true,true,true,0.0,12.450000000000001,0.0,-14049,0,0,0.0,12.450000000000001,0.0,0,0,0,0.125,12.450000000000001,0.0,-6465,0,0,0.0,12.450000000000001,0.0,0,0,0,0.0,12.450000000000001,0.0,0,0,0,0.0,12.450000000000001,0.0,0,0,0,0.0,12.5,0.0,0,0,0,kReverse,kOff,-84.64,1.62,1.58,0.005493164,-1.0006714,0.091796875,25.52,0.0,-23.0,-0.0070648193,-0.67355347,
301.86419,true,true,true,0.0,12.450000000000001,0.0,-14049,0,0,0.0,12.450000000000001,0.0,0,0,0,0.125,12.450000000000001,0.0,-6465,0,0,0.0,12.450000000000001,0.0,0,0,0,0.0,12.450000000000001,0.0,0,0,0,0.0,12.450000000000001,0.0,0,0,0,0.0,12.5,0.0,0,0,0,kReverse,kOff,-84.62,1.58,1.54,0.03869629,-0.98309326,0.08898926,25.49,0.0,11.0,-0.0069732666,-0.6735077,
301.888856,true,true,true,0.0,12.450000000000001,0.0,-14049,0,0,0.0,12.450000000000001,0.0,0,0,0,0.125,12.450000000000001,0.0,-6465,0,0,0.0,12.450000000000001,0.0,0,0,0,0.0,12.450000000000001,0.0,0,0,0,0.0,12.450000000000001,0.0,0,0,0,0.0,12.5,0.0,0,0,0,kReverse,kOff,-84.61,1.6,1.56,0.057250977,-0.982605,0.06463623,25.49,0.0,29.0,-0.0068969727,-0.67352295,
301.907516,true,true,true,0.0,12.450000000000001,0.0,-14049,0,0,0.0,12.450000000000001,0.0,0,0,0,0.125,12.450000000000001,0.0,-6465,0,0,0.0,12.450000000000001,0.0,0,0,0,0.0,12.450000000000001,0.0,0,0,0,0.0,12.450000000000001,0.0,0,0,0,0.0,12.5,0.0,0,0,0,kReverse,kOff,-84.62,1.61,1.58,0.024230957,-0.9784546,0.06097412,25.49,0.0,-3.0,-0.0068206787,-0.6735687,
301.92904,true,true,true,0.0,12.450000000000001,0.0,-14049,0,0,0.0,12.450000000000001,0.0,0,0,0,0.125,12.450000000000001,0.0,-6465,0,0,0.0,12.450000000000001,0.0,0,0,0,0.0,12.450000000000001,0.0,0,0,0,0.0,12.450000000000001,0.0,0,0,0,0.0,12.5,0.0,0,0,0,kReverse,kOff,-84.64,1.62,1.59,0.043518066,-0.98742676,0.09100342,25.49,0.0,15.0,-0.0067443848,-0.673645,
301.946858,true,true,true,0.0,12.450000000000001,0.0,-14049,0,0,0.0,12.450000000000001,0.0,0,0,0,0.125,12.450000000000001,0.0,-6465,0,0,0.0,12.450000000000001,0.0,0,0,0,0.0,12.450000000000001,0.0,0,0,0,0.0,12.450000000000001,0.0,0,0,0,0.0,12.5,0.0,0,0,0,kReverse,kOff,-84.67,1.62,1.6,0.022827148,-0.9986572,0.11029053,25.49,0.0,-5.0,-0.0067443848,-0.67362976,
301.974941,true,true,true,0.0,12.450000000000001,0.0,-14049,0,0,0.0,12.450000000000001,0.0,0,0,0,0.125,12.450000000000001,0.0,-6465,0,0,0.0,12.450000000000001,0.0,0,0,0,0.0,12.450000000000001,0.0,0,0,0,0.0,12.450000000000001,0.0,0,0,0,0.0,12.5,0.0,0,0,0,kReverse,kOff,-84.65,1.62,1.6,0.028198242,-0.99768066,0.094177246,25.49,0.0,0.0,-0.0067443848,-0.673584,
301.99505800000003,true,true,true,0.0,12.450000000000001,0.0,-14049,0,0,0.0,12.450000000000001,0.0,0,0,0,0.125,12.450000000000001,0.0,-6465,0,0,0.0,12.450000000000001,0.0,0,0,0,0.0,12.450000000000001,0.0,0,0,0,0.0,12.450000000000001,0.0,0,0,0,0.0,12.5,0.0,0,0,0,kReverse,kOff,-84.62,1.62,1.6,0.026245117,-0.96698,0.068481445,25.49,0.0,-1.0,-0.0067443848,-0.67355347,
302.014599,true,true,true,0.0,12.450000000000001,0.0,-14049,0,0,0.0,12.450000000000001,0.0,0,0,0,0.125,12.450000000000001,0.0,-6465,0,0,0.0,12.450000000000001,0.0,0,0,0,0.0,12.450000000000001,0.0,0,0,0,0.0,12.450000000000001,0.0,0,0,0,0.0,12.5,0.0,0,0,0,kReverse,kOff,-84.65,1.63,1.6,0.052001953,-0.97473145,0.0826416,25.49,0.0,24.0,-0.006713867,-0.67355347,
302.03368,true,true,true,0.0,12.450000000000001,0.0,-14049,0,0,0.0,12.450000000000001,0.0,0,0,0,0.125,12.450000000000001,0.0,-6465,0,0,0.0,12.450000000000001,0.0,0,0,0,0.0,12.450000000000001,0.0,0,0,0,0.0,12.450000000000001,0.0,0,0,0,0.0,12.55,0.0,0,0,0,kReverse,kOff,-84.65,1.64,1.62,0.04815674,-0.98779297,0.105651855,25.49,0.0,19.0,-0.006668091,-0.67355347,
302.051169,true,true,true,0.0,12.450000000000001,0.0,-14049,0,0,0.0,12.450000000000001,0.0,0,0,0,0.125,12.450000000000001,0.0,-6465,0,0,0.0,12.450000000000001,0.0,0,0,0,0.0,12.450000000000001,0.0,0,0,0,0.0,12.450000000000001,0.0,0,0,0,0.0,12.55,0.0,0,0,0,kReverse,kOff,-84.64,1.65,1.63,0.020202637,-0.9797363,0.1026001,25.49,0.0,-8.0,-0.0066223145,-0.67355347,
302.069039,true,true,true,0.0,12.450000000000001,0.0,-14049,0,0,0.0,12.450000000000001,0.0,0,0,0,0.125,12.450000000000001,0.0,-6465,0,0,0.0,12.450000000000001,0.0,0,0,0,0.0,12.450000000000001,0.0,0,0,0,0.0,12.450000000000001,0.0,0,0,0,0.0,12.55,0.0,0,0,0,kReverse,kOff,-84.64,1.64,1.62,0.014953613,-0.97680664,0.11254883,25.49,0.0,-13.0,-0.0066223145,-0.67352295,
302.08716100000004,true,true,true,0.0,12.450000000000001,0.0,-14049,0,0,0.0,12.450000000000001,0.0,0,0,0,0.125,12.450000000000001,0.0,-6465,0,0,0.0,12.450000000000001,0.0,0,0,0,0.0,12.450000000000001,0.0,0,0,0,0.0,12.450000000000001,0.0,0,0,0,0.0,12.55,0.0,0,0,0,kReverse,kOff,-84.62,1.65,1.62,0.04815674,-0.9879761,0.10839844,25.49,0.0,19.0,-0.0066223145,-0.67333984,
302.10925199999997,true,true,true,0.0,12.450000000000001,0.0,-14049,0,0,0.0,12.450000000000001,0.0,0,0,0,0.125,12.450000000000001,0.0,-6465,0,0,0.0,12.450000000000001,0.0,0,0,0,0.0,12.450000000000001,0.0,0,0,0,0.0,12.450000000000001,0.0,0,0,0,0.0,12.55,0.0,0,0,0,kReverse,kOff,-84.59,1.66,1.63,0.021057129,-0.9789429,0.080200195,25.49,0.0,-7.0,-0.0066223145,-0.67333984,
302.12953899999997,true,true,true,0.0,12.450000000000001,0.0,-14049,0,0,0.0,12.450000000000001,0.0,0,0,0,0.125,12.450000000000001,0.0,-6465,0,0,0.0,12.450000000000001,0.0,0,0,0,0.0,12.450000000000001,0.0,0,0,0,0.0,12.450000000000001,0.0,0,0,0,0.0,12.55,0.0,0,0,0,kReverse,kOff,-84.58,1.65,1.63,0.02746582,-0.98327637,0.06707764,25.49,0.0,0.0,-0.0066223145,-0.67337036,
302.14779,true,true,true,0.0,12.450000000000001,0.0,-14049,0,0,0.0,12.450000000000001,0.0,0,0,0,0.125,12.450000000000001,0.0,-6465,0,0,0.0,12.450000000000001,0.0,0,0,0,0.0,12.450000000000001,0.0,0,0,0,0.0,12.450000000000001,0.0,0,0,0,0.0,12.55,0.0,0,0,0,kReverse,kOff,-84.61,1.67,1.64,0.03302002,-0.9852905,0.066345215,25.49,0.0,4.0,-0.006576538,-0.6735077,
302.178896,true,true,true,0.0,12.450000000000001,0.0,-14049,0,0,0.0,12.450000000000001,0.0,0,0,0,0.125,12.450000000000001,0.0,-6465,0,0,0.0,12.450000000000001,0.0,0,0,0,0.0,12.450000000000001,0.0,0,0,0,0.0,12.450000000000001,0.0,0,0,0,0.0,12.55,0.0,0,0,0,kReverse,kOff,-84.62,1.66,1.63,0.026550293,-0.97875977,0.113464355,25.49,0.0,-2.0,-0.0065460205,-0.6736603,
302.20583500000004,true,true,true,0.0,12.450000000000001,0.0,-14049,0,0,0.0,12.450000000000001,0.0,0,0,0,0.125,12.450000000000001,0.0,-6465,0,0,0.0,12.450000000000001,0.0,0,0,0,0.0,12.450000000000001,0.0,0,0,0,0.0,12.450000000000001,0.0,0,0,0,0.0,12.55,0.0,0,0,0,kReverse,kOff,-84.6,1.67,1.64,0.04473877,-0.9898071,0.093566895,25.49,0.0,15.0,-0.0065460205,-0.6737213,
302.227483,true,true,true,0.0,12.450000000000001,0.0,-14049,0,0,0.0,12.450000000000001,0.0,0,0,0,0.125,12.450000000000001,0.0,-6465,0,0,0.0,12.450000000000001,0.0,0,0,0,0.0,12.450000000000001,0.0,0,0,0,0.0,12.450000000000001,0.0,0,0,0,0.0,12.55,0.0,0,0,0,kReverse,kOff,-84.59,1.68,1.65,0.026428223,-0.9803467,0.092285156,25.49,0.0,-2.0,-0.0065460205,-0.6737213,
302.247947,true,true,true,0.0,12.450000000000001,0.0,-14049,0,0,0.0,12.450000000000001,0.0,0,0,0,0.125,12.450000000000001,0.0,-6465,0,0,0.0,12.450000000000001,0.0,0,0,0,0.0,12.450000000000001,0.0,0,0,0,0.0,12.450000000000001,0.0,0,0,0,0.0,12.55,0.0,0,0,0,kReverse,kOff,-84.58,1.68,1.65,0.022216797,-0.9824829,0.050354004,25.49,0.0,-6.0,-0.0065460205,-0.6737671,
302.269723,true,true,true,0.0,12.450000000000001,0.0,-14049,0,0,0.0,12.450000000000001,0.0,0,0,0,0.125,12.450000000000001,0.0,-6465,0,0,0.0,12.450000000000001,0.0,0,0,0,0.0,12.450000000000001,0.0,0,0,0,0.0,12.450000000000001,0.0,0,0,0,0.0,12.55,0.0,0,0,0,kReverse,kOff,-84.61,1.68,1.64,0.01776123,-0.9836426,0.0748291,25.49,0.0,-11.0,-0.0065460205,-0.6738434,
302.29161,true,true,true,0.0,12.450000000000001,0.0,-14049,0,0,0.0,12.450000000000001,0.0,0,0,0,0.125,12.450000000000001,0.0,-6465,0,0,0.0,12.450000000000001,0.0,0,0,0,0.0,12.450000000000001,0.0,0,0,0,0.0,12.450000000000001,0.0,0,0,0,0.0,12.55,0.0,0,0,0,kReverse,kOff,-84.62,1.68,1.65,0.04937744,-0.98223877,0.1116333,25.49,0.0,20.0,-0.0065307617,-0.67393494,
302.314415,true,true,true,0.0,12.450000000000001,0.0,-14049,0,0,0.0,12.450000000000001,0.0,0,0,0,0.125,12.450000000000001,0.0,-6465,0,0,0.0,12.450000000000001,0.0,0,0,0,0.0,12.450000000000001,0.0,0,0,0,0.0,12.450000000000001,0.0,0,0,0,0.0,12.55,0.0,0,0,0,kReverse,kOff,-84.61,1.69,1.66,0.035949707,-0.9871216,0.11016846,25.49,0.0,6.0,-0.0064849854,-0.67393494,
302.334961,true,true,true,0.0,12.450000000000001,0.0,-14049,0,0,0.0,12.450000000000001,0.0,0,0,0,0.125,12.450000000000001,0.0,-6465,0,0,0.0,12.450000000000001,0.0,0,0,0,0.0,12.450000000000001,0.0,0,0,0,0.0,12.450000000000001,0.0,0,0,0,0.0,12.55,0.0,0,0,0,kReverse,kOff,-84.57,1.7,1.66,0.04638672,-0.9751587,0.10760498,25.49,0.0,17.0,-0.006454468,-0.67388916,
302.35750199999995,true,true,true,0.0,12.450000000000001,0.0,-14049,0,0,0.0,12.450000000000001,0.0,0,0,0,0.125,12.450000000000001,0.0,-6465,0,0,0.0,12.450000000000001,0.0,0,0,0,0.0,12.450000000000001,0.0,0,0,0,0.0,12.450000000000001,0.0,0,0,0,0.0,12.55,0.0,0,0,0,kReverse,kOff,-84.55,1.71,1.68,0.041748047,-0.972229,0.09429932,25.52,0.0,12.0,-0.006454468,-0.67388916,
302.37895399999996,true,true,true,0.0,12.450000000000001,0.0,-14049,0,0,0.0,12.450000000000001,0.0,0,0,0,0.125,12.450000000000001,0.0,-6465,0,0,0.0,12.450000000000001,0.0,0,0,0,0.0,12.450000000000001,0.0,0,0,0,0.0,12.450000000000001,0.0,0,0,0,0.0,12.55,0.0,0,0,0,kReverse,kOff,-84.57,1.7,1.67,0.020080566,-0.98535156,0.09832764,25.52,0.0,-9.0,-0.006454468,-0.67388916,
302.40097,true,true,true,0.0,12.450000000000001,0.0,-14049,0,0,0.0,12.450000000000001,0.0,0,0,0,0.125,12.450000000000001,0.0,-6465,0,0,0.0,12.450000000000001,0.0,0,0,0,0.0,12.450000000000001,0.0,0,0,0,0.0,12.450000000000001,0.0,0,0,0,0.0,12.55,0.0,0,0,0,kReverse,kOff,-84.57,1.7,1.67,0.020080566,-0.98535156,0.09832764,25.52,0.0,-9.0,-0.006454468,-0.67388916,
302.423388,true,true,true,0.0,12.450000000000001,0.0,-14049,0,0,0.0,12.450000000000001,0.0,0,0,0,0.125,12.450000000000001,0.0,-6465,0,0,0.0,12.450000000000001,0.0,0,0,0,0.0,12.450000000000001,0.0,0,0,0,0.0,12.450000000000001,0.0,0,0,0,0.0,12.55,0.0,0,0,0,kReverse,kOff,-84.54,1.71,1.68,0.052612305,-0.9772949,0.101745605,25.52,0.0,23.0,-0.00642395,-0.67388916,
