timer,lineLeft,lineCenter,lineRight,driverLeftX,driverLeftY,driverRightX,driverRightY,driverA,driverB,driverX,driverY,operatorLeftX,operatorLeftY,operatorRightX,operatorRightY,operatorA,operatorB,operatorX,operatorY,LeftFrontCurrent,LeftFrontVoltage,LeftFrontValue,LeftFrontPosition,LeftFrontVelocity,LeftFrontFaults,LeftRearCurrent,LeftRearVoltage,LeftRearValue,LeftRearPosition,LeftRearVelocity,LeftRearFaults,RightFrontCurrent,RightFrontVoltage,RightFrontValue,RightFrontPosition,RightFrontVelocity,RightFrontFaults,RightRearCurrent,RightRearVoltage,RightRearValue,RightRearPosition,RightRearVelocity,RightRearFaults,LiftCurrent,LiftVoltage,LiftValue,LiftPosition,LiftVelocity,LiftFaults,RollerCurrent,RollerVoltage,RollerValue,RollerPosition,RollerVelocity,RollerFaults,PushersState,navx_Pitch,navx_Roll,navx_Yaw,navx_XAcc,navx_YAcc,navx_ZAcc,navx_Temp,navx_Bar,navx_Alt,navx_XDis,navx_YDis,
190.63353600000002,true,true,true,0.0,-0.0078125,0.0,-0.0078125,false,false,false,false,0.0,0.0,0.0,0.0,false,false,false,false,0.125,12.700000000000001,0.0,0,0,0,0.125,12.700000000000001,0.0,0,0,0,0.125,12.65,0.0,0,0,0,0.125,12.700000000000001,0.0,0,0,0,0.0,12.700000000000001,0.0,0,0,0,0.0,12.75,0.0,0,0,0,kReverse,0.0,0.0,0.0,0.0,0.0,0.0,0.0,0.0,0.0,0.0,0.0,
190.69206,true,true,true,0.0,-0.0078125,0.0,-0.0078125,false,false,false,false,0.0,0.0,0.0,0.0,false,false,false,false,0.125,12.05,0.0,0,0,0,0.125,12.1,0.0,0,0,0,0.125,12.05,0.0,0,0,0,0.125,12.1,0.0,0,0,0,0.125,12.1,0.0,0,0,0,0.125,12.15,0.0,0,0,0,kReverse,0.0,0.0,0.0,0.0,0.0,0.0,0.0,0.0,0.0,0.0,0.0,
190.720986,true,true,true,0.0,-0.0078125,0.0,-0.0078125,false,false,false,false,0.0,0.0,0.0,0.0,false,false,false,false,0.125,12.05,0.0,0,0,0,0.125,12.1,0.0,0,0,0,0.125,12.05,0.0,0,0,0,0.125,12.1,0.0,0,0,0,0.0,12.1,0.0,0,0,0,0.0,12.15,0.0,0,0,0,kReverse,0.0,0.0,0.0,0.0,0.0,0.0,0.0,0.0,0.0,0.0,0.0,
190.755118,true,true,true,0.0,-0.0078125,0.0,-0.0078125,false,false,false,false,0.0,0.0,0.0,0.0,false,false,false,false,0.125,12.05,0.0,0,0,0,0.125,12.1,0.0,0,0,0,0.125,12.05,0.0,0,0,0,0.125,12.1,0.0,0,0,0,0.125,12.1,0.0,0,0,0,0.125,12.15,0.0,0,0,0,kReverse,0.0,0.0,0.0,0.0,0.0,0.0,0.0,0.0,0.0,0.0,0.0,
190.79798300000002,true,true,true,0.0,-0.0078125,0.0,-0.0078125,false,false,false,false,0.0,0.0,0.0,0.0,false,false,false,false,0.125,12.05,0.0,0,0,0,0.125,12.1,0.0,0,0,0,0.125,12.05,0.0,0,0,0,0.125,12.1,0.0,0,0,0,0.0,12.1,0.0,0,0,0,0.0,12.15,0.0,0,0,0,kReverse,0.0,0.0,0.0,0.0,0.0,0.0,0.0,0.0,0.0,0.0,0.0,
190.833168,true,true,true,0.0,-0.0078125,0.0,-0.0078125,false,false,false,false,0.0,0.0,0.0,0.0,false,false,false,false,0.125,12.35,0.0,0,0,0,0.125,12.35,0.0,0,0,0,0.125,12.35,0.0,0,0,0,0.125,12.35,0.0,0,0,0,0.0,12.35,0.0,0,0,0,0.0,12.4,0.0,0,0,0,kReverse,0.0,0.0,0.0,0.0,0.0,0.0,0.0,0.0,0.0,0.0,0.0,
190.87261200000003,true,true,true,0.0,-0.0078125,0.0,-0.0078125,false,false,false,false,0.0,0.0,0.0,0.0,false,false,false,false,0.125,12.35,0.0,0,0,0,0.125,12.35,0.0,0,0,0,0.125,12.35,0.0,0,0,0,0.125,12.35,0.0,0,0,0,0.0,12.35,0.0,0,0,0,0.125,12.4,0.0,0,0,0,kReverse,0.0,0.0,0.0,0.0,0.0,0.0,0.0,0.0,0.0,0.0,0.0,
190.916719,true,true,true,0.0,-0.0078125,0.0,-0.0078125,false,false,false,false,0.0,0.0,0.0,0.0,false,false,false,false,0.125,12.35,0.0,0,0,0,0.125,12.35,0.0,0,0,0,0.125,12.35,0.0,0,0,0,0.125,12.35,0.0,0,0,0,0.0,12.35,0.0,0,0,0,0.0,12.4,0.0,0,0,0,kReverse,0.0,0.0,0.0,0.0,0.0,0.0,0.0,0.0,0.0,0.0,0.0,
190.966235,true,true,true,0.0,-0.0078125,0.0,-0.0078125,false,false,false,false,0.0,0.0,0.0,0.0,false,false,false,false,0.125,12.35,0.0,0,0,0,0.125,12.35,0.0,0,0,0,0.125,12.35,0.0,0,0,0,0.125,12.35,0.0,0,0,0,0.0,12.35,0.0,0,0,0,0.0,12.4,0.0,0,0,0,kReverse,0.0,0.0,0.0,0.0,0.0,0.0,0.0,0.0,0.0,0.0,0.0,
191.018379,true,true,true,0.0,-0.0078125,0.0,-0.0078125,false,false,false,false,0.0,0.0,0.0,0.0,false,false,false,false,0.125,12.35,0.0,0,0,0,0.125,12.35,0.0,0,0,0,0.125,12.35,0.0,0,0,0,0.125,12.35,0.0,0,0,0,0.0,12.35,0.0,0,0,0,0.0,12.4,0.0,0,0,0,kReverse,0.0,0.0,0.0,0.0,0.0,0.0,0.0,0.0,0.0,0.0,0.0,
191.09082800000002,true,true,true,0.0,-0.0078125,0.0,-0.0078125,false,false,false,false,0.0,0.0,0.0,0.0,false,false,false,false,0.125,12.35,0.0,0,0,0,0.125,12.35,0.0,0,0,0,0.125,12.35,0.0,0,0,0,0.125,12.35,0.0,0,0,0,0.125,12.35,0.0,0,0,0,0.0,12.4,0.0,0,0,0,kReverse,0.0,0.0,0.0,0.0,0.0,0.0,0.0,0.0,0.0,0.0,0.0,
191.11996100000002,true,true,true,0.0,-0.0078125,0.0,-0.0078125,false,false,false,false,0.0,0.0,0.0,0.0,false,false,false,false,0.125,12.35,0.0,0,0,0,0.125,12.35,0.0,0,0,0,0.125,12.35,0.0,0,0,0,0.125,12.35,0.0,0,0,0,0.0,12.35,0.0,0,0,0,0.0,12.4,0.0,0,0,0,kReverse,0.0,0.0,0.0,0.0,0.0,0.0,0.0,0.0,0.0,0.0,0.0,
191.155393,true,true,true,0.0,-0.0078125,0.0,-0.0078125,false,false,false,false,0.0,0.0,0.0,0.0,false,false,false,false,0.125,12.3,0.0,0,0,0,0.125,12.3,0.0,0,0,0,0.125,12.3,0.0,0,0,0,0.125,12.35,0.0,0,0,0,0.0,12.3,0.0,0,0,0,0.0,12.35,0.0,0,0,0,kReverse,0.0,0.0,0.0,0.0,0.0,0.0,0.0,0.0,0.0,0.0,0.0,
191.20692300000002,true,true,true,0.0,-0.0078125,0.0,-0.0078125,false,false,false,false,0.0,0.0,0.0,0.0,false,false,false,false,0.125,12.3,0.0,0,0,0,0.125,12.3,0.0,0,0,0,0.125,12.3,0.0,0,0,0,0.125,12.35,0.0,0,0,0,0.0,12.3,0.0,0,0,0,0.125,12.35,0.0,0,0,0,kReverse,0.0,0.0,0.0,0.0,0.0,0.0,0.0,0.0,0.0,0.0,0.0,
191.23938700000002,true,true,true,0.0,-0.0078125,0.0,-0.0078125,false,false,false,false,0.0,0.0,0.0,0.0,false,false,false,false,0.125,12.3,0.0,0,0,0,0.125,12.3,0.0,0,0,0,0.125,12.3,0.0,0,0,0,0.125,12.35,0.0,0,0,0,0.0,12.3,0.0,0,0,0,0.0,12.35,0.0,0,0,0,kReverse,0.0,0.0,0.0,0.0,0.0,0.0,0.0,0.0,0.0,0.0,0.0,
191.29559700000001,true,true,true,0.0,-0.0078125,0.0,-0.0078125,false,false,false,false,0.0,0.0,0.0,0.0,false,false,false,false,0.125,12.3,0.0,0,0,0,0.125,12.3,0.0,0,0,0,0.125,12.3,0.0,0,0,0,0.125,12.35,0.0,0,0,0,0.125,12.3,0.0,0,0,0,0.125,12.35,0.0,0,0,0,kReverse,0.0,0.0,0.0,0.0,0.0,0.0,0.0,0.0,0.0,0.0,0.0,
191.322674,true,true,true,0.0,-0.0078125,0.0,-0.0078125,false,false,false,false,0.0,0.0,0.0,0.0,false,false,false,false,0.125,12.25,0.0,0,0,0,0.125,12.25,0.0,0,0,0,0.125,12.25,0.0,0,0,0,0.125,12.3,0.0,0,0,0,0.0,12.25,0.0,0,0,0,0.0,12.35,0.0,0,0,0,kReverse,0.0,0.0,0.0,0.0,0.0,0.0,0.0,0.0,0.0,0.0,0.0,
191.355475,true,true,true,0.0,-0.0078125,0.0,-0.0078125,false,false,false,false,0.0,0.0,0.0,0.0,false,false,false,false,0.125,12.25,0.0,0,0,0,0.125,12.25,0.0,0,0,0,0.125,12.25,0.0,0,0,0,0.125,12.3,0.0,0,0,0,0.0,12.25,0.0,0,0,0,0.0,12.35,0.0,0,0,0,kReverse,0.0,0.0,0.0,0.0,0.0,0.0,0.0,0.0,0.0,0.0,0.0,
191.38147800000002,true,true,true,0.0,-0.0078125,0.0,-0.0078125,false,false,false,false,0.0,0.0,0.0,0.0,false,false,false,false,0.125,12.25,0.0,0,0,0,0.125,12.25,0.0,0,0,0,0.125,12.25,0.0,0,0,0,0.125,12.3,0.0,0,0,0,0.125,12.25,0.0,0,0,0,0.125,12.35,0.0,0,0,0,kReverse,0.0,0.0,0.0,0.0,0.0,0.0,0.0,0.0,0.0,0.0,0.0,
191.41630500000002,true,true,true,0.0,-0.0078125,0.0,-0.0078125,false,false,false,false,0.0,0.0,0.0,0.0,false,false,false,false,0.125,12.25,0.0,0,0,0,0.125,12.25,0.0,0,0,0,0.125,12.25,0.0,0,0,0,0.125,12.3,0.0,0,0,0,0.0,12.25,0.0,0,0,0,0.0,12.35,0.0,0,0,0,kReverse,0.0,0.0,0.0,0.0,0.0,0.0,0.0,0.0,0.0,0.0,0.0,
191.442793,true,true,true,0.0,-0.0078125,0.0,-0.0078125,false,false,false,false,0.0,0.0,0.0,0.0,false,false,false,false,0.125,12.25,0.0,0,0,0,0.125,12.25,0.0,0,0,0,0.125,12.25,0.0,0,0,0,0.125,12.3,0.0,0,0,0,0.0,12.25,0.0,0,0,0,0.0,12.35,0.0,0,0,0,kReverse,0.0,0.0,0.0,0.0,0.0,0.0,0.0,0.0,0.0,0.0,0.0,
191.477866,true,true,true,0.0,-0.0078125,0.0,-0.0078125,false,false,false,false,0.0,0.0,0.0,0.0,false,false,false,false,0.125,12.25,0.0,0,0,0,0.125,12.25,0.0,0,0,0,0.125,12.25,0.0,0,0,0,0.125,12.3,0.0,0,0,0,0.125,12.25,0.0,0,0,0,0.125,12.35,0.0,0,0,0,kReverse,0.0,0.0,0.0,0.0,0.0,0.0,0.0,0.0,0.0,0.0,0.0,
191.50750200000002,true,true,true,0.0,-0.0078125,0.0,-0.0078125,false,false,false,false,0.0,0.0,0.0,0.0,false,false,false,false,0.125,12.25,0.0,0,0,0,0.125,12.25,0.0,0,0,0,0.125,12.25,0.0,0,0,0,0.125,12.3,0.0,0,0,0,0.125,12.25,0.0,0,0,0,0.125,12.35,0.0,0,0,0,kReverse,0.0,0.0,0.0,0.0,0.0,0.0,0.0,0.0,0.0,0.0,0.0,
191.53943800000002,true,true,true,0.0,-0.0078125,0.0,-0.0078125,false,false,false,false,0.0,0.0,0.0,0.0,false,false,false,false,0.125,12.25,0.0,0,0,0,0.125,12.25,0.0,0,0,0,0.125,12.25,0.0,0,0,0,0.125,12.3,0.0,0,0,0,0.0,12.25,0.0,0,0,0,0.0,12.35,0.0,0,0,0,kReverse,0.0,0.0,0.0,0.0,0.0,0.0,0.0,0.0,0.0,0.0,0.0,
191.570904,true,true,true,0.0,-0.0078125,0.0,-0.0078125,false,false,false,false,0.0,0.0,0.0,0.0,false,false,false,false,0.125,12.25,0.0,0,0,0,0.125,12.25,0.0,0,0,0,0.125,12.25,0.0,0,0,0,0.125,12.3,0.0,0,0,0,0.0,12.25,0.0,0,0,0,0.0,12.35,0.0,0,0,0,kReverse,0.0,0.0,0.0,0.0,0.0,0.0,0.0,0.0,0.0,0.0,0.0,
191.599562,true,true,true,0.0,-0.0078125,0.0,-0.0078125,false,false,false,false,0.0,0.0,0.0,0.0,false,false,false,false,0.125,12.25,0.0,0,0,0,0.125,12.25,0.0,0,0,0,0.125,12.25,0.0,0,0,0,0.125,12.3,0.0,0,0,0,0.0,12.25,0.0,0,0,0,0.125,12.35,0.0,0,0,0,kReverse,0.0,0.0,0.0,0.0,0.0,0.0,0.0,0.0,0.0,0.0,0.0,
191.6255,true,true,true,0.0,-0.0078125,0.0,-0.0078125,false,false,false,false,0.0,0.0,0.0,0.0,false,false,false,false,0.125,12.25,0.0,0,0,0,0.125,12.25,0.0,0,0,0,0.125,12.25,0.0,0,0,0,0.125,12.25,0.0,0,0,0,0.0,12.25,0.0,0,0,0,0.0,12.35,0.0,0,0,0,kReverse,0.0,0.0,0.0,0.0,0.0,0.0,0.0,0.0,0.0,0.0,0.0,
191.676115,true,true,true,0.0,-0.0078125,0.0,-0.0078125,false,false,false,false,0.0,0.0,0.0,0.0,false,false,false,false,0.125,12.25,0.0,0,0,0,0.125,12.25,0.0,0,0,0,0.125,12.25,0.0,0,0,0,0.125,12.25,0.0,0,0,0,0.0,12.25,0.0,0,0,0,0.0,12.35,0.0,0,0,0,kReverse,0.0,0.0,0.0,0.0,0.0,0.0,0.0,0.0,0.0,0.0,0.0,
191.710415,true,true,true,0.0,-0.0078125,0.0,-0.0078125,false,false,false,false,0.0,0.0,0.0,0.0,false,false,false,false,0.125,12.25,0.0,0,0,0,0.125,12.25,0.0,0,0,0,0.125,12.25,0.0,0,0,0,0.125,12.25,0.0,0,0,0,0.0,12.25,0.0,0,0,0,0.0,12.35,0.0,0,0,0,kReverse,0.0,0.0,0.0,0.0,0.0,0.0,0.0,0.0,0.0,0.0,0.0,
191.755221,true,true,true,0.0,-0.0078125,0.0,-0.0078125,false,false,false,false,0.0,0.0,0.0,0.0,false,false,false,false,0.125,12.25,0.0,0,0,0,0.125,12.25,0.0,0,0,0,0.125,12.25,0.0,0,0,0,0.125,12.25,0.0,0,0,0,0.0,12.25,0.0,0,0,0,0.0,12.35,0.0,0,0,0,kReverse,0.0,0.0,0.0,0.0,0.0,0.0,0.0,0.0,0.0,0.0,0.0,
191.79276700000003,true,true,true,0.0,-0.0078125,0.0,-0.0078125,false,false,false,false,0.0,0.0,0.0,0.0,false,false,false,false,0.125,12.6,0.0,0,0,0,0.125,12.6,0.0,0,0,0,0.125,12.6,0.0,0,0,0,0.125,12.6,0.0,0,0,0,0.0,12.6,0.0,0,0,0,0.0,12.65,0.0,0,0,0,kReverse,0.0,0.0,0.0,0.0,0.0,0.0,0.0,0.0,0.0,0.0,0.0,
191.820039,true,true,true,0.0,-0.0078125,0.0,-0.0078125,false,false,false,false,0.0,0.0,0.0,0.0,false,false,false,false,0.125,12.6,0.0,0,0,0,0.125,12.6,0.0,0,0,0,0.125,12.6,0.0,0,0,0,0.125,12.6,0.0,0,0,0,0.125,12.6,0.0,0,0,0,0.125,12.65,0.0,0,0,0,kReverse,0.0,0.0,0.0,0.0,0.0,0.0,0.0,0.0,0.0,0.0,0.0,
191.852845,true,true,true,0.0,-0.0078125,0.0,-0.0078125,false,false,false,false,0.0,0.0,0.0,0.0,false,false,false,false,0.125,12.6,0.0,0,0,0,0.125,12.6,0.0,0,0,0,0.125,12.6,0.0,0,0,0,0.125,12.6,0.0,0,0,0,0.0,12.6,0.0,0,0,0,0.0,12.65,0.0,0,0,0,kReverse,0.0,0.0,0.0,0.0,0.0,0.0,0.0,0.0,0.0,0.0,0.0,
191.880973,true,true,true,0.0,-0.0078125,0.0,-0.0078125,false,false,false,false,0.0,0.0,0.0,0.0,false,false,false,false,0.125,12.6,0.0,0,0,0,0.125,12.6,0.0,0,0,0,0.125,12.6,0.0,0,0,0,0.125,12.6,0.0,0,0,0,0.0,12.6,0.0,0,0,0,0.0,12.65,0.0,0,0,0,kReverse,0.0,0.0,0.0,0.0,0.0,0.0,0.0,0.0,0.0,0.0,0.0,
191.90651200000002,true,true,true,0.0,-0.0078125,0.0,-0.0078125,false,false,false,false,0.0,0.0,0.0,0.0,false,false,false,false,0.125,12.6,0.0,0,0,0,0.125,12.6,0.0,0,0,0,0.125,12.6,0.0,0,0,0,0.125,12.6,0.0,0,0,0,0.0,12.6,0.0,0,0,0,0.125,12.65,0.0,0,0,0,kReverse,0.0,0.0,0.0,0.0,0.0,0.0,0.0,0.0,0.0,0.0,0.0,
191.93508500000002,true,true,true,0.0,-0.0078125,0.0,-0.0078125,false,false,false,false,0.0,0.0,0.0,0.0,false,false,false,false,0.125,12.6,0.0,0,0,0,0.125,12.6,0.0,0,0,0,0.125,12.6,0.0,0,0,0,0.125,12.6,0.0,0,0,0,0.0,12.6,0.0,0,0,0,0.125,12.65,0.0,0,0,0,kReverse,0.0,0.0,0.0,0.0,0.0,0.0,0.0,0.0,0.0,0.0,0.0,
191.96190800000002,true,true,true,0.0,-0.0078125,0.0,-0.0078125,false,false,false,false,0.0,0.0,0.0,0.0,false,false,false,false,0.125,12.6,0.0,0,0,0,0.125,12.6,0.0,0,0,0,0.125,12.6,0.0,0,0,0,0.125,12.65,0.0,0,0,0,0.0,12.6,0.0,0,0,0,0.0,12.65,0.0,0,0,0,kReverse,0.0,0.0,0.0,0.0,0.0,0.0,0.0,0.0,0.0,0.0,0.0,
191.989826,true,true,true,0.0,-0.0078125,0.0,-0.0078125,false,false,false,false,0.0,0.0,0.0,0.0,false,false,false,false,0.125,12.6,0.0,0,0,0,0.125,12.6,0.0,0,0,0,0.125,12.6,0.0,0,0,0,0.125,12.65,0.0,0,0,0,0.0,12.6,0.0,0,0,0,0.0,12.65,0.0,0,0,0,kReverse,0.0,0.0,0.0,0.0,0.0,0.0,0.0,0.0,0.0,0.0,0.0,
192.017649,true,true,true,0.0,-0.0078125,0.0,-0.0078125,false,false,false,false,0.0,0.0,0.0,0.0,false,false,false,false,0.125,12.6,0.0,0,0,0,0.125,12.6,0.0,0,0,0,0.125,12.6,0.0,0,0,0,0.125,12.65,0.0,0,0,0,0.125,12.6,0.0,0,0,0,0.125,12.65,0.0,0,0,0,kReverse,0.0,0.0,0.0,0.0,0.0,0.0,0.0,0.0,0.0,0.0,0.0,
