timer,lineLeft,lineCenter,lineRight,driverLeftX,driverLeftY,driverRightX,driverRightY,driverA,driverB,driverX,driverY,operatorLeftX,operatorLeftY,operatorRightX,operatorRightY,operatorA,operatorB,operatorX,operatorY,LeftFrontCurrent,LeftFrontVoltage,LeftFrontValue,LeftFrontPosition,LeftFrontVelocity,LeftFrontFaults,LeftRearCurrent,LeftRearVoltage,LeftRearValue,LeftRearPosition,LeftRearVelocity,LeftRearFaults,RightFrontCurrent,RightFrontVoltage,RightFrontValue,RightFrontPosition,RightFrontVelocity,RightFrontFaults,RightRearCurrent,RightRearVoltage,RightRearValue,RightRearPosition,RightRearVelocity,RightRearFaults,LiftCurrent,LiftVoltage,LiftValue,LiftPosition,LiftVelocity,LiftFaults,RollerCurrent,RollerVoltage,RollerValue,RollerPosition,RollerVelocity,RollerFaults,PushersState,navx_Pitch,navx_Roll,navx_Yaw,navx_XAcc,navx_YAcc,navx_ZAcc,navx_Temp,navx_Bar,navx_Alt,navx_XDis,navx_YDis,
74.10072699999999,true,true,true,0.0,-0.0078125,0.0,-0.0078125,false,false,false,false,0.0,0.0,0.0,0.0,false,false,false,false,0.125,12.65,0.0,-3715,0,0,0.125,12.65,0.0,0,0,0,0.125,12.65,0.0,-3456,0,0,0.125,12.65,0.0,0,0,0,0.0,12.65,0.0,0,0,0,0.125,12.700000000000001,0.0,0,0,0,kReverse,0.0,0.0,0.0,0.0,0.0,0.0,0.0,0.0,0.0,0.0,0.0,
74.13925200000001,true,true,true,0.0,-0.0078125,0.0,-0.0078125,false,false,false,false,0.0,0.0,0.0,0.0,false,false,false,false,0.125,12.65,0.0,-3715,0,0,0.125,12.65,0.0,0,0,0,0.125,12.65,0.0,-3456,0,0,0.125,12.65,0.0,0,0,0,0.0,12.65,0.0,0,0,0,0.125,12.700000000000001,0.0,0,0,0,kReverse,0.0,0.0,0.0,0.0,0.0,0.0,0.0,0.0,0.0,0.0,0.0,
74.164825,true,true,true,0.0,-0.0078125,0.0,-0.0078125,false,false,false,false,0.0,0.0,0.0,0.0,false,false,false,false,0.125,12.65,0.0,-3715,0,0,0.125,12.65,0.0,0,0,0,0.125,12.65,0.0,-3456,0,0,0.125,12.65,0.0,0,0,0,0.0,12.65,0.0,0,0,0,0.125,12.700000000000001,0.0,0,0,0,kReverse,0.0,0.0,0.0,0.0,0.0,0.0,0.0,0.0,0.0,0.0,0.0,
74.18679800000001,true,true,true,0.0,-0.0078125,0.0,-0.0078125,false,false,false,false,0.0,0.0,0.0,0.0,false,false,false,false,0.125,12.65,0.0,-3715,0,0,0.125,12.65,0.0,0,0,0,0.125,12.65,0.0,-3456,0,0,0.125,12.65,0.0,0,0,0,0.0,12.65,0.0,0,0,0,0.125,12.700000000000001,0.0,0,0,0,kReverse,0.0,0.0,0.0,0.0,0.0,0.0,0.0,0.0,0.0,0.0,0.0,
74.209541,true,true,true,0.0,-0.0078125,0.0,-0.0078125,false,false,false,false,0.0,0.0,0.0,0.0,false,false,false,false,0.125,12.65,0.0,-3715,0,0,0.125,12.65,0.0,0,0,0,0.125,12.65,0.0,-3456,0,0,0.125,12.65,0.0,0,0,0,0.0,12.65,0.0,0,0,0,0.125,12.700000000000001,0.0,0,0,0,kReverse,0.0,0.0,0.0,0.0,0.0,0.0,0.0,0.0,0.0,0.0,0.0,
74.23611600000001,true,true,true,0.0,-0.0078125,0.0,-0.0078125,false,false,false,false,0.0,0.0,0.0,0.0,false,false,false,false,0.125,12.65,0.0,-3715,0,0,0.125,12.65,0.0,0,0,0,0.125,12.65,0.0,-3456,0,0,0.125,12.65,0.0,0,0,0,0.0,12.65,0.0,0,0,0,0.125,12.700000000000001,0.0,0,0,0,kReverse,0.0,0.0,0.0,0.0,0.0,0.0,0.0,0.0,0.0,0.0,0.0,
74.25818100000001,true,true,true,0.0,-0.0078125,0.0,-0.0078125,false,false,false,false,0.0,0.0,0.0,0.0,false,false,false,false,0.125,12.65,0.0,-3715,0,0,0.125,12.65,0.0,0,0,0,0.125,12.65,0.0,-3456,0,0,0.125,12.65,0.0,0,0,0,0.0,12.65,0.0,0,0,0,0.125,12.700000000000001,0.0,0,0,0,kReverse,0.0,0.0,0.0,0.0,0.0,0.0,0.0,0.0,0.0,0.0,0.0,
74.28071700000001,true,true,true,0.0,-0.0078125,0.0,-0.0078125,false,false,false,false,0.0,0.0,0.0,0.0,false,false,false,false,0.125,12.65,0.0,-3715,0,0,0.125,12.65,0.0,0,0,0,0.125,12.65,0.0,-3456,0,0,0.125,12.65,0.0,0,0,0,0.125,12.65,0.0,0,0,0,0.125,12.700000000000001,0.0,0,0,0,kReverse,0.0,0.0,0.0,0.0,0.0,0.0,0.0,0.0,0.0,0.0,0.0,
74.305758,true,true,true,0.0,-0.0078125,0.0,-0.0078125,false,false,false,false,0.0,0.0,0.0,0.0,false,false,false,false,0.125,12.65,0.0,-3715,0,0,0.125,12.65,0.0,0,0,0,0.125,12.65,0.0,-3456,0,0,0.125,12.65,0.0,0,0,0,0.125,12.65,0.0,0,0,0,0.125,12.700000000000001,0.0,0,0,0,kReverse,0.0,0.0,0.0,0.0,0.0,0.0,0.0,0.0,0.0,0.0,0.0,
74.328878,true,true,true,0.0,-0.0078125,0.0,-0.0078125,false,false,false,false,0.0,0.0,0.0,0.0,false,false,false,false,0.125,12.65,0.0,-3715,0,0,0.125,12.65,0.0,0,0,0,0.125,12.65,0.0,-3456,0,0,0.125,12.65,0.0,0,0,0,0.125,12.65,0.0,0,0,0,0.125,12.700000000000001,0.0,0,0,0,kReverse,0.0,0.0,0.0,0.0,0.0,0.0,0.0,0.0,0.0,0.0,0.0,
74.35155999999999,true,true,true,0.0,-0.0078125,0.0,-0.0078125,false,false,false,false,0.0,0.0,0.0,0.0,false,false,false,false,0.125,12.65,0.0,-3715,0,0,0.125,12.65,0.0,0,0,0,0.125,12.65,0.0,-3456,0,0,0.125,12.65,0.0,0,0,0,0.125,12.65,0.0,0,0,0,0.125,12.700000000000001,0.0,0,0,0,kReverse,0.0,0.0,0.0,0.0,0.0,0.0,0.0,0.0,0.0,0.0,0.0,
74.37531,true,true,true,0.0,-0.0078125,0.0,-0.0078125,false,false,false,false,0.0,0.0,0.0,0.0,false,false,false,false,0.125,12.65,0.0,-3715,0,0,0.125,12.65,0.0,0,0,0,0.125,12.65,0.0,-3456,0,0,0.125,12.65,0.0,0,0,0,0.125,12.65,0.0,0,0,0,0.125,12.700000000000001,0.0,0,0,0,kReverse,0.0,0.0,0.0,0.0,0.0,0.0,0.0,0.0,0.0,0.0,0.0,
74.39945900000001,true,true,true,0.0,-0.0078125,0.0,-0.0078125,false,false,false,false,0.0,0.0,0.0,0.0,false,false,false,false,0.125,12.65,0.0,-3715,0,0,0.125,12.65,0.0,0,0,0,0.125,12.65,0.0,-3456,0,0,0.125,12.65,0.0,0,0,0,0.125,12.65,0.0,0,0,0,0.125,12.700000000000001,0.0,0,0,0,kReverse,0.0,0.0,0.0,0.0,0.0,0.0,0.0,0.0,0.0,0.0,0.0,
74.42503700000002,true,true,true,0.0,-0.0078125,0.0,-0.0078125,false,false,false,false,0.0,0.0,0.0,0.0,false,false,false,false,0.125,12.65,0.0,-3715,0,0,0.125,12.65,0.0,0,0,0,0.125,12.65,0.0,-3456,0,0,0.125,12.65,0.0,0,0,0,0.125,12.65,0.0,0,0,0,0.125,12.700000000000001,0.0,0,0,0,kReverse,0.0,0.0,0.0,0.0,0.0,0.0,0.0,0.0,0.0,0.0,0.0,
74.45094999999999,true,true,true,0.0,-0.0078125,0.0,-0.0078125,false,false,false,false,0.0,0.0,0.0,0.0,false,false,false,false,0.125,12.65,0.0,-3715,0,0,0.125,12.65,0.0,0,0,0,0.125,12.65,0.0,-3456,0,0,0.125,12.65,0.0,0,0,0,0.125,12.65,0.0,0,0,0,0.125,12.700000000000001,0.0,0,0,0,kReverse,0.0,0.0,0.0,0.0,0.0,0.0,0.0,0.0,0.0,0.0,0.0,
74.47558000000001,true,true,true,0.0,-0.0078125,0.0,-0.0078125,false,false,false,false,0.0,0.0,0.0,0.0,false,false,false,false,0.125,12.65,0.0,-3715,0,0,0.125,12.65,0.0,0,0,0,0.125,12.65,0.0,-3456,0,0,0.125,12.65,0.0,0,0,0,0.125,12.65,0.0,0,0,0,0.125,12.700000000000001,0.0,0,0,0,kReverse,0.0,0.0,0.0,0.0,0.0,0.0,0.0,0.0,0.0,0.0,0.0,
74.496733,true,true,true,0.0,-0.0078125,0.0,-0.0078125,false,false,false,false,0.0,0.0,0.0,0.0,false,false,false,false,0.125,12.65,0.0,-3715,0,0,0.125,12.65,0.0,0,0,0,0.125,12.65,0.0,-3456,0,0,0.125,12.65,0.0,0,0,0,0.0,12.65,0.0,0,0,0,0.125,12.700000000000001,0.0,0,0,0,kReverse,0.0,0.0,0.0,0.0,0.0,0.0,0.0,0.0,0.0,0.0,0.0,
74.522762,true,true,true,0.0,-0.0078125,0.0,-0.0078125,false,false,false,false,0.0,0.0,0.0,0.0,false,false,false,false,0.125,12.65,0.0,-3715,0,0,0.125,12.65,0.0,0,0,0,0.125,12.65,0.0,-3456,0,0,0.125,12.65,0.0,0,0,0,0.125,12.65,0.0,0,0,0,0.125,12.700000000000001,0.0,0,0,0,kReverse,0.0,0.0,0.0,0.0,0.0,0.0,0.0,0.0,0.0,0.0,0.0,
74.55000100000001,true,true,true,0.0,-0.0078125,0.0,-0.0078125,false,false,false,false,0.0,0.0,0.0,0.0,false,false,false,false,0.125,12.65,0.0,-3715,0,0,0.125,12.65,0.0,0,0,0,0.125,12.65,0.0,-3456,0,0,0.125,12.65,0.0,0,0,0,0.125,12.65,0.0,0,0,0,0.125,12.700000000000001,0.0,0,0,0,kReverse,0.0,0.0,0.0,0.0,0.0,0.0,0.0,0.0,0.0,0.0,0.0,
74.572021,true,true,true,0.0,-0.0078125,0.0,-0.0078125,false,false,false,false,0.0,0.0,0.0,0.0,false,false,false,false,0.125,12.65,0.0,-3715,0,0,0.125,12.65,0.0,0,0,0,0.125,12.65,0.0,-3456,0,0,0.125,12.65,0.0,0,0,0,0.125,12.65,0.0,0,0,0,0.125,12.700000000000001,0.0,0,0,0,kReverse,0.0,0.0,0.0,0.0,0.0,0.0,0.0,0.0,0.0,0.0,0.0,
74.59815400000001,true,true,true,0.0,-0.0078125,0.0,-0.0078125,false,false,false,false,0.0,0.0,0.0,0.0,false,false,false,false,0.125,12.65,0.0,-3715,0,0,0.125,12.65,0.0,0,0,0,0.125,12.65,0.0,-3456,0,0,0.125,12.65,0.0,0,0,0,0.0,12.65,0.0,0,0,0,0.125,12.700000000000001,0.0,0,0,0,kReverse,0.0,0.0,0.0,0.0,0.0,0.0,0.0,0.0,0.0,0.0,0.0,
74.626502,true,true,true,0.0,-0.0078125,0.0,-0.0078125,false,false,false,false,0.0,0.0,0.0,0.0,false,false,false,false,0.125,12.65,0.0,-3715,0,0,0.125,12.65,0.0,0,0,0,0.125,12.65,0.0,-3456,0,0,0.125,12.65,0.0,0,0,0,0.0,12.65,0.0,0,0,0,0.125,12.700000000000001,0.0,0,0,0,kReverse,0.0,0.0,0.0,0.0,0.0,0.0,0.0,0.0,0.0,0.0,0.0,
74.649466,true,true,true,0.0,-0.0078125,0.0,-0.0078125,false,false,false,false,0.0,0.0,0.0,0.0,false,false,false,false,0.125,12.65,0.0,-3715,0,0,0.125,12.65,0.0,0,0,0,0.125,12.65,0.0,-3456,0,0,0.125,12.65,0.0,0,0,0,0.0,12.65,0.0,0,0,0,0.125,12.700000000000001,0.0,0,0,0,kReverse,0.0,0.0,0.0,0.0,0.0,0.0,0.0,0.0,0.0,0.0,0.0,
74.672263,true,true,true,0.0,-0.0078125,0.0,-0.0078125,false,false,false,false,0.0,0.0,0.0,0.0,false,false,false,false,0.125,12.65,0.0,-3715,0,0,0.125,12.65,0.0,0,0,0,0.125,12.65,0.0,-3456,0,0,0.125,12.65,0.0,0,0,0,0.125,12.65,0.0,0,0,0,0.125,12.700000000000001,0.0,0,0,0,kReverse,0.0,0.0,0.0,0.0,0.0,0.0,0.0,0.0,0.0,0.0,0.0,
74.695249,true,true,true,0.0,-0.0078125,0.0,-0.0078125,false,false,false,false,0.0,0.0,0.0,0.0,false,false,false,false,0.125,12.65,0.0,-3715,0,0,0.125,12.65,0.0,0,0,0,0.125,12.65,0.0,-3456,0,0,0.125,12.65,0.0,0,0,0,0.125,12.65,0.0,0,0,0,0.125,12.700000000000001,0.0,0,0,0,kReverse,0.0,0.0,0.0,0.0,0.0,0.0,0.0,0.0,0.0,0.0,0.0,
74.716454,true,true,true,0.0,-0.0078125,0.0,-0.0078125,false,false,false,false,0.0,0.0,0.0,0.0,false,false,false,false,0.125,12.65,0.0,-3715,0,0,0.125,12.65,0.0,0,0,0,0.125,12.65,0.0,-3456,0,0,0.125,12.65,0.0,0,0,0,0.125,12.65,0.0,0,0,0,0.125,12.700000000000001,0.0,0,0,0,kReverse,0.0,0.0,0.0,0.0,0.0,0.0,0.0,0.0,0.0,0.0,0.0,
74.736439,true,true,true,0.0,-0.0078125,0.0,-0.0078125,false,false,false,false,0.0,0.0,0.0,0.0,false,false,false,false,0.125,12.65,0.0,-3715,0,0,0.125,12.65,0.0,0,0,0,0.125,12.65,0.0,-3456,0,0,0.125,12.65,0.0,0,0,0,0.0,12.65,0.0,0,0,0,0.125,12.700000000000001,0.0,0,0,0,kReverse,0.0,0.0,0.0,0.0,0.0,0.0,0.0,0.0,0.0,0.0,0.0,
74.764325,true,true,true,0.0,-0.0078125,0.0,-0.0078125,false,false,false,false,0.0,0.0,0.0,0.0,false,false,false,false,0.125,12.65,0.0,-3715,0,0,0.125,12.65,0.0,0,0,0,0.125,12.65,0.0,-3456,0,0,0.125,12.65,0.0,0,0,0,0.0,12.65,0.0,0,0,0,0.125,12.700000000000001,0.0,0,0,0,kReverse,0.0,0.0,0.0,0.0,0.0,0.0,0.0,0.0,0.0,0.0,0.0,
74.788348,true,true,true,0.0,-0.0078125,0.0,-0.0078125,false,false,false,false,0.0,0.0,0.0,0.0,false,false,false,false,0.125,12.65,0.0,-3715,0,0,0.125,12.65,0.0,0,0,0,0.125,12.65,0.0,-3456,0,0,0.125,12.65,0.0,0,0,0,0.0,12.65,0.0,0,0,0,0.125,12.700000000000001,0.0,0,0,0,kReverse,0.0,0.0,0.0,0.0,0.0,0.0,0.0,0.0,0.0,0.0,0.0,
74.810293,true,true,true,0.0,-0.0078125,0.0,-0.0078125,false,false,false,false,0.0,0.0,0.0,0.0,false,false,false,false,0.125,12.65,0.0,-3715,0,0,0.125,12.65,0.0,0,0,0,0.125,12.65,0.0,-3456,0,0,0.125,12.65,0.0,0,0,0,0.0,12.65,0.0,0,0,0,0.125,12.700000000000001,0.0,0,0,0,kReverse,0.0,0.0,0.0,0.0,0.0,0.0,0.0,0.0,0.0,0.0,0.0,
74.831309,true,true,true,0.0,-0.0078125,0.0,-0.0078125,false,false,false,false,0.0,0.0,0.0,0.0,false,false,false,false,0.125,12.65,0.0,-3715,0,0,0.125,12.65,0.0,0,0,0,0.125,12.65,0.0,-3456,0,0,0.125,12.65,0.0,0,0,0,0.0,12.65,0.0,0,0,0,0.125,12.700000000000001,0.0,0,0,0,kReverse,0.0,0.0,0.0,0.0,0.0,0.0,0.0,0.0,0.0,0.0,0.0,
74.856976,true,true,true,0.0,-0.0078125,0.0,-0.0078125,false,false,false,false,0.0,0.0,0.0,0.0,false,false,false,false,0.125,12.65,0.0,-3715,0,0,0.125,12.65,0.0,0,0,0,0.125,12.65,0.0,-3456,0,0,0.125,12.65,0.0,0,0,0,0.125,12.65,0.0,0,0,0,0.125,12.700000000000001,0.0,0,0,0,kReverse,0.0,0.0,0.0,0.0,0.0,0.0,0.0,0.0,0.0,0.0,0.0,
74.875159,true,true,true,0.0,-0.0078125,0.0,-0.0078125,false,false,false,false,0.0,0.0,0.0,0.0,false,false,false,false,0.125,12.65,0.0,-3715,0,0,0.125,12.65,0.0,0,0,0,0.125,12.65,0.0,-3456,0,0,0.125,12.65,0.0,0,0,0,0.125,12.65,0.0,0,0,0,0.125,12.700000000000001,0.0,0,0,0,kReverse,0.0,0.0,0.0,0.0,0.0,0.0,0.0,0.0,0.0,0.0,0.0,
74.908303,true,true,true,0.0,-0.0078125,0.0,-0.0078125,false,false,false,false,0.0,0.0,0.0,0.0,false,false,false,false,0.125,12.65,0.0,-3715,0,0,0.125,12.65,0.0,0,0,0,0.125,12.65,0.0,-3456,0,0,0.125,12.65,0.0,0,0,0,0.125,12.65,0.0,0,0,0,0.125,12.700000000000001,0.0,0,0,0,kReverse,0.0,0.0,0.0,0.0,0.0,0.0,0.0,0.0,0.0,0.0,0.0,
74.93197900000001,true,true,true,0.0,-0.0078125,0.0,-0.0078125,false,false,false,false,0.0,0.0,0.0,0.0,false,false,false,false,0.125,12.65,0.0,-3715,0,0,0.125,12.65,0.0,0,0,0,0.125,12.65,0.0,-3456,0,0,0.125,12.65,0.0,0,0,0,0.125,12.65,0.0,0,0,0,0.125,12.700000000000001,0.0,0,0,0,kReverse,0.0,0.0,0.0,0.0,0.0,0.0,0.0,0.0,0.0,0.0,0.0,
74.95399800000001,true,true,true,0.0,-0.0078125,0.0,-0.0078125,false,false,false,false,0.0,0.0,0.0,0.0,false,false,false,false,0.125,12.65,0.0,-3715,0,0,0.125,12.65,0.0,0,0,0,0.125,12.65,0.0,-3456,0,0,0.125,12.65,0.0,0,0,0,0.125,12.65,0.0,0,0,0,0.125,12.700000000000001,0.0,0,0,0,kReverse,0.0,0.0,0.0,0.0,0.0,0.0,0.0,0.0,0.0,0.0,0.0,
74.978683,true,true,true,0.0,-0.0078125,0.0,-0.0078125,false,false,false,false,0.0,0.0,0.0,0.0,false,false,false,false,0.125,12.65,0.0,-3715,0,0,0.125,12.65,0.0,0,0,0,0.125,12.65,0.0,-3456,0,0,0.125,12.65,0.0,0,0,0,0.125,12.65,0.0,0,0,0,0.125,12.700000000000001,0.0,0,0,0,kReverse,0.0,0.0,0.0,0.0,0.0,0.0,0.0,0.0,0.0,0.0,0.0,
75.006179,true,true,true,0.0,-0.0078125,0.0,-0.0078125,false,false,false,false,0.0,0.0,0.0,0.0,false,false,false,false,0.125,12.65,0.0,-3715,0,0,0.125,12.65,0.0,0,0,0,0.125,12.65,0.0,-3456,0,0,0.125,12.65,0.0,0,0,0,0.0,12.65,0.0,0,0,0,0.125,12.700000000000001,0.0,0,0,0,kReverse,0.0,0.0,0.0,0.0,0.0,0.0,0.0,0.0,0.0,0.0,0.0,
75.030629,true,true,true,0.0,-0.0078125,0.0,-0.0078125,false,false,false,false,0.0,0.0,0.0,0.0,false,false,false,false,0.125,12.65,0.0,-3715,0,0,0.125,12.65,0.0,0,0,0,0.125,12.65,0.0,-3456,0,0,0.125,12.65,0.0,0,0,0,0.0,12.65,0.0,0,0,0,0.125,12.700000000000001,0.0,0,0,0,kReverse,0.0,0.0,0.0,0.0,0.0,0.0,0.0,0.0,0.0,0.0,0.0,
75.057855,true,true,true,0.0,-0.078125,0.0,-0.0078125,false,false,false,false,0.0,0.0,0.0,0.0,false,false,false,false,0.125,12.65,0.0,-3715,0,0,0.125,12.65,0.0,0,0,0,0.125,12.65,0.0,-3456,0,0,0.125,12.65,0.0,0,0,0,0.125,12.65,0.0,0,0,0,0.125,12.700000000000001,0.0,0,0,0,kReverse,0.0,0.0,0.0,0.0,0.0,0.0,0.0,0.0,0.0,0.0,0.0,
75.08526,true,true,true,0.0,-0.1640625,0.0,-0.0078125,false,false,false,false,0.0,0.0,0.0,0.0,false,false,false,false,0.125,12.65,0.0,-3715,0,0,0.25,12.65,0.0,0,0,0,0.375,12.65,0.0,-3456,0,0,0.25,12.65,0.0,0,0,0,0.125,12.65,0.0,0,0,0,0.125,12.700000000000001,0.0,0,0,0,kReverse,0.0,0.0,0.0,0.0,0.0,0.0,0.0,0.0,0.0,0.0,0.0,
75.114894,true,true,true,0.0,-0.4375,0.0,-0.0078125,false,false,false,false,0.0,0.0,0.0,0.0,false,false,false,false,0.25,12.65,0.0,-3715,0,0,0.25,12.65,0.0,0,0,0,0.375,12.65,0.0,-3456,0,0,0.25,12.65,0.0,0,0,0,0.0,12.65,0.0,0,0,0,0.125,12.700000000000001,0.0,0,0,0,kReverse,0.0,0.0,0.0,0.0,0.0,0.0,0.0,0.0,0.0,0.0,0.0,
75.162862,true,true,true,0.06299212574958801,-0.5859375,0.0,-0.0078125,false,false,false,false,0.0,0.0,0.0,0.0,false,false,false,false,1.5,12.65,0.0,-3736,-6,0,0.75,12.65,0.0,0,0,0,1.125,12.65,0.0,-3474,-5,0,0.875,12.65,0.0,0,0,0,0.0,12.65,0.0,0,0,0,0.125,12.700000000000001,0.0,0,0,0,kReverse,0.0,0.0,0.0,0.0,0.0,0.0,0.0,0.0,0.0,0.0,0.0,
75.196313,true,true,true,0.18897637724876404,-0.71875,0.0,-0.0078125,false,false,false,false,0.0,0.0,0.0,0.0,false,false,false,false,3.625,12.65,0.0,-3752,-15,0,1.375,12.65,0.0,0,0,0,3.0,12.65,0.0,-3488,-13,0,2.75,12.65,0.0,0,0,0,0.125,12.65,0.0,0,0,0,0.125,12.700000000000001,0.0,0,0,0,kReverse,0.0,0.0,0.0,0.0,0.0,0.0,0.0,0.0,0.0,0.0,0.0,
75.224454,true,true,true,0.24409449100494385,-0.828125,0.0,-0.0078125,false,false,false,false,0.0,0.0,0.0,0.0,false,false,false,false,5.875,12.65,0.0,-3818,-53,0,2.375,12.65,0.0,0,0,0,4.5,12.65,0.0,-3544,-45,0,3.375,12.65,0.0,0,0,0,0.125,12.65,0.0,0,0,0,0.125,12.700000000000001,0.0,0,0,0,kReverse,0.0,0.0,0.0,0.0,0.0,0.0,0.0,0.0,0.0,0.0,0.0,
75.250577,true,true,true,0.3858267664909363,-0.9765625,0.0,-0.0078125,false,false,false,false,0.0,0.0,0.0,0.0,false,false,false,false,6.875,12.1,0.0,-3859,-81,0,3.0,12.200000000000001,0.0,0,0,0,4.875,12.15,0.0,-3582,-71,0,3.375,12.200000000000001,0.0,0,0,0,0.125,12.200000000000001,0.0,0,0,0,0.125,12.25,0.0,0,0,0,kReverse,0.0,0.0,0.0,0.0,0.0,0.0,0.0,0.0,0.0,0.0,0.0,
75.276,true,true,true,0.4330708682537079,-1.0,0.0,-0.0078125,false,false,false,false,0.0,0.0,0.0,0.0,false,false,false,false,7.25,12.1,0.0,-3914,-117,0,2.75,12.200000000000001,0.0,0,0,0,6.5,12.15,0.0,-3680,-133,0,5.125,12.200000000000001,0.0,0,0,0,0.0,12.200000000000001,0.0,0,0,0,0.125,12.25,0.0,0,0,0,kReverse,0.0,0.0,0.0,0.0,0.0,0.0,0.0,0.0,0.0,0.0,0.0,
75.297776,true,true,true,0.4566929042339325,-1.0,0.0,-0.0078125,false,false,false,false,0.0,0.0,0.0,0.0,false,false,false,false,8.625,12.1,0.0,-3971,-153,0,3.625,12.200000000000001,0.0,0,0,0,7.375,12.15,0.0,-3737,-167,0,5.625,12.200000000000001,0.0,0,0,0,0.0,12.200000000000001,0.0,0,0,0,0.125,12.25,0.0,0,0,0,kReverse,0.0,0.0,0.0,0.0,0.0,0.0,0.0,0.0,0.0,0.0,0.0,
75.327299,true,true,true,0.4566929042339325,-1.0,0.0,-0.0078125,false,false,false,false,0.0,0.0,0.0,0.0,false,false,false,false,8.125,12.1,0.0,-4113,-235,0,3.0,12.200000000000001,0.0,0,0,0,6.625,12.15,0.0,-3807,-205,0,5.625,12.200000000000001,0.0,0,0,0,0.0,12.200000000000001,0.0,0,0,0,0.125,12.25,0.0,0,0,0,kReverse,0.0,0.0,0.0,0.0,0.0,0.0,0.0,0.0,0.0,0.0,0.0,
75.35044500000001,true,true,true,0.4566929042339325,-1.0,0.0,-0.0078125,false,false,false,false,0.0,0.0,0.0,0.0,false,false,false,false,6.25,12.1,0.0,-4184,-271,0,2.125,12.200000000000001,0.0,0,0,0,5.5,12.15,0.0,-3874,-239,0,5.25,12.200000000000001,0.0,0,0,0,0.0,12.200000000000001,0.0,0,0,0,0.125,12.25,0.0,0,0,0,kReverse,0.0,0.0,0.0,0.0,0.0,0.0,0.0,0.0,0.0,0.0,0.0,
75.37398700000001,true,true,true,0.4566929042339325,-1.0,0.0,-0.0078125,false,false,false,false,0.0,0.0,0.0,0.0,false,false,false,false,5.0,12.1,0.0,-4263,-306,0,1.625,12.200000000000001,0.0,0,0,0,4.125,12.15,0.0,-3945,-273,0,3.125,12.200000000000001,0.0,0,0,0,0.125,12.200000000000001,0.0,0,0,0,0.125,12.25,0.0,0,0,0,kReverse,0.0,0.0,0.0,0.0,0.0,0.0,0.0,0.0,0.0,0.0,0.0,
75.396383,true,true,true,0.4645669162273407,-1.0,0.0,-0.0078125,false,false,false,false,0.0,0.0,0.0,0.0,false,false,false,false,4.125,12.1,0.0,-4335,-332,0,1.0,12.200000000000001,0.0,0,0,0,2.125,12.15,0.0,-4094,-328,0,2.5,12.25,0.0,0,0,0,0.125,12.3,0.0,0,0,0,0.125,12.35,0.0,0,0,0,kReverse,0.0,0.0,0.0,0.0,0.0,0.0,0.0,0.0,0.0,0.0,0.0,
75.41981,true,true,true,0.4645669162273407,-1.0,0.0,-0.0078125,false,false,false,false,0.0,0.0,0.0,0.0,false,false,false,false,3.625,12.25,0.0,-4412,-352,0,1.0,12.25,0.0,0,0,0,2.0,12.25,0.0,-4170,-346,0,2.25,12.25,0.0,0,0,0,0.125,12.3,0.0,0,0,0,0.125,12.35,0.0,0,0,0,kReverse,0.0,0.0,0.0,0.0,0.0,0.0,0.0,0.0,0.0,0.0,0.0,
75.440612,true,true,true,0.4645669162273407,-1.0,0.0,-0.0078125,false,false,false,false,0.0,0.0,0.0,0.0,false,false,false,false,2.625,12.25,0.0,-4567,-375,0,1.0,12.25,0.0,0,0,0,1.75,12.25,0.0,-4247,-359,0,2.125,12.25,0.0,0,0,0,0.125,12.3,0.0,0,0,0,0.125,12.35,0.0,0,0,0,kReverse,0.0,0.0,0.0,0.0,0.0,0.0,0.0,0.0,0.0,0.0,0.0,
75.46541200000001,true,true,true,0.4645669162273407,-1.0,0.0,-0.0078125,false,false,false,false,0.0,0.0,0.0,0.0,false,false,false,false,2.375,12.25,0.0,-4644,-380,0,1.0,12.25,0.0,0,0,0,1.625,12.25,0.0,-4325,-369,0,1.875,12.25,0.0,0,0,0,0.125,12.3,0.0,0,0,0,0.125,12.35,0.0,0,0,0,kReverse,0.0,0.0,0.0,0.0,0.0,0.0,0.0,0.0,0.0,0.0,0.0,
75.488292,true,true,true,0.4645669162273407,-1.0,0.0,-0.0078125,false,false,false,false,0.0,0.0,0.0,0.0,false,false,false,false,2.25,12.25,0.0,-4722,-383,0,1.0,12.25,0.0,0,0,0,1.375,12.25,0.0,-4403,-375,0,1.625,12.25,0.0,0,0,0,0.125,12.3,0.0,0,0,0,0.125,12.35,0.0,0,0,0,kReverse,0.0,0.0,0.0,0.0,0.0,0.0,0.0,0.0,0.0,0.0,0.0,
75.51097299999999,true,true,true,0.4645669162273407,-1.0,0.0,-0.0078125,false,false,false,false,0.0,0.0,0.0,0.0,false,false,false,false,2.25,12.25,0.0,-4800,-385,0,1.0,12.25,0.0,0,0,0,1.375,12.25,0.0,-4480,-380,0,1.625,12.25,0.0,0,0,0,0.125,12.3,0.0,0,0,0,0.125,12.35,0.0,0,0,0,kReverse,0.0,0.0,0.0,0.0,0.0,0.0,0.0,0.0,0.0,0.0,0.0,
75.535367,true,true,true,0.4645669162273407,-1.0,0.0,-0.0078125,false,false,false,false,0.0,0.0,0.0,0.0,false,false,false,false,2.25,12.25,0.0,-4877,-386,0,1.0,12.25,0.0,0,0,0,1.375,12.25,0.0,-4637,-386,0,1.625,12.25,0.0,0,0,0,0.125,12.3,0.0,0,0,0,0.125,12.35,0.0,0,0,0,kReverse,0.0,0.0,0.0,0.0,0.0,0.0,0.0,0.0,0.0,0.0,0.0,
75.55783600000001,true,true,true,0.4645669162273407,-1.0,0.0,-0.0078125,false,false,false,false,0.0,0.0,0.0,0.0,false,false,false,false,2.25,12.25,0.0,-4954,-387,0,1.0,12.25,0.0,0,0,0,1.375,12.35,0.0,-4715,-388,0,1.625,12.35,0.0,0,0,0,0.125,12.35,0.0,0,0,0,0.125,12.4,0.0,0,0,0,kReverse,0.0,0.0,0.0,0.0,0.0,0.0,0.0,0.0,0.0,0.0,0.0,
75.581214,true,true,true,0.4645669162273407,-1.0,0.0,-0.0078125,false,false,false,false,0.0,0.0,0.0,0.0,false,false,false,false,2.375,12.3,0.0,-5109,-387,0,1.0,12.35,0.0,0,0,0,1.375,12.35,0.0,-4793,-389,0,1.625,12.35,0.0,0,0,0,0.125,12.35,0.0,0,0,0,0.125,12.4,0.0,0,0,0,kReverse,0.0,0.0,0.0,0.0,0.0,0.0,0.0,0.0,0.0,0.0,0.0,
75.60408500000001,true,true,true,0.3700787425041199,-0.890625,0.0,-0.0078125,false,false,false,false,0.0,0.0,0.0,0.0,false,false,false,false,2.375,12.3,0.0,-5186,-387,0,1.0,12.35,0.0,0,0,0,1.375,12.35,0.0,-4871,-390,0,1.625,12.35,0.0,0,0,0,0.125,12.35,0.0,0,0,0,0.125,12.4,0.0,0,0,0,kReverse,0.0,0.0,0.0,0.0,0.0,0.0,0.0,0.0,0.0,0.0,0.0,
75.62837400000001,true,true,true,0.27559053897857666,-0.609375,0.0,-0.0078125,false,false,false,false,0.0,0.0,0.0,0.0,false,false,false,false,2.375,12.3,0.0,-5264,-387,0,1.0,12.35,0.0,0,0,0,1.375,12.35,0.0,-4950,-390,0,1.625,12.35,0.0,0,0,0,0.125,12.35,0.0,0,0,0,0.125,12.4,0.0,0,0,0,kReverse,0.0,0.0,0.0,0.0,0.0,0.0,0.0,0.0,0.0,0.0,0.0,
75.65070700000001,true,true,true,0.12598425149917603,-0.2734375,0.0,-0.0078125,false,false,false,false,0.0,0.0,0.0,0.0,false,false,false,false,2.125,12.3,0.0,-5341,-387,0,1.0,12.35,0.0,0,0,0,1.25,12.35,0.0,-5028,-390,0,1.625,12.35,0.0,0,0,0,0.125,12.35,0.0,0,0,0,0.125,12.4,0.0,0,0,0,kReverse,0.0,0.0,0.0,0.0,0.0,0.0,0.0,0.0,0.0,0.0,0.0,
75.67728300000002,true,true,true,0.015748031437397003,-0.09375,0.0,-0.0078125,false,false,false,false,0.0,0.0,0.0,0.0,false,false,false,false,1.25,12.3,0.0,-5412,-386,0,0.375,12.35,0.0,0,0,0,0.375,12.35,0.0,-5158,-385,0,0.625,12.35,0.0,0,0,0,0.125,12.35,0.0,0,0,0,0.125,12.4,0.0,0,0,0,kReverse,0.0,0.0,0.0,0.0,0.0,0.0,0.0,0.0,0.0,0.0,0.0,
75.700939,true,true,true,0.0,-0.0078125,0.0,-0.0078125,false,false,false,false,0.0,0.0,0.0,0.0,false,false,false,false,0.0,12.3,0.0,-5505,-364,0,0.25,12.35,0.0,0,0,0,0.125,12.35,0.0,-5203,-372,0,0.0,12.35,0.0,0,0,0,0.0,12.35,0.0,0,0,0,0.125,12.4,0.0,0,0,0,kReverse,0.0,0.0,0.0,0.0,0.0,0.0,0.0,0.0,0.0,0.0,0.0,
75.723134,true,true,true,0.0,-0.0078125,0.0,-0.0078125,false,false,false,false,0.0,0.0,0.0,0.0,false,false,false,false,0.0,12.700000000000001,0.0,-5532,-335,0,0.125,12.700000000000001,0.0,0,0,0,0.125,12.700000000000001,0.0,-5235,-346,0,0.0,12.75,0.0,0,0,0,0.0,12.700000000000001,0.0,0,0,0,0.125,12.75,0.0,0,0,0,kReverse,0.0,0.0,0.0,0.0,0.0,0.0,0.0,0.0,0.0,0.0,0.0,
75.748827,true,true,true,0.0,-0.0078125,0.0,-0.0078125,false,false,false,false,0.0,0.0,0.0,0.0,false,false,false,false,0.0,12.700000000000001,0.0,-5555,-294,0,0.125,12.700000000000001,0.0,0,0,0,0.125,12.700000000000001,0.0,-5257,-308,0,0.125,12.75,0.0,0,0,0,0.0,12.700000000000001,0.0,0,0,0,0.125,12.75,0.0,0,0,0,kReverse,0.0,0.0,0.0,0.0,0.0,0.0,0.0,0.0,0.0,0.0,0.0,
75.771274,true,true,true,0.0,-0.0078125,0.0,-0.0078125,false,false,false,false,0.0,0.0,0.0,0.0,false,false,false,false,0.125,12.700000000000001,0.0,-5576,-244,0,0.125,12.700000000000001,0.0,0,0,0,0.125,12.700000000000001,0.0,-5272,-259,0,0.125,12.75,0.0,0,0,0,0.0,12.700000000000001,0.0,0,0,0,0.125,12.75,0.0,0,0,0,kReverse,0.0,0.0,0.0,0.0,0.0,0.0,0.0,0.0,0.0,0.0,0.0,
75.79436100000001,true,true,true,0.0,-0.0078125,0.0,-0.0078125,false,false,false,false,0.0,0.0,0.0,0.0,false,false,false,false,0.125,12.700000000000001,0.0,-5593,-195,0,0.125,12.700000000000001,0.0,0,0,0,0.125,12.700000000000001,0.0,-5281,-205,0,0.125,12.75,0.0,0,0,0,0.125,12.700000000000001,0.0,0,0,0,0.125,12.75,0.0,0,0,0,kReverse,0.0,0.0,0.0,0.0,0.0,0.0,0.0,0.0,0.0,0.0,0.0,
75.819367,true,true,true,0.0,-0.0078125,0.0,-0.0078125,false,false,false,false,0.0,0.0,0.0,0.0,false,false,false,false,0.125,12.700000000000001,0.0,-5608,-152,0,0.125,12.700000000000001,0.0,0,0,0,0.125,12.700000000000001,0.0,-5289,-109,0,0.125,12.75,0.0,0,0,0,0.125,12.700000000000001,0.0,0,0,0,0.125,12.75,0.0,0,0,0,kReverse,0.0,0.0,0.0,0.0,0.0,0.0,0.0,0.0,0.0,0.0,0.0,
75.842675,true,true,true,0.0,-0.0078125,0.0,-0.0078125,false,false,false,false,0.0,0.0,0.0,0.0,false,false,false,false,0.125,12.700000000000001,0.0,-5630,-99,0,0.125,12.700000000000001,0.0,0,0,0,0.125,12.700000000000001,0.0,-5289,-73,0,0.125,12.75,0.0,0,0,0,0.125,12.700000000000001,0.0,0,0,0,0.125,12.75,0.0,0,0,0,kReverse,0.0,0.0,0.0,0.0,0.0,0.0,0.0,0.0,0.0,0.0,0.0,
75.86592700000001,true,true,true,0.0,-0.0078125,0.0,-0.0078125,false,false,false,false,0.0,0.0,0.0,0.0,false,false,false,false,0.125,12.700000000000001,0.0,-5638,-83,0,0.125,12.700000000000001,0.0,0,0,0,0.125,12.700000000000001,0.0,-5289,-46,0,0.125,12.75,0.0,0,0,0,0.125,12.700000000000001,0.0,0,0,0,0.125,12.75,0.0,0,0,0,kReverse,0.0,0.0,0.0,0.0,0.0,0.0,0.0,0.0,0.0,0.0,0.0,
75.89062400000002,true,true,true,0.0,-0.0078125,0.0,-0.0078125,false,false,false,false,0.0,0.0,0.0,0.0,false,false,false,false,0.125,12.6,0.0,-5643,-69,0,0.125,12.6,0.0,0,0,0,0.125,12.6,0.0,-5289,-27,0,0.125,12.65,0.0,0,0,0,0.0,12.6,0.0,0,0,0,0.125,12.65,0.0,0,0,0,kReverse,0.0,0.0,0.0,0.0,0.0,0.0,0.0,0.0,0.0,0.0,0.0,
75.91493100000001,true,true,true,0.0,-0.0078125,0.0,-0.0078125,false,false,false,false,0.0,0.0,0.0,0.0,false,false,false,false,0.125,12.6,0.0,-5646,-57,0,0.125,12.6,0.0,0,0,0,0.125,12.6,0.0,-5289,-14,0,0.125,12.65,0.0,0,0,0,0.0,12.6,0.0,0,0,0,0.125,12.65,0.0,0,0,0,kReverse,0.0,0.0,0.0,0.0,0.0,0.0,0.0,0.0,0.0,0.0,0.0,
75.939242,true,true,true,0.0,-0.0078125,0.0,-0.0078125,false,false,false,false,0.0,0.0,0.0,0.0,false,false,false,false,0.125,12.6,0.0,-5647,-33,0,0.125,12.6,0.0,0,0,0,0.125,12.6,0.0,-5289,-2,0,0.125,12.65,0.0,0,0,0,0.0,12.6,0.0,0,0,0,0.125,12.65,0.0,0,0,0,kReverse,0.0,0.0,0.0,0.0,0.0,0.0,0.0,0.0,0.0,0.0,0.0,
75.965697,true,true,true,0.0,-0.0078125,0.0,-0.0078125,false,false,false,false,0.0,0.0,0.0,0.0,false,false,false,false,0.125,12.6,0.0,-5647,-22,0,0.125,12.6,0.0,0,0,0,0.125,12.6,0.0,-5289,0,0,0.125,12.65,0.0,0,0,0,0.0,12.6,0.0,0,0,0,0.125,12.65,0.0,0,0,0,kReverse,0.0,0.0,0.0,0.0,0.0,0.0,0.0,0.0,0.0,0.0,0.0,
75.98989900000001,true,true,true,0.0,-0.0078125,0.0,-0.0078125,false,false,false,false,0.0,0.0,0.0,0.0,false,false,false,false,0.125,12.6,0.0,-5647,-14,0,0.125,12.6,0.0,0,0,0,0.125,12.6,0.0,-5289,0,0,0.125,12.65,0.0,0,0,0,0.0,12.6,0.0,0,0,0,0.125,12.65,0.0,0,0,0,kReverse,0.0,0.0,0.0,0.0,0.0,0.0,0.0,0.0,0.0,0.0,0.0,
76.011667,true,true,true,0.0,-0.0078125,0.0,-0.0078125,false,false,false,false,0.0,0.0,0.0,0.0,false,false,false,false,0.125,12.6,0.0,-5647,-7,0,0.125,12.6,0.0,0,0,0,0.125,12.6,0.0,-5289,0,0,0.125,12.65,0.0,0,0,0,0.0,12.6,0.0,0,0,0,0.125,12.65,0.0,0,0,0,kReverse,0.0,0.0,0.0,0.0,0.0,0.0,0.0,0.0,0.0,0.0,0.0,
76.03668400000001,true,true,true,0.0,-0.0078125,0.0,-0.0078125,false,false,false,false,0.0,0.0,0.0,0.0,false,false,false,false,0.125,12.6,0.0,-5647,-3,0,0.125,12.6,0.0,0,0,0,0.125,12.6,0.0,-5289,0,0,0.125,12.65,0.0,0,0,0,0.0,12.6,0.0,0,0,0,0.125,12.65,0.0,0,0,0,kReverse,0.0,0.0,0.0,0.0,0.0,0.0,0.0,0.0,0.0,0.0,0.0,
76.059878,true,true,true,0.0,-0.0078125,0.0,-0.0078125,false,false,false,false,0.0,0.0,0.0,0.0,false,false,false,false,0.125,12.6,0.0,-5647,0,0,0.125,12.6,0.0,0,0,0,0.125,12.6,0.0,-5289,0,0,0.125,12.65,0.0,0,0,0,0.0,12.6,0.0,0,0,0,0.125,12.65,0.0,0,0,0,kReverse,0.0,0.0,0.0,0.0,0.0,0.0,0.0,0.0,0.0,0.0,0.0,
76.08498000000002,true,true,true,0.0,-0.0078125,0.0,-0.0078125,false,false,false,false,0.0,0.0,0.0,0.0,false,false,false,false,0.125,12.6,0.0,-5647,0,0,0.125,12.6,0.0,0,0,0,0.125,12.6,0.0,-5289,0,0,0.125,12.65,0.0,0,0,0,0.0,12.6,0.0,0,0,0,0.125,12.65,0.0,0,0,0,kReverse,0.0,0.0,0.0,0.0,0.0,0.0,0.0,0.0,0.0,0.0,0.0,
76.10773,true,true,true,0.0,-0.0078125,0.0,-0.0078125,false,false,false,false,0.0,0.0,0.0,0.0,false,false,false,false,0.125,12.6,0.0,-5647,0,0,0.125,12.6,0.0,0,0,0,0.125,12.6,0.0,-5289,0,0,0.125,12.65,0.0,0,0,0,0.125,12.6,0.0,0,0,0,0.125,12.65,0.0,0,0,0,kReverse,0.0,0.0,0.0,0.0,0.0,0.0,0.0,0.0,0.0,0.0,0.0,
76.136867,true,true,true,0.0,-0.0078125,0.0,-0.0078125,false,false,false,false,0.0,0.0,0.0,0.0,false,false,false,false,0.125,12.6,0.0,-5647,0,0,0.125,12.6,0.0,0,0,0,0.125,12.6,0.0,-5289,0,0,0.125,12.65,0.0,0,0,0,0.0,12.6,0.0,0,0,0,0.125,12.65,0.0,0,0,0,kReverse,0.0,0.0,0.0,0.0,0.0,0.0,0.0,0.0,0.0,0.0,0.0,
76.17344,true,true,true,0.0,-0.0078125,0.0,-0.0078125,false,false,false,false,0.0,0.0,0.0,0.0,false,false,false,false,0.125,12.6,0.0,-5647,0,0,0.125,12.6,0.0,0,0,0,0.125,12.6,0.0,-5289,0,0,0.125,12.65,0.0,0,0,0,0.0,12.6,0.0,0,0,0,0.125,12.65,0.0,0,0,0,kReverse,0.0,0.0,0.0,0.0,0.0,0.0,0.0,0.0,0.0,0.0,0.0,
76.200757,true,true,true,0.0,-0.0078125,0.0,-0.0078125,false,false,false,false,0.0,0.0,0.0,0.0,false,false,false,false,0.125,12.6,0.0,-5647,0,0,0.125,12.6,0.0,0,0,0,0.125,12.6,0.0,-5289,0,0,0.125,12.65,0.0,0,0,0,0.125,12.6,0.0,0,0,0,0.125,12.700000000000001,0.0,0,0,0,kReverse,0.0,0.0,0.0,0.0,0.0,0.0,0.0,0.0,0.0,0.0,0.0,
76.22534399999999,true,true,true,0.0,-0.0078125,0.0,-0.0078125,false,false,false,false,0.0,0.0,0.0,0.0,false,false,false,false,0.125,12.65,0.0,-5647,0,0,0.125,12.6,0.0,0,0,0,0.125,12.6,0.0,-5289,0,0,0.125,12.65,0.0,0,0,0,0.125,12.6,0.0,0,0,0,0.125,12.700000000000001,0.0,0,0,0,kReverse,0.0,0.0,0.0,0.0,0.0,0.0,0.0,0.0,0.0,0.0,0.0,
76.247895,true,true,true,0.0,-0.0078125,0.0,-0.0078125,false,false,false,false,0.0,0.0,0.0,0.0,false,false,false,false,0.125,12.65,0.0,-5647,0,0,0.125,12.6,0.0,0,0,0,0.125,12.6,0.0,-5289,0,0,0.125,12.65,0.0,0,0,0,0.125,12.6,0.0,0,0,0,0.125,12.700000000000001,0.0,0,0,0,kReverse,0.0,0.0,0.0,0.0,0.0,0.0,0.0,0.0,0.0,0.0,0.0,
76.269954,true,true,true,0.0,-0.0078125,0.0,-0.0078125,false,false,false,false,0.0,0.0,0.0,0.0,false,false,false,false,0.125,12.65,0.0,-5647,0,0,0.125,12.6,0.0,0,0,0,0.125,12.6,0.0,-5289,0,0,0.125,12.65,0.0,0,0,0,0.125,12.6,0.0,0,0,0,0.125,12.700000000000001,0.0,0,0,0,kReverse,0.0,0.0,0.0,0.0,0.0,0.0,0.0,0.0,0.0,0.0,0.0,
76.29180900000001,true,true,true,0.0,-0.0078125,0.0,-0.0078125,false,false,false,false,0.0,0.0,0.0,0.0,false,false,false,false,0.125,12.65,0.0,-5647,0,0,0.125,12.6,0.0,0,0,0,0.125,12.6,0.0,-5289,0,0,0.125,12.65,0.0,0,0,0,0.125,12.6,0.0,0,0,0,0.125,12.700000000000001,0.0,0,0,0,kReverse,0.0,0.0,0.0,0.0,0.0,0.0,0.0,0.0,0.0,0.0,0.0,
76.318993,true,true,true,0.0,-0.0078125,0.0,-0.0078125,false,false,false,false,0.0,0.0,0.0,0.0,false,false,false,false,0.125,12.65,0.0,-5647,0,0,0.125,12.6,0.0,0,0,0,0.125,12.6,0.0,-5289,0,0,0.125,12.65,0.0,0,0,0,0.125,12.6,0.0,0,0,0,0.125,12.700000000000001,0.0,0,0,0,kReverse,0.0,0.0,0.0,0.0,0.0,0.0,0.0,0.0,0.0,0.0,0.0,
76.34171400000001,true,true,true,0.0,-0.0078125,0.0,-0.0078125,false,false,false,false,0.0,0.0,0.0,0.0,false,false,false,false,0.125,12.65,0.0,-5647,0,0,0.125,12.6,0.0,0,0,0,0.125,12.6,0.0,-5289,0,0,0.125,12.65,0.0,0,0,0,0.125,12.6,0.0,0,0,0,0.125,12.700000000000001,0.0,0,0,0,kReverse,0.0,0.0,0.0,0.0,0.0,0.0,0.0,0.0,0.0,0.0,0.0,
76.367046,true,true,true,0.0,-0.0078125,0.0,-0.0078125,false,false,false,false,0.0,0.0,0.0,0.0,false,false,false,false,0.125,12.6,0.0,-5647,0,0,0.125,12.65,0.0,0,0,0,0.125,12.6,0.0,-5289,0,0,0.125,12.65,0.0,0,0,0,0.125,12.65,0.0,0,0,0,0.125,12.700000000000001,0.0,0,0,0,kReverse,0.0,0.0,0.0,0.0,0.0,0.0,0.0,0.0,0.0,0.0,0.0,
76.38980200000002,true,true,true,0.0,-0.0078125,0.0,-0.0078125,false,false,false,false,0.0,0.0,0.0,0.0,false,false,false,false,0.125,12.6,0.0,-5647,0,0,0.125,12.65,0.0,0,0,0,0.125,12.6,0.0,-5289,0,0,0.125,12.65,0.0,0,0,0,0.125,12.65,0.0,0,0,0,0.125,12.700000000000001,0.0,0,0,0,kReverse,0.0,0.0,0.0,0.0,0.0,0.0,0.0,0.0,0.0,0.0,0.0,
76.412375,true,true,true,0.0,-0.0078125,0.0,-0.0078125,false,false,false,false,0.0,0.0,0.0,0.0,false,false,false,false,0.125,12.6,0.0,-5647,0,0,0.125,12.65,0.0,0,0,0,0.125,12.6,0.0,-5289,0,0,0.125,12.65,0.0,0,0,0,0.125,12.65,0.0,0,0,0,0.125,12.700000000000001,0.0,0,0,0,kReverse,0.0,0.0,0.0,0.0,0.0,0.0,0.0,0.0,0.0,0.0,0.0,
76.43383200000001,true,true,true,0.0,-0.0078125,0.0,-0.0078125,false,false,false,false,0.0,0.0,0.0,0.0,false,false,false,false,0.125,12.6,0.0,-5647,0,0,0.125,12.65,0.0,0,0,0,0.125,12.6,0.0,-5289,0,0,0.125,12.65,0.0,0,0,0,0.0,12.65,0.0,0,0,0,0.125,12.700000000000001,0.0,0,0,0,kReverse,0.0,0.0,0.0,0.0,0.0,0.0,0.0,0.0,0.0,0.0,0.0,
76.45707100000001,true,true,true,0.0,-0.0078125,0.0,-0.0078125,false,false,false,false,0.0,0.0,0.0,0.0,false,false,false,false,0.125,12.6,0.0,-5647,0,0,0.125,12.65,0.0,0,0,0,0.125,12.6,0.0,-5289,0,0,0.125,12.65,0.0,0,0,0,0.0,12.65,0.0,0,0,0,0.125,12.700000000000001,0.0,0,0,0,kReverse,0.0,0.0,0.0,0.0,0.0,0.0,0.0,0.0,0.0,0.0,0.0,
76.482511,true,true,true,0.0,-0.0078125,0.0,-0.0078125,false,false,false,false,0.0,0.0,0.0,0.0,false,false,false,false,0.125,12.6,0.0,-5647,0,0,0.125,12.65,0.0,0,0,0,0.125,12.6,0.0,-5289,0,0,0.125,12.65,0.0,0,0,0,0.0,12.65,0.0,0,0,0,0.125,12.700000000000001,0.0,0,0,0,kReverse,0.0,0.0,0.0,0.0,0.0,0.0,0.0,0.0,0.0,0.0,0.0,
76.507203,true,true,true,0.0,-0.0078125,0.0,-0.0078125,false,false,false,false,0.0,0.0,0.0,0.0,false,false,false,false,0.125,12.6,0.0,-5647,0,0,0.125,12.65,0.0,0,0,0,0.125,12.6,0.0,-5289,0,0,0.125,12.65,0.0,0,0,0,0.0,12.65,0.0,0,0,0,0.125,12.700000000000001,0.0,0,0,0,kReverse,0.0,0.0,0.0,0.0,0.0,0.0,0.0,0.0,0.0,0.0,0.0,
76.53102500000001,true,true,true,0.0,-0.0078125,0.0,-0.0078125,false,false,false,false,0.0,0.0,0.0,0.0,false,false,false,false,0.125,12.65,0.0,-5647,0,0,0.125,12.65,0.0,0,0,0,0.125,12.6,0.0,-5289,0,0,0.125,12.65,0.0,0,0,0,0.125,12.65,0.0,0,0,0,0.125,12.700000000000001,0.0,0,0,0,kReverse,0.0,0.0,0.0,0.0,0.0,0.0,0.0,0.0,0.0,0.0,0.0,
76.55172400000001,true,true,true,0.0,-0.0078125,0.0,-0.0078125,false,false,false,false,0.0,0.0,0.0,0.0,false,false,false,false,0.125,12.65,0.0,-5647,0,0,0.125,12.65,0.0,0,0,0,0.125,12.6,0.0,-5289,0,0,0.125,12.65,0.0,0,0,0,0.0,12.65,0.0,0,0,0,0.125,12.700000000000001,0.0,0,0,0,kReverse,0.0,0.0,0.0,0.0,0.0,0.0,0.0,0.0,0.0,0.0,0.0,
76.572205,true,true,true,0.0,-0.0078125,0.0,-0.0078125,false,false,false,false,0.0,0.0,0.0,0.0,false,false,false,false,0.125,12.65,0.0,-5647,0,0,0.125,12.65,0.0,0,0,0,0.125,12.6,0.0,-5289,0,0,0.125,12.65,0.0,0,0,0,0.0,12.65,0.0,0,0,0,0.125,12.700000000000001,0.0,0,0,0,kReverse,0.0,0.0,0.0,0.0,0.0,0.0,0.0,0.0,0.0,0.0,0.0,
76.59480900000001,true,true,true,0.0,-0.0078125,0.0,-0.0078125,false,false,false,false,0.0,0.0,0.0,0.0,false,false,false,false,0.125,12.65,0.0,-5647,0,0,0.125,12.65,0.0,0,0,0,0.125,12.6,0.0,-5289,0,0,0.125,12.65,0.0,0,0,0,0.125,12.65,0.0,0,0,0,0.125,12.700000000000001,0.0,0,0,0,kReverse,0.0,0.0,0.0,0.0,0.0,0.0,0.0,0.0,0.0,0.0,0.0,
76.61605200000001,true,true,true,0.0,-0.0078125,0.0,-0.0078125,false,false,false,false,0.0,0.0,0.0,0.0,false,false,false,false,0.125,12.65,0.0,-5647,0,0,0.125,12.65,0.0,0,0,0,0.125,12.6,0.0,-5289,0,0,0.125,12.65,0.0,0,0,0,0.125,12.65,0.0,0,0,0,0.125,12.700000000000001,0.0,0,0,0,kReverse,0.0,0.0,0.0,0.0,0.0,0.0,0.0,0.0,0.0,0.0,0.0,
76.64454400000001,true,true,true,0.0,-0.0078125,0.0,-0.0078125,false,false,false,false,0.0,0.0,0.0,0.0,false,false,false,false,0.125,12.65,0.0,-5647,0,0,0.125,12.65,0.0,0,0,0,0.125,12.6,0.0,-5289,0,0,0.125,12.65,0.0,0,0,0,0.0,12.65,0.0,0,0,0,0.125,12.700000000000001,0.0,0,0,0,kReverse,0.0,0.0,0.0,0.0,0.0,0.0,0.0,0.0,0.0,0.0,0.0,
76.67124000000001,true,true,true,0.0,-0.0078125,0.0,-0.0078125,false,false,false,false,0.0,0.0,0.0,0.0,false,false,false,false,0.125,12.65,0.0,-5647,0,0,0.125,12.65,0.0,0,0,0,0.125,12.6,0.0,-5289,0,0,0.125,12.65,0.0,0,0,0,0.0,12.65,0.0,0,0,0,0.125,12.700000000000001,0.0,0,0,0,kReverse,0.0,0.0,0.0,0.0,0.0,0.0,0.0,0.0,0.0,0.0,0.0,
76.69517700000002,true,true,true,0.0,-0.0078125,0.0,-0.0078125,false,false,false,false,0.0,0.0,0.0,0.0,false,false,false,false,0.125,12.65,0.0,-5647,0,0,0.125,12.65,0.0,0,0,0,0.125,12.6,0.0,-5289,0,0,0.125,12.65,0.0,0,0,0,0.125,12.6,0.0,0,0,0,0.125,12.700000000000001,0.0,0,0,0,kReverse,0.0,0.0,0.0,0.0,0.0,0.0,0.0,0.0,0.0,0.0,0.0,
76.715602,true,true,true,0.0,-0.0078125,0.0,-0.0078125,false,false,false,false,0.0,0.0,0.0,0.0,false,false,false,false,0.125,12.65,0.0,-5647,0,0,0.125,12.65,0.0,0,0,0,0.125,12.6,0.0,-5289,0,0,0.125,12.65,0.0,0,0,0,0.0,12.6,0.0,0,0,0,0.125,12.700000000000001,0.0,0,0,0,kReverse,0.0,0.0,0.0,0.0,0.0,0.0,0.0,0.0,0.0,0.0,0.0,
76.73725200000001,true,true,true,0.0,-0.0078125,0.0,-0.0078125,false,false,false,false,0.0,0.0,0.0,0.0,false,false,false,false,0.125,12.65,0.0,-5647,0,0,0.125,12.65,0.0,0,0,0,0.125,12.6,0.0,-5289,0,0,0.125,12.65,0.0,0,0,0,0.0,12.6,0.0,0,0,0,0.125,12.700000000000001,0.0,0,0,0,kReverse,0.0,0.0,0.0,0.0,0.0,0.0,0.0,0.0,0.0,0.0,0.0,
76.76583900000001,true,true,true,0.0,-0.0078125,0.0,-0.0078125,false,false,false,false,0.0,0.0,0.0,0.0,false,false,false,false,0.125,12.65,0.0,-5647,0,0,0.125,12.65,0.0,0,0,0,0.125,12.6,0.0,-5289,0,0,0.125,12.65,0.0,0,0,0,0.0,12.6,0.0,0,0,0,0.125,12.700000000000001,0.0,0,0,0,kReverse,0.0,0.0,0.0,0.0,0.0,0.0,0.0,0.0,0.0,0.0,0.0,
76.78922200000001,true,true,true,0.0,-0.0078125,0.0,-0.0078125,false,false,false,false,0.0,0.0,0.0,0.0,false,false,false,false,0.125,12.65,0.0,-5647,0,0,0.125,12.65,0.0,0,0,0,0.125,12.6,0.0,-5289,0,0,0.125,12.65,0.0,0,0,0,0.0,12.6,0.0,0,0,0,0.125,12.700000000000001,0.0,0,0,0,kReverse,0.0,0.0,0.0,0.0,0.0,0.0,0.0,0.0,0.0,0.0,0.0,
76.81267600000001,true,true,true,0.0,-0.0078125,0.0,-0.0078125,false,false,false,false,0.0,0.0,0.0,0.0,false,false,false,false,0.125,12.65,0.0,-5647,0,0,0.125,12.65,0.0,0,0,0,0.125,12.6,0.0,-5289,0,0,0.125,12.65,0.0,0,0,0,0.0,12.6,0.0,0,0,0,0.125,12.700000000000001,0.0,0,0,0,kReverse,0.0,0.0,0.0,0.0,0.0,0.0,0.0,0.0,0.0,0.0,0.0,
76.833742,true,true,true,0.0,-0.0078125,0.0,-0.0078125,false,false,false,false,0.0,0.0,0.0,0.0,false,false,false,false,0.125,12.65,0.0,-5647,0,0,0.125,12.65,0.0,0,0,0,0.125,12.6,0.0,-5289,0,0,0.125,12.65,0.0,0,0,0,0.0,12.65,0.0,0,0,0,0.125,12.700000000000001,0.0,0,0,0,kReverse,0.0,0.0,0.0,0.0,0.0,0.0,0.0,0.0,0.0,0.0,0.0,
76.85559500000001,true,true,true,0.0,-0.0078125,0.0,-0.0078125,false,false,false,false,0.0,0.0,0.0,0.0,false,false,false,false,0.125,12.65,0.0,-5647,0,0,0.125,12.65,0.0,0,0,0,0.125,12.6,0.0,-5289,0,0,0.125,12.65,0.0,0,0,0,0.0,12.65,0.0,0,0,0,0.125,12.700000000000001,0.0,0,0,0,kReverse,0.0,0.0,0.0,0.0,0.0,0.0,0.0,0.0,0.0,0.0,0.0,
76.885295,true,true,true,0.0,-0.0078125,0.0,-0.0078125,false,false,false,false,0.0,0.0,0.0,0.0,false,false,false,false,0.125,12.65,0.0,-5647,0,0,0.125,12.65,0.0,0,0,0,0.125,12.6,0.0,-5289,0,0,0.125,12.65,0.0,0,0,0,0.0,12.65,0.0,0,0,0,0.125,12.700000000000001,0.0,0,0,0,kReverse,0.0,0.0,0.0,0.0,0.0,0.0,0.0,0.0,0.0,0.0,0.0,
76.909463,true,true,true,0.0,-0.0078125,0.0,-0.0078125,false,false,false,false,0.0,0.0,0.0,0.0,false,false,false,false,0.125,12.65,0.0,-5647,0,0,0.125,12.65,0.0,0,0,0,0.125,12.6,0.0,-5289,0,0,0.125,12.65,0.0,0,0,0,0.0,12.65,0.0,0,0,0,0.125,12.700000000000001,0.0,0,0,0,kReverse,0.0,0.0,0.0,0.0,0.0,0.0,0.0,0.0,0.0,0.0,0.0,
76.936215,true,true,true,0.0,-0.0078125,0.0,-0.0078125,false,false,false,false,0.0,0.0,0.0,0.0,false,false,false,false,0.125,12.65,0.0,-5647,0,0,0.125,12.65,0.0,0,0,0,0.125,12.6,0.0,-5289,0,0,0.125,12.65,0.0,0,0,0,0.125,12.65,0.0,0,0,0,0.125,12.700000000000001,0.0,0,0,0,kReverse,0.0,0.0,0.0,0.0,0.0,0.0,0.0,0.0,0.0,0.0,0.0,
76.95238900000001,true,true,true,0.0,-0.0078125,0.0,-0.0078125,false,false,false,false,0.0,0.0,0.0,0.0,false,false,false,false,0.125,12.65,0.0,-5647,0,0,0.125,12.65,0.0,0,0,0,0.125,12.6,0.0,-5289,0,0,0.125,12.65,0.0,0,0,0,0.0,12.65,0.0,0,0,0,0.125,12.700000000000001,0.0,0,0,0,kReverse,0.0,0.0,0.0,0.0,0.0,0.0,0.0,0.0,0.0,0.0,0.0,
76.982519,true,true,true,0.0,-0.0078125,0.0,-0.0078125,false,false,false,false,0.0,0.0,0.0,0.0,false,false,false,false,0.125,12.65,0.0,-5647,0,0,0.125,12.65,0.0,0,0,0,0.125,12.6,0.0,-5289,0,0,0.125,12.65,0.0,0,0,0,0.0,12.65,0.0,0,0,0,0.125,12.700000000000001,0.0,0,0,0,kReverse,0.0,0.0,0.0,0.0,0.0,0.0,0.0,0.0,0.0,0.0,0.0,
77.00735900000001,true,true,true,0.0,-0.0078125,0.0,-0.0078125,false,false,false,false,0.0,0.0,0.0,0.0,false,false,false,false,0.125,12.65,0.0,-5647,0,0,0.125,12.65,0.0,0,0,0,0.125,12.6,0.0,-5289,0,0,0.125,12.65,0.0,0,0,0,0.0,12.65,0.0,0,0,0,0.125,12.700000000000001,0.0,0,0,0,kReverse,0.0,0.0,0.0,0.0,0.0,0.0,0.0,0.0,0.0,0.0,0.0,
77.031576,true,true,true,0.0,-0.0078125,0.0,-0.0078125,false,false,false,false,0.0,0.0,0.0,0.0,false,false,false,false,0.125,12.65,0.0,-5647,0,0,0.125,12.65,0.0,0,0,0,0.125,12.6,0.0,-5289,0,0,0.125,12.65,0.0,0,0,0,0.125,12.65,0.0,0,0,0,0.125,12.700000000000001,0.0,0,0,0,kReverse,0.0,0.0,0.0,0.0,0.0,0.0,0.0,0.0,0.0,0.0,0.0,
77.055197,true,true,true,0.0,-0.0078125,0.0,-0.0078125,false,false,false,false,0.0,0.0,0.0,0.0,false,false,false,false,0.125,12.65,0.0,-5647,0,0,0.125,12.65,0.0,0,0,0,0.125,12.6,0.0,-5289,0,0,0.125,12.65,0.0,0,0,0,0.125,12.65,0.0,0,0,0,0.125,12.700000000000001,0.0,0,0,0,kReverse,0.0,0.0,0.0,0.0,0.0,0.0,0.0,0.0,0.0,0.0,0.0,
77.07380500000001,true,true,true,0.0,-0.0078125,0.0,-0.0078125,false,false,false,false,0.0,0.0,0.0,0.0,false,false,false,false,0.125,12.65,0.0,-5647,0,0,0.125,12.65,0.0,0,0,0,0.125,12.6,0.0,-5289,0,0,0.125,12.65,0.0,0,0,0,0.125,12.65,0.0,0,0,0,0.125,12.700000000000001,0.0,0,0,0,kReverse,0.0,0.0,0.0,0.0,0.0,0.0,0.0,0.0,0.0,0.0,0.0,
77.10099500000001,true,true,true,0.0,-0.0078125,0.0,-0.0078125,false,false,false,false,0.0,0.0,0.0,0.0,false,false,false,false,0.125,12.65,0.0,-5647,0,0,0.125,12.65,0.0,0,0,0,0.125,12.6,0.0,-5289,0,0,0.125,12.65,0.0,0,0,0,0.125,12.65,0.0,0,0,0,0.125,12.700000000000001,0.0,0,0,0,kReverse,0.0,0.0,0.0,0.0,0.0,0.0,0.0,0.0,0.0,0.0,0.0,
77.124509,true,true,true,0.0,-0.0078125,0.0,-0.0078125,false,false,false,false,0.0,0.0,0.0,0.0,false,false,false,false,0.125,12.65,0.0,-5647,0,0,0.125,12.65,0.0,0,0,0,0.125,12.6,0.0,-5289,0,0,0.125,12.65,0.0,0,0,0,0.125,12.65,0.0,0,0,0,0.125,12.700000000000001,0.0,0,0,0,kReverse,0.0,0.0,0.0,0.0,0.0,0.0,0.0,0.0,0.0,0.0,0.0,
77.153742,true,true,true,0.0,-0.0078125,0.0,-0.0078125,false,false,false,false,0.0,0.0,0.0,0.0,false,false,false,false,0.125,12.65,0.0,-5647,0,0,0.125,12.65,0.0,0,0,0,0.125,12.6,0.0,-5289,0,0,0.125,12.65,0.0,0,0,0,0.0,12.65,0.0,0,0,0,0.125,12.700000000000001,0.0,0,0,0,kReverse,0.0,0.0,0.0,0.0,0.0,0.0,0.0,0.0,0.0,0.0,0.0,
77.19644600000001,true,true,true,0.0,-0.0078125,0.0,-0.0078125,false,false,false,false,0.0,0.0,0.0,0.0,false,false,false,false,0.125,12.65,0.0,-5647,0,0,0.125,12.65,0.0,0,0,0,0.125,12.6,0.0,-5289,0,0,0.125,12.65,0.0,0,0,0,0.0,12.65,0.0,0,0,0,0.125,12.700000000000001,0.0,0,0,0,kReverse,0.0,0.0,0.0,0.0,0.0,0.0,0.0,0.0,0.0,0.0,0.0,
77.225581,true,true,true,0.0,-0.0078125,0.0,-0.0078125,false,false,false,false,0.0,0.0,0.0,0.0,false,false,false,false,0.125,12.65,0.0,-5647,0,0,0.125,12.65,0.0,0,0,0,0.125,12.6,0.0,-5289,0,0,0.125,12.65,0.0,0,0,0,0.0,12.65,0.0,0,0,0,0.125,12.700000000000001,0.0,0,0,0,kReverse,0.0,0.0,0.0,0.0,0.0,0.0,0.0,0.0,0.0,0.0,0.0,
77.24949000000001,true,true,true,0.0,-0.0078125,0.0,-0.0078125,false,false,false,false,0.0,0.0,0.0,0.0,false,false,false,false,0.125,12.65,0.0,-5647,0,0,0.125,12.65,0.0,0,0,0,0.125,12.6,0.0,-5289,0,0,0.125,12.65,0.0,0,0,0,0.0,12.65,0.0,0,0,0,0.125,12.700000000000001,0.0,0,0,0,kReverse,0.0,0.0,0.0,0.0,0.0,0.0,0.0,0.0,0.0,0.0,0.0,
77.269884,true,true,true,0.0,-0.0078125,0.0,-0.0078125,false,false,false,false,0.0,0.0,0.0,0.0,false,false,false,false,0.125,12.65,0.0,-5647,0,0,0.125,12.65,0.0,0,0,0,0.125,12.6,0.0,-5289,0,0,0.125,12.65,0.0,0,0,0,0.0,12.65,0.0,0,0,0,0.125,12.700000000000001,0.0,0,0,0,kReverse,0.0,0.0,0.0,0.0,0.0,0.0,0.0,0.0,0.0,0.0,0.0,
77.29186200000001,true,true,true,0.0,-0.0078125,0.0,-0.0078125,false,false,false,false,0.0,0.0,0.0,0.0,false,false,false,false,0.125,12.65,0.0,-5647,0,0,0.125,12.65,0.0,0,0,0,0.125,12.6,0.0,-5289,0,0,0.125,12.65,0.0,0,0,0,0.0,12.65,0.0,0,0,0,0.125,12.700000000000001,0.0,0,0,0,kReverse,0.0,0.0,0.0,0.0,0.0,0.0,0.0,0.0,0.0,0.0,0.0,
77.312996,true,true,true,0.0,-0.0078125,0.0,-0.0078125,false,false,false,false,0.0,0.0,0.0,0.0,false,false,false,false,0.125,12.65,0.0,-5647,0,0,0.125,12.65,0.0,0,0,0,0.125,12.6,0.0,-5289,0,0,0.125,12.65,0.0,0,0,0,0.125,12.65,0.0,0,0,0,0.125,12.700000000000001,0.0,0,0,0,kReverse,0.0,0.0,0.0,0.0,0.0,0.0,0.0,0.0,0.0,0.0,0.0,
77.338728,true,true,true,0.0,-0.0078125,0.0,-0.0078125,false,false,false,false,0.0,0.0,0.0,0.0,false,false,false,false,0.125,12.65,0.0,-5647,0,0,0.125,12.65,0.0,0,0,0,0.125,12.65,0.0,-5289,0,0,0.125,12.65,0.0,0,0,0,0.125,12.65,0.0,0,0,0,0.125,12.700000000000001,0.0,0,0,0,kReverse,0.0,0.0,0.0,0.0,0.0,0.0,0.0,0.0,0.0,0.0,0.0,
77.36130800000001,true,true,true,0.0,-0.0078125,0.0,-0.0078125,false,false,false,false,0.0,0.0,0.0,0.0,false,false,false,false,0.125,12.65,0.0,-5647,0,0,0.125,12.65,0.0,0,0,0,0.125,12.65,0.0,-5289,0,0,0.125,12.65,0.0,0,0,0,0.125,12.65,0.0,0,0,0,0.125,12.700000000000001,0.0,0,0,0,kReverse,0.0,0.0,0.0,0.0,0.0,0.0,0.0,0.0,0.0,0.0,0.0,
77.384803,true,true,true,0.0,-0.0078125,0.0,-0.0078125,false,false,false,false,0.0,0.0,0.0,0.0,false,false,false,false,0.125,12.65,0.0,-5647,0,0,0.125,12.65,0.0,0,0,0,0.125,12.65,0.0,-5289,0,0,0.125,12.65,0.0,0,0,0,0.125,12.65,0.0,0,0,0,0.125,12.700000000000001,0.0,0,0,0,kReverse,0.0,0.0,0.0,0.0,0.0,0.0,0.0,0.0,0.0,0.0,0.0,
77.408133,true,true,true,0.0,-0.0078125,0.0,-0.0078125,false,false,false,false,0.0,0.0,0.0,0.0,false,false,false,false,0.125,12.65,0.0,-5647,0,0,0.125,12.65,0.0,0,0,0,0.125,12.65,0.0,-5289,0,0,0.125,12.65,0.0,0,0,0,0.125,12.65,0.0,0,0,0,0.125,12.700000000000001,0.0,0,0,0,kReverse,0.0,0.0,0.0,0.0,0.0,0.0,0.0,0.0,0.0,0.0,0.0,
77.430301,true,true,true,0.0,-0.0078125,0.0,-0.0078125,false,false,false,false,0.0,0.0,0.0,0.0,false,false,false,false,0.125,12.65,0.0,-5647,0,0,0.125,12.65,0.0,0,0,0,0.125,12.65,0.0,-5289,0,0,0.125,12.65,0.0,0,0,0,0.125,12.65,0.0,0,0,0,0.125,12.700000000000001,0.0,0,0,0,kReverse,0.0,0.0,0.0,0.0,0.0,0.0,0.0,0.0,0.0,0.0,0.0,
77.45155100000001,true,true,true,0.0,-0.0078125,0.0,-0.0078125,false,false,false,false,0.0,0.0,0.0,0.0,false,false,false,false,0.125,12.65,0.0,-5647,0,0,0.125,12.65,0.0,0,0,0,0.125,12.65,0.0,-5289,0,0,0.125,12.65,0.0,0,0,0,0.0,12.65,0.0,0,0,0,0.125,12.700000000000001,0.0,0,0,0,kReverse,0.0,0.0,0.0,0.0,0.0,0.0,0.0,0.0,0.0,0.0,0.0,
77.473111,true,true,true,0.0,-0.0078125,0.0,-0.0078125,false,false,false,false,0.0,0.0,0.0,0.0,false,false,false,false,0.125,12.65,0.0,-5647,0,0,0.125,12.65,0.0,0,0,0,0.125,12.65,0.0,-5289,0,0,0.125,12.65,0.0,0,0,0,0.0,12.65,0.0,0,0,0,0.125,12.700000000000001,0.0,0,0,0,kReverse,0.0,0.0,0.0,0.0,0.0,0.0,0.0,0.0,0.0,0.0,0.0,
77.503439,true,true,true,0.0,-0.0078125,0.0,-0.0078125,false,false,false,false,0.0,0.0,0.0,0.0,false,false,false,false,0.125,12.65,0.0,-5647,0,0,0.125,12.65,0.0,0,0,0,0.125,12.6,0.0,-5289,0,0,0.125,12.65,0.0,0,0,0,0.0,12.65,0.0,0,0,0,0.125,12.700000000000001,0.0,0,0,0,kReverse,0.0,0.0,0.0,0.0,0.0,0.0,0.0,0.0,0.0,0.0,0.0,
77.528474,true,true,true,0.0,-0.0078125,0.0,-0.0078125,false,false,false,false,0.0,0.0,0.0,0.0,false,false,false,false,0.125,12.65,0.0,-5647,0,0,0.125,12.65,0.0,0,0,0,0.125,12.6,0.0,-5289,0,0,0.125,12.65,0.0,0,0,0,0.0,12.65,0.0,0,0,0,0.125,12.700000000000001,0.0,0,0,0,kReverse,0.0,0.0,0.0,0.0,0.0,0.0,0.0,0.0,0.0,0.0,0.0,
77.550622,true,true,true,0.0,-0.0078125,0.0,-0.0078125,false,false,false,false,0.0,0.0,0.0,0.0,false,false,false,false,0.125,12.65,0.0,-5647,0,0,0.125,12.65,0.0,0,0,0,0.125,12.6,0.0,-5289,0,0,0.125,12.65,0.0,0,0,0,0.0,12.65,0.0,0,0,0,0.125,12.700000000000001,0.0,0,0,0,kReverse,0.0,0.0,0.0,0.0,0.0,0.0,0.0,0.0,0.0,0.0,0.0,
77.57199800000001,true,true,true,0.0,-0.0078125,0.0,-0.0078125,false,false,false,false,0.0,0.0,0.0,0.0,false,false,false,false,0.125,12.65,0.0,-5647,0,0,0.125,12.65,0.0,0,0,0,0.125,12.6,0.0,-5289,0,0,0.125,12.65,0.0,0,0,0,0.0,12.65,0.0,0,0,0,0.125,12.700000000000001,0.0,0,0,0,kReverse,0.0,0.0,0.0,0.0,0.0,0.0,0.0,0.0,0.0,0.0,0.0,
77.59695300000001,true,true,true,0.0,-0.0078125,0.0,-0.0078125,false,false,false,false,0.0,0.0,0.0,0.0,false,false,false,false,0.125,12.65,0.0,-5647,0,0,0.125,12.65,0.0,0,0,0,0.125,12.6,0.0,-5289,0,0,0.125,12.65,0.0,0,0,0,0.0,12.65,0.0,0,0,0,0.125,12.700000000000001,0.0,0,0,0,kReverse,0.0,0.0,0.0,0.0,0.0,0.0,0.0,0.0,0.0,0.0,0.0,
77.61860300000001,true,true,true,0.0,-0.0078125,0.0,-0.0078125,false,false,false,false,0.0,0.0,0.0,0.0,false,false,false,false,0.125,12.65,0.0,-5647,0,0,0.125,12.65,0.0,0,0,0,0.125,12.6,0.0,-5289,0,0,0.125,12.65,0.0,0,0,0,0.0,12.65,0.0,0,0,0,0.125,12.700000000000001,0.0,0,0,0,kReverse,0.0,0.0,0.0,0.0,0.0,0.0,0.0,0.0,0.0,0.0,0.0,
77.641769,true,true,true,0.0,-0.0078125,0.0,-0.0078125,false,false,false,false,0.0,0.0,0.0,0.0,false,false,false,false,0.125,12.65,0.0,-5647,0,0,0.125,12.65,0.0,0,0,0,0.125,12.6,0.0,-5289,0,0,0.125,12.65,0.0,0,0,0,0.0,12.65,0.0,0,0,0,0.125,12.700000000000001,0.0,0,0,0,kReverse,0.0,0.0,0.0,0.0,0.0,0.0,0.0,0.0,0.0,0.0,0.0,
77.669295,true,true,true,0.0,-0.0078125,0.0,-0.0078125,false,false,false,false,0.0,0.0,0.0,0.0,false,false,false,false,0.125,12.65,0.0,-5647,0,0,0.125,12.65,0.0,0,0,0,0.125,12.6,0.0,-5289,0,0,0.125,12.65,0.0,0,0,0,0.0,12.65,0.0,0,0,0,0.125,12.700000000000001,0.0,0,0,0,kReverse,0.0,0.0,0.0,0.0,0.0,0.0,0.0,0.0,0.0,0.0,0.0,
77.697254,true,true,true,0.0,-0.0078125,0.0,-0.0078125,false,false,false,false,0.0,0.0,0.0,0.0,false,false,false,false,0.125,12.65,0.0,-5647,0,0,0.125,12.65,0.0,0,0,0,0.125,12.6,0.0,-5289,0,0,0.125,12.65,0.0,0,0,0,0.125,12.65,0.0,0,0,0,0.125,12.700000000000001,0.0,0,0,0,kReverse,0.0,0.0,0.0,0.0,0.0,0.0,0.0,0.0,0.0,0.0,0.0,
77.718995,true,true,true,0.0,-0.0078125,0.0,-0.0078125,false,false,false,false,0.0,0.0,0.0,0.0,false,false,false,false,0.125,12.65,0.0,-5647,0,0,0.125,12.65,0.0,0,0,0,0.125,12.6,0.0,-5289,0,0,0.125,12.65,0.0,0,0,0,0.125,12.65,0.0,0,0,0,0.125,12.700000000000001,0.0,0,0,0,kReverse,0.0,0.0,0.0,0.0,0.0,0.0,0.0,0.0,0.0,0.0,0.0,
77.74396300000001,true,true,true,0.0,-0.0078125,0.0,-0.0078125,false,false,false,false,0.0,0.0,0.0,0.0,false,false,false,false,0.125,12.65,0.0,-5647,0,0,0.125,12.65,0.0,0,0,0,0.125,12.6,0.0,-5289,0,0,0.125,12.65,0.0,0,0,0,0.125,12.65,0.0,0,0,0,0.125,12.700000000000001,0.0,0,0,0,kReverse,0.0,0.0,0.0,0.0,0.0,0.0,0.0,0.0,0.0,0.0,0.0,
77.769867,true,true,true,0.0,-0.0078125,0.0,-0.0078125,false,false,false,false,0.0,0.0,0.0,0.0,false,false,false,false,0.125,12.65,0.0,-5647,0,0,0.125,12.65,0.0,0,0,0,0.125,12.6,0.0,-5289,0,0,0.125,12.65,0.0,0,0,0,0.0,12.65,0.0,0,0,0,0.125,12.700000000000001,0.0,0,0,0,kReverse,0.0,0.0,0.0,0.0,0.0,0.0,0.0,0.0,0.0,0.0,0.0,
77.79086600000001,true,true,true,0.0,-0.0078125,0.0,-0.0078125,false,false,false,false,0.0,0.0,0.0,0.0,false,false,false,false,0.125,12.65,0.0,-5647,0,0,0.125,12.65,0.0,0,0,0,0.125,12.6,0.0,-5289,0,0,0.125,12.65,0.0,0,0,0,0.125,12.65,0.0,0,0,0,0.125,12.700000000000001,0.0,0,0,0,kReverse,0.0,0.0,0.0,0.0,0.0,0.0,0.0,0.0,0.0,0.0,0.0,
77.815693,true,true,true,0.0,-0.0078125,0.0,-0.0078125,false,false,false,false,0.0,0.0,0.0,0.0,false,false,false,false,0.125,12.65,0.0,-5647,0,0,0.125,12.65,0.0,0,0,0,0.125,12.65,0.0,-5289,0,0,0.125,12.65,0.0,0,0,0,0.125,12.65,0.0,0,0,0,0.125,12.700000000000001,0.0,0,0,0,kReverse,0.0,0.0,0.0,0.0,0.0,0.0,0.0,0.0,0.0,0.0,0.0,
77.83903500000001,true,true,true,0.0,-0.0078125,0.0,-0.0078125,false,false,false,false,0.0,0.0,0.0,0.0,false,false,false,false,0.125,12.65,0.0,-5647,0,0,0.125,12.65,0.0,0,0,0,0.125,12.65,0.0,-5289,0,0,0.125,12.65,0.0,0,0,0,0.0,12.65,0.0,0,0,0,0.125,12.700000000000001,0.0,0,0,0,kReverse,0.0,0.0,0.0,0.0,0.0,0.0,0.0,0.0,0.0,0.0,0.0,
77.862478,true,true,true,0.0,-0.0078125,0.0,-0.0078125,false,false,false,false,0.0,0.0,0.0,0.0,false,false,false,false,0.125,12.65,0.0,-5647,0,0,0.125,12.65,0.0,0,0,0,0.125,12.65,0.0,-5289,0,0,0.125,12.65,0.0,0,0,0,0.0,12.65,0.0,0,0,0,0.125,12.700000000000001,0.0,0,0,0,kReverse,0.0,0.0,0.0,0.0,0.0,0.0,0.0,0.0,0.0,0.0,0.0,
77.88722,true,true,true,0.0,-0.0078125,0.0,-0.0078125,false,false,false,false,0.0,0.0,0.0,0.0,false,false,false,false,0.125,12.65,0.0,-5647,0,0,0.125,12.65,0.0,0,0,0,0.125,12.65,0.0,-5289,0,0,0.125,12.65,0.0,0,0,0,0.0,12.65,0.0,0,0,0,0.125,12.700000000000001,0.0,0,0,0,kReverse,0.0,0.0,0.0,0.0,0.0,0.0,0.0,0.0,0.0,0.0,0.0,
77.909897,true,true,true,0.0,-0.0078125,0.0,-0.0078125,false,false,false,false,0.0,0.0,0.0,0.0,false,false,false,false,0.125,12.65,0.0,-5647,0,0,0.125,12.65,0.0,0,0,0,0.125,12.65,0.0,-5289,0,0,0.125,12.65,0.0,0,0,0,0.0,12.65,0.0,0,0,0,0.125,12.700000000000001,0.0,0,0,0,kReverse,0.0,0.0,0.0,0.0,0.0,0.0,0.0,0.0,0.0,0.0,0.0,
77.931932,true,true,true,0.0,-0.0078125,0.0,-0.0078125,false,false,false,false,0.0,0.0,0.0,0.0,false,false,false,false,0.125,12.65,0.0,-5647,0,0,0.125,12.65,0.0,0,0,0,0.125,12.65,0.0,-5289,0,0,0.125,12.65,0.0,0,0,0,0.0,12.65,0.0,0,0,0,0.125,12.700000000000001,0.0,0,0,0,kReverse,0.0,0.0,0.0,0.0,0.0,0.0,0.0,0.0,0.0,0.0,0.0,
77.954536,true,true,true,0.0,-0.0078125,0.0,-0.0078125,false,false,false,false,0.0,0.0,0.0,0.0,false,false,false,false,0.125,12.65,0.0,-5647,0,0,0.125,12.65,0.0,0,0,0,0.125,12.65,0.0,-5289,0,0,0.125,12.65,0.0,0,0,0,0.0,12.65,0.0,0,0,0,0.125,12.700000000000001,0.0,0,0,0,kReverse,0.0,0.0,0.0,0.0,0.0,0.0,0.0,0.0,0.0,0.0,0.0,
77.98203500000001,true,true,true,0.0,-0.0078125,0.0,-0.0078125,false,false,false,false,0.0,0.0,0.0,0.0,false,false,false,false,0.125,12.65,0.0,-5647,0,0,0.125,12.65,0.0,0,0,0,0.125,12.65,0.0,-5289,0,0,0.125,12.65,0.0,0,0,0,0.0,12.65,0.0,0,0,0,0.125,12.700000000000001,0.0,0,0,0,kReverse,0.0,0.0,0.0,0.0,0.0,0.0,0.0,0.0,0.0,0.0,0.0,
78.003068,true,true,true,0.0,-0.0078125,0.0,-0.0078125,false,false,false,false,0.0,0.0,0.0,0.0,false,false,false,false,0.125,12.65,0.0,-5647,0,0,0.125,12.65,0.0,0,0,0,0.125,12.65,0.0,-5289,0,0,0.125,12.65,0.0,0,0,0,0.0,12.65,0.0,0,0,0,0.125,12.700000000000001,0.0,0,0,0,kReverse,0.0,0.0,0.0,0.0,0.0,0.0,0.0,0.0,0.0,0.0,0.0,
78.026576,true,true,true,0.0,-0.0078125,0.0,-0.0078125,false,false,false,false,0.0,0.0,0.0,0.0,false,false,false,false,0.125,12.65,0.0,-5647,0,0,0.125,12.65,0.0,0,0,0,0.125,12.65,0.0,-5289,0,0,0.125,12.65,0.0,0,0,0,0.0,12.65,0.0,0,0,0,0.125,12.700000000000001,0.0,0,0,0,kReverse,0.0,0.0,0.0,0.0,0.0,0.0,0.0,0.0,0.0,0.0,0.0,
78.048091,true,true,true,0.0,-0.0078125,0.0,-0.0078125,false,false,false,false,0.0,0.0,0.0,0.0,false,false,false,false,0.125,12.65,0.0,-5647,0,0,0.125,12.65,0.0,0,0,0,0.125,12.65,0.0,-5289,0,0,0.125,12.65,0.0,0,0,0,0.0,12.65,0.0,0,0,0,0.125,12.700000000000001,0.0,0,0,0,kReverse,0.0,0.0,0.0,0.0,0.0,0.0,0.0,0.0,0.0,0.0,0.0,
78.070249,true,true,true,0.0,-0.0078125,0.0,-0.0078125,false,false,false,false,0.0,0.0,0.0,0.0,false,false,false,false,0.125,12.65,0.0,-5647,0,0,0.125,12.65,0.0,0,0,0,0.125,12.65,0.0,-5289,0,0,0.125,12.65,0.0,0,0,0,0.0,12.65,0.0,0,0,0,0.125,12.700000000000001,0.0,0,0,0,kReverse,0.0,0.0,0.0,0.0,0.0,0.0,0.0,0.0,0.0,0.0,0.0,
78.092386,true,true,true,0.0,-0.0078125,0.0,-0.0078125,false,false,false,false,0.0,0.0,0.0,0.0,false,false,false,false,0.125,12.65,0.0,-5647,0,0,0.125,12.65,0.0,0,0,0,0.125,12.65,0.0,-5289,0,0,0.125,12.65,0.0,0,0,0,0.0,12.65,0.0,0,0,0,0.125,12.700000000000001,0.0,0,0,0,kReverse,0.0,0.0,0.0,0.0,0.0,0.0,0.0,0.0,0.0,0.0,0.0,
78.11611900000001,true,true,true,0.0,-0.0078125,0.0,-0.0078125,false,false,false,false,0.0,0.0,0.0,0.0,false,false,false,false,0.125,12.65,0.0,-5647,0,0,0.125,12.65,0.0,0,0,0,0.125,12.65,0.0,-5289,0,0,0.125,12.65,0.0,0,0,0,0.0,12.65,0.0,0,0,0,0.125,12.700000000000001,0.0,0,0,0,kReverse,0.0,0.0,0.0,0.0,0.0,0.0,0.0,0.0,0.0,0.0,0.0,
78.138792,true,true,true,0.0,-0.0078125,0.0,-0.0078125,false,false,false,false,0.0,0.0,0.0,0.0,false,false,false,false,0.125,12.65,0.0,-5647,0,0,0.125,12.65,0.0,0,0,0,0.125,12.6,0.0,-5289,0,0,0.125,12.65,0.0,0,0,0,0.0,12.65,0.0,0,0,0,0.125,12.700000000000001,0.0,0,0,0,kReverse,0.0,0.0,0.0,0.0,0.0,0.0,0.0,0.0,0.0,0.0,0.0,
78.172607,true,true,true,0.0,-0.0078125,0.0,-0.0078125,false,false,false,false,0.0,0.0,0.0,0.0,false,false,false,false,0.125,12.65,0.0,-5647,0,0,0.125,12.65,0.0,0,0,0,0.125,12.6,0.0,-5289,0,0,0.125,12.65,0.0,0,0,0,0.0,12.65,0.0,0,0,0,0.125,12.700000000000001,0.0,0,0,0,kReverse,0.0,0.0,0.0,0.0,0.0,0.0,0.0,0.0,0.0,0.0,0.0,
78.209096,true,true,true,0.0,-0.0078125,0.0,-0.0078125,false,false,false,false,0.0,0.0,0.0,0.0,false,false,false,false,0.125,12.65,0.0,-5647,0,0,0.125,12.65,0.0,0,0,0,0.125,12.6,0.0,-5289,0,0,0.125,12.65,0.0,0,0,0,0.0,12.65,0.0,0,0,0,0.125,12.700000000000001,0.0,0,0,0,kReverse,0.0,0.0,0.0,0.0,0.0,0.0,0.0,0.0,0.0,0.0,0.0,
78.234244,true,true,true,0.0,-0.0078125,0.0,-0.0078125,false,false,false,false,0.0,0.0,0.0,0.0,false,false,false,false,0.125,12.65,0.0,-5647,0,0,0.125,12.65,0.0,0,0,0,0.125,12.6,0.0,-5289,0,0,0.125,12.65,0.0,0,0,0,0.0,12.65,0.0,0,0,0,0.125,12.700000000000001,0.0,0,0,0,kReverse,0.0,0.0,0.0,0.0,0.0,0.0,0.0,0.0,0.0,0.0,0.0,
78.25530200000001,true,true,true,0.0,-0.0078125,0.0,-0.0078125,false,false,false,false,0.0,0.0,0.0,0.0,false,false,false,false,0.125,12.65,0.0,-5647,0,0,0.125,12.65,0.0,0,0,0,0.125,12.6,0.0,-5289,0,0,0.125,12.65,0.0,0,0,0,0.0,12.65,0.0,0,0,0,0.125,12.700000000000001,0.0,0,0,0,kReverse,0.0,0.0,0.0,0.0,0.0,0.0,0.0,0.0,0.0,0.0,0.0,
78.28252900000001,true,true,true,0.0,-0.0078125,0.0,-0.0078125,false,false,false,false,0.0,0.0,0.0,0.0,false,false,false,false,0.125,12.65,0.0,-5647,0,0,0.125,12.65,0.0,0,0,0,0.125,12.65,0.0,-5289,0,0,0.125,12.65,0.0,0,0,0,0.0,12.65,0.0,0,0,0,0.125,12.700000000000001,0.0,0,0,0,kReverse,0.0,0.0,0.0,0.0,0.0,0.0,0.0,0.0,0.0,0.0,0.0,
78.30808900000001,true,true,true,0.0,-0.0078125,0.0,-0.0078125,false,false,false,false,0.0,0.0,0.0,0.0,false,false,false,false,0.125,12.65,0.0,-5647,0,0,0.125,12.65,0.0,0,0,0,0.125,12.65,0.0,-5289,0,0,0.125,12.65,0.0,0,0,0,0.0,12.65,0.0,0,0,0,0.125,12.700000000000001,0.0,0,0,0,kReverse,0.0,0.0,0.0,0.0,0.0,0.0,0.0,0.0,0.0,0.0,0.0,
78.32884700000001,true,true,true,0.0,-0.0078125,0.0,-0.0078125,false,false,false,false,0.0,0.0,0.0,0.0,false,false,false,false,0.125,12.65,0.0,-5647,0,0,0.125,12.65,0.0,0,0,0,0.125,12.65,0.0,-5289,0,0,0.125,12.65,0.0,0,0,0,0.0,12.65,0.0,0,0,0,0.125,12.700000000000001,0.0,0,0,0,kReverse,0.0,0.0,0.0,0.0,0.0,0.0,0.0,0.0,0.0,0.0,0.0,
78.35085900000001,true,true,true,0.0,-0.0078125,0.0,-0.0078125,false,false,false,false,0.0,0.0,0.0,0.0,false,false,false,false,0.125,12.65,0.0,-5647,0,0,0.125,12.65,0.0,0,0,0,0.125,12.65,0.0,-5289,0,0,0.125,12.65,0.0,0,0,0,0.0,12.65,0.0,0,0,0,0.125,12.700000000000001,0.0,0,0,0,kReverse,0.0,0.0,0.0,0.0,0.0,0.0,0.0,0.0,0.0,0.0,0.0,
78.372459,true,true,true,0.0,-0.0078125,0.0,-0.0078125,false,false,false,false,0.0,0.0,0.0,0.0,false,false,false,false,0.125,12.65,0.0,-5647,0,0,0.125,12.65,0.0,0,0,0,0.125,12.65,0.0,-5289,0,0,0.125,12.65,0.0,0,0,0,0.0,12.65,0.0,0,0,0,0.125,12.700000000000001,0.0,0,0,0,kReverse,0.0,0.0,0.0,0.0,0.0,0.0,0.0,0.0,0.0,0.0,0.0,
78.40498000000001,true,true,true,0.0,-0.0078125,0.0,-0.0078125,false,false,false,false,0.0,0.0,0.0,0.0,false,false,false,false,0.125,12.65,0.0,-5647,0,0,0.125,12.65,0.0,0,0,0,0.125,12.65,0.0,-5289,0,0,0.125,12.65,0.0,0,0,0,0.125,12.65,0.0,0,0,0,0.125,12.700000000000001,0.0,0,0,0,kReverse,0.0,0.0,0.0,0.0,0.0,0.0,0.0,0.0,0.0,0.0,0.0,
78.42821400000001,true,true,true,0.0,-0.0078125,0.0,-0.0078125,false,false,false,false,0.0,0.0,0.0,0.0,false,false,false,false,0.125,12.65,0.0,-5647,0,0,0.125,12.65,0.0,0,0,0,0.125,12.65,0.0,-5289,0,0,0.125,12.65,0.0,0,0,0,0.125,12.65,0.0,0,0,0,0.125,12.700000000000001,0.0,0,0,0,kReverse,0.0,0.0,0.0,0.0,0.0,0.0,0.0,0.0,0.0,0.0,0.0,
78.449194,true,true,true,0.0,-0.0078125,0.0,-0.0078125,false,false,false,false,0.0,0.0,0.0,0.0,false,false,false,false,0.125,12.65,0.0,-5647,0,0,0.125,12.65,0.0,0,0,0,0.125,12.65,0.0,-5289,0,0,0.125,12.65,0.0,0,0,0,0.0,12.65,0.0,0,0,0,0.125,12.700000000000001,0.0,0,0,0,kReverse,0.0,0.0,0.0,0.0,0.0,0.0,0.0,0.0,0.0,0.0,0.0,
78.471444,true,true,true,0.0,-0.0078125,0.0,-0.0078125,false,false,false,false,0.0,0.0,0.0,0.0,false,false,false,false,0.125,12.65,0.0,-5647,0,0,0.125,12.65,0.0,0,0,0,0.125,12.65,0.0,-5289,0,0,0.125,12.65,0.0,0,0,0,0.125,12.65,0.0,0,0,0,0.125,12.700000000000001,0.0,0,0,0,kReverse,0.0,0.0,0.0,0.0,0.0,0.0,0.0,0.0,0.0,0.0,0.0,
