timer,lineLeft,lineCenter,lineRight,driverLeftX,driverLeftY,driverRightX,driverRightY,driverA,driverB,driverX,driverY,operatorLeftX,operatorLeftY,operatorRightX,operatorRightY,operatorA,operatorB,operatorX,operatorY,LeftFrontCurrent,LeftFrontVoltage,LeftFrontValue,LeftFrontPosition,LeftFrontVelocity,LeftFrontFaults,LeftRearCurrent,LeftRearVoltage,LeftRearValue,LeftRearPosition,LeftRearVelocity,LeftRearFaults,RightFrontCurrent,RightFrontVoltage,RightFrontValue,RightFrontPosition,RightFrontVelocity,RightFrontFaults,RightRearCurrent,RightRearVoltage,RightRearValue,RightRearPosition,RightRearVelocity,RightRearFaults,LiftCurrent,LiftVoltage,LiftValue,LiftPosition,LiftVelocity,LiftFaults,RollerCurrent,RollerVoltage,RollerValue,RollerPosition,RollerVelocity,RollerFaults,PushersState,navx_Pitch,navx_Roll,navx_Yaw,navx_XAcc,navx_YAcc,navx_ZAcc,navx_Temp,navx_Bar,navx_Alt,navx_XDis,navx_YDis,
43.87041800000001,true,true,true,0.0,-0.0078125,0.0,-0.0078125,false,false,false,false,0.0,0.0,0.0,0.0,false,false,false,false,0.0,12.35,0.0,0,0,0,0.125,12.4,0.0,0,0,0,0.0,12.35,0.0,0,0,0,0.0,12.35,0.0,0,0,0,0.0,12.450000000000001,0.0,0,0,0,0.0,4.0,0.0,0,0,0,kReverse,0.0,0.0,0.0,0.0,0.0,0.0,0.0,0.0,0.0,0.0,0.0,
44.075672000000004,true,true,true,0.0,-0.0078125,0.0,-0.0078125,false,false,false,false,0.0,0.0,0.0,0.0,false,false,false,false,0.0,12.35,0.0,0,0,0,0.125,12.35,0.0,0,0,0,0.0,12.35,0.0,0,0,0,0.0,12.35,0.0,0,0,0,0.0,12.4,0.0,0,0,0,0.0,4.0,0.0,0,0,0,kReverse,0.0,0.0,0.0,0.0,0.0,0.0,0.0,0.0,0.0,0.0,0.0,
44.282632,true,true,true,0.0,-0.0078125,0.0,-0.0078125,false,false,false,false,0.0,0.0,0.0,0.0,false,false,false,false,0.0,12.35,0.0,0,0,0,0.125,12.35,0.0,0,0,0,0.0,12.35,0.0,0,0,0,0.0,12.35,0.0,0,0,0,0.0,12.4,0.0,0,0,0,0.0,4.0,0.0,0,0,0,kReverse,0.0,0.0,0.0,0.0,0.0,0.0,0.0,0.0,0.0,0.0,0.0,
44.471883,true,true,true,0.0,-0.0078125,0.0,-0.0078125,false,false,false,false,0.0,0.0,0.0,0.0,false,false,false,false,0.0,12.35,0.0,0,0,0,0.125,12.35,0.0,0,0,0,0.0,12.35,0.0,0,0,0,0.0,12.35,0.0,0,0,0,0.0,12.4,0.0,0,0,0,0.0,4.0,0.0,0,0,0,kReverse,0.0,0.0,0.0,0.0,0.0,0.0,0.0,0.0,0.0,0.0,0.0,
44.63172599999999,true,true,true,0.0,-0.0078125,0.0,-0.0078125,false,false,false,false,0.0,0.0,0.0,0.0,false,false,false,false,0.0,12.35,0.0,0,0,0,0.125,12.35,0.0,0,0,0,0.0,12.35,0.0,0,0,0,0.0,12.35,0.0,0,0,0,0.0,12.4,0.0,0,0,0,0.0,4.0,0.0,0,0,0,kReverse,0.0,0.0,0.0,0.0,0.0,0.0,0.0,0.0,0.0,0.0,0.0,
44.693543000000005,true,true,true,0.0,-0.0078125,0.0,-0.0078125,false,false,false,false,0.0,0.0,0.0,0.0,false,false,false,false,0.0,12.35,0.0,0,0,0,0.125,12.35,0.0,0,0,0,0.0,12.35,0.0,0,0,0,0.0,12.35,0.0,0,0,0,0.0,12.4,0.0,0,0,0,0.0,4.0,0.0,0,0,0,kReverse,0.0,0.0,0.0,0.0,0.0,0.0,0.0,0.0,0.0,0.0,0.0,
44.784282999999995,true,true,true,0.0,-0.0078125,0.0,-0.0078125,false,false,false,false,0.0,0.0,0.0,0.0,false,false,false,false,0.0,12.35,0.0,0,0,0,0.125,12.35,0.0,0,0,0,0.0,12.35,0.0,0,0,0,0.0,12.35,0.0,0,0,0,0.0,12.4,0.0,0,0,0,0.0,4.0,0.0,0,0,0,kReverse,0.0,0.0,0.0,0.0,0.0,0.0,0.0,0.0,0.0,0.0,0.0,
44.894187,true,true,true,0.0,-0.0078125,0.0,-0.0078125,false,false,false,false,0.0,0.0,0.0,0.0,false,false,false,false,0.0,12.35,0.0,0,0,0,0.125,12.35,0.0,0,0,0,0.0,12.35,0.0,0,0,0,0.0,12.35,0.0,0,0,0,0.0,12.4,0.0,0,0,0,0.0,4.0,0.0,0,0,0,kReverse,0.0,0.0,0.0,0.0,0.0,0.0,0.0,0.0,0.0,0.0,0.0,
44.976468999999994,true,true,true,0.0,-0.0078125,0.0,-0.0078125,false,false,false,false,0.0,0.0,0.0,0.0,false,false,false,false,0.0,12.3,0.0,0,0,0,0.125,12.35,0.0,0,0,0,0.0,12.35,0.0,0,0,0,0.0,12.35,0.0,0,0,0,0.0,12.4,0.0,0,0,0,0.0,4.0,0.0,0,0,0,kReverse,0.0,0.0,0.0,0.0,0.0,0.0,0.0,0.0,0.0,0.0,0.0,
45.134375,true,true,true,0.0,-0.0078125,0.0,-0.0078125,false,false,false,false,0.0,0.0,0.0,0.0,false,false,false,false,0.0,12.3,0.0,0,0,0,0.125,12.35,0.0,0,0,0,0.0,12.35,0.0,0,0,0,0.0,12.3,0.0,0,0,0,0.0,12.4,0.0,0,0,0,0.0,4.0,0.0,0,0,0,kReverse,0.0,0.0,0.0,0.0,0.0,0.0,0.0,0.0,0.0,0.0,0.0,
45.250854000000004,true,true,true,0.0,-0.0078125,0.0,-0.0078125,false,false,false,false,0.0,0.0,0.0,0.0,false,false,false,false,0.0,12.3,0.0,0,0,0,0.125,12.35,0.0,0,0,0,0.0,12.3,0.0,0,0,0,0.0,12.3,0.0,0,0,0,0.0,12.4,0.0,0,0,0,0.0,4.0,0.0,0,0,0,kReverse,0.0,0.0,0.0,0.0,0.0,0.0,0.0,0.0,0.0,0.0,0.0,
45.465520000000005,true,true,true,0.0,-0.0078125,0.0,-0.0078125,false,false,false,false,0.0,0.0,0.0,0.0,false,false,false,false,0.0,12.3,0.0,0,0,0,0.125,12.35,0.0,0,0,0,0.0,12.3,0.0,0,0,0,0.0,12.3,0.0,0,0,0,0.0,12.4,0.0,0,0,0,0.0,4.0,0.0,0,0,0,kReverse,0.0,0.0,0.0,0.0,0.0,0.0,0.0,0.0,0.0,0.0,0.0,
45.57186599999999,true,true,true,0.0,-0.0078125,0.0,-0.0078125,false,false,false,false,0.0,0.0,0.0,0.0,false,false,false,false,0.0,12.3,0.0,0,0,0,0.125,12.3,0.0,0,0,0,0.0,12.3,0.0,0,0,0,0.0,12.3,0.0,0,0,0,0.0,12.4,0.0,0,0,0,0.0,4.0,0.0,0,0,0,kReverse,0.0,0.0,0.0,0.0,0.0,0.0,0.0,0.0,0.0,0.0,0.0,
45.636155,true,true,true,0.0,-0.0078125,0.0,-0.0078125,false,false,false,false,0.0,0.0,0.0,0.0,false,false,false,false,0.0,12.3,0.0,0,0,0,0.125,12.3,0.0,0,0,0,0.0,12.3,0.0,0,0,0,0.0,12.3,0.0,0,0,0,0.0,12.4,0.0,0,0,0,0.0,4.0,0.0,0,0,0,kReverse,0.0,0.0,0.0,0.0,0.0,0.0,0.0,0.0,0.0,0.0,0.0,
45.700740999999994,true,true,true,0.0,-0.0078125,0.0,-0.0078125,false,false,false,false,0.0,0.0,0.0,0.0,false,false,false,false,0.0,12.3,0.0,0,0,0,0.125,12.3,0.0,0,0,0,0.0,12.3,0.0,0,0,0,0.0,12.3,0.0,0,0,0,0.0,12.4,0.0,0,0,0,0.0,4.0,0.0,0,0,0,kReverse,0.0,0.0,0.0,0.0,0.0,0.0,0.0,0.0,0.0,0.0,0.0,
45.794565000000006,true,true,true,0.0,-0.0078125,0.0,-0.0078125,false,true,false,false,0.0,0.0,0.0,0.0,false,false,false,false,0.0,12.3,0.0,0,0,0,0.125,12.3,0.0,0,0,0,0.0,12.3,0.0,0,0,0,0.0,12.3,0.0,0,0,0,0.0,12.35,0.0,0,0,0,0.0,4.0,0.0,0,0,0,kReverse,0.0,0.0,0.0,0.0,0.0,0.0,0.0,0.0,0.0,0.0,0.0,
46.018386,true,true,true,0.0,-0.0078125,0.0,-0.0078125,false,true,false,false,0.0,0.0,0.0,0.0,false,false,false,false,0.0,12.3,0.0,0,0,0,0.125,12.3,0.0,0,0,0,0.0,12.3,0.0,0,0,0,0.0,12.25,0.0,0,0,0,0.0,12.35,0.0,0,0,0,0.0,4.0,0.0,0,0,0,kReverse,0.0,0.0,0.0,0.0,0.0,0.0,0.0,0.0,0.0,0.0,0.0,
46.251487999999995,true,true,true,0.0,-0.0078125,0.0,-0.0078125,false,true,false,false,0.0,0.0,0.0,0.0,false,false,false,false,0.0,12.25,0.0,0,0,0,0.125,12.3,0.0,0,0,0,0.0,12.3,0.0,0,0,0,0.0,12.25,0.0,0,0,0,0.0,12.35,0.0,0,0,0,0.0,4.0,0.0,0,0,0,kReverse,0.0,0.0,0.0,0.0,0.0,0.0,0.0,0.0,0.0,0.0,0.0,
46.45082300000001,true,true,true,0.0,-0.0078125,0.0,-0.0078125,false,true,false,false,0.0,0.0,0.0,0.0,false,false,false,false,0.0,12.25,0.0,0,0,0,0.125,12.3,0.0,0,0,0,0.0,12.25,0.0,0,0,0,0.0,12.25,0.0,0,0,0,0.0,12.35,0.0,0,0,0,0.0,4.0,0.0,0,0,0,kReverse,0.0,0.0,0.0,0.0,0.0,0.0,0.0,0.0,0.0,0.0,0.0,
46.678270999999995,true,true,true,0.4015747904777527,-1.0,0.0,-0.0078125,false,true,false,false,0.0,0.0,0.0,0.0,false,false,false,false,0.0,12.25,0.0,0,0,0,5.25,11.3,0.0,0,0,0,3.125,11.3,0.0,0,0,0,5.0,11.4,0.0,0,0,0,0.0,11.5,0.0,0,0,0,0.0,4.0,0.0,0,0,0,kReverse,0.0,0.0,0.0,0.0,0.0,0.0,0.0,0.0,0.0,0.0,0.0,
46.835057,true,true,true,0.4015747904777527,-1.0,0.0,-0.0078125,false,true,false,false,0.0,0.0,0.0,0.0,false,false,false,false,0.625,11.8,0.0,484,337,0,1.625,11.850000000000001,0.0,0,0,0,1.875,11.8,0.0,0,0,0,0.0,11.8,0.0,0,0,0,0.0,11.9,0.0,0,0,0,0.0,4.0,0.0,0,0,0,kReverse,0.0,0.0,0.0,0.0,0.0,0.0,0.0,0.0,0.0,0.0,0.0,
46.99524099999999,true,true,true,0.0,-0.0078125,0.0,-0.0078125,false,true,false,false,0.0,0.0,0.0,0.0,false,false,false,false,0.0,11.8,0.0,918,366,0,1.0,11.850000000000001,0.0,0,0,0,1.0,11.8,0.0,0,0,0,0.0,11.850000000000001,0.0,0,0,0,0.0,11.95,0.0,0,0,0,0.0,4.0,0.0,0,0,0,kReverse,0.0,0.0,0.0,0.0,0.0,0.0,0.0,0.0,0.0,0.0,0.0,
47.069834,true,true,true,0.0,-0.0078125,0.0,-0.0078125,false,true,false,false,0.0,0.0,0.0,0.0,false,false,false,false,0.0,11.850000000000001,0.0,1204,359,0,0.125,11.850000000000001,0.0,0,0,0,0.0,11.850000000000001,0.0,0,0,0,0.0,11.850000000000001,0.0,0,0,0,0.0,11.95,0.0,0,0,0,0.0,4.0,0.0,0,0,0,kReverse,0.0,0.0,0.0,0.0,0.0,0.0,0.0,0.0,0.0,0.0,0.0,
47.13904399999999,true,true,true,0.0,-0.0078125,0.0,-0.0078125,false,true,false,false,0.0,0.0,0.0,0.0,false,false,false,false,0.0,11.850000000000001,0.0,1443,306,0,0.125,11.850000000000001,0.0,0,0,0,0.0,11.850000000000001,0.0,0,0,0,0.0,11.850000000000001,0.0,0,0,0,0.0,12.3,0.0,0,0,0,0.0,4.0,0.0,0,0,0,kReverse,0.0,0.0,0.0,0.0,0.0,0.0,0.0,0.0,0.0,0.0,0.0,
47.23431299999999,true,true,true,0.0,-0.0078125,0.0,-0.0078125,false,true,false,false,0.0,0.0,0.0,0.0,false,false,false,false,0.0,12.25,0.0,1642,255,0,0.125,12.25,0.0,0,0,0,0.0,12.25,0.0,0,0,0,0.0,12.25,0.0,0,0,0,0.0,12.3,0.0,0,0,0,0.0,4.0,0.0,0,0,0,kReverse,0.0,0.0,0.0,0.0,0.0,0.0,0.0,0.0,0.0,0.0,0.0,
47.305012000000005,true,true,true,0.0,0.5590550899505615,0.0,-0.0078125,false,true,false,false,0.0,0.0,0.0,0.0,false,false,false,false,0.0,12.25,0.0,1794,198,0,0.125,12.25,0.0,0,0,0,0.0,12.25,0.0,0,0,0,0.0,12.25,0.0,0,0,0,0.0,12.3,0.0,0,0,0,0.0,4.0,0.0,0,0,0,kReverse,0.0,0.0,0.0,0.0,0.0,0.0,0.0,0.0,0.0,0.0,0.0,
47.372481,true,true,true,0.0,1.0,0.0,-0.0078125,false,true,false,false,0.0,0.0,0.0,0.0,false,false,false,false,5.5,11.350000000000001,0.0,1831,108,0,5.75,11.5,0.0,0,0,0,8.875,11.5,0.0,0,0,0,4.75,11.5,0.0,0,0,0,0.0,11.65,0.0,0,0,0,0.0,4.0,0.0,0,0,0,kReverse,0.0,0.0,0.0,0.0,0.0,0.0,0.0,0.0,0.0,0.0,0.0,
47.54478999999999,true,true,true,0.0,-0.046875,0.0,-0.0078125,false,false,false,false,0.0,0.0,0.0,0.0,false,false,false,false,0.0,10.850000000000001,0.0,1405,-308,0,1.125,10.850000000000001,0.0,0,0,0,1.375,10.9,0.0,0,0,0,0.0,10.850000000000001,0.0,0,0,0,0.0,11.0,0.0,0,0,0,0.0,4.0,0.0,0,0,0,kReverse,0.0,0.0,0.0,0.0,0.0,0.0,0.0,0.0,0.0,0.0,0.0,
47.600107,true,true,true,0.0,-0.046875,0.0,-0.0078125,false,false,false,false,0.0,0.0,0.0,0.0,false,false,false,false,0.0,10.850000000000001,0.0,1140,-332,0,0.125,10.850000000000001,0.0,0,0,0,0.125,10.9,0.0,0,0,0,0.0,10.850000000000001,0.0,0,0,0,0.0,11.0,0.0,0,0,0,0.0,4.0,0.0,0,0,0,kReverse,0.0,0.0,0.0,0.0,0.0,0.0,0.0,0.0,0.0,0.0,0.0,
47.694917000000004,true,true,true,0.0,-0.046875,0.0,-0.0078125,false,false,false,false,0.0,0.0,0.0,0.0,false,false,false,false,0.0,11.05,0.0,910,-293,0,0.125,11.100000000000001,0.0,0,0,0,0.0,11.100000000000001,0.0,0,0,0,0.0,11.100000000000001,0.0,0,0,0,0.0,11.15,0.0,0,0,0,0.0,4.0,0.0,0,0,0,kReverse,0.0,0.0,0.0,0.0,0.0,0.0,0.0,0.0,0.0,0.0,0.0,
47.755486000000005,true,true,true,0.0,-0.046875,0.0,-0.0078125,false,false,false,false,0.0,0.0,0.0,0.0,false,false,false,false,0.0,11.05,0.0,766,-241,0,0.125,11.100000000000001,0.0,0,0,0,0.0,11.100000000000001,0.0,0,0,0,0.0,11.100000000000001,0.0,0,0,0,0.0,11.15,0.0,0,0,0,0.0,4.0,0.0,0,0,0,kReverse,0.0,0.0,0.0,0.0,0.0,0.0,0.0,0.0,0.0,0.0,0.0,
47.827873000000004,true,true,true,0.0,-0.046875,0.0,-0.0078125,false,false,false,false,0.0,0.0,0.0,0.0,false,false,false,false,0.0,11.55,0.0,610,-200,0,0.125,11.55,0.0,0,0,0,0.0,11.55,0.0,0,0,0,0.0,11.55,0.0,0,0,0,0.0,11.600000000000001,0.0,0,0,0,0.0,4.0,0.0,0,0,0,kReverse,0.0,0.0,0.0,0.0,0.0,0.0,0.0,0.0,0.0,0.0,0.0,
47.87563800000001,true,true,true,0.0,-0.046875,0.0,-0.0078125,false,false,false,false,0.0,0.0,0.0,0.0,false,false,false,false,0.0,11.55,0.0,547,-176,0,0.125,11.55,0.0,0,0,0,0.0,11.55,0.0,0,0,0,0.0,11.55,0.0,0,0,0,0.0,11.600000000000001,0.0,0,0,0,0.0,4.0,0.0,0,0,0,kReverse,0.0,0.0,0.0,0.0,0.0,0.0,0.0,0.0,0.0,0.0,0.0,
48.003725,true,true,true,0.0,-0.046875,0.0,-0.0078125,false,false,false,false,0.0,0.0,0.0,0.0,false,false,false,false,0.0,12.05,0.0,401,-92,0,0.125,12.05,0.0,0,0,0,0.0,12.05,0.0,0,0,0,0.0,12.0,0.0,0,0,0,0.0,12.1,0.0,0,0,0,0.0,4.0,0.0,0,0,0,kReverse,0.0,0.0,0.0,0.0,0.0,0.0,0.0,0.0,0.0,0.0,0.0,
48.183221,true,true,true,0.0,-0.046875,0.0,-0.0078125,false,false,false,false,0.0,0.0,0.0,0.0,false,false,false,false,0.0,12.1,0.0,340,-24,0,0.125,12.1,0.0,0,0,0,0.0,12.1,0.0,0,0,0,0.0,12.1,0.0,0,0,0,0.0,12.200000000000001,0.0,0,0,0,0.0,4.0,0.0,0,0,0,kReverse,0.0,0.0,0.0,0.0,0.0,0.0,0.0,0.0,0.0,0.0,0.0,
48.331348,true,true,true,0.0,-0.046875,0.0,-0.0078125,false,false,false,false,0.0,0.0,0.0,0.0,false,false,false,false,0.0,12.1,0.0,337,0,0,0.125,12.1,0.0,0,0,0,0.0,12.1,0.0,0,0,0,0.0,12.1,0.0,0,0,0,0.0,12.200000000000001,0.0,0,0,0,0.0,4.0,0.0,0,0,0,kReverse,0.0,0.0,0.0,0.0,0.0,0.0,0.0,0.0,0.0,0.0,0.0,
48.493494999999996,true,true,true,0.0,-0.046875,0.0,-0.0078125,false,false,false,false,0.0,0.0,0.0,0.0,false,false,false,false,0.0,12.1,0.0,337,0,0,0.125,12.1,0.0,0,0,0,0.0,12.1,0.0,0,0,0,0.0,12.1,0.0,0,0,0,0.0,12.200000000000001,0.0,0,0,0,0.0,4.0,0.0,0,0,0,kReverse,0.0,0.0,0.0,0.0,0.0,0.0,0.0,0.0,0.0,0.0,0.0,
48.59017600000001,true,true,true,0.0,-0.046875,0.0,-0.0078125,false,false,false,false,0.0,0.0,0.0,0.0,false,false,false,false,0.0,12.1,0.0,337,0,0,0.125,12.15,0.0,0,0,0,0.0,12.15,0.0,0,0,0,0.0,12.15,0.0,0,0,0,0.0,12.200000000000001,0.0,0,0,0,0.0,4.0,0.0,0,0,0,kReverse,0.0,0.0,0.0,0.0,0.0,0.0,0.0,0.0,0.0,0.0,0.0,
48.804745,true,true,true,0.0,-0.046875,0.0,-0.0078125,false,false,false,false,0.0,0.0,0.0,0.0,false,false,false,false,0.0,12.15,0.0,337,0,0,0.125,12.15,0.0,0,0,0,0.0,12.15,0.0,0,0,0,0.0,12.15,0.0,0,0,0,0.0,12.200000000000001,0.0,0,0,0,0.0,4.0,0.0,0,0,0,kReverse,0.0,0.0,0.0,0.0,0.0,0.0,0.0,0.0,0.0,0.0,0.0,
48.969194,true,true,true,0.0,-0.046875,0.0,-0.0078125,false,false,false,false,0.0,0.0,0.0,0.0,false,false,false,false,0.0,12.15,0.0,337,0,0,0.125,12.15,0.0,0,0,0,0.0,12.15,0.0,0,0,0,0.0,12.1,0.0,0,0,0,0.0,12.200000000000001,0.0,0,0,0,0.0,4.0,0.0,0,0,0,kReverse,0.0,0.0,0.0,0.0,0.0,0.0,0.0,0.0,0.0,0.0,0.0,
49.132726,true,true,true,0.0,-0.046875,0.0,-0.0078125,false,false,false,false,0.0,0.0,0.0,0.0,false,false,false,false,0.0,12.15,0.0,337,0,0,0.125,12.15,0.0,0,0,0,0.0,12.15,0.0,0,0,0,0.0,12.15,0.0,0,0,0,0.0,12.200000000000001,0.0,0,0,0,0.0,4.0,0.0,0,0,0,kReverse,0.0,0.0,0.0,0.0,0.0,0.0,0.0,0.0,0.0,0.0,0.0,
49.275594,true,true,true,0.0,-0.046875,0.0,-0.0078125,false,false,false,false,0.0,0.0,0.0,0.0,false,false,false,false,0.0,12.15,0.0,337,0,0,0.125,12.15,0.0,0,0,0,0.0,12.15,0.0,0,0,0,0.0,12.15,0.0,0,0,0,0.0,12.200000000000001,0.0,0,0,0,0.0,4.0,0.0,0,0,0,kReverse,0.0,0.0,0.0,0.0,0.0,0.0,0.0,0.0,0.0,0.0,0.0,
49.392614,true,true,true,0.0,-0.046875,0.0,-0.0078125,false,false,false,false,0.0,0.0,0.0,0.0,false,false,false,false,0.0,12.15,0.0,337,0,0,0.125,12.15,0.0,0,0,0,0.0,12.15,0.0,0,0,0,0.0,12.15,0.0,0,0,0,0.0,12.25,0.0,0,0,0,0.0,4.0,0.0,0,0,0,kReverse,0.0,0.0,0.0,0.0,0.0,0.0,0.0,0.0,0.0,0.0,0.0,
49.440130999999994,true,true,true,0.0,-0.046875,0.0,-0.0078125,false,false,false,false,0.0,0.0,0.0,0.0,false,false,false,false,0.0,12.15,0.0,337,0,0,0.125,12.15,0.0,0,0,0,0.0,12.15,0.0,0,0,0,0.0,12.15,0.0,0,0,0,0.0,12.25,0.0,0,0,0,0.0,4.0,0.0,0,0,0,kReverse,0.0,0.0,0.0,0.0,0.0,0.0,0.0,0.0,0.0,0.0,0.0,
49.47883,true,true,true,0.0,-0.046875,0.0,-0.0078125,false,false,false,false,0.0,0.0,0.0,0.0,false,false,false,false,0.0,12.15,0.0,337,0,0,0.125,12.15,0.0,0,0,0,0.0,12.15,0.0,0,0,0,0.0,12.15,0.0,0,0,0,0.0,12.25,0.0,0,0,0,0.0,4.0,0.0,0,0,0,kReverse,0.0,0.0,0.0,0.0,0.0,0.0,0.0,0.0,0.0,0.0,0.0,
49.611886,true,true,true,0.0,-0.046875,0.0,-0.0078125,false,false,false,false,0.0,0.0,0.0,0.0,false,false,false,false,0.0,12.15,0.0,337,0,0,0.125,12.15,0.0,0,0,0,0.0,12.15,0.0,0,0,0,0.0,12.15,0.0,0,0,0,0.0,12.200000000000001,0.0,0,0,0,0.0,4.0,0.0,0,0,0,kReverse,0.0,0.0,0.0,0.0,0.0,0.0,0.0,0.0,0.0,0.0,0.0,
49.747289,true,true,true,0.0,-0.046875,0.0,-0.0078125,false,false,false,false,0.0,0.0,0.0,0.0,false,false,false,false,0.0,12.15,0.0,337,0,0,0.125,12.15,0.0,0,0,0,0.0,12.15,0.0,0,0,0,0.0,12.15,0.0,0,0,0,0.0,12.200000000000001,0.0,0,0,0,0.0,4.0,0.0,0,0,0,kReverse,0.0,0.0,0.0,0.0,0.0,0.0,0.0,0.0,0.0,0.0,0.0,
49.821692999999996,true,true,true,0.0,-0.046875,0.0,-0.0078125,false,false,false,false,0.0,0.0,0.0,0.0,false,false,false,false,0.0,12.15,0.0,337,0,0,0.125,12.15,0.0,0,0,0,0.0,12.15,0.0,0,0,0,0.0,12.15,0.0,0,0,0,0.0,12.200000000000001,0.0,0,0,0,0.0,4.0,0.0,0,0,0,kReverse,0.0,0.0,0.0,0.0,0.0,0.0,0.0,0.0,0.0,0.0,0.0,
49.874534,true,true,true,0.0,-0.046875,0.0,-0.0078125,false,false,false,false,0.0,0.0,0.0,0.0,false,false,false,false,0.0,12.15,0.0,338,1,0,0.125,12.15,0.0,0,0,0,0.0,12.15,0.0,0,0,0,0.0,12.15,0.0,0,0,0,0.0,12.200000000000001,0.0,0,0,0,0.0,4.0,0.0,0,0,0,kReverse,0.0,0.0,0.0,0.0,0.0,0.0,0.0,0.0,0.0,0.0,0.0,
49.975636,true,true,true,0.0,-0.046875,0.0,-0.0078125,false,false,false,false,0.0,0.0,0.0,0.0,false,false,false,false,0.0,12.15,0.0,338,0,0,0.125,12.15,0.0,0,0,0,0.0,12.15,0.0,0,0,0,0.0,12.15,0.0,0,0,0,0.0,12.200000000000001,0.0,0,0,0,0.0,4.0,0.0,0,0,0,kReverse,0.0,0.0,0.0,0.0,0.0,0.0,0.0,0.0,0.0,0.0,0.0,
50.141841,true,true,true,0.0,-0.046875,0.0,-0.0078125,false,false,false,false,0.0,0.0,0.0,0.0,false,false,false,false,0.0,12.15,0.0,338,0,0,0.125,12.15,0.0,0,0,0,0.0,12.15,0.0,0,0,0,0.0,12.15,0.0,0,0,0,0.0,12.25,0.0,0,0,0,0.0,4.0,0.0,0,0,0,kReverse,0.0,0.0,0.0,0.0,0.0,0.0,0.0,0.0,0.0,0.0,0.0,
50.265564,true,true,true,0.0,-0.046875,0.0,-0.0078125,false,false,false,false,0.0,0.0,0.0,0.0,false,false,false,false,0.0,12.15,0.0,338,0,0,0.125,12.15,0.0,0,0,0,0.0,12.15,0.0,0,0,0,0.0,12.15,0.0,0,0,0,0.0,12.25,0.0,0,0,0,0.0,4.0,0.0,0,0,0,kReverse,0.0,0.0,0.0,0.0,0.0,0.0,0.0,0.0,0.0,0.0,0.0,
50.371761,true,true,true,0.0,-0.046875,0.0,-0.0078125,false,false,false,false,0.0,0.0,0.0,0.0,false,false,false,false,0.0,12.15,0.0,338,0,0,0.125,12.15,0.0,0,0,0,0.0,12.15,0.0,0,0,0,0.0,12.15,0.0,0,0,0,0.0,12.25,0.0,0,0,0,0.0,4.0,0.0,0,0,0,kReverse,0.0,0.0,0.0,0.0,0.0,0.0,0.0,0.0,0.0,0.0,0.0,
50.451412,true,true,true,0.0,-0.046875,0.0,-0.0078125,false,false,false,false,0.0,0.0,0.0,0.0,false,false,false,false,0.0,12.15,0.0,338,0,0,0.125,12.15,0.0,0,0,0,0.0,12.15,0.0,0,0,0,0.0,12.15,0.0,0,0,0,0.0,12.25,0.0,0,0,0,0.0,4.0,0.0,0,0,0,kReverse,0.0,0.0,0.0,0.0,0.0,0.0,0.0,0.0,0.0,0.0,0.0,
50.623262000000004,true,true,true,0.0,-0.046875,0.0,-0.0078125,false,false,false,false,0.0,0.0,0.0,0.0,false,false,false,false,0.0,12.15,0.0,338,0,0,0.125,12.15,0.0,0,0,0,0.0,12.15,0.0,0,0,0,0.0,12.15,0.0,0,0,0,0.0,12.25,0.0,0,0,0,0.0,4.0,0.0,0,0,0,kReverse,0.0,0.0,0.0,0.0,0.0,0.0,0.0,0.0,0.0,0.0,0.0,
50.71923699999999,true,true,true,0.0,-0.046875,0.0,-0.0078125,false,false,false,false,0.0,0.0,0.0,0.0,false,false,false,false,0.0,12.15,0.0,338,0,0,0.125,12.200000000000001,0.0,0,0,0,0.0,12.15,0.0,0,0,0,0.0,12.15,0.0,0,0,0,0.0,12.25,0.0,0,0,0,0.0,4.0,0.0,0,0,0,kReverse,0.0,0.0,0.0,0.0,0.0,0.0,0.0,0.0,0.0,0.0,0.0,
50.874038,true,true,true,0.0,-0.046875,0.0,-0.0078125,false,false,false,false,0.0,0.0,0.0,0.0,false,false,false,false,0.0,12.15,0.0,338,0,0,0.125,12.200000000000001,0.0,0,0,0,0.0,12.15,0.0,0,0,0,0.0,12.15,0.0,0,0,0,0.0,12.200000000000001,0.0,0,0,0,0.0,4.0,0.0,0,0,0,kReverse,0.0,0.0,0.0,0.0,0.0,0.0,0.0,0.0,0.0,0.0,0.0,
