timer,lineLeft,lineCenter,lineRight,driverLeftX,driverLeftY,driverRightX,driverRightY,driverA,driverB,driverX,driverY,operatorLeftX,operatorLeftY,operatorRightX,operatorRightY,operatorA,operatorB,operatorX,operatorY,LeftFrontCurrent,LeftFrontVoltage,LeftFrontValue,LeftFrontPosition,LeftFrontVelocity,LeftFrontFaults,LeftRearCurrent,LeftRearVoltage,LeftRearValue,LeftRearPosition,LeftRearVelocity,LeftRearFaults,RightFrontCurrent,RightFrontVoltage,RightFrontValue,RightFrontPosition,RightFrontVelocity,RightFrontFaults,RightRearCurrent,RightRearVoltage,RightRearValue,RightRearPosition,RightRearVelocity,RightRearFaults,LiftCurrent,LiftVoltage,LiftValue,LiftPosition,LiftVelocity,LiftFaults,RollerCurrent,RollerVoltage,RollerValue,RollerPosition,RollerVelocity,RollerFaults,PushersState,navx_Pitch,navx_Roll,navx_Yaw,navx_XAcc,navx_YAcc,navx_ZAcc,navx_Temp,navx_Bar,navx_Alt,navx_XDis,navx_YDis,
163.803167,true,true,true,0.0,0.031496062874794006,0.0,-0.0078125,false,false,false,false,0.0,-0.0078125,0.0,-0.0078125,false,false,false,false,0.0,12.8,0.0,11063,0,0,0.125,12.85,0.0,0,0,0,0.0,12.8,0.0,0,0,0,0.0,12.8,0.0,0,0,0,0.0,12.9,0.0,2,0,0,0.0,4.0,0.0,0,0,0,kReverse,0.0,0.0,0.0,0.0,0.0,0.0,0.0,0.0,0.0,0.0,0.0,
163.962943,true,true,true,0.0,0.031496062874794006,0.0,-0.0078125,false,false,false,false,0.0,-0.0078125,0.0,-0.0078125,false,false,false,false,0.0,12.8,0.0,11063,0,0,0.125,12.85,0.0,0,0,0,0.0,12.85,0.0,0,0,0,0.0,12.8,0.0,0,0,0,0.0,12.9,0.0,2,0,0,0.0,4.0,0.0,0,0,0,kReverse,0.0,0.0,0.0,0.0,0.0,0.0,0.0,0.0,0.0,0.0,0.0,
164.01143100000002,true,true,true,0.0,0.031496062874794006,0.0,-0.0078125,false,false,false,false,0.0,-0.0078125,0.0,-0.0078125,false,false,false,false,0.0,12.85,0.0,11063,0,0,0.125,12.85,0.0,0,0,0,0.0,12.85,0.0,0,0,0,0.0,12.8,0.0,0,0,0,0.0,12.9,0.0,2,0,0,0.0,4.0,0.0,0,0,0,kReverse,0.0,0.0,0.0,0.0,0.0,0.0,0.0,0.0,0.0,0.0,0.0,
164.04561900000002,true,true,true,0.0,0.031496062874794006,0.0,-0.0078125,false,false,false,false,0.0,-0.0078125,0.0,-0.0078125,false,false,false,false,0.0,12.85,0.0,11063,0,0,0.125,12.85,0.0,0,0,0,0.0,12.85,0.0,0,0,0,0.0,12.8,0.0,0,0,0,0.0,12.9,0.0,2,0,0,0.0,4.0,0.0,0,0,0,kReverse,0.0,0.0,0.0,0.0,0.0,0.0,0.0,0.0,0.0,0.0,0.0,
164.11262900000003,true,true,true,0.0,0.031496062874794006,0.0,-0.0078125,false,false,false,false,0.0,-0.0078125,0.0,-0.0078125,false,false,false,false,0.0,12.85,0.0,11063,0,0,0.125,12.85,0.0,0,0,0,0.0,12.85,0.0,0,0,0,0.0,12.8,0.0,0,0,0,0.0,12.9,0.0,2,0,0,0.0,4.0,0.0,0,0,0,kReverse,0.0,0.0,0.0,0.0,0.0,0.0,0.0,0.0,0.0,0.0,0.0,
164.19642800000003,true,true,true,0.0,0.031496062874794006,0.0,-0.0078125,false,false,false,false,0.0,-0.0078125,0.0,-0.0078125,false,false,false,false,0.0,12.85,0.0,11063,0,0,0.125,12.85,0.0,0,0,0,0.0,12.85,0.0,0,0,0,0.0,12.8,0.0,0,0,0,0.0,12.9,0.0,2,0,0,0.0,4.0,0.0,0,0,0,kReverse,0.0,0.0,0.0,0.0,0.0,0.0,0.0,0.0,0.0,0.0,0.0,
164.246155,true,true,true,0.0,0.031496062874794006,0.0,-0.0078125,false,false,false,false,0.0,-0.0078125,0.0,-0.0078125,false,false,false,false,0.0,12.85,0.0,11063,0,0,0.125,12.85,0.0,0,0,0,0.0,12.85,0.0,0,0,0,0.0,12.8,0.0,0,0,0,0.0,12.9,0.0,2,0,0,0.0,4.0,0.0,0,0,0,kReverse,0.0,0.0,0.0,0.0,0.0,0.0,0.0,0.0,0.0,0.0,0.0,
164.29514200000003,true,true,true,0.0,0.031496062874794006,0.0,-0.0078125,false,false,false,false,0.0,-0.0078125,0.0,-0.0078125,false,false,false,false,0.0,12.85,0.0,11063,0,0,0.125,12.85,0.0,0,0,0,0.0,12.85,0.0,0,0,0,0.0,12.85,0.0,0,0,0,0.0,12.9,0.0,2,0,0,0.0,4.0,0.0,0,0,0,kReverse,0.0,0.0,0.0,0.0,0.0,0.0,0.0,0.0,0.0,0.0,0.0,
164.41351,true,true,true,0.0,-0.890625,0.0,-0.0078125,false,false,false,false,0.0,-0.0078125,0.0,-0.0078125,false,false,false,false,0.0,12.85,0.0,11063,0,0,1.375,12.85,0.0,0,0,0,1.625,12.85,0.0,0,0,0,1.5,12.85,0.0,0,0,0,0.0,12.9,0.0,2,0,0,0.0,4.0,0.0,0,0,0,kReverse,0.0,0.0,0.0,0.0,0.0,0.0,0.0,0.0,0.0,0.0,0.0,
164.525701,true,true,true,0.0,-1.0,0.0,-0.0078125,false,false,false,false,0.0,-0.0078125,0.0,-0.0078125,false,false,false,false,6.125,12.05,0.0,11101,38,0,8.25,12.05,0.0,0,0,0,6.625,12.05,0.0,0,0,0,10.125,12.05,0.0,0,0,0,0.0,12.15,0.0,2,0,0,0.0,4.0,0.0,0,0,0,kReverse,0.0,0.0,0.0,0.0,0.0,0.0,0.0,0.0,0.0,0.0,0.0,
164.606534,true,true,true,0.0,-1.0,0.0,-0.0078125,false,false,false,false,0.0,-0.0078125,0.0,-0.0078125,false,false,false,false,43.75,12.05,0.0,11155,59,0,52.625,12.05,0.0,0,0,0,42.125,12.05,0.0,0,0,0,40.5,12.05,0.0,0,0,0,0.0,8.25,0.0,2,0,0,0.0,4.0,0.0,0,0,0,kReverse,0.0,0.0,0.0,0.0,0.0,0.0,0.0,0.0,0.0,0.0,0.0,
164.664114,true,true,true,0.0,-1.0,0.0,-0.0078125,false,false,false,false,0.0,-0.0078125,0.0,-0.0078125,false,false,false,false,37.625,7.75,0.0,11260,146,0,47.25,7.95,0.0,0,0,0,36.25,7.95,0.0,0,0,0,35.875,7.9,0.0,0,0,0,0.0,8.25,0.0,2,0,0,0.0,4.0,0.0,0,0,0,kReverse,0.0,0.0,0.0,0.0,0.0,0.0,0.0,0.0,0.0,0.0,0.0,
164.71475400000003,true,true,true,0.0,-1.0,0.0,-0.0078125,false,false,false,false,0.0,-0.0078125,0.0,-0.0078125,false,false,false,false,34.625,7.75,0.0,11349,194,0,43.125,7.95,0.0,0,0,0,33.875,7.95,0.0,0,0,0,31.5,7.9,0.0,0,0,0,0.0,8.25,0.0,2,0,0,0.0,4.0,0.0,0,0,0,kReverse,0.0,0.0,0.0,0.0,0.0,0.0,0.0,0.0,0.0,0.0,0.0,
164.782421,true,true,true,0.0,-1.0,0.0,-0.0078125,false,false,false,false,0.0,-0.0078125,0.0,-0.0078125,false,false,false,false,30.375,7.75,0.0,11499,239,0,36.0,9.15,0.0,0,0,0,30.0,9.100000000000001,0.0,0,0,0,24.0,9.100000000000001,0.0,0,0,0,0.0,9.4,0.0,2,0,0,0.0,4.0,0.0,0,0,0,kReverse,0.0,0.0,0.0,0.0,0.0,0.0,0.0,0.0,0.0,0.0,0.0,
164.973012,true,true,true,0.0,-1.0,0.0,-0.0078125,false,false,false,false,0.0,-0.0078125,0.0,-0.0078125,false,false,false,false,18.625,9.850000000000001,0.0,12208,384,0,24.625,10.0,0.0,0,0,0,21.375,9.95,0.0,0,0,0,16.125,9.95,0.0,0,0,0,0.0,10.2,0.0,2,0,0,0.0,4.0,0.0,0,0,0,kReverse,0.0,0.0,0.0,0.0,0.0,0.0,0.0,0.0,0.0,0.0,0.0,
165.073482,true,true,true,0.0,-1.0,0.0,-0.0078125,false,false,false,false,0.0,-0.0078125,0.0,-0.0078125,false,false,false,false,15.75,9.850000000000001,0.0,12626,418,0,20.875,10.0,0.0,0,0,0,18.125,9.95,0.0,0,0,0,13.5,9.95,0.0,0,0,0,0.0,10.2,0.0,2,0,0,0.0,4.0,0.0,0,0,0,kReverse,0.0,0.0,0.0,0.0,0.0,0.0,0.0,0.0,0.0,0.0,0.0,
165.151003,true,true,true,0.0,-1.0,0.0,-0.0078125,false,false,false,false,0.0,-0.0078125,0.0,-0.0078125,false,false,false,false,13.625,10.350000000000001,0.0,12984,443,0,19.0,10.45,0.0,0,0,0,16.5,10.45,0.0,0,0,0,11.625,10.5,0.0,0,0,0,0.0,10.65,0.0,2,0,0,0.0,4.0,0.0,0,0,0,kReverse,0.0,0.0,0.0,0.0,0.0,0.0,0.0,0.0,0.0,0.0,0.0,
165.23477400000002,true,true,true,0.0,-1.0,0.31496062874794006,-0.0078125,false,false,false,false,0.0,-0.0078125,0.0,-0.0078125,false,false,false,false,12.125,10.350000000000001,0.0,13359,466,0,17.5,10.45,0.0,0,0,0,15.375,10.45,0.0,0,0,0,9.875,10.5,0.0,0,0,0,0.0,10.65,0.0,2,0,0,0.0,4.0,0.0,0,0,0,kReverse,0.0,0.0,0.0,0.0,0.0,0.0,0.0,0.0,0.0,0.0,0.0,
165.31203200000002,true,true,true,0.0,-1.0,0.9212598204612732,-0.0078125,false,false,false,false,0.0,-0.0078125,0.0,-0.0078125,false,false,false,false,10.0,10.65,0.0,13757,492,256,15.375,10.7,0.0,0,0,0,6.0,10.7,0.0,0,0,0,8.875,10.7,0.0,0,0,0,0.0,10.9,0.0,2,0,0,0.0,4.0,0.0,0,0,0,kReverse,0.0,0.0,0.0,0.0,0.0,0.0,0.0,0.0,0.0,0.0,0.0,
165.406754,true,true,true,0.0,-1.0,0.24409449100494385,-0.0078125,false,false,false,false,0.0,-0.0078125,0.0,-0.0078125,false,false,false,false,14.125,10.65,0.0,14257,500,256,19.75,10.7,0.0,0,0,0,0.125,10.7,0.0,0,0,0,0.0,10.7,0.0,0,0,0,0.0,11.45,0.0,2,0,0,0.0,4.0,0.0,0,0,0,kReverse,0.0,0.0,0.0,0.0,0.0,0.0,0.0,0.0,0.0,0.0,0.0,
165.469038,true,true,true,0.0,-1.0,0.0,-0.0078125,false,false,false,false,0.0,-0.0078125,0.0,-0.0078125,false,false,false,false,12.125,11.15,0.0,14540,477,256,18.0,11.25,0.0,0,0,0,0.0,11.4,0.0,0,0,0,0.0,11.350000000000001,0.0,0,0,0,0.0,11.45,0.0,2,0,0,0.0,4.0,0.0,0,0,0,kReverse,0.0,0.0,0.0,0.0,0.0,0.0,0.0,0.0,0.0,0.0,0.0,
165.51674000000003,true,true,true,0.0,-1.0,0.0,-0.0078125,false,false,false,false,0.0,-0.0078125,0.0,-0.0078125,false,false,false,false,1.75,11.15,0.0,14873,520,256,4.375,11.25,0.0,0,0,0,33.125,11.4,0.0,0,0,0,26.875,11.350000000000001,0.0,0,0,0,0.0,11.45,0.0,2,0,0,0.0,4.0,0.0,0,0,0,kReverse,0.0,0.0,0.0,0.0,0.0,0.0,0.0,0.0,0.0,0.0,0.0,
165.614127,true,true,true,0.0,-1.0,0.0,-0.0078125,false,false,false,false,0.0,-0.0078125,0.0,-0.0078125,false,false,false,false,8.75,10.5,0.0,15261,501,256,13.75,10.5,0.0,0,0,0,19.625,10.45,0.0,0,0,0,15.0,10.45,0.0,0,0,0,0.0,10.7,0.0,2,0,0,0.0,4.0,0.0,0,0,0,kReverse,0.0,0.0,0.0,0.0,0.0,0.0,0.0,0.0,0.0,0.0,0.0,
165.69361,true,true,true,0.0,-1.0,0.0,-0.0078125,false,false,false,false,0.0,-0.0078125,0.0,-0.0078125,false,false,false,false,9.5,10.5,0.0,15668,503,256,11.125,10.5,0.0,0,0,0,15.25,10.45,0.0,0,0,0,10.5,10.45,0.0,0,0,0,0.0,10.7,0.0,2,0,0,0.0,4.0,0.0,0,0,0,kReverse,0.0,0.0,0.0,0.0,0.0,0.0,0.0,0.0,0.0,0.0,0.0,
165.79637300000002,true,true,true,0.0,-1.0,-0.5,-0.0078125,false,false,false,false,0.0,-0.0078125,0.0,-0.0078125,false,false,false,false,10.375,11.05,0.0,16165,497,256,14.0,11.15,0.0,0,0,0,16.5,11.15,0.0,0,0,0,10.625,11.2,0.0,0,0,0,0.0,11.3,0.0,2,0,0,0.0,4.0,0.0,0,0,0,kReverse,0.0,0.0,0.0,0.0,0.0,0.0,0.0,0.0,0.0,0.0,0.0,
165.865875,true,true,true,0.0,-1.0,-1.0,-0.0078125,false,false,false,false,0.0,-0.0078125,0.0,-0.0078125,false,false,false,false,1.75,11.05,0.0,16511,439,256,3.375,11.15,0.0,0,0,0,16.75,11.15,0.0,0,0,0,11.125,11.2,0.0,0,0,0,0.0,11.3,0.0,2,0,0,0.0,4.0,0.0,0,0,0,kReverse,0.0,0.0,0.0,0.0,0.0,0.0,0.0,0.0,0.0,0.0,0.0,
165.97340499999999,true,true,true,0.0,-1.0,0.0,-0.0078125,false,false,false,false,0.0,-0.0078125,0.0,-0.0078125,false,false,false,false,0.0,11.600000000000001,0.0,16946,435,0,0.125,11.65,0.0,0,0,0,13.5,11.5,0.0,0,0,0,8.25,11.55,0.0,0,0,0,0.0,11.7,0.0,2,0,0,0.0,4.0,0.0,0,0,0,kReverse,0.0,0.0,0.0,0.0,0.0,0.0,0.0,0.0,0.0,0.0,0.0,
166.06820000000002,true,true,true,0.0,-1.0,0.0,-0.0078125,false,false,false,false,0.0,-0.0078125,0.0,-0.0078125,false,false,false,false,9.25,10.850000000000001,0.0,17443,493,0,13.625,10.95,0.0,0,0,0,11.375,10.95,0.0,0,0,0,8.75,11.0,0.0,0,0,0,0.0,11.100000000000001,0.0,2,0,0,0.0,4.0,0.0,0,0,0,kReverse,0.0,0.0,0.0,0.0,0.0,0.0,0.0,0.0,0.0,0.0,0.0,
166.149243,true,true,true,0.0,-1.0,0.0,-0.0078125,false,false,false,false,0.0,-0.0078125,0.0,-0.0078125,false,false,false,false,10.0,10.850000000000001,0.0,17842,504,0,14.5,10.95,0.0,0,0,0,10.625,10.95,0.0,0,0,0,8.75,11.0,0.0,0,0,0,0.0,11.100000000000001,0.0,2,0,0,0.0,4.0,0.0,0,0,0,kReverse,0.0,0.0,0.0,0.0,0.0,0.0,0.0,0.0,0.0,0.0,0.0,
166.234158,true,true,true,0.0,-1.0,0.0,-0.0078125,false,false,false,false,0.0,-0.0078125,0.0,-0.0078125,false,false,false,false,8.5,11.100000000000001,0.0,18257,510,256,12.875,11.15,0.0,0,0,0,10.5,11.15,0.0,0,0,0,8.75,11.15,0.0,0,0,0,0.0,11.3,0.0,2,0,0,0.0,4.0,0.0,0,0,0,kReverse,0.0,0.0,0.0,0.0,0.0,0.0,0.0,0.0,0.0,0.0,0.0,
166.312563,true,true,true,0.0,-1.0,0.0,-0.0078125,false,false,false,false,0.0,-0.0078125,0.0,-0.0078125,false,false,false,false,9.0,11.100000000000001,0.0,18673,524,256,12.0,11.15,0.0,0,0,0,10.25,11.15,0.0,0,0,0,8.875,11.15,0.0,0,0,0,0.0,11.3,0.0,2,0,0,0.0,4.0,0.0,0,0,0,kReverse,0.0,0.0,0.0,0.0,0.0,0.0,0.0,0.0,0.0,0.0,0.0,
166.385973,true,true,true,0.0,-1.0,0.0,-0.0078125,false,false,false,false,0.0,-0.0078125,0.0,-0.0078125,false,false,false,false,9.5,11.2,0.0,19102,538,256,11.375,11.25,0.0,0,0,0,10.0,11.25,0.0,0,0,0,8.875,11.25,0.0,0,0,0,0.0,11.4,0.0,2,0,0,0.0,4.0,0.0,0,0,0,kReverse,0.0,0.0,0.0,0.0,0.0,0.0,0.0,0.0,0.0,0.0,0.0,
166.437621,true,true,true,0.0,-1.0,0.0,-0.0078125,false,false,false,false,0.0,-0.0078125,0.0,-0.0078125,false,false,false,false,9.75,11.2,0.0,19324,544,256,11.0,11.25,0.0,0,0,0,10.125,11.25,0.0,0,0,0,8.875,11.25,0.0,0,0,0,0.0,11.4,0.0,2,0,0,0.0,4.0,0.0,0,0,0,kReverse,0.0,0.0,0.0,0.0,0.0,0.0,0.0,0.0,0.0,0.0,0.0,
166.604971,true,true,true,0.0,-0.1328125,0.4409448802471161,-0.0078125,false,false,false,false,0.0,-0.0078125,0.0,-0.0078125,false,false,false,false,3.5,11.3,0.0,20335,560,256,7.125,11.350000000000001,0.0,0,0,0,3.75,11.350000000000001,0.0,0,0,0,3.0,11.350000000000001,0.0,0,0,0,0.0,11.5,0.0,2,0,0,0.0,4.0,0.0,0,0,0,kReverse,0.0,0.0,0.0,0.0,0.0,0.0,0.0,0.0,0.0,0.0,0.0,
166.756712,true,true,true,0.0,-0.0078125,1.0,-0.0078125,false,false,false,false,0.0,-0.0078125,0.0,-0.0078125,false,false,false,false,0.0,14.100000000000001,0.0,21038,434,256,0.0,14.05,0.0,0,0,0,3.375,14.05,0.0,0,0,0,0.0,14.0,0.0,0,0,0,0.0,14.100000000000001,0.0,2,0,0,0.0,4.0,0.0,0,0,0,kReverse,0.0,0.0,0.0,0.0,0.0,0.0,0.0,0.0,0.0,0.0,0.0,
166.91154400000002,true,true,true,0.0,-0.0078125,1.0,-0.0078125,false,false,false,false,0.0,-0.0078125,0.0,-0.0078125,false,false,false,false,0.0,10.55,0.0,21614,409,0,0.0,10.55,0.0,0,0,0,31.0,10.350000000000001,0.0,0,0,0,33.0,10.65,0.0,0,0,0,0.0,10.65,0.0,2,0,0,0.0,4.0,0.0,0,0,0,kReverse,0.0,0.0,0.0,0.0,0.0,0.0,0.0,0.0,0.0,0.0,0.0,
167.070098,true,true,true,0.0,-0.0078125,1.0,-0.0078125,false,false,false,false,0.0,-0.0078125,0.0,-0.0078125,false,false,false,false,0.0,10.8,0.0,22217,365,0,0.75,10.8,0.0,0,0,0,26.625,10.65,0.0,0,0,0,25.0,10.5,0.0,0,0,0,0.0,10.9,0.0,2,0,0,0.0,4.0,0.0,0,0,0,kReverse,0.0,0.0,0.0,0.0,0.0,0.0,0.0,0.0,0.0,0.0,0.0,
167.19025,true,true,true,0.0,-0.0078125,0.3858267664909363,-0.0078125,false,false,false,false,0.0,-0.0078125,0.0,-0.0078125,false,false,false,false,5.875,11.15,0.0,22601,308,0,4.5,11.2,0.0,0,0,0,11.875,11.05,0.0,0,0,0,11.5,11.05,0.0,0,0,0,0.0,11.3,0.0,2,0,0,0.0,4.0,0.0,0,0,0,kReverse,0.0,0.0,0.0,0.0,0.0,0.0,0.0,0.0,0.0,0.0,0.0,
167.30365600000002,true,true,true,0.0,-0.0078125,0.015748031437397003,-0.0078125,false,false,false,false,0.0,-0.0078125,0.0,-0.0078125,false,false,false,false,0.0,11.15,0.0,22847,192,0,0.25,11.2,0.0,0,0,0,1.0,11.05,0.0,0,0,0,0.0,11.05,0.0,0,0,0,0.0,11.3,0.0,2,0,0,0.0,4.0,0.0,0,0,0,kReverse,0.0,0.0,0.0,0.0,0.0,0.0,0.0,0.0,0.0,0.0,0.0,
167.374179,true,true,true,0.0,-0.0078125,-0.390625,-0.0078125,false,false,false,false,0.0,-0.0078125,0.0,-0.0078125,false,false,false,false,0.0,12.6,0.0,22950,174,0,0.125,12.6,0.0,0,0,0,0.0,12.6,0.0,0,0,0,0.0,12.6,0.0,0,0,0,0.0,12.65,0.0,2,0,0,0.0,4.0,0.0,0,0,0,kReverse,0.0,0.0,0.0,0.0,0.0,0.0,0.0,0.0,0.0,0.0,0.0,
167.452144,true,true,true,0.0,-0.0078125,-1.0,-0.0078125,false,false,false,false,0.0,-0.0078125,0.0,-0.0078125,false,false,false,false,3.375,12.6,0.0,23034,117,0,4.0,12.6,0.0,0,0,0,3.625,12.6,0.0,0,0,0,2.625,12.6,0.0,0,0,0,0.0,12.65,0.0,2,0,0,0.0,4.0,0.0,0,0,0,kReverse,0.0,0.0,0.0,0.0,0.0,0.0,0.0,0.0,0.0,0.0,0.0,
167.493098,true,true,true,0.0,-0.0078125,-1.0,-0.0078125,false,false,false,false,0.0,-0.0078125,0.0,-0.0078125,false,false,false,false,12.0,12.6,0.0,23044,62,0,11.125,12.6,0.0,0,0,0,11.25,12.6,0.0,0,0,0,8.625,12.6,0.0,0,0,0,0.0,9.9,0.0,2,0,0,0.0,4.0,0.0,0,0,0,kReverse,0.0,0.0,0.0,0.0,0.0,0.0,0.0,0.0,0.0,0.0,0.0,
167.55757400000002,true,true,true,0.0,-0.0078125,-0.5,-0.0078125,false,false,false,false,0.0,-0.0078125,0.0,-0.0078125,false,false,false,false,20.5,9.600000000000001,0.0,23002,-40,0,22.625,9.7,0.0,0,0,0,17.0,9.75,0.0,0,0,0,18.375,9.8,0.0,0,0,0,0.0,9.9,0.0,2,0,0,0.0,4.0,0.0,0,0,0,kReverse,0.0,0.0,0.0,0.0,0.0,0.0,0.0,0.0,0.0,0.0,0.0,
167.62491900000003,true,true,true,0.0,-0.0078125,0.0,-0.0078125,false,false,false,false,0.0,-0.0078125,0.0,-0.0078125,false,false,false,false,3.5,9.600000000000001,0.0,22954,-71,0,6.375,9.7,0.0,0,0,0,4.0,9.75,0.0,0,0,0,4.0,9.8,0.0,0,0,0,0.0,9.9,0.0,2,0,0,0.0,4.0,0.0,0,0,0,kReverse,0.0,0.0,0.0,0.0,0.0,0.0,0.0,0.0,0.0,0.0,0.0,
167.696489,true,true,true,0.0,-0.0078125,0.0,-0.0078125,false,false,false,false,0.0,-0.0078125,0.0,-0.0078125,false,false,false,false,0.0,12.55,0.0,22914,-72,0,0.75,12.55,0.0,0,0,0,0.375,12.55,0.0,0,0,0,0.0,12.5,0.0,0,0,0,0.0,12.6,0.0,2,0,0,0.0,4.0,0.0,0,0,0,kReverse,0.0,0.0,0.0,0.0,0.0,0.0,0.0,0.0,0.0,0.0,0.0,
167.73962000000003,true,true,true,0.0,-0.0078125,0.0,-0.0078125,false,false,false,false,0.0,-0.0078125,0.0,-0.0078125,false,false,false,false,0.0,12.55,0.0,22901,-53,0,0.125,12.55,0.0,0,0,0,0.0,12.55,0.0,0,0,0,0.0,12.5,0.0,0,0,0,0.0,12.6,0.0,2,0,0,0.0,4.0,0.0,0,0,0,kReverse,0.0,0.0,0.0,0.0,0.0,0.0,0.0,0.0,0.0,0.0,0.0,
167.78033000000002,true,true,true,0.0,-0.0078125,0.0,-0.0078125,false,false,false,false,0.0,-0.0078125,0.0,-0.0078125,false,false,false,false,0.0,12.55,0.0,22878,-36,0,0.125,12.55,0.0,0,0,0,0.0,12.55,0.0,0,0,0,0.0,12.5,0.0,0,0,0,0.0,12.6,0.0,2,0,0,0.0,4.0,0.0,0,0,0,kReverse,0.0,0.0,0.0,0.0,0.0,0.0,0.0,0.0,0.0,0.0,0.0,
167.86103500000002,true,true,true,0.0,-0.0078125,0.0,-0.0078125,false,false,false,false,0.0,-0.0078125,0.0,-0.0078125,false,false,false,false,0.0,12.65,0.0,22861,-26,0,0.125,12.65,0.0,0,0,0,0.0,12.65,0.0,0,0,0,0.0,12.65,0.0,0,0,0,0.0,12.75,0.0,2,0,0,0.0,4.0,0.0,0,0,0,kReverse,0.0,0.0,0.0,0.0,0.0,0.0,0.0,0.0,0.0,0.0,0.0,
167.93391900000003,true,true,true,0.0,-0.0078125,0.0,-0.0078125,false,false,false,false,0.0,-0.0078125,0.0,-0.0078125,false,false,false,false,0.0,12.65,0.0,22862,-3,0,0.125,12.65,0.0,0,0,0,0.0,12.65,0.0,0,0,0,0.0,12.65,0.0,0,0,0,0.0,12.75,0.0,2,0,0,0.0,4.0,0.0,0,0,0,kReverse,0.0,0.0,0.0,0.0,0.0,0.0,0.0,0.0,0.0,0.0,0.0,
168.00873,true,true,true,-0.078125,0.25984251499176025,0.0,-0.0078125,false,false,false,false,0.0,-0.0078125,0.0,-0.0078125,false,false,false,false,0.0,12.65,0.0,22866,5,0,0.125,12.65,0.0,0,0,0,0.0,12.65,0.0,0,0,0,0.0,12.65,0.0,0,0,0,0.0,12.75,0.0,2,0,0,0.0,4.0,0.0,0,0,0,kReverse,0.0,0.0,0.0,0.0,0.0,0.0,0.0,0.0,0.0,0.0,0.0,
168.101696,true,true,true,-0.0390625,0.11811023950576782,0.0,-0.0078125,false,false,false,false,0.0,-0.0078125,0.0,-0.0078125,false,false,false,false,1.375,12.65,0.0,22863,-3,0,1.625,12.65,0.0,0,0,0,1.5,12.65,0.0,0,0,0,1.25,12.65,0.0,0,0,0,0.0,12.75,0.0,2,0,0,0.0,4.0,0.0,0,0,0,kReverse,0.0,0.0,0.0,0.0,0.0,0.0,0.0,0.0,0.0,0.0,0.0,
168.181731,true,true,true,0.0,-0.0078125,0.0,0.4488188922405243,false,false,false,false,0.0,-0.0078125,0.0,-0.0078125,false,false,false,false,3.625,11.850000000000001,0.0,22861,-3,0,5.5,12.0,0.0,0,0,0,5.875,11.9,0.0,0,0,0,5.0,11.9,0.0,0,0,0,0.0,12.05,0.0,2,0,0,0.0,4.0,0.0,0,0,0,kReverse,0.0,0.0,0.0,0.0,0.0,0.0,0.0,0.0,0.0,0.0,0.0,
168.246348,true,true,true,0.0,-0.0078125,0.0,0.9763779640197754,false,false,false,false,0.0,-0.0078125,0.0,-0.0078125,false,false,false,false,0.0,11.850000000000001,0.0,22861,0,0,0.5,12.0,0.0,0,0,0,0.75,11.9,0.0,0,0,0,0.75,11.9,0.0,0,0,0,0.0,12.05,0.0,2,0,0,0.0,4.0,0.0,0,0,0,kReverse,0.0,0.0,0.0,0.0,0.0,0.0,0.0,0.0,0.0,0.0,0.0,
168.29077500000002,true,true,true,0.0,-0.0078125,0.0,1.0,false,false,false,false,0.0,-0.0078125,0.0,-0.0078125,false,false,false,false,0.0,11.850000000000001,0.0,22861,0,0,0.125,12.0,0.0,0,0,0,0.0,11.9,0.0,0,0,0,0.0,11.9,0.0,0,0,0,0.0,12.05,0.0,2,0,0,0.0,4.0,0.0,0,0,0,kReverse,0.0,0.0,0.0,0.0,0.0,0.0,0.0,0.0,0.0,0.0,0.0,
168.35161300000001,true,true,true,0.0,-0.0078125,0.0,0.06299212574958801,false,false,false,false,0.0,-0.0078125,0.0,-0.0078125,false,false,false,false,0.0,12.65,0.0,22860,-1,0,0.125,12.65,0.0,0,0,0,0.0,12.65,0.0,0,0,0,0.0,12.65,0.0,0,0,0,0.0,12.75,0.0,2,0,0,0.0,4.0,0.0,0,0,0,kReverse,0.0,0.0,0.0,0.0,0.0,0.0,0.0,0.0,0.0,0.0,0.0,
168.440705,true,true,true,0.0,0.18897637724876404,0.0,-0.0078125,false,false,false,false,0.0,-0.0078125,0.0,-0.0078125,false,false,false,false,0.0,12.65,0.0,22859,-1,0,0.125,12.65,0.0,0,0,0,0.0,12.65,0.0,0,0,0,0.0,12.65,0.0,0,0,0,0.0,12.75,0.0,2,0,0,0.0,4.0,0.0,0,0,0,kReverse,0.0,0.0,0.0,0.0,0.0,0.0,0.0,0.0,0.0,0.0,0.0,
168.576645,true,true,true,-0.25,0.5905511975288391,0.0,-0.0078125,false,false,false,false,0.0,-0.0078125,0.0,-0.0078125,false,false,false,false,0.0,12.65,0.0,22858,-1,0,0.5,12.65,0.0,0,0,0,2.125,12.65,0.0,0,0,0,6.0,12.65,0.0,0,0,0,0.0,12.75,0.0,2,0,0,0.0,4.0,0.0,0,0,0,kReverse,0.0,0.0,0.0,0.0,0.0,0.0,0.0,0.0,0.0,0.0,0.0,
168.670982,true,true,true,0.0,-0.0390625,0.0,-0.0078125,false,false,false,false,0.0,-0.0078125,0.0,-0.0078125,false,false,false,false,18.0,10.15,0.0,22794,-64,0,19.125,10.25,0.0,0,0,0,20.5,10.15,0.0,0,0,0,18.5,10.25,0.0,0,0,0,0.0,10.4,0.0,2,0,0,0.0,4.0,0.0,0,0,0,kReverse,0.0,0.0,0.0,0.0,0.0,0.0,0.0,0.0,0.0,0.0,0.0,
168.75238900000002,true,true,true,0.0,-0.0390625,0.0,-0.0078125,false,false,false,false,0.0,-0.0078125,0.0,-0.0078125,false,false,false,false,0.0,10.15,0.0,22727,-87,0,2.25,10.25,0.0,0,0,0,0.5,10.15,0.0,0,0,0,1.25,10.25,0.0,0,0,0,0.0,10.4,0.0,2,0,0,0.0,4.0,0.0,0,0,0,kReverse,0.0,0.0,0.0,0.0,0.0,0.0,0.0,0.0,0.0,0.0,0.0,
168.802053,true,true,true,0.0,0.05511811003088951,0.0,-0.0078125,false,false,false,false,0.0,-0.0078125,0.0,-0.0078125,false,false,false,false,0.0,12.65,0.0,22700,-52,0,0.125,12.65,0.0,0,0,0,0.0,12.65,0.0,0,0,0,0.0,12.65,0.0,0,0,0,0.0,12.700000000000001,0.0,2,0,0,0.0,4.0,0.0,0,0,0,kReverse,0.0,0.0,0.0,0.0,0.0,0.0,0.0,0.0,0.0,0.0,0.0,
168.850945,true,true,true,-0.0703125,0.6220472455024719,0.0,-0.0078125,false,false,false,false,0.0,-0.0078125,0.0,-0.0078125,false,false,false,false,0.0,12.65,0.0,22687,-40,0,0.125,12.65,0.0,0,0,0,0.0,12.65,0.0,0,0,0,0.0,12.65,0.0,0,0,0,0.0,12.700000000000001,0.0,2,0,0,0.0,4.0,0.0,0,0,0,kReverse,0.0,0.0,0.0,0.0,0.0,0.0,0.0,0.0,0.0,0.0,0.0,
168.964762,true,true,true,-0.25,1.0,0.0,-0.0078125,false,false,false,false,0.0,-0.0078125,0.0,-0.0078125,false,false,false,false,4.375,11.7,0.0,22543,-140,0,5.75,11.8,0.0,0,0,0,9.125,11.75,0.0,0,0,0,6.375,11.75,0.0,0,0,0,0.0,11.9,0.0,2,0,0,0.0,4.0,0.0,0,0,0,kReverse,0.0,0.0,0.0,0.0,0.0,0.0,0.0,0.0,0.0,0.0,0.0,
169.05248600000002,true,true,true,0.0,-0.046875,0.0,-0.0078125,false,false,false,false,0.0,-0.0078125,0.0,-0.0078125,false,false,false,false,14.125,11.7,0.0,22430,-137,0,15.875,11.8,0.0,0,0,0,15.875,11.75,0.0,0,0,0,14.0,11.75,0.0,0,0,0,0.0,11.9,0.0,2,0,0,0.0,4.0,0.0,0,0,0,kReverse,0.0,0.0,0.0,0.0,0.0,0.0,0.0,0.0,0.0,0.0,0.0,
169.113367,true,true,true,0.0,-0.046875,0.0,-0.0078125,false,false,false,false,0.0,-0.0078125,0.0,-0.0078125,false,false,false,false,3.625,12.55,0.0,22332,-157,0,5.625,12.6,0.0,0,0,0,4.625,12.55,0.0,0,0,0,4.75,12.55,0.0,0,0,0,0.0,12.65,0.0,2,0,0,0.0,4.0,0.0,0,0,0,kReverse,0.0,0.0,0.0,0.0,0.0,0.0,0.0,0.0,0.0,0.0,0.0,
169.254926,true,true,true,0.0,-0.046875,0.0,-0.0078125,false,false,false,false,0.0,-0.0078125,0.0,-0.0078125,false,false,false,false,0.0,12.55,0.0,22138,-148,0,0.125,12.65,0.0,0,0,0,0.0,12.65,0.0,0,0,0,0.0,12.65,0.0,0,0,0,0.0,12.75,0.0,2,0,0,0.0,4.0,0.0,0,0,0,kReverse,0.0,0.0,0.0,0.0,0.0,0.0,0.0,0.0,0.0,0.0,0.0,
169.36216000000002,true,true,true,0.0,-0.046875,0.0,-0.0078125,false,false,false,false,0.0,-0.0078125,0.0,-0.0078125,false,false,false,false,0.0,12.65,0.0,21971,-138,0,0.125,12.65,0.0,0,0,0,0.0,12.65,0.0,0,0,0,0.0,12.65,0.0,0,0,0,0.0,12.75,0.0,2,0,0,0.0,4.0,0.0,0,0,0,kReverse,0.0,0.0,0.0,0.0,0.0,0.0,0.0,0.0,0.0,0.0,0.0,
169.527628,true,true,true,0.0,-0.046875,0.031496062874794006,-0.1796875,false,false,false,false,0.0,-0.0078125,0.0,-0.0078125,false,false,false,false,0.0,12.65,0.0,21781,-116,0,0.125,12.700000000000001,0.0,0,0,0,0.0,12.65,0.0,0,0,0,0.0,12.65,0.0,0,0,0,0.0,12.75,0.0,2,0,0,0.0,4.0,0.0,0,0,0,kReverse,0.0,0.0,0.0,0.0,0.0,0.0,0.0,0.0,0.0,0.0,0.0,
169.66756400000003,true,true,true,0.0,-0.046875,0.4724409580230713,-0.6875,false,false,false,false,0.0,-0.0078125,0.0,-0.0078125,false,false,false,false,0.0,12.65,0.0,21639,-98,0,0.125,12.700000000000001,0.0,0,0,0,0.0,12.700000000000001,0.0,0,0,0,0.0,12.65,0.0,0,0,0,0.0,12.75,0.0,2,0,0,0.0,4.0,0.0,0,0,0,kReverse,0.0,0.0,0.0,0.0,0.0,0.0,0.0,0.0,0.0,0.0,0.0,
169.767422,true,true,true,0.0,-0.046875,0.0,-0.0078125,false,false,false,false,0.0,-0.0078125,0.0,-0.0078125,false,false,false,false,10.125,11.75,0.0,21614,-25,0,11.0,11.7,0.0,0,0,0,1.625,11.8,0.0,0,0,0,1.375,11.8,0.0,0,0,0,0.0,11.9,0.0,2,0,0,0.0,4.0,0.0,0,0,0,kReverse,0.0,0.0,0.0,0.0,0.0,0.0,0.0,0.0,0.0,0.0,0.0,
169.872367,true,true,true,0.0,-0.046875,0.0,-0.0078125,false,false,false,false,0.0,-0.0078125,0.0,-0.0078125,false,false,false,false,0.0,11.75,0.0,21592,-22,0,0.125,11.7,0.0,0,0,0,0.0,11.8,0.0,0,0,0,0.0,11.8,0.0,0,0,0,0.0,11.9,0.0,2,0,0,0.0,4.0,0.0,0,0,0,kReverse,0.0,0.0,0.0,0.0,0.0,0.0,0.0,0.0,0.0,0.0,0.0,
169.950409,true,true,true,0.0,-0.046875,0.5118110179901123,-0.0078125,false,false,false,false,0.0,-0.0078125,0.0,-0.0078125,false,false,false,false,0.0,12.700000000000001,0.0,21584,-16,0,0.125,12.700000000000001,0.0,0,0,0,0.0,12.700000000000001,0.0,0,0,0,0.0,12.65,0.0,0,0,0,0.0,12.75,0.0,2,0,0,0.0,4.0,0.0,0,0,0,kReverse,0.0,0.0,0.0,0.0,0.0,0.0,0.0,0.0,0.0,0.0,0.0,
170.014337,true,true,true,0.0,-0.046875,0.8661417365074158,-0.0078125,false,false,false,false,0.0,-0.0078125,0.0,-0.0078125,false,false,false,false,1.25,12.700000000000001,0.0,21585,1,0,1.375,12.700000000000001,0.0,0,0,0,0.125,12.700000000000001,0.0,0,0,0,0.0,12.65,0.0,0,0,0,0.0,12.75,0.0,2,0,0,0.0,4.0,0.0,0,0,0,kReverse,0.0,0.0,0.0,0.0,0.0,0.0,0.0,0.0,0.0,0.0,0.0,
170.084146,true,true,true,0.0,-0.046875,0.22047244012355804,-0.0078125,false,false,false,false,0.0,-0.0078125,0.0,-0.0078125,false,false,false,false,22.0,10.3,0.0,21587,3,0,23.0,10.350000000000001,0.0,0,0,0,14.75,10.350000000000001,0.0,0,0,0,12.25,10.350000000000001,0.0,0,0,0,0.0,10.600000000000001,0.0,2,0,0,0.0,4.0,0.0,0,0,0,kReverse,0.0,0.0,0.0,0.0,0.0,0.0,0.0,0.0,0.0,0.0,0.0,
170.168489,true,true,true,0.0,-0.046875,-0.0234375,-0.0078125,false,false,false,false,0.0,-0.0078125,0.0,-0.0078125,false,false,false,false,8.75,10.3,0.0,21611,26,0,11.125,10.350000000000001,0.0,0,0,0,6.375,10.350000000000001,0.0,0,0,0,5.125,10.350000000000001,0.0,0,0,0,0.0,10.600000000000001,0.0,2,0,0,0.0,4.0,0.0,0,0,0,kReverse,0.0,0.0,0.0,0.0,0.0,0.0,0.0,0.0,0.0,0.0,0.0,
170.242573,true,true,true,0.0,-0.046875,-0.0234375,-0.0078125,false,false,false,false,0.0,-0.0078125,0.0,-0.0078125,false,false,false,false,0.0,12.6,0.0,21629,28,0,0.125,12.65,0.0,0,0,0,0.125,12.6,0.0,0,0,0,0.375,12.6,0.0,0,0,0,0.0,12.700000000000001,0.0,2,0,0,0.0,4.0,0.0,0,0,0,kReverse,0.0,0.0,0.0,0.0,0.0,0.0,0.0,0.0,0.0,0.0,0.0,
170.279794,true,true,true,0.0,-0.046875,-0.0234375,-0.0078125,false,false,false,false,0.0,-0.0078125,0.0,-0.0078125,false,false,false,false,0.0,12.6,0.0,21633,11,0,0.125,12.65,0.0,0,0,0,0.0,12.6,0.0,0,0,0,0.0,12.6,0.0,0,0,0,0.0,12.700000000000001,0.0,2,0,0,0.0,4.0,0.0,0,0,0,kReverse,0.0,0.0,0.0,0.0,0.0,0.0,0.0,0.0,0.0,0.0,0.0,
170.345602,true,true,true,0.0,-0.046875,-0.0234375,-0.0078125,false,false,false,false,0.0,-0.0078125,0.0,-0.0078125,false,false,false,false,0.0,12.6,0.0,21641,12,0,0.125,12.65,0.0,0,0,0,0.0,12.6,0.0,0,0,0,0.0,12.6,0.0,0,0,0,0.0,12.700000000000001,0.0,2,0,0,0.0,4.0,0.0,0,0,0,kReverse,0.0,0.0,0.0,0.0,0.0,0.0,0.0,0.0,0.0,0.0,0.0,
170.416855,true,true,true,0.0,-0.046875,-0.0234375,-0.0078125,false,false,false,false,0.0,-0.0078125,0.0,-0.0078125,false,false,false,false,0.0,12.65,0.0,21643,7,0,0.125,12.700000000000001,0.0,0,0,0,0.0,12.65,0.0,0,0,0,0.0,12.65,0.0,0,0,0,0.0,12.75,0.0,2,0,0,0.0,4.0,0.0,0,0,0,kReverse,0.0,0.0,0.0,0.0,0.0,0.0,0.0,0.0,0.0,0.0,0.0,
170.489084,true,true,true,0.0,-0.046875,-0.0234375,-0.0078125,false,false,false,false,0.0,-0.0078125,0.0,-0.0078125,false,false,false,false,0.0,12.65,0.0,21643,0,0,0.125,12.700000000000001,0.0,0,0,0,0.0,12.65,0.0,0,0,0,0.0,12.65,0.0,0,0,0,0.0,12.75,0.0,2,0,0,0.0,4.0,0.0,0,0,0,kReverse,0.0,0.0,0.0,0.0,0.0,0.0,0.0,0.0,0.0,0.0,0.0,
170.53678100000002,true,true,true,0.0,-0.046875,-0.0234375,-0.0078125,false,false,false,false,0.0,-0.0078125,0.0,-0.0078125,false,false,false,false,0.0,12.65,0.0,21643,0,0,0.125,12.700000000000001,0.0,0,0,0,0.0,12.65,0.0,0,0,0,0.0,12.65,0.0,0,0,0,0.0,12.8,0.0,2,0,0,0.0,4.0,0.0,0,0,0,kReverse,0.0,0.0,0.0,0.0,0.0,0.0,0.0,0.0,0.0,0.0,0.0,
170.579431,true,true,true,0.0,-0.046875,0.19685038924217224,-0.0078125,false,false,false,false,0.0,-0.0078125,0.0,-0.0078125,false,false,false,false,0.0,12.700000000000001,0.0,21643,0,0,0.125,12.700000000000001,0.0,0,0,0,0.0,12.65,0.0,0,0,0,0.0,12.65,0.0,0,0,0,0.0,12.8,0.0,2,0,0,0.0,4.0,0.0,0,0,0,kReverse,0.0,0.0,0.0,0.0,0.0,0.0,0.0,0.0,0.0,0.0,0.0,
170.72692800000002,true,true,true,0.0,-0.046875,0.03937007859349251,-0.0078125,false,false,false,false,0.0,-0.0078125,0.0,-0.0078125,false,false,false,false,0.625,12.5,0.0,21652,8,0,1.75,12.6,0.0,0,0,0,0.5,12.55,0.0,0,0,0,0.0,12.55,0.0,0,0,0,0.0,12.65,0.0,2,0,0,0.0,4.0,0.0,0,0,0,kReverse,0.0,0.0,0.0,0.0,0.0,0.0,0.0,0.0,0.0,0.0,0.0,
170.80236200000002,true,true,true,0.0,-0.046875,0.0,-0.0078125,false,false,false,false,0.0,-0.0078125,0.0,-0.0078125,false,false,false,false,0.0,12.5,0.0,21652,1,0,0.375,12.6,0.0,0,0,0,0.0,12.55,0.0,0,0,0,0.0,12.55,0.0,0,0,0,0.0,12.65,0.0,2,0,0,0.0,4.0,0.0,0,0,0,kReverse,0.0,0.0,0.0,0.0,0.0,0.0,0.0,0.0,0.0,0.0,0.0,
170.886734,true,true,true,0.0,-0.046875,0.0,-0.0078125,false,false,false,false,0.0,-0.0078125,0.0,-0.0078125,false,false,false,false,0.0,12.700000000000001,0.0,21652,0,0,0.125,12.75,0.0,0,0,0,0.0,12.75,0.0,0,0,0,0.0,12.700000000000001,0.0,0,0,0,0.0,12.8,0.0,2,0,0,0.0,4.0,0.0,0,0,0,kReverse,0.0,0.0,0.0,0.0,0.0,0.0,0.0,0.0,0.0,0.0,0.0,
170.960875,true,true,true,0.0,-0.046875,0.0,-0.0078125,false,false,false,false,0.0,-0.0078125,0.0,-0.0078125,false,false,false,false,0.0,12.700000000000001,0.0,21652,0,0,0.125,12.75,0.0,0,0,0,0.0,12.75,0.0,0,0,0,0.0,12.700000000000001,0.0,0,0,0,0.0,12.8,0.0,2,0,0,0.0,4.0,0.0,0,0,0,kReverse,0.0,0.0,0.0,0.0,0.0,0.0,0.0,0.0,0.0,0.0,0.0,
171.096608,true,true,true,0.0,-0.046875,0.0,-0.0078125,false,false,false,false,0.0,-0.0078125,0.0,-0.0078125,false,false,false,false,0.0,12.75,0.0,21652,0,0,0.125,12.75,0.0,0,0,0,0.0,12.75,0.0,0,0,0,0.0,12.75,0.0,0,0,0,0.0,12.8,0.0,2,0,0,0.0,4.0,0.0,0,0,0,kReverse,0.0,0.0,0.0,0.0,0.0,0.0,0.0,0.0,0.0,0.0,0.0,
171.21486800000002,true,true,true,0.0,-0.203125,0.0,-0.0078125,false,false,false,false,0.0,-0.0078125,0.0,-0.0078125,false,false,false,false,0.0,12.75,0.0,21652,0,0,0.125,12.75,0.0,0,0,0,0.0,12.75,0.0,0,0,0,0.0,12.75,0.0,0,0,0,0.0,12.8,0.0,2,0,0,0.0,4.0,0.0,0,0,0,kReverse,0.0,0.0,0.0,0.0,0.0,0.0,0.0,0.0,0.0,0.0,0.0,
171.30620000000002,true,true,true,0.0,-0.1953125,0.0,-0.0078125,false,false,false,false,0.0,-0.0078125,0.0,-0.0078125,false,false,false,false,1.125,12.75,0.0,21653,1,0,1.25,12.75,0.0,0,0,0,0.375,12.75,0.0,0,0,0,0.0,12.75,0.0,0,0,0,0.0,12.8,0.0,2,0,0,0.0,4.0,0.0,0,0,0,kReverse,0.0,0.0,0.0,0.0,0.0,0.0,0.0,0.0,0.0,0.0,0.0,
171.35871600000002,true,true,true,0.0,-0.1953125,0.0,-0.0078125,false,false,false,false,0.0,-0.0078125,0.0,-0.0078125,false,false,false,false,1.125,12.6,0.0,21654,2,0,1.25,12.6,0.0,0,0,0,0.625,12.6,0.0,0,0,0,0.0,12.6,0.0,0,0,0,0.0,12.65,0.0,2,0,0,0.0,4.0,0.0,0,0,0,kReverse,0.0,0.0,0.0,0.0,0.0,0.0,0.0,0.0,0.0,0.0,0.0,
171.42572600000003,true,true,true,0.0,-0.0703125,0.0,-0.0078125,false,false,false,false,0.0,-0.0078125,0.0,-0.0078125,false,false,false,false,0.625,12.6,0.0,21659,5,0,1.125,12.6,0.0,0,0,0,0.5,12.6,0.0,0,0,0,0.0,12.6,0.0,0,0,0,0.0,12.65,0.0,2,0,0,0.0,4.0,0.0,0,0,0,kReverse,0.0,0.0,0.0,0.0,0.0,0.0,0.0,0.0,0.0,0.0,0.0,
171.495057,true,true,true,0.0,-0.0234375,0.0,-0.0078125,false,false,false,false,0.0,-0.0078125,0.0,-0.0078125,false,false,false,false,0.0,12.6,0.0,21662,6,0,0.375,12.700000000000001,0.0,0,0,0,0.0,12.700000000000001,0.0,0,0,0,0.0,12.65,0.0,0,0,0,0.0,12.8,0.0,2,0,0,0.0,4.0,0.0,0,0,0,kReverse,0.0,0.0,0.0,0.0,0.0,0.0,0.0,0.0,0.0,0.0,0.0,
171.57290000000003,true,true,true,0.0,-0.0234375,0.0,-0.0078125,false,false,false,false,0.0,-0.0078125,0.0,-0.0078125,false,false,false,false,0.0,12.700000000000001,0.0,21665,4,0,0.125,12.700000000000001,0.0,0,0,0,0.0,12.700000000000001,0.0,0,0,0,0.0,12.65,0.0,0,0,0,0.0,12.8,0.0,2,0,0,0.0,4.0,0.0,0,0,0,kReverse,0.0,0.0,0.0,0.0,0.0,0.0,0.0,0.0,0.0,0.0,0.0,
171.618995,true,true,true,0.0,-0.203125,0.0,-0.0078125,false,false,false,false,0.0,-0.0078125,0.0,-0.0078125,false,false,false,false,0.0,12.700000000000001,0.0,21665,0,0,0.125,12.700000000000001,0.0,0,0,0,0.0,12.700000000000001,0.0,0,0,0,0.0,12.65,0.0,0,0,0,0.0,12.8,0.0,2,0,0,0.0,4.0,0.0,0,0,0,kReverse,0.0,0.0,0.0,0.0,0.0,0.0,0.0,0.0,0.0,0.0,0.0,
171.69781,true,true,true,0.0,-0.25,0.0,-0.0078125,false,false,false,false,0.0,-0.0078125,0.0,-0.0078125,false,false,false,false,0.0,12.700000000000001,0.0,21669,4,0,0.375,12.700000000000001,0.0,0,0,0,0.125,12.700000000000001,0.0,0,0,0,0.0,12.700000000000001,0.0,0,0,0,0.0,12.8,0.0,2,0,0,0.0,4.0,0.0,0,0,0,kReverse,0.0,0.0,0.0,0.0,0.0,0.0,0.0,0.0,0.0,0.0,0.0,
171.85088000000002,true,true,true,0.0,-0.25,0.0,-0.0078125,false,false,false,false,0.0,-0.0078125,0.0,-0.0078125,false,false,false,false,1.375,12.450000000000001,0.0,21690,16,0,1.75,12.5,0.0,0,0,0,1.25,12.55,0.0,0,0,0,0.5,12.55,0.0,0,0,0,0.0,12.6,0.0,2,0,0,0.0,4.0,0.0,0,0,0,kReverse,0.0,0.0,0.0,0.0,0.0,0.0,0.0,0.0,0.0,0.0,0.0,
172.02215900000002,true,true,true,0.0,-0.90625,0.0,-0.0078125,false,false,false,false,0.0,-0.0078125,0.0,-0.0078125,false,false,false,false,5.75,12.55,0.0,21735,26,0,1.375,12.55,0.0,0,0,0,0.625,12.55,0.0,0,0,0,0.0,12.55,0.0,0,0,0,0.0,12.65,0.0,2,0,0,0.0,4.0,0.0,0,0,0,kReverse,0.0,0.0,0.0,0.0,0.0,0.0,0.0,0.0,0.0,0.0,0.0,
172.144561,true,true,true,0.0,-0.0078125,0.0,-0.0078125,false,false,false,false,0.0,-0.0078125,0.0,-0.0078125,false,false,false,false,9.5,11.65,0.0,21769,29,0,7.75,11.5,0.0,0,0,0,6.375,11.5,0.0,0,0,0,7.375,11.350000000000001,0.0,0,0,0,0.0,11.55,0.0,2,0,0,0.0,4.0,0.0,0,0,0,kReverse,0.0,0.0,0.0,0.0,0.0,0.0,0.0,0.0,0.0,0.0,0.0,
172.305429,true,true,true,0.0,-0.0078125,0.0,-0.0078125,false,false,false,false,0.0,-0.0078125,0.0,-0.0078125,false,false,false,false,0.0,12.700000000000001,0.0,21836,50,0,0.125,12.75,0.0,0,0,0,0.0,12.700000000000001,0.0,0,0,0,0.0,12.700000000000001,0.0,0,0,0,0.0,12.8,0.0,2,0,0,0.0,4.0,0.0,0,0,0,kReverse,0.0,0.0,0.0,0.0,0.0,0.0,0.0,0.0,0.0,0.0,0.0,
172.451816,true,true,true,0.0,-0.0078125,0.0,-0.0078125,false,false,false,false,0.0,-0.0078125,0.0,-0.0078125,false,false,false,false,0.0,12.700000000000001,0.0,21939,67,0,0.125,12.75,0.0,0,0,0,0.0,12.75,0.0,0,0,0,0.0,12.700000000000001,0.0,0,0,0,0.0,12.8,0.0,2,0,0,0.0,4.0,0.0,0,0,0,kReverse,0.0,0.0,0.0,0.0,0.0,0.0,0.0,0.0,0.0,0.0,0.0,
172.598084,true,true,true,0.0,-0.0078125,0.0,-0.0078125,false,false,false,false,0.0,-0.0078125,0.0,-0.0078125,false,false,false,false,0.0,12.75,0.0,22011,51,0,0.125,12.75,0.0,0,0,0,0.0,12.75,0.0,0,0,0,0.0,12.75,0.0,0,0,0,0.0,12.8,0.0,2,0,0,0.0,4.0,0.0,0,0,0,kReverse,0.0,0.0,0.0,0.0,0.0,0.0,0.0,0.0,0.0,0.0,0.0,
172.735502,true,true,true,0.0,-0.0078125,0.0,-0.0078125,false,false,false,false,0.0,-0.0078125,0.0,-0.0078125,false,false,false,false,0.0,12.75,0.0,22079,47,0,0.125,12.75,0.0,0,0,0,0.0,12.75,0.0,0,0,0,0.0,12.75,0.0,0,0,0,0.0,12.8,0.0,2,0,0,0.0,4.0,0.0,0,0,0,kReverse,0.0,0.0,0.0,0.0,0.0,0.0,0.0,0.0,0.0,0.0,0.0,
172.866556,true,true,true,-0.2890625,1.0,0.0,-0.0078125,false,false,false,false,0.0,-0.0078125,0.0,-0.0078125,false,false,false,false,1.5,12.75,0.0,22125,39,0,0.125,12.75,0.0,0,0,0,1.5,12.75,0.0,0,0,0,0.0,12.75,0.0,0,0,0,0.0,12.8,0.0,2,0,0,0.0,4.0,0.0,0,0,0,kReverse,0.0,0.0,0.0,0.0,0.0,0.0,0.0,0.0,0.0,0.0,0.0,
172.981473,true,true,true,0.0,0.10236220806837082,0.0,-0.0078125,false,false,false,false,0.0,-0.0078125,0.0,-0.0078125,false,false,false,false,17.0,9.850000000000001,0.0,22062,-63,0,19.75,10.05,0.0,0,0,0,16.75,10.0,0.0,0,0,0,15.625,9.95,0.0,0,0,0,0.0,10.15,0.0,2,0,0,0.0,4.0,0.0,0,0,0,kReverse,0.0,0.0,0.0,0.0,0.0,0.0,0.0,0.0,0.0,0.0,0.0,
173.14749600000002,true,true,true,1.0,-0.96875,0.0,-0.0078125,false,false,false,false,0.0,-0.0078125,0.0,-0.0078125,false,false,false,false,8.375,10.95,0.0,21877,-136,0,10.625,11.0,0.0,0,0,0,15.0,11.0,0.0,0,0,0,10.5,11.0,0.0,0,0,0,0.0,11.15,0.0,2,0,0,0.0,4.0,0.0,0,0,0,kReverse,0.0,0.0,0.0,0.0,0.0,0.0,0.0,0.0,0.0,0.0,0.0,
173.268347,true,true,true,1.0,-0.9765625,0.0,-0.0078125,false,false,false,false,0.0,-0.0078125,0.0,-0.0078125,false,false,false,false,26.625,9.25,0.0,21896,54,0,28.375,9.45,0.0,0,0,0,25.875,9.3,0.0,0,0,0,29.0,9.3,0.0,0,0,0,0.0,9.65,0.0,2,0,0,0.0,4.0,0.0,0,0,0,kReverse,0.0,0.0,0.0,0.0,0.0,0.0,0.0,0.0,0.0,0.0,0.0,
173.438914,true,true,true,1.0,-0.984375,0.0,-0.0078125,false,false,false,false,0.0,-0.0078125,0.0,-0.0078125,false,false,false,false,16.75,10.350000000000001,0.0,21922,21,0,19.875,10.350000000000001,0.0,0,0,0,16.125,10.45,0.0,0,0,0,14.625,10.350000000000001,0.0,0,0,0,0.0,10.55,0.0,2,0,0,0.0,4.0,0.0,0,0,0,kReverse,0.0,0.0,0.0,0.0,0.0,0.0,0.0,0.0,0.0,0.0,0.0,
173.569284,true,true,true,1.0,-0.984375,0.0,-0.0078125,false,false,false,false,0.0,-0.0078125,0.0,-0.0078125,false,false,false,false,9.125,10.350000000000001,0.0,22127,177,0,12.0,10.350000000000001,0.0,0,0,0,22.0,10.5,0.0,0,0,0,20.875,10.45,0.0,0,0,0,0.0,10.7,0.0,2,0,0,0.0,4.0,0.0,0,0,0,kReverse,0.0,0.0,0.0,0.0,0.0,0.0,0.0,0.0,0.0,0.0,0.0,
173.732886,true,true,true,1.0,-0.984375,0.0,-0.0078125,false,false,false,false,0.0,-0.0078125,0.0,-0.0078125,false,false,false,false,5.625,10.5,0.0,22512,254,0,8.25,11.05,0.0,0,0,0,16.75,10.95,0.0,0,0,0,15.25,11.05,0.0,0,0,0,0.0,11.15,0.0,2,0,0,0.0,4.0,0.0,0,0,0,kReverse,0.0,0.0,0.0,0.0,0.0,0.0,0.0,0.0,0.0,0.0,0.0,
173.814579,true,true,true,1.0,-0.984375,0.0,-0.0078125,false,false,false,false,0.0,-0.0078125,0.0,-0.0078125,false,false,false,false,5.875,11.0,0.0,22728,268,0,5.125,11.05,0.0,0,0,0,9.625,10.95,0.0,0,0,0,7.25,11.05,0.0,0,0,0,0.0,11.15,0.0,2,0,0,0.0,4.0,0.0,0,0,0,kReverse,0.0,0.0,0.0,0.0,0.0,0.0,0.0,0.0,0.0,0.0,0.0,
173.94939200000002,true,true,true,0.0,-0.0078125,0.0,-0.0078125,false,false,false,false,0.0,-0.0078125,0.0,-0.0078125,false,false,false,false,6.0,11.600000000000001,0.0,23164,309,0,5.5,11.65,0.0,0,0,0,6.0,11.600000000000001,0.0,0,0,0,4.5,11.600000000000001,0.0,0,0,0,0.0,11.75,0.0,2,0,0,0.0,4.0,0.0,0,0,0,kReverse,0.0,0.0,0.0,0.0,0.0,0.0,0.0,0.0,0.0,0.0,0.0,
174.07699000000002,true,true,true,-0.09375,0.5905511975288391,0.0,-0.0078125,false,false,false,false,0.0,-0.0078125,0.0,-0.0078125,false,false,false,false,0.0,12.950000000000001,0.0,23440,216,0,0.0,12.950000000000001,0.0,0,0,0,0.0,12.950000000000001,0.0,0,0,0,0.0,12.950000000000001,0.0,0,0,0,0.0,13.05,0.0,2,0,0,0.0,4.0,0.0,0,0,0,kReverse,0.0,0.0,0.0,0.0,0.0,0.0,0.0,0.0,0.0,0.0,0.0,
174.23715600000003,true,true,true,-0.0234375,0.8031495809555054,0.0,-0.0078125,false,false,false,false,0.0,-0.0078125,0.0,-0.0078125,false,false,false,false,8.375,11.850000000000001,0.0,23707,120,0,8.0,11.8,0.0,0,0,0,6.125,11.850000000000001,0.0,0,0,0,8.375,11.850000000000001,0.0,0,0,0,0.0,11.95,0.0,2,0,0,0.0,4.0,0.0,0,0,0,kReverse,0.0,0.0,0.0,0.0,0.0,0.0,0.0,0.0,0.0,0.0,0.0,
174.362143,true,true,true,0.6850393414497375,-0.9453125,0.0,-0.0078125,false,false,false,false,0.0,-0.0078125,0.0,-0.0078125,false,false,false,false,15.75,11.850000000000001,0.0,23724,10,0,17.875,11.8,0.0,0,0,0,17.75,11.850000000000001,0.0,0,0,0,16.0,11.850000000000001,0.0,0,0,0,0.0,11.95,0.0,2,0,0,0.0,4.0,0.0,0,0,0,kReverse,0.0,0.0,0.0,0.0,0.0,0.0,0.0,0.0,0.0,0.0,0.0,
174.49866400000002,true,true,true,0.8188976645469666,-1.0,0.0,-0.0078125,false,false,false,false,0.0,-0.0078125,0.0,-0.0078125,false,false,false,false,4.875,11.0,0.0,23736,13,0,5.875,11.0,0.0,0,0,0,4.375,10.850000000000001,0.0,0,0,0,3.5,11.0,0.0,0,0,0,0.0,11.05,0.0,2,0,0,0.0,4.0,0.0,0,0,0,kReverse,0.0,0.0,0.0,0.0,0.0,0.0,0.0,0.0,0.0,0.0,0.0,
174.53995,true,true,true,0.6456692814826965,-1.0,0.0,-0.0078125,false,false,false,false,0.0,-0.0078125,0.0,-0.0078125,false,false,false,false,12.125,11.0,0.0,23738,5,0,16.375,9.7,0.0,0,0,0,14.875,9.75,0.0,0,0,0,11.75,9.8,0.0,0,0,0,0.0,10.0,0.0,2,0,0,0.0,4.0,0.0,0,0,0,kReverse,0.0,0.0,0.0,0.0,0.0,0.0,0.0,0.0,0.0,0.0,0.0,
174.579888,true,true,true,0.8188976645469666,-1.0,0.0,-0.0078125,false,false,false,false,0.0,-0.0078125,0.0,-0.0078125,false,false,false,false,21.625,9.55,0.0,23739,4,0,22.625,9.7,0.0,0,0,0,24.0,9.75,0.0,0,0,0,22.75,9.8,0.0,0,0,0,0.0,10.0,0.0,2,0,0,0.0,4.0,0.0,0,0,0,kReverse,0.0,0.0,0.0,0.0,0.0,0.0,0.0,0.0,0.0,0.0,0.0,
174.734769,true,true,true,0.0,-0.0078125,0.0,-0.0078125,false,false,false,false,0.0,-0.0078125,0.0,-0.0078125,false,false,false,false,6.0,10.55,0.0,23941,166,0,8.875,10.65,0.0,0,0,0,12.0,10.55,0.0,0,0,0,6.5,10.65,0.0,0,0,0,0.0,10.8,0.0,2,0,0,0.0,4.0,0.0,0,0,0,kReverse,0.0,0.0,0.0,0.0,0.0,0.0,0.0,0.0,0.0,0.0,0.0,
174.86305900000002,true,true,true,-0.0234375,0.4173228442668915,0.0,-0.0078125,false,false,false,false,0.0,-0.0078125,0.0,-0.0078125,false,false,false,false,0.0,12.55,0.0,23985,32,0,0.375,12.6,0.0,0,0,0,2.625,12.6,0.0,0,0,0,2.0,12.6,0.0,0,0,0,0.0,12.700000000000001,0.0,2,0,0,0.0,4.0,0.0,0,0,0,kReverse,0.0,0.0,0.0,0.0,0.0,0.0,0.0,0.0,0.0,0.0,0.0,
175.00684600000002,true,true,true,-0.3125,1.0,0.0,-0.0078125,false,false,false,false,0.0,-0.0078125,0.0,-0.0078125,false,false,false,false,2.125,12.55,0.0,23978,-11,0,2.875,12.6,0.0,0,0,0,7.0,11.7,0.0,0,0,0,4.75,11.75,0.0,0,0,0,0.0,11.9,0.0,2,0,0,0.0,4.0,0.0,0,0,0,kReverse,0.0,0.0,0.0,0.0,0.0,0.0,0.0,0.0,0.0,0.0,0.0,
175.15274000000002,true,true,true,-0.3203125,1.0,0.0,-0.0078125,false,false,false,false,0.0,-0.0078125,0.0,-0.0078125,false,false,false,false,11.625,11.55,0.0,23798,-166,0,14.625,11.7,0.0,0,0,0,10.5,11.7,0.0,0,0,0,8.125,11.75,0.0,0,0,0,0.0,11.9,0.0,2,0,0,0.0,4.0,0.0,0,0,0,kReverse,0.0,0.0,0.0,0.0,0.0,0.0,0.0,0.0,0.0,0.0,0.0,
175.293741,true,true,true,-0.4375,1.0,0.0,-0.0078125,false,false,false,false,0.0,-0.0078125,0.0,-0.0078125,false,false,false,false,7.75,11.05,0.0,23491,-228,0,10.625,11.05,0.0,0,0,0,5.25,11.15,0.0,0,0,0,4.875,11.100000000000001,0.0,0,0,0,0.0,11.25,0.0,2,0,0,0.0,4.0,0.0,0,0,0,kReverse,0.0,0.0,0.0,0.0,0.0,0.0,0.0,0.0,0.0,0.0,0.0,
175.457187,true,true,true,-0.3125,0.7244094610214233,0.0,-0.0078125,false,false,false,false,0.0,-0.0078125,0.0,-0.0078125,false,false,false,false,6.0,11.5,0.0,23070,-268,0,9.0,11.55,0.0,0,0,0,1.625,11.600000000000001,0.0,0,0,0,0.0,11.600000000000001,0.0,0,0,0,0.0,11.7,0.0,2,0,0,0.0,4.0,0.0,0,0,0,kReverse,0.0,0.0,0.0,0.0,0.0,0.0,0.0,0.0,0.0,0.0,0.0,
175.56887700000001,true,true,true,0.0,-0.0078125,0.0,-0.0078125,false,false,false,false,0.0,-0.0078125,0.0,-0.0078125,false,false,false,false,5.375,11.75,0.0,22736,-277,0,8.5,11.8,0.0,0,0,0,0.375,11.850000000000001,0.0,0,0,0,0.0,11.850000000000001,0.0,0,0,0,0.0,11.95,0.0,2,0,0,0.0,4.0,0.0,0,0,0,kReverse,0.0,0.0,0.0,0.0,0.0,0.0,0.0,0.0,0.0,0.0,0.0,
175.690124,true,true,true,0.0,-0.0078125,0.0,-0.0078125,false,false,false,false,0.0,-0.0078125,0.0,-0.0078125,false,false,false,false,0.0,12.6,0.0,22470,-212,0,0.125,12.6,0.0,0,0,0,0.0,12.6,0.0,0,0,0,0.0,12.6,0.0,0,0,0,0.0,12.700000000000001,0.0,2,0,0,0.0,4.0,0.0,0,0,0,kReverse,0.0,0.0,0.0,0.0,0.0,0.0,0.0,0.0,0.0,0.0,0.0,
175.745337,true,true,true,0.0,-0.0078125,0.11023622006177902,-0.0078125,false,false,false,false,0.0,-0.0078125,0.0,-0.0078125,false,false,false,false,0.0,12.6,0.0,22335,-212,0,0.125,12.6,0.0,0,0,0,0.0,12.6,0.0,0,0,0,0.0,12.6,0.0,0,0,0,0.0,12.700000000000001,0.0,2,0,0,0.0,4.0,0.0,0,0,0,kReverse,0.0,0.0,0.0,0.0,0.0,0.0,0.0,0.0,0.0,0.0,0.0,
175.79857800000002,true,true,true,0.0,-0.0078125,0.8031495809555054,-0.0078125,false,false,false,false,0.0,-0.0078125,0.0,-0.0078125,false,false,false,false,3.625,12.6,0.0,22244,-179,0,1.25,12.6,0.0,0,0,0,0.0,12.6,0.0,0,0,0,0.0,12.6,0.0,0,0,0,0.0,12.200000000000001,0.0,2,0,0,0.0,4.0,0.0,0,0,0,kReverse,0.0,0.0,0.0,0.0,0.0,0.0,0.0,0.0,0.0,0.0,0.0,
175.90765900000002,true,true,true,0.0,-0.0078125,1.0,-0.0078125,false,false,false,false,0.0,-0.0078125,0.0,-0.0078125,false,false,false,false,16.625,11.850000000000001,0.0,22216,-28,0,19.25,12.0,0.0,0,0,0,0.0,12.1,0.0,0,0,0,0.0,12.05,0.0,0,0,0,0.0,12.200000000000001,0.0,2,0,0,0.0,4.0,0.0,0,0,0,kReverse,0.0,0.0,0.0,0.0,0.0,0.0,0.0,0.0,0.0,0.0,0.0,
175.97328100000001,true,true,true,0.0,-0.0078125,1.0,-0.0078125,false,false,false,false,0.0,-0.0078125,0.0,-0.0078125,false,false,false,false,25.375,11.850000000000001,0.0,22217,1,0,28.25,12.0,0.0,0,0,0,0.5,12.1,0.0,0,0,0,0.0,12.05,0.0,0,0,0,0.0,11.2,0.0,2,0,0,0.0,4.0,0.0,0,0,0,kReverse,0.0,0.0,0.0,0.0,0.0,0.0,0.0,0.0,0.0,0.0,0.0,
176.018323,true,true,true,0.0,-0.0078125,0.8503937125205994,-0.0078125,false,false,false,false,0.0,-0.0078125,0.0,-0.0078125,false,false,false,false,19.125,10.95,0.0,22218,2,0,19.0,11.0,0.0,0,0,0,5.0,11.05,0.0,0,0,0,4.875,11.05,0.0,0,0,0,0.0,11.2,0.0,2,0,0,0.0,4.0,0.0,0,0,0,kReverse,0.0,0.0,0.0,0.0,0.0,0.0,0.0,0.0,0.0,0.0,0.0,
176.104785,true,true,true,0.015748031437397003,-0.46875,0.0,-0.0078125,false,false,false,false,0.0,-0.0078125,0.0,-0.0078125,false,false,false,false,19.625,10.95,0.0,22303,85,0,23.5,11.0,0.0,0,0,0,5.625,11.05,0.0,0,0,0,4.5,11.05,0.0,0,0,0,0.0,12.4,0.0,2,0,0,0.0,4.0,0.0,0,0,0,kReverse,0.0,0.0,0.0,0.0,0.0,0.0,0.0,0.0,0.0,0.0,0.0,
176.235559,true,true,true,0.04724409431219101,-1.0,0.0,-0.0078125,false,false,false,false,0.0,-0.0078125,0.0,-0.0078125,false,false,false,false,1.375,12.3,0.0,22310,2,0,1.125,12.3,0.0,0,0,0,3.125,12.3,0.0,0,0,0,1.125,12.25,0.0,0,0,0,0.0,12.4,0.0,2,0,0,0.0,4.0,0.0,0,0,0,kReverse,0.0,0.0,0.0,0.0,0.0,0.0,0.0,0.0,0.0,0.0,0.0,
176.373673,true,true,true,0.04724409431219101,-1.0,0.0,-0.0078125,false,false,false,false,0.0,-0.0078125,0.0,-0.0078125,false,false,false,false,20.375,9.65,0.0,22387,73,0,22.625,9.8,0.0,0,0,0,19.125,9.65,0.0,0,0,0,15.875,9.7,0.0,0,0,0,0.0,9.95,0.0,2,0,0,0.0,4.0,0.0,0,0,0,kReverse,0.0,0.0,0.0,0.0,0.0,0.0,0.0,0.0,0.0,0.0,0.0,
176.488576,true,true,true,0.04724409431219101,-1.0,0.0,-0.0078125,false,false,false,false,0.0,-0.0078125,0.0,-0.0078125,false,false,false,false,18.25,10.350000000000001,0.0,22487,86,0,20.75,10.350000000000001,0.0,0,0,0,14.5,10.4,0.0,0,0,0,10.5,10.350000000000001,0.0,0,0,0,0.0,10.55,0.0,2,0,0,0.0,4.0,0.0,0,0,0,kReverse,0.0,0.0,0.0,0.0,0.0,0.0,0.0,0.0,0.0,0.0,0.0,
176.608403,true,true,true,0.04724409431219101,-1.0,0.0,-0.0078125,false,false,false,false,0.0,-0.0078125,0.0,-0.0078125,false,false,false,false,16.125,10.350000000000001,0.0,22655,142,0,18.125,10.350000000000001,0.0,0,0,0,11.75,10.7,0.0,0,0,0,8.125,10.7,0.0,0,0,0,0.0,10.850000000000001,0.0,2,0,0,0.0,4.0,0.0,0,0,0,kReverse,0.0,0.0,0.0,0.0,0.0,0.0,0.0,0.0,0.0,0.0,0.0,
176.670837,true,true,true,0.04724409431219101,-1.0,0.0,-0.0078125,false,false,false,false,0.0,-0.0078125,0.0,-0.0078125,false,false,false,false,16.625,10.55,0.0,22742,146,0,19.125,10.7,0.0,0,0,0,10.375,10.7,0.0,0,0,0,6.875,10.7,0.0,0,0,0,0.0,10.850000000000001,0.0,2,0,0,0.0,4.0,0.0,0,0,0,kReverse,0.0,0.0,0.0,0.0,0.0,0.0,0.0,0.0,0.0,0.0,0.0,
176.71664900000002,true,true,true,0.04724409431219101,-1.0,0.0,-0.0078125,false,false,false,false,0.0,-0.0078125,0.0,-0.0078125,false,false,false,false,16.625,10.55,0.0,22828,143,0,18.75,10.7,0.0,0,0,0,8.5,10.7,0.0,0,0,0,5.0,10.7,0.0,0,0,0,0.0,10.850000000000001,0.0,2,0,0,0.0,4.0,0.0,0,0,0,kReverse,0.0,0.0,0.0,0.0,0.0,0.0,0.0,0.0,0.0,0.0,0.0,
176.829978,true,true,true,0.04724409431219101,-1.0,0.0,-0.0078125,false,false,false,false,0.0,-0.0078125,0.0,-0.0078125,false,false,false,false,14.375,11.0,0.0,22998,170,0,16.875,11.05,0.0,0,0,0,7.875,11.100000000000001,0.0,0,0,0,5.0,11.100000000000001,0.0,0,0,0,0.0,11.2,0.0,2,0,0,0.0,4.0,0.0,0,0,0,kReverse,0.0,0.0,0.0,0.0,0.0,0.0,0.0,0.0,0.0,0.0,0.0,
176.97903100000002,true,true,true,0.04724409431219101,-1.0,0.0,-0.0078125,false,false,false,false,0.0,-0.0078125,0.0,-0.0078125,false,false,false,false,15.0,11.05,0.0,23265,168,0,17.25,11.15,0.0,0,0,0,6.0,11.100000000000001,0.0,0,0,0,5.25,11.100000000000001,0.0,0,0,0,0.0,11.25,0.0,2,0,0,0.0,4.0,0.0,0,0,0,kReverse,0.0,0.0,0.0,0.0,0.0,0.0,0.0,0.0,0.0,0.0,0.0,
177.13096900000002,true,true,true,0.04724409431219101,-1.0,0.0,-0.0078125,false,false,false,false,0.0,-0.0078125,0.0,-0.0078125,false,false,false,false,13.625,11.0,0.0,23522,185,0,15.875,11.100000000000001,0.0,0,0,0,7.875,11.100000000000001,0.0,0,0,0,5.125,11.15,0.0,0,0,0,0.0,11.25,0.0,2,0,0,0.0,4.0,0.0,0,0,0,kReverse,0.0,0.0,0.0,0.0,0.0,0.0,0.0,0.0,0.0,0.0,0.0,
177.28136600000002,true,true,true,0.04724409431219101,-1.0,0.9921259880065918,-0.0078125,false,false,false,false,0.0,-0.0078125,0.0,-0.0078125,false,false,false,false,11.875,11.2,0.0,23867,225,0,11.5,11.3,0.0,0,0,0,8.5,11.3,0.0,0,0,0,2.375,11.3,0.0,0,0,0,0.0,11.4,0.0,2,0,0,0.0,4.0,0.0,0,0,0,kReverse,0.0,0.0,0.0,0.0,0.0,0.0,0.0,0.0,0.0,0.0,0.0,
177.426481,true,true,true,0.04724409431219101,-1.0,1.0,-0.0078125,false,false,false,false,0.0,-0.0078125,0.0,-0.0078125,false,false,false,false,29.625,10.2,0.0,24294,332,0,35.25,10.350000000000001,0.0,0,0,0,0.0,10.55,0.0,0,0,0,0.0,10.55,0.0,0,0,0,0.0,10.65,0.0,2,0,0,0.0,4.0,0.0,0,0,0,kReverse,0.0,0.0,0.0,0.0,0.0,0.0,0.0,0.0,0.0,0.0,0.0,
177.56399900000002,true,true,true,0.04724409431219101,-1.0,1.0,-0.0078125,false,false,false,false,0.0,-0.0078125,0.0,-0.0078125,false,false,false,false,24.375,10.2,0.0,24827,386,0,29.375,10.350000000000001,0.0,0,0,0,0.0,10.55,0.0,0,0,0,0.0,10.9,0.0,0,0,0,0.0,10.95,0.0,2,0,0,0.0,4.0,0.0,0,0,0,kReverse,0.0,0.0,0.0,0.0,0.0,0.0,0.0,0.0,0.0,0.0,0.0,
177.68072700000002,true,true,true,0.04724409431219101,-1.0,0.7086614370346069,-0.0078125,false,false,false,false,0.0,-0.0078125,0.0,-0.0078125,false,false,false,false,21.375,10.600000000000001,0.0,25329,423,0,25.625,10.7,0.0,0,0,0,0.0,10.9,0.0,0,0,0,0.0,10.9,0.0,0,0,0,0.0,10.95,0.0,2,0,0,0.0,4.0,0.0,0,0,0,kReverse,0.0,0.0,0.0,0.0,0.0,0.0,0.0,0.0,0.0,0.0,0.0,
177.851437,true,true,true,0.04724409431219101,-0.0078125,-0.0546875,-0.0078125,false,false,false,false,0.0,-0.0078125,0.0,-0.0078125,false,false,false,false,11.25,10.95,0.0,26144,456,0,16.75,11.05,0.0,0,0,0,0.0,11.2,0.0,0,0,0,0.0,11.2,0.0,0,0,0,0.0,11.3,0.0,2,0,0,0.0,4.0,0.0,0,0,0,kReverse,0.0,0.0,0.0,0.0,0.0,0.0,0.0,0.0,0.0,0.0,0.0,
177.977407,true,true,true,0.04724409431219101,-0.0078125,-0.0546875,-0.0078125,false,false,false,false,0.0,-0.0078125,0.0,-0.0078125,false,false,false,false,0.0,12.6,0.0,26607,379,0,0.125,12.6,0.0,0,0,0,0.125,12.6,0.0,0,0,0,0.0,12.6,0.0,0,0,0,0.0,12.65,0.0,2,0,0,0.0,4.0,0.0,0,0,0,kReverse,0.0,0.0,0.0,0.0,0.0,0.0,0.0,0.0,0.0,0.0,0.0,
178.08743600000003,true,true,true,-0.1875,1.0,-0.0546875,-0.0078125,false,false,false,false,0.0,-0.0078125,0.0,-0.0078125,false,false,false,false,0.0,12.65,0.0,26964,357,0,0.125,12.65,0.0,0,0,0,7.125,12.65,0.0,0,0,0,4.5,12.6,0.0,0,0,0,0.0,12.75,0.0,2,0,0,0.0,4.0,0.0,0,0,0,kReverse,0.0,0.0,0.0,0.0,0.0,0.0,0.0,0.0,0.0,0.0,0.0,
178.23817000000003,true,true,true,-0.4140625,1.0,-0.0546875,-0.0078125,false,false,false,false,0.0,-0.0078125,0.0,-0.0078125,false,false,false,false,22.125,9.3,0.0,27188,80,0,25.875,9.45,0.0,0,0,0,22.75,9.5,0.0,0,0,0,21.0,9.5,0.0,0,0,0,0.0,9.75,0.0,2,0,0,0.0,4.0,0.0,0,0,0,kReverse,0.0,0.0,0.0,0.0,0.0,0.0,0.0,0.0,0.0,0.0,0.0,
178.366361,true,true,true,-0.4140625,1.0,-0.0546875,-0.0078125,false,false,false,false,0.0,-0.0078125,0.0,-0.0078125,false,false,false,false,26.5,9.3,0.0,27180,-7,0,30.75,9.45,0.0,0,0,0,14.5,9.5,0.0,0,0,0,11.625,10.0,0.0,0,0,0,0.0,10.15,0.0,2,0,0,0.0,4.0,0.0,0,0,0,kReverse,0.0,0.0,0.0,0.0,0.0,0.0,0.0,0.0,0.0,0.0,0.0,
178.471199,true,true,true,-0.4140625,1.0,-0.0546875,-0.0078125,false,false,false,false,0.0,-0.0078125,0.0,-0.0078125,false,false,false,false,19.75,9.850000000000001,0.0,27124,-56,0,23.875,9.850000000000001,0.0,0,0,0,11.0,10.0,0.0,0,0,0,8.875,10.0,0.0,0,0,0,0.0,10.15,0.0,2,0,0,0.0,4.0,0.0,0,0,0,kReverse,0.0,0.0,0.0,0.0,0.0,0.0,0.0,0.0,0.0,0.0,0.0,
178.56263,true,true,true,-0.4140625,1.0,-0.0546875,-0.0078125,false,false,false,false,0.0,-0.0078125,0.0,-0.0078125,false,false,false,false,10.125,11.0,0.0,26929,-195,0,13.875,11.0,0.0,0,0,0,8.625,11.05,0.0,0,0,0,6.375,11.0,0.0,0,0,0,0.0,11.2,0.0,2,0,0,0.0,4.0,0.0,0,0,0,kReverse,0.0,0.0,0.0,0.0,0.0,0.0,0.0,0.0,0.0,0.0,0.0,
178.656073,true,true,true,-0.4140625,1.0,-0.1875,-0.0078125,false,false,false,false,0.0,-0.0078125,0.0,-0.0078125,false,false,false,false,8.25,11.0,0.0,26726,-251,0,11.875,11.0,0.0,0,0,0,7.375,11.05,0.0,0,0,0,5.5,11.0,0.0,0,0,0,0.0,11.2,0.0,2,0,0,0.0,4.0,0.0,0,0,0,kReverse,0.0,0.0,0.0,0.0,0.0,0.0,0.0,0.0,0.0,0.0,0.0,
178.71474300000003,true,true,true,-0.4140625,1.0,-1.0,-0.0078125,false,false,false,false,0.0,-0.0078125,0.0,-0.0078125,false,false,false,false,10.75,11.15,0.0,26564,-267,0,14.25,11.2,0.0,0,0,0,2.25,11.3,0.0,0,0,0,4.0,11.2,0.0,0,0,0,0.0,11.350000000000001,0.0,2,0,0,0.0,4.0,0.0,0,0,0,kReverse,0.0,0.0,0.0,0.0,0.0,0.0,0.0,0.0,0.0,0.0,0.0,
178.83970700000003,true,true,true,0.0,-0.015625,-1.0,-0.0078125,false,false,false,false,0.0,-0.0078125,0.0,-0.0078125,false,false,false,false,21.875,11.15,0.0,26080,-361,0,31.375,11.2,0.0,0,0,0,2.125,11.3,0.0,0,0,0,0.0,11.2,0.0,0,0,0,0.0,10.600000000000001,0.0,2,0,0,0.0,4.0,0.0,0,0,0,kReverse,0.0,0.0,0.0,0.0,0.0,0.0,0.0,0.0,0.0,0.0,0.0,
178.921508,true,true,true,0.0,-0.015625,-1.0,-0.0078125,false,false,false,false,0.0,-0.0078125,0.0,-0.0078125,false,false,false,false,10.375,10.350000000000001,0.0,25930,-225,0,13.875,10.4,0.0,0,0,0,7.75,10.350000000000001,0.0,0,0,0,5.125,10.45,0.0,0,0,0,0.0,10.600000000000001,0.0,2,0,0,0.0,4.0,0.0,0,0,0,kReverse,0.0,0.0,0.0,0.0,0.0,0.0,0.0,0.0,0.0,0.0,0.0,
179.011741,true,true,true,0.0,-0.015625,-1.0,-0.0078125,false,false,false,false,0.0,-0.0078125,0.0,-0.0078125,false,false,false,false,7.0,10.350000000000001,0.0,25728,-235,0,9.625,10.4,0.0,0,0,0,7.75,11.15,0.0,0,0,0,5.125,11.15,0.0,0,0,0,0.0,11.3,0.0,2,0,0,0.0,4.0,0.0,0,0,0,kReverse,0.0,0.0,0.0,0.0,0.0,0.0,0.0,0.0,0.0,0.0,0.0,
179.11548700000003,true,true,true,0.0,-0.015625,-0.359375,-0.0078125,false,false,false,false,0.0,-0.0078125,0.0,-0.0078125,false,false,false,false,7.25,11.100000000000001,0.0,25511,-217,0,9.375,11.05,0.0,0,0,0,7.875,11.15,0.0,0,0,0,5.375,11.15,0.0,0,0,0,0.0,11.3,0.0,2,0,0,0.0,4.0,0.0,0,0,0,kReverse,0.0,0.0,0.0,0.0,0.0,0.0,0.0,0.0,0.0,0.0,0.0,
179.20428900000002,true,true,true,0.0,0.8503937125205994,0.0,-0.0078125,false,false,false,false,0.0,-0.0078125,0.0,-0.0078125,false,false,false,false,17.25,11.15,0.0,25373,-138,0,19.625,11.05,0.0,0,0,0,0.5,11.25,0.0,0,0,0,4.125,11.25,0.0,0,0,0,0.0,11.350000000000001,0.0,2,0,0,0.0,4.0,0.0,0,0,0,kReverse,0.0,0.0,0.0,0.0,0.0,0.0,0.0,0.0,0.0,0.0,0.0,
179.306624,true,true,true,0.0,1.0,0.0,-0.0078125,false,false,false,false,0.0,-0.0078125,0.0,-0.0078125,false,false,false,false,24.5,11.15,0.0,25410,37,0,28.625,11.05,0.0,0,0,0,12.125,11.25,0.0,0,0,0,9.5,11.25,0.0,0,0,0,0.0,11.350000000000001,0.0,2,0,0,0.0,4.0,0.0,0,0,0,kReverse,0.0,0.0,0.0,0.0,0.0,0.0,0.0,0.0,0.0,0.0,0.0,
179.405511,true,true,true,0.0,1.0,0.0,-0.0078125,false,false,false,false,0.0,-0.0078125,0.0,-0.0078125,false,false,false,false,24.625,8.5,0.0,25408,-2,0,28.875,8.5,0.0,0,0,0,31.125,8.4,0.0,0,0,0,30.75,8.5,0.0,0,0,0,0.0,8.8,0.0,2,0,0,0.0,4.0,0.0,0,0,0,kReverse,0.0,0.0,0.0,0.0,0.0,0.0,0.0,0.0,0.0,0.0,0.0,
179.48961500000001,true,true,true,-0.1015625,1.0,0.0,-0.0078125,false,false,false,false,0.0,-0.0078125,0.0,-0.0078125,false,false,false,false,27.25,8.5,0.0,25409,1,0,32.625,8.5,0.0,0,0,0,32.5,8.4,0.0,0,0,0,31.875,8.5,0.0,0,0,0,0.0,8.8,0.0,2,0,0,0.0,4.0,0.0,0,0,0,kReverse,0.0,0.0,0.0,0.0,0.0,0.0,0.0,0.0,0.0,0.0,0.0,
179.565891,true,true,true,-0.3203125,1.0,0.0,-0.0078125,false,false,false,false,0.0,-0.0078125,0.0,-0.0078125,false,false,false,false,26.875,8.8,0.0,25409,0,0,33.625,8.95,0.0,0,0,0,28.5,8.9,0.0,0,0,0,27.125,8.7,0.0,0,0,0,0.0,9.100000000000001,0.0,2,0,0,0.0,4.0,0.0,0,0,0,kReverse,0.0,0.0,0.0,0.0,0.0,0.0,0.0,0.0,0.0,0.0,0.0,
179.690967,true,true,true,-0.3359375,1.0,0.0,-0.0078125,false,false,false,false,0.0,-0.0078125,0.0,-0.0078125,false,false,false,false,28.25,8.9,0.0,25409,0,0,34.5,9.100000000000001,0.0,0,0,0,23.75,9.100000000000001,0.0,0,0,0,22.25,9.100000000000001,0.0,0,0,0,0.0,9.3,0.0,2,0,0,0.0,4.0,0.0,0,0,0,kReverse,0.0,0.0,0.0,0.0,0.0,0.0,0.0,0.0,0.0,0.0,0.0,
179.86716,true,true,true,-0.3359375,1.0,0.0,-0.0078125,false,false,false,false,0.0,-0.0078125,0.0,-0.0078125,false,false,false,false,28.0,9.4,0.0,25409,0,0,35.0,9.3,0.0,0,0,0,20.125,9.600000000000001,0.0,0,0,0,18.625,9.350000000000001,0.0,0,0,0,0.0,9.55,0.0,2,0,0,0.0,4.0,0.0,0,0,0,kReverse,0.0,0.0,0.0,0.0,0.0,0.0,0.0,0.0,0.0,0.0,0.0,
180.009058,true,true,true,-0.3359375,1.0,0.0,-0.0078125,false,false,false,false,0.0,-0.0078125,0.0,-0.0078125,false,false,false,false,26.375,8.75,0.0,25408,-1,0,30.0,9.05,0.0,0,0,0,29.5,8.8,0.0,0,0,0,29.875,8.7,0.0,0,0,0,0.0,9.15,0.0,2,0,0,0.0,4.0,0.0,0,0,0,kReverse,0.0,0.0,0.0,0.0,0.0,0.0,0.0,0.0,0.0,0.0,0.0,
180.107862,true,true,true,-0.3359375,1.0,0.0,-0.0078125,false,false,false,false,0.0,-0.0078125,0.0,-0.0078125,false,false,false,false,25.75,8.75,0.0,25409,1,0,29.75,9.05,0.0,0,0,0,29.0,8.8,0.0,0,0,0,28.625,8.7,0.0,0,0,0,0.0,9.15,0.0,2,0,0,0.0,4.0,0.0,0,0,0,kReverse,0.0,0.0,0.0,0.0,0.0,0.0,0.0,0.0,0.0,0.0,0.0,
180.212342,true,true,true,-0.3359375,1.0,0.0,-0.0078125,false,false,false,false,0.0,-0.0078125,0.0,-0.0078125,false,false,false,false,25.625,8.8,0.0,25409,0,0,30.0,9.05,0.0,0,0,0,28.625,8.95,0.0,0,0,0,30.875,8.9,0.0,0,0,0,0.0,9.2,0.0,2,0,0,0.0,4.0,0.0,0,0,0,kReverse,0.0,0.0,0.0,0.0,0.0,0.0,0.0,0.0,0.0,0.0,0.0,
180.257263,true,true,true,-0.3359375,1.0,0.0,-0.0078125,false,false,false,false,0.0,-0.0078125,0.0,-0.0078125,false,false,false,false,25.625,8.8,0.0,25409,0,0,30.125,9.05,0.0,0,0,0,28.875,8.95,0.0,0,0,0,30.875,8.9,0.0,0,0,0,0.0,9.2,0.0,2,0,0,0.0,4.0,0.0,0,0,0,kReverse,0.0,0.0,0.0,0.0,0.0,0.0,0.0,0.0,0.0,0.0,0.0,
180.31037700000002,true,true,true,-0.1796875,1.0,0.29133859276771545,-0.0078125,false,false,false,false,0.0,-0.0078125,0.0,-0.0078125,false,false,false,false,25.625,8.7,0.0,25409,0,0,30.25,9.100000000000001,0.0,0,0,0,28.875,9.100000000000001,0.0,0,0,0,30.875,8.8,0.0,0,0,0,0.0,9.15,0.0,2,0,0,0.0,4.0,0.0,0,0,0,kReverse,0.0,0.0,0.0,0.0,0.0,0.0,0.0,0.0,0.0,0.0,0.0,
180.47016900000003,true,true,true,-0.21875,1.0,1.0,-0.0078125,false,false,false,false,0.0,-0.0078125,0.0,-0.0078125,false,false,false,false,11.25,8.7,0.0,25409,0,0,12.375,8.850000000000001,0.0,0,0,0,54.0,8.55,0.0,0,0,0,57.0,8.55,0.0,0,0,0,0.0,8.95,0.0,2,0,0,0.0,4.0,0.0,0,0,0,kReverse,0.0,0.0,0.0,0.0,0.0,0.0,0.0,0.0,0.0,0.0,0.0,
180.61807400000004,true,true,true,-0.2734375,1.0,1.0,-0.0078125,false,false,false,false,0.0,-0.0078125,0.0,-0.0078125,false,false,false,false,0.0,9.7,0.0,25509,68,0,0.125,9.7,0.0,0,0,0,47.625,9.4,0.0,0,0,0,47.125,9.4,0.0,0,0,0,0.0,9.8,0.0,2,0,0,0.0,4.0,0.0,0,0,0,kReverse,0.0,0.0,0.0,0.0,0.0,0.0,0.0,0.0,0.0,0.0,0.0,
180.70903600000003,true,true,true,0.05511811003088951,-0.328125,1.0,-0.0078125,false,false,false,false,0.0,-0.0078125,0.0,-0.0078125,false,false,false,false,0.0,9.7,0.0,25539,38,0,0.125,9.7,0.0,0,0,0,49.25,9.4,0.0,0,0,0,44.125,9.4,0.0,0,0,0,0.0,9.8,0.0,2,0,0,0.0,4.0,0.0,0,0,0,kReverse,0.0,0.0,0.0,0.0,0.0,0.0,0.0,0.0,0.0,0.0,0.0,
180.79780300000002,true,true,true,0.18110236525535583,-1.0,1.0,-0.0078125,false,false,false,false,0.0,-0.0078125,0.0,-0.0078125,false,false,false,false,26.875,9.75,0.0,25716,177,0,29.75,9.850000000000001,0.0,0,0,0,9.375,9.9,0.0,0,0,0,10.125,9.850000000000001,0.0,0,0,0,0.0,10.100000000000001,0.0,2,0,0,0.0,4.0,0.0,0,0,0,kReverse,0.0,0.0,0.0,0.0,0.0,0.0,0.0,0.0,0.0,0.0,0.0,
180.98933300000002,true,true,true,0.18110236525535583,-1.0,1.0,-0.0078125,false,false,false,false,0.0,-0.0078125,0.0,-0.0078125,false,false,false,false,33.75,9.850000000000001,0.0,26222,314,0,38.5,10.05,0.0,0,0,0,0.0,10.25,0.0,0,0,0,0.0,10.25,0.0,0,0,0,0.0,10.350000000000001,0.0,2,0,0,0.0,4.0,0.0,0,0,0,kReverse,0.0,0.0,0.0,0.0,0.0,0.0,0.0,0.0,0.0,0.0,0.0,
181.12969700000002,true,true,true,0.18110236525535583,-1.0,1.0,-0.0078125,false,false,false,false,0.0,-0.0078125,0.0,-0.0078125,false,false,false,false,25.375,10.45,0.0,26743,382,0,31.625,10.600000000000001,0.0,0,0,0,0.0,10.75,0.0,0,0,0,0.0,10.75,0.0,0,0,0,0.0,10.850000000000001,0.0,2,0,0,0.0,4.0,0.0,0,0,0,kReverse,0.0,0.0,0.0,0.0,0.0,0.0,0.0,0.0,0.0,0.0,0.0,
181.27756200000002,true,true,true,0.04724409431219101,-1.0,0.4251968562602997,-0.0078125,false,false,false,false,0.0,-0.0078125,0.0,-0.0078125,false,false,false,false,20.875,10.8,0.0,27428,436,0,26.25,10.9,0.0,0,0,0,0.0,11.05,0.0,0,0,0,0.0,11.05,0.0,0,0,0,0.0,11.100000000000001,0.0,2,0,0,0.0,4.0,0.0,0,0,0,kReverse,0.0,0.0,0.0,0.0,0.0,0.0,0.0,0.0,0.0,0.0,0.0,
181.407173,true,true,true,0.0,-1.0,0.0,-0.0078125,false,false,false,false,0.0,-0.0078125,0.0,-0.0078125,false,false,false,false,18.375,10.8,0.0,27974,459,0,23.75,10.9,0.0,0,0,0,0.0,11.05,0.0,0,0,0,0.0,11.05,0.0,0,0,0,0.0,11.600000000000001,0.0,2,0,0,0.0,4.0,0.0,0,0,0,kReverse,0.0,0.0,0.0,0.0,0.0,0.0,0.0,0.0,0.0,0.0,0.0,
181.533767,true,true,true,0.0,-1.0,0.0,-0.0078125,false,false,false,false,0.0,-0.0078125,0.0,-0.0078125,false,false,false,false,0.0,11.5,0.0,28485,418,256,0.375,11.45,0.0,0,0,0,5.875,11.5,0.0,0,0,0,5.25,11.45,0.0,0,0,0,0.0,11.600000000000001,0.0,2,0,0,0.0,4.0,0.0,0,0,0,kReverse,0.0,0.0,0.0,0.0,0.0,0.0,0.0,0.0,0.0,0.0,0.0,
