timer,lineLeft,lineCenter,lineRight,driverLeftX,driverLeftY,driverRightX,driverRightY,driverA,driverB,driverX,driverY,operatorLeftX,operatorLeftY,operatorRightX,operatorRightY,operatorA,operatorB,operatorX,operatorY,LeftFrontCurrent,LeftFrontVoltage,LeftFrontValue,LeftFrontPosition,LeftFrontVelocity,LeftFrontFaults,LeftRearCurrent,LeftRearVoltage,LeftRearValue,LeftRearPosition,LeftRearVelocity,LeftRearFaults,RightFrontCurrent,RightFrontVoltage,RightFrontValue,RightFrontPosition,RightFrontVelocity,RightFrontFaults,RightRearCurrent,RightRearVoltage,RightRearValue,RightRearPosition,RightRearVelocity,RightRearFaults,LiftCurrent,LiftVoltage,LiftValue,LiftPosition,LiftVelocity,LiftFaults,RollerCurrent,RollerVoltage,RollerValue,RollerPosition,RollerVelocity,RollerFaults,PushersState,navx_Pitch,navx_Roll,navx_Yaw,navx_XAcc,navx_YAcc,navx_ZAcc,navx_Temp,navx_Bar,navx_Alt,navx_XDis,navx_YDis,
26.560962,true,true,true,0.0,-0.015625,0.0,-0.0078125,false,false,false,false,0.0,0.0,0.0,0.0,false,false,false,false,0.0,12.35,0.0,172,0,0,0.125,12.4,0.0,0,0,0,0.0,12.35,0.0,0,0,0,0.0,12.35,0.0,0,0,0,0.0,12.450000000000001,0.0,0,0,0,0.0,4.0,0.0,0,0,0,kReverse,0.0,0.0,0.0,0.0,0.0,0.0,0.0,0.0,0.0,0.0,0.0,
26.887919,true,true,true,0.0,-0.015625,0.0,-0.0078125,false,false,false,false,0.0,0.0,0.0,0.0,false,false,false,false,0.0,12.35,0.0,172,0,0,0.125,12.35,0.0,0,0,0,0.0,12.35,0.0,0,0,0,0.0,12.35,0.0,0,0,0,0.0,12.4,0.0,0,0,0,0.0,4.0,0.0,0,0,0,kReverse,0.0,0.0,0.0,0.0,0.0,0.0,0.0,0.0,0.0,0.0,0.0,
26.985077,true,true,true,0.0,-0.015625,0.0,-0.0078125,false,false,false,false,0.0,0.0,0.0,0.0,false,false,false,false,0.0,12.35,0.0,172,0,0,0.125,12.35,0.0,0,0,0,0.0,12.35,0.0,0,0,0,0.0,12.35,0.0,0,0,0,0.0,12.4,0.0,0,0,0,0.0,4.0,0.0,0,0,0,kReverse,0.0,0.0,0.0,0.0,0.0,0.0,0.0,0.0,0.0,0.0,0.0,
27.082802,true,true,true,0.0,-0.015625,0.0,-0.0078125,false,false,false,false,0.0,0.0,0.0,0.0,false,false,false,false,0.0,12.35,0.0,172,0,0,0.125,12.35,0.0,0,0,0,0.0,12.35,0.0,0,0,0,0.0,12.35,0.0,0,0,0,0.0,12.4,0.0,0,0,0,0.0,4.0,0.0,0,0,0,kReverse,0.0,0.0,0.0,0.0,0.0,0.0,0.0,0.0,0.0,0.0,0.0,
27.286963,true,true,true,0.0,-0.015625,0.0,-0.0078125,false,false,false,false,0.0,0.0,0.0,0.0,false,false,false,false,0.0,12.35,0.0,172,0,0,0.125,12.35,0.0,0,0,0,0.0,12.35,0.0,0,0,0,0.0,12.35,0.0,0,0,0,0.0,12.4,0.0,0,0,0,0.0,4.0,0.0,0,0,0,kReverse,0.0,0.0,0.0,0.0,0.0,0.0,0.0,0.0,0.0,0.0,0.0,
27.468947,true,true,true,0.0,-0.015625,0.0,-0.0078125,false,false,false,false,0.0,0.0,0.0,0.0,false,false,false,false,0.0,12.35,0.0,172,0,0,0.125,12.35,0.0,0,0,0,0.0,12.35,0.0,0,0,0,0.0,12.35,0.0,0,0,0,0.0,12.4,0.0,0,0,0,0.0,4.0,0.0,0,0,0,kReverse,0.0,0.0,0.0,0.0,0.0,0.0,0.0,0.0,0.0,0.0,0.0,
27.595701000000002,true,true,true,0.0,-0.015625,0.0,-0.0078125,false,false,false,false,0.0,0.0,0.0,0.0,false,false,false,false,0.0,12.35,0.0,172,0,0,0.125,12.35,0.0,0,0,0,0.0,12.35,0.0,0,0,0,0.0,12.35,0.0,0,0,0,0.0,12.4,0.0,0,0,0,0.0,4.0,0.0,0,0,0,kReverse,0.0,0.0,0.0,0.0,0.0,0.0,0.0,0.0,0.0,0.0,0.0,
27.698207000000004,true,true,true,0.0,-0.015625,0.0,-0.0078125,false,false,false,false,0.0,0.0,0.0,0.0,false,false,false,false,0.0,12.35,0.0,172,0,0,0.125,12.35,0.0,0,0,0,0.0,12.35,0.0,0,0,0,0.0,12.3,0.0,0,0,0,0.0,12.4,0.0,0,0,0,0.0,4.0,0.0,0,0,0,kReverse,0.0,0.0,0.0,0.0,0.0,0.0,0.0,0.0,0.0,0.0,0.0,
27.982264999999998,true,true,true,0.0,-0.015625,0.0,-0.0078125,false,false,false,false,0.0,0.0,0.0,0.0,false,false,false,false,0.0,12.3,0.0,172,0,0,0.125,12.35,0.0,0,0,0,0.0,12.3,0.0,0,0,0,0.0,12.3,0.0,0,0,0,0.0,12.4,0.0,0,0,0,0.0,4.0,0.0,0,0,0,kReverse,0.0,0.0,0.0,0.0,0.0,0.0,0.0,0.0,0.0,0.0,0.0,
28.190761000000002,true,true,true,0.0,-0.015625,0.0,-0.0078125,false,false,false,false,0.0,0.0,0.0,0.0,false,false,false,false,0.0,12.3,0.0,172,0,0,0.125,12.35,0.0,0,0,0,0.0,12.3,0.0,0,0,0,0.0,12.3,0.0,0,0,0,0.0,12.4,0.0,0,0,0,0.0,4.0,0.0,0,0,0,kReverse,0.0,0.0,0.0,0.0,0.0,0.0,0.0,0.0,0.0,0.0,0.0,
28.357143,true,true,true,0.0,-0.015625,0.0,-0.0078125,false,false,false,false,0.0,0.0,0.0,0.0,false,false,false,false,0.0,12.3,0.0,172,0,0,0.125,12.35,0.0,0,0,0,0.0,12.3,0.0,0,0,0,0.0,12.3,0.0,0,0,0,0.0,12.4,0.0,0,0,0,0.0,4.0,0.0,0,0,0,kReverse,0.0,0.0,0.0,0.0,0.0,0.0,0.0,0.0,0.0,0.0,0.0,
28.450892,true,true,true,0.0,-0.015625,0.0,-0.0078125,false,false,false,false,0.0,0.0,0.0,0.0,false,false,false,false,0.0,12.3,0.0,172,0,0,0.125,12.35,0.0,0,0,0,0.0,12.3,0.0,0,0,0,0.0,12.3,0.0,0,0,0,0.0,12.4,0.0,0,0,0,0.0,4.0,0.0,0,0,0,kReverse,0.0,0.0,0.0,0.0,0.0,0.0,0.0,0.0,0.0,0.0,0.0,
28.687843,true,true,true,0.0,-0.015625,0.0,-0.0078125,false,false,false,false,0.0,0.0,0.0,0.0,false,false,false,false,0.0,12.3,0.0,172,0,0,0.125,12.3,0.0,0,0,0,0.0,12.3,0.0,0,0,0,0.0,12.3,0.0,0,0,0,0.0,12.35,0.0,0,0,0,0.0,4.0,0.0,0,0,0,kReverse,0.0,0.0,0.0,0.0,0.0,0.0,0.0,0.0,0.0,0.0,0.0,
28.889670000000002,true,true,true,0.0,-0.015625,0.0,-0.0078125,false,false,false,false,0.0,0.0,0.0,0.0,false,false,false,false,0.0,12.3,0.0,172,0,0,0.125,12.3,0.0,0,0,0,0.0,12.3,0.0,0,0,0,0.0,12.3,0.0,0,0,0,0.0,12.35,0.0,0,0,0,0.0,4.0,0.0,0,0,0,kReverse,0.0,0.0,0.0,0.0,0.0,0.0,0.0,0.0,0.0,0.0,0.0,
29.143092,true,true,true,0.0,-0.2421875,0.0,-0.0078125,false,true,false,false,0.0,0.0,0.0,0.0,false,false,false,false,0.0,12.3,0.0,172,0,0,0.125,12.3,0.0,0,0,0,0.0,12.3,0.0,0,0,0,0.0,12.25,0.0,0,0,0,0.0,12.35,0.0,0,0,0,0.0,4.0,0.0,0,0,0,kReverse,0.0,0.0,0.0,0.0,0.0,0.0,0.0,0.0,0.0,0.0,0.0,
29.364509,true,true,true,0.05511811003088951,1.0,0.0,-0.0078125,false,true,false,false,0.0,0.0,0.0,0.0,false,false,false,false,0.0,12.25,0.0,172,0,0,0.125,12.3,0.0,0,0,0,6.5,12.25,0.0,0,0,0,4.875,12.25,0.0,0,0,0,0.0,12.35,0.0,0,0,0,0.0,4.0,0.0,0,0,0,kReverse,0.0,0.0,0.0,0.0,0.0,0.0,0.0,0.0,0.0,0.0,0.0,
29.488645999999996,true,true,true,0.0,-0.015625,0.0,-0.0078125,false,false,false,false,0.0,0.0,0.0,0.0,false,false,false,false,1.5,12.25,0.0,59,-113,0,3.875,12.3,0.0,0,0,0,2.0,12.05,0.0,0,0,0,0.875,12.0,0.0,0,0,0,0.0,12.1,0.0,0,0,0,0.0,4.0,0.0,0,0,0,kReverse,0.0,0.0,0.0,0.0,0.0,0.0,0.0,0.0,0.0,0.0,0.0,
29.580608000000005,true,true,true,0.0,-0.015625,0.0,-0.0078125,false,false,false,false,0.0,0.0,0.0,0.0,false,false,false,false,0.0,12.1,0.0,-158,-217,0,0.0,12.05,0.0,0,0,0,0.0,12.05,0.0,0,0,0,0.0,12.0,0.0,0,0,0,0.0,12.1,0.0,0,0,0,0.0,4.0,0.0,0,0,0,kReverse,0.0,0.0,0.0,0.0,0.0,0.0,0.0,0.0,0.0,0.0,0.0,
29.640627000000006,true,true,true,0.0,-0.015625,0.0,-0.0078125,false,false,false,false,0.0,0.0,0.0,0.0,false,false,false,false,0.0,12.1,0.0,-222,-122,0,0.125,12.05,0.0,0,0,0,0.0,12.05,0.0,0,0,0,0.0,12.25,0.0,0,0,0,0.0,12.35,0.0,0,0,0,0.0,4.0,0.0,0,0,0,kReverse,0.0,0.0,0.0,0.0,0.0,0.0,0.0,0.0,0.0,0.0,0.0,
29.841569,true,true,true,0.0,-0.015625,0.0,-0.0078125,false,false,false,false,0.0,0.0,0.0,0.0,false,false,false,false,0.0,12.25,0.0,-322,-36,0,0.125,12.25,0.0,0,0,0,0.0,12.25,0.0,0,0,0,0.0,12.25,0.0,0,0,0,0.0,12.3,0.0,0,0,0,0.0,4.0,0.0,0,0,0,kReverse,0.0,0.0,0.0,0.0,0.0,0.0,0.0,0.0,0.0,0.0,0.0,
30.082322000000005,true,true,true,0.0,-0.015625,0.0,-0.0078125,false,false,false,false,0.0,0.0,0.0,0.0,false,false,false,false,0.0,12.25,0.0,-330,0,0,0.125,12.25,0.0,0,0,0,0.0,12.25,0.0,0,0,0,0.0,12.25,0.0,0,0,0,0.0,12.35,0.0,0,0,0,0.0,4.0,0.0,0,0,0,kReverse,0.0,0.0,0.0,0.0,0.0,0.0,0.0,0.0,0.0,0.0,0.0,
30.297240000000002,true,true,true,0.0,-0.015625,0.0,-0.0078125,false,false,false,false,0.0,0.0,0.0,0.0,false,false,false,false,0.0,12.25,0.0,-330,0,0,0.125,12.25,0.0,0,0,0,0.0,12.25,0.0,0,0,0,0.0,12.25,0.0,0,0,0,0.0,12.35,0.0,0,0,0,0.0,4.0,0.0,0,0,0,kReverse,0.0,0.0,0.0,0.0,0.0,0.0,0.0,0.0,0.0,0.0,0.0,
30.394467999999996,true,true,true,0.0,-0.015625,0.0,-0.0078125,false,false,false,false,0.0,0.0,0.0,0.0,false,false,false,false,0.0,12.25,0.0,-330,0,0,0.125,12.25,0.0,0,0,0,0.0,12.25,0.0,0,0,0,0.0,12.25,0.0,0,0,0,0.0,12.35,0.0,0,0,0,0.0,4.0,0.0,0,0,0,kReverse,0.0,0.0,0.0,0.0,0.0,0.0,0.0,0.0,0.0,0.0,0.0,
30.470257999999998,true,true,true,0.0,-0.015625,0.0,-0.0078125,false,false,false,false,0.0,0.0,0.0,0.0,false,false,false,false,0.0,12.25,0.0,-330,0,0,0.125,12.25,0.0,0,0,0,0.0,12.25,0.0,0,0,0,0.0,12.25,0.0,0,0,0,0.0,12.35,0.0,0,0,0,0.0,4.0,0.0,0,0,0,kReverse,0.0,0.0,0.0,0.0,0.0,0.0,0.0,0.0,0.0,0.0,0.0,
30.664361,true,true,true,0.0,-0.015625,0.0,-0.0078125,false,false,false,false,0.0,0.0,0.0,0.0,false,false,false,false,0.0,12.25,0.0,-330,0,0,0.125,12.25,0.0,0,0,0,0.0,12.25,0.0,0,0,0,0.0,12.25,0.0,0,0,0,0.0,12.35,0.0,0,0,0,0.0,4.0,0.0,0,0,0,kReverse,0.0,0.0,0.0,0.0,0.0,0.0,0.0,0.0,0.0,0.0,0.0,
30.752886000000004,true,true,true,0.0,-0.015625,0.0,-0.0078125,false,false,false,false,0.0,0.0,0.0,0.0,false,false,false,false,0.0,12.25,0.0,-330,0,0,0.125,12.25,0.0,0,0,0,0.0,12.25,0.0,0,0,0,0.0,12.25,0.0,0,0,0,0.0,12.35,0.0,0,0,0,0.0,4.0,0.0,0,0,0,kReverse,0.0,0.0,0.0,0.0,0.0,0.0,0.0,0.0,0.0,0.0,0.0,
