timer,lineLeft,lineCenter,lineRight,driverLeftX,driverLeftY,driverRightX,driverRightY,driverA,driverB,driverX,driverY,operatorLeftX,operatorLeftY,operatorRightX,operatorRightY,operatorA,operatorB,operatorX,operatorY,LeftFrontCurrent,LeftFrontVoltage,LeftFrontValue,LeftFrontPosition,LeftFrontVelocity,LeftFrontFaults,LeftRearCurrent,LeftRearVoltage,LeftRearValue,LeftRearPosition,LeftRearVelocity,LeftRearFaults,RightFrontCurrent,RightFrontVoltage,RightFrontValue,RightFrontPosition,RightFrontVelocity,RightFrontFaults,RightRearCurrent,RightRearVoltage,RightRearValue,RightRearPosition,RightRearVelocity,RightRearFaults,LiftCurrent,LiftVoltage,LiftValue,LiftPosition,LiftVelocity,LiftFaults,WristCurrent,WristVoltage,WristValue,WristPosition,WristVelocity,WristFaults,RollerCurrent,RollerVoltage,RollerValue,RollerPosition,RollerVelocity,RollerFaults,PushersState,PivotsState,navx_Pitch,navx_Roll,navx_Yaw,navx_XAcc,navx_YAcc,navx_ZAcc,navx_Temp,navx_Bar,navx_Alt,navx_XDis,navx_YDis,
27.224928,true,true,true,0.0,-0.0078125,0.0,-0.0078125,false,false,false,false,0.0,-0.0078125,0.0,-0.0078125,false,false,false,false,0.125,12.700000000000001,0.0,-4666,0,0,0.125,12.700000000000001,0.0,0,0,0,0.125,12.700000000000001,0.0,-13146,0,0,0.0,12.75,0.0,0,0,0,0.0,12.700000000000001,0.0,0,0,0,0.0,12.700000000000001,0.0,0,0,0,0.0,12.75,0.0,0,0,0,kReverse,kOff,-84.38,1.96,1.15,0.033325195,-0.97961426,0.092041016,31.03,0.0,0.0,-4.622879,-0.8468933,
27.322467,true,true,true,0.0,-0.0078125,0.0,-0.0078125,false,false,false,false,0.0,-0.0078125,0.0,-0.0078125,false,false,false,false,0.125,12.700000000000001,0.0,-4666,0,0,0.125,12.700000000000001,0.0,0,0,0,0.125,12.700000000000001,0.0,-13146,0,0,0.125,12.75,0.0,0,0,0,0.0,12.700000000000001,0.0,0,0,0,0.0,12.700000000000001,0.0,0,0,0,0.0,12.75,0.0,0,0,0,kReverse,kOff,-84.38,1.96,1.15,0.03302002,-0.9814453,0.08850098,31.03,0.0,0.0,-4.622879,-0.8468933,
27.367275999999997,true,true,true,0.0,-0.0078125,0.0,-0.0078125,false,false,false,false,0.0,-0.0078125,0.0,-0.0078125,false,false,false,false,0.125,12.700000000000001,0.0,-4666,0,0,0.125,12.700000000000001,0.0,0,0,0,0.125,12.700000000000001,0.0,-13146,0,0,0.125,12.75,0.0,0,0,0,0.0,12.700000000000001,0.0,0,0,0,0.0,12.700000000000001,0.0,0,0,0,0.125,12.75,0.0,0,0,0,kReverse,kOff,-84.38,1.96,1.15,0.03277588,-0.9805908,0.09051514,31.03,0.0,-1.0,-4.622879,-0.8468933,
27.412179000000002,true,true,true,0.0,-0.0078125,0.0,-0.0078125,false,false,false,false,0.0,-0.0078125,0.0,-0.0078125,false,false,false,false,0.125,12.700000000000001,0.0,-4666,0,0,0.125,12.700000000000001,0.0,0,0,0,0.125,12.700000000000001,0.0,-13146,0,0,0.125,12.75,0.0,0,0,0,0.0,12.700000000000001,0.0,0,0,0,0.0,12.700000000000001,0.0,0,0,0,0.125,12.75,0.0,0,0,0,kReverse,kOff,-84.38,1.96,1.15,0.03289795,-0.9794922,0.08929443,31.03,0.0,0.0,-4.622879,-0.8468933,
27.469922999999998,true,true,true,0.0,-0.0078125,0.0,-0.0078125,false,false,false,false,0.0,-0.0078125,0.0,-0.0078125,false,false,false,false,0.125,12.700000000000001,0.0,-4666,0,0,0.125,12.700000000000001,0.0,0,0,0,0.125,12.700000000000001,0.0,-13146,0,0,0.125,12.75,0.0,0,0,0,0.0,12.700000000000001,0.0,0,0,0,0.0,12.700000000000001,0.0,0,0,0,0.125,12.75,0.0,0,0,0,kReverse,kOff,-84.38,1.96,1.14,0.032714844,-0.9815674,0.09631348,31.06,0.0,-1.0,-4.622879,-0.8468933,
27.513505000000002,true,true,true,0.0,-0.0078125,0.0,-0.0078125,false,false,false,false,0.0,-0.0078125,0.0,-0.0078125,false,false,false,false,0.125,12.700000000000001,0.0,-4666,0,0,0.125,12.700000000000001,0.0,0,0,0,0.125,12.700000000000001,0.0,-13146,0,0,0.125,12.75,0.0,0,0,0,0.0,12.700000000000001,0.0,0,0,0,0.0,12.700000000000001,0.0,0,0,0,0.0,12.75,0.0,0,0,0,kReverse,kOff,-84.38,1.96,1.15,0.035583496,-0.9834595,0.09320068,31.06,0.0,1.0,-4.622879,-0.8468933,
27.553537,true,true,true,0.0,-0.0078125,0.0,-0.0078125,false,false,false,false,0.0,-0.0078125,0.0,-0.0078125,false,false,false,false,0.125,12.700000000000001,0.0,-4666,0,0,0.125,12.700000000000001,0.0,0,0,0,0.125,12.700000000000001,0.0,-13146,0,0,0.125,12.75,0.0,0,0,0,0.0,12.700000000000001,0.0,0,0,0,0.0,12.700000000000001,0.0,0,0,0,0.0,12.75,0.0,0,0,0,kReverse,kOff,-84.39,1.96,1.14,0.035217285,-0.9815674,0.09051514,31.06,0.0,1.0,-4.622879,-0.8468933,
27.596868999999998,true,true,true,0.0,-0.0078125,0.0,-0.0078125,false,false,false,false,0.0,-0.0078125,0.0,-0.0078125,false,false,false,false,0.125,12.700000000000001,0.0,-4666,0,0,0.125,12.700000000000001,0.0,0,0,0,0.125,12.700000000000001,0.0,-13146,0,0,0.125,12.75,0.0,0,0,0,0.0,12.700000000000001,0.0,0,0,0,0.0,12.700000000000001,0.0,0,0,0,0.0,12.75,0.0,0,0,0,kReverse,kOff,-84.39,1.96,1.14,0.03363037,-0.9830322,0.08898926,31.06,0.0,0.0,-4.622879,-0.8468933,
27.665176,true,true,true,0.0,-0.0078125,0.0,-0.0078125,false,false,false,false,0.0,-0.0078125,0.0,-0.0078125,false,false,false,false,0.125,12.700000000000001,0.0,-4666,0,0,0.125,12.700000000000001,0.0,0,0,0,0.125,12.700000000000001,0.0,-13146,0,0,0.125,12.75,0.0,0,0,0,0.0,12.700000000000001,0.0,0,0,0,0.0,12.700000000000001,0.0,0,0,0,0.0,12.75,0.0,0,0,0,kReverse,kOff,-84.39,1.96,1.15,0.032409668,-0.97979736,0.08984375,31.06,0.0,-1.0,-4.622879,-0.8468933,
27.736307,true,true,true,0.0,-0.0078125,-0.0859375,-0.0078125,false,false,false,false,0.0,-0.0078125,0.0,-0.0078125,false,false,false,false,0.125,12.700000000000001,0.0,-4666,0,0,0.125,12.700000000000001,0.0,0,0,0,0.125,12.700000000000001,0.0,-13146,0,0,0.125,12.75,0.0,0,0,0,0.0,12.700000000000001,0.0,0,0,0,0.0,12.700000000000001,0.0,0,0,0,0.0,12.75,0.0,0,0,0,kReverse,kOff,-84.39,1.96,1.15,0.034179688,-0.97943115,0.08514404,31.06,0.0,1.0,-4.622879,-0.8468933,
27.79243,true,true,true,0.0,-0.0078125,-0.5234375,-0.0078125,false,false,false,false,0.0,-0.0078125,0.0,-0.0078125,false,false,false,false,0.125,12.65,0.0,-4659,2,0,0.125,12.65,0.0,0,0,0,0.375,12.65,0.0,-13151,-1,0,0.25,12.700000000000001,0.0,0,0,0,0.0,12.65,0.0,0,0,0,0.0,12.65,0.0,0,0,0,0.0,12.75,0.0,0,0,0,kReverse,kOff,-84.36,1.96,1.15,0.026489258,-1.0431519,0.046936035,31.06,0.0,-1.0,-4.622879,-0.84684753,
27.829163,true,true,true,0.0,-0.0078125,-0.609375,-0.0078125,false,false,false,false,0.0,-0.0078125,0.0,-0.0078125,false,false,false,false,3.625,12.65,0.0,-4652,5,0,6.375,12.65,0.0,0,0,0,9.875,12.65,0.0,-13175,-10,0,8.125,12.700000000000001,0.0,0,0,0,0.0,12.65,0.0,0,0,0,0.0,12.65,0.0,0,0,0,0.125,12.75,0.0,0,0,0,kReverse,kOff,-84.4,2.1,1.27,-0.1984253,0.38061523,0.7526245,31.06,0.0,-307.0,-4.6224365,-0.8469238,
27.867449,true,true,true,0.0,-0.0078125,-0.8359375,-0.0078125,false,false,false,false,0.0,-0.0078125,0.0,-0.0078125,false,false,false,false,13.125,12.65,0.0,-4625,21,0,16.5,12.65,0.0,0,0,0,19.375,12.65,0.0,-13202,-32,0,18.0,12.700000000000001,0.0,0,0,0,0.0,12.65,0.0,0,0,0,0.0,12.65,0.0,0,0,0,0.125,12.75,0.0,0,0,0,kReverse,kOff,-83.51,1.72,0.49,0.4743042,-1.0583496,0.10437012,31.06,0.0,436.0,-4.6234894,-0.8441467,
27.900938999999997,true,true,true,0.0,-0.0078125,-0.9609375,-0.0078125,false,false,false,false,0.0,-0.0078125,0.0,-0.0078125,false,false,false,false,24.125,12.65,0.0,-4577,49,0,21.625,12.65,0.0,0,0,0,24.5,12.65,0.0,-13223,-46,0,22.0,12.700000000000001,0.0,0,0,0,0.0,12.65,0.0,0,0,0,0.0,12.65,0.0,0,0,0,0.125,12.75,0.0,0,0,0,kReverse,kOff,-83.67,1.64,-0.09,-0.15661621,-0.91174316,0.42767334,31.06,0.0,-266.0,-4.6251984,-0.836853,
27.937317999999998,true,true,true,0.0,-0.0078125,-0.96875,-0.0078125,false,false,false,false,0.0,-0.0078125,0.0,-0.0078125,false,false,false,false,32.0,9.0,0.0,-4506,91,0,29.25,9.15,0.0,0,0,0,34.875,8.95,0.0,-13288,-81,0,32.0,9.100000000000001,0.0,0,0,0,0.0,9.350000000000001,0.0,0,0,0,0.0,9.25,0.0,0,0,0,0.0,9.350000000000001,0.0,0,0,0,kReverse,kOff,-82.97,1.45,-1.11,-0.21209717,-0.65802,0.258667,31.06,0.0,-277.0,-4.628311,-0.83026123,
27.973612,true,true,true,0.0,-0.0078125,-0.96875,-0.0078125,false,false,false,false,0.0,-0.0078125,0.0,-0.0078125,false,false,false,false,32.25,9.0,0.0,-4412,146,0,33.0,9.15,0.0,0,0,0,39.0,8.95,0.0,-13374,-128,0,37.125,9.100000000000001,0.0,0,0,0,0.0,9.350000000000001,0.0,0,0,0,0.0,9.25,0.0,0,0,0,0.0,9.350000000000001,0.0,0,0,0,kReverse,kOff,-83.01,1.49,-1.85,-0.122924805,-1.1810913,0.011657715,31.04,0.0,-79.0,-4.6352997,-0.8188324,
28.010626,true,true,true,0.0,-0.0078125,-0.96875,-0.0078125,false,false,false,false,0.0,-0.0078125,0.0,-0.0078125,false,false,false,false,28.0,9.0,0.0,-4302,202,0,31.125,9.15,0.0,0,0,0,34.75,8.95,0.0,-13476,-183,0,34.875,9.100000000000001,0.0,0,0,0,0.0,9.350000000000001,0.0,0,0,0,0.0,9.25,0.0,0,0,0,0.0,9.350000000000001,0.0,0,0,0,kReverse,kOff,-83.14,1.48,-2.83,0.09832764,-0.6376343,-0.061340332,31.04,0.0,142.0,-4.637787,-0.8152008,
28.044913,true,true,true,0.0,-0.0078125,-0.96875,-0.0078125,false,false,false,false,0.0,-0.0078125,0.0,-0.0078125,false,false,false,false,25.875,9.0,0.0,-4240,228,0,27.5,9.15,0.0,0,0,0,31.125,8.95,0.0,-13594,-231,0,31.875,9.100000000000001,0.0,0,0,0,0.0,9.350000000000001,0.0,0,0,0,0.0,9.25,0.0,0,0,0,0.125,9.350000000000001,0.0,0,0,0,kReverse,kOff,-82.89,1.26,-5.53,-0.49023438,-0.9414673,0.27789307,31.04,0.0,-478.0,-4.647461,-0.80474854,
28.089320999999998,true,true,true,0.0,-0.0078125,-0.8359375,-0.0078125,false,false,false,false,0.0,-0.0078125,0.0,-0.0078125,false,false,false,false,23.0,9.0,0.0,-4041,292,0,25.75,9.850000000000001,0.0,0,0,0,27.625,9.9,0.0,-13729,-273,0,28.625,9.95,0.0,0,0,0,0.0,10.15,0.0,0,0,0,0.0,10.15,0.0,0,0,0,0.125,10.2,0.0,0,0,0,kReverse,kOff,-83.06,0.97,-11.64,-0.7819214,-2.0,0.6795044,31.04,0.0,-769.0,-4.667282,-0.7962494,
28.148045999999997,true,true,true,0.0,-0.0078125,0.0,-0.0078125,false,false,false,false,0.0,-0.0078125,0.0,-0.0078125,false,false,false,false,14.375,9.9,0.0,-3839,325,0,19.5,9.850000000000001,0.0,0,0,0,17.625,9.9,0.0,-13939,-326,0,18.75,9.95,0.0,0,0,0,0.0,10.15,0.0,0,0,0,0.0,10.15,0.0,0,0,0,0.0,10.2,0.0,0,0,0,kReverse,kOff,-83.46,1.36,-32.06,-0.38275146,-2.0,0.15301514,31.04,0.0,-3.0,-4.692688,-0.7939606,
28.190932,true,true,true,0.0,-0.0078125,0.0,-0.0078125,false,false,false,false,0.0,-0.0078125,0.0,-0.0078125,false,false,false,false,3.75,9.9,0.0,-3713,337,0,5.875,9.850000000000001,0.0,0,0,0,6.375,9.9,0.0,-14046,-340,0,8.625,9.95,0.0,0,0,0,0.0,10.15,0.0,0,0,0,0.0,10.15,0.0,0,0,0,0.0,10.2,0.0,0,0,0,kReverse,kOff,-83.63,0.44,-88.39,-0.85198975,-0.67004395,-1.0043945,31.04,0.0,1069.0,-4.7029724,-0.79644775,
28.223551999999998,true,true,true,0.0,-0.0078125,0.0,-0.0078125,false,false,false,false,0.0,-0.0078125,0.0,-0.0078125,false,false,false,false,0.125,9.9,0.0,-3660,335,0,0.125,9.850000000000001,0.0,0,0,0,0.125,9.9,0.0,-14128,-303,0,0.125,9.95,0.0,0,0,0,0.0,10.15,0.0,0,0,0,0.0,10.15,0.0,0,0,0,0.0,10.2,0.0,0,0,0,kReverse,kOff,-83.89,1.81,-154.07,-0.094055176,-0.3642578,0.16040039,31.04,0.0,-96.0,-4.7101593,-0.8008423,
28.267709,true,true,true,0.0,-0.0078125,0.0,-0.0078125,false,false,false,false,0.0,-0.0078125,0.0,-0.0078125,false,false,false,false,0.125,12.4,0.0,-3555,312,0,0.125,12.4,0.0,0,0,0,0.125,12.4,0.0,-14200,-245,0,0.125,12.450000000000001,0.0,0,0,0,0.0,12.4,0.0,0,0,0,0.0,12.4,0.0,0,0,0,0.0,12.450000000000001,0.0,0,0,0,kReverse,kOff,-83.55,1.12,-160.64,-0.5147095,-1.0432129,-0.74224854,31.04,0.0,977.0,-4.713684,-0.8043823,
28.296345000000002,true,true,true,0.0,-0.0078125,0.0,-0.0078125,false,false,false,false,0.0,-0.0078125,0.0,-0.0078125,false,false,false,false,0.125,12.4,0.0,-3461,277,0,0.125,12.4,0.0,0,0,0,0.125,12.4,0.0,-14222,-217,0,0.125,12.450000000000001,0.0,0,0,0,0.0,12.4,0.0,0,0,0,0.0,12.4,0.0,0,0,0,0.0,12.450000000000001,0.0,0,0,0,kReverse,kOff,-84.16,-1.0,-167.11,-1.1610718,0.16381836,0.56152344,31.04,0.0,-94.0,-4.7131042,-0.8109741,
28.327649,true,true,true,0.0,-0.0078125,0.0,-0.0078125,false,false,false,false,0.0,-0.0078125,0.0,-0.0078125,false,false,false,false,0.125,12.4,0.0,-3417,236,0,0.125,12.4,0.0,0,0,0,0.125,12.4,0.0,-14247,-165,0,0.125,12.450000000000001,0.0,0,0,0,0.0,12.4,0.0,0,0,0,0.0,12.4,0.0,0,0,0,0.0,12.450000000000001,0.0,0,0,0,kReverse,kOff,-83.9,-0.92,-169.07,-0.092041016,-1.8720093,-1.3274536,31.04,0.0,1384.0,-4.714218,-0.82632446,
28.371153999999997,true,true,true,0.0,-0.0078125,0.0,-0.0078125,false,false,false,false,0.0,-0.0078125,0.0,-0.0078125,false,false,false,false,0.125,12.4,0.0,-3383,174,0,0.125,12.4,0.0,0,0,0,0.125,12.4,0.0,-14270,-106,0,0.125,12.450000000000001,0.0,0,0,0,0.0,12.4,0.0,0,0,0,0.0,12.4,0.0,0,0,0,0.0,12.450000000000001,0.0,0,0,0,kReverse,kOff,-84.92,0.34,-171.0,0.71325684,-2.0,-0.37579346,31.04,0.0,124.0,-4.712372,-0.83358765,
28.3978,true,true,true,0.0,-0.0078125,0.0,-0.0078125,false,false,false,false,0.0,-0.0078125,0.0,-0.0078125,false,false,false,false,0.125,12.4,0.0,-3358,142,0,0.125,12.4,0.0,0,0,0,0.125,12.4,0.0,-14294,-83,0,0.125,12.450000000000001,0.0,0,0,0,0.0,12.4,0.0,0,0,0,0.0,12.4,0.0,0,0,0,0.0,12.450000000000001,0.0,0,0,0,kReverse,kOff,-85.85,1.59,-172.65,0.58392334,-0.8096924,-0.32330322,31.04,0.0,4.0,-4.711258,-0.8338623,
28.431406,true,true,true,0.0,-0.0078125,0.0,-0.0078125,false,false,false,false,0.0,-0.0078125,0.0,-0.0078125,false,false,false,false,0.125,12.450000000000001,0.0,-3311,106,0,0.125,12.5,0.0,0,0,0,0.125,12.450000000000001,0.0,-14316,-70,0,0.125,12.5,0.0,0,0,0,0.0,12.5,0.0,0,0,0,0.0,12.450000000000001,0.0,0,0,0,0.0,12.55,0.0,0,0,0,kReverse,kOff,-85.59,1.92,-172.64,-0.093566895,-1.541565,0.55200195,31.04,0.0,-273.0,-4.711319,-0.831604,
28.471366999999997,true,true,true,0.0,-0.0078125,0.0,-0.0078125,false,false,false,false,0.0,-0.0078125,0.0,-0.0078125,false,false,false,false,0.125,12.450000000000001,0.0,-3268,108,0,0.125,12.5,0.0,0,0,0,0.125,12.450000000000001,0.0,-14320,-66,0,0.125,12.5,0.0,0,0,0,0.0,12.5,0.0,0,0,0,0.0,12.450000000000001,0.0,0,0,0,0.125,12.55,0.0,0,0,0,kReverse,kOff,-85.28,0.53,-173.39,-1.4749756,-0.30969238,1.164856,31.0,0.0,-987.0,-4.7064667,-0.8312378,
28.501257000000003,true,true,true,0.0,-0.0078125,0.0,-0.0078125,false,false,false,false,0.0,-0.0078125,0.0,-0.0078125,false,false,false,false,0.125,12.450000000000001,0.0,-3249,111,0,0.125,12.5,0.0,0,0,0,0.125,12.450000000000001,0.0,-14320,-56,0,0.125,12.5,0.0,0,0,0,0.0,12.5,0.0,0,0,0,0.0,12.450000000000001,0.0,0,0,0,0.0,12.55,0.0,0,0,0,kReverse,kOff,-85.44,0.02,-174.21,0.5877075,-0.46209717,0.15686035,31.0,0.0,-457.0,-4.7052917,-0.8322296,
28.53154,true,true,true,0.0,-0.0078125,0.0,-0.0078125,false,false,false,false,0.0,-0.0078125,0.0,-0.0078125,false,false,false,false,0.125,12.450000000000001,0.0,-3234,101,0,0.125,12.5,0.0,0,0,0,0.125,12.450000000000001,0.0,-14320,-22,0,0.125,12.5,0.0,0,0,0,0.0,12.5,0.0,0,0,0,0.0,12.450000000000001,0.0,0,0,0,0.0,12.55,0.0,0,0,0,kReverse,kOff,-85.16,1.47,-172.72,0.4802246,-0.883667,0.24194336,31.0,0.0,-416.0,-4.7035675,-0.8295746,
28.564002000000002,true,true,true,0.0,-0.0078125,0.0,-0.0078125,false,false,false,false,0.0,-0.0078125,0.0,-0.0078125,false,false,false,false,0.125,12.450000000000001,0.0,-3235,86,0,0.125,12.5,0.0,0,0,0,0.125,12.450000000000001,0.0,-14320,-3,0,0.125,12.55,0.0,0,0,0,0.0,12.55,0.0,0,0,0,0.0,12.450000000000001,0.0,0,0,0,0.125,12.6,0.0,0,0,0,kReverse,kOff,-85.57,2.07,-172.99,-0.09265137,-1.1461182,-0.39556885,31.0,0.0,453.0,-4.703964,-0.8260803,
28.595025999999997,true,true,true,0.0,-0.0078125,0.0,-0.0078125,false,false,false,false,0.0,-0.0078125,0.0,-0.0078125,false,false,false,false,0.125,12.5,0.0,-3235,46,0,0.125,12.5,0.0,0,0,0,0.125,12.5,0.0,-14320,-1,0,0.125,12.55,0.0,0,0,0,0.0,12.55,0.0,0,0,0,0.0,12.5,0.0,0,0,0,0.125,12.6,0.0,0,0,0,kReverse,kOff,-86.12,1.64,-173.92,-0.25585938,-1.1436768,0.2750244,31.0,0.0,18.0,-4.7033997,-0.8232727,
28.625329,true,true,true,0.0,-0.0078125,0.0,-0.0078125,false,false,false,false,0.0,-0.0078125,0.0,-0.0078125,false,false,false,false,0.125,12.5,0.0,-3235,26,0,0.125,12.5,0.0,0,0,0,0.125,12.5,0.0,-14320,0,0,0.125,12.55,0.0,0,0,0,0.0,12.55,0.0,0,0,0,0.0,12.5,0.0,0,0,0,0.0,12.6,0.0,0,0,0,kReverse,kOff,-86.21,1.61,-174.1,0.4055786,-1.0787354,0.9016113,31.0,0.0,-886.0,-4.705063,-0.82255554,
28.656367999999997,true,true,true,0.0,-0.0078125,0.0,-0.0078125,false,false,false,false,0.0,-0.0078125,0.0,-0.0078125,false,false,false,false,0.125,12.5,0.0,-3233,3,0,0.125,12.5,0.0,0,0,0,0.125,12.5,0.0,-14320,0,0,0.125,12.55,0.0,0,0,0,0.0,12.55,0.0,0,0,0,0.0,12.5,0.0,0,0,0,0.0,12.6,0.0,0,0,0,kReverse,kOff,-86.08,1.76,-173.88,-0.2322998,-1.0015259,-0.1348877,31.0,0.0,316.0,-4.7088165,-0.82255554,
28.691133999999998,true,true,true,0.0,-0.0078125,0.0,-0.0078125,false,false,false,false,0.0,-0.0078125,0.0,-0.0078125,false,false,false,false,0.125,12.5,0.0,-3222,4,0,0.125,12.5,0.0,0,0,0,0.125,12.5,0.0,-14316,1,0,0.125,12.55,0.0,0,0,0,0.0,12.55,0.0,0,0,0,0.0,12.5,0.0,0,0,0,0.125,12.6,0.0,0,0,0,kReverse,kOff,-86.07,1.58,-173.93,0.059814453,-1.0074463,-0.12335205,31.0,0.0,125.0,-4.7124176,-0.82258606,
28.735096000000002,true,true,true,0.0,-0.0078125,0.0,-0.0078125,false,false,false,false,0.0,-0.0078125,0.0,-0.0078125,false,false,false,false,0.125,12.55,0.0,-3211,15,0,0.125,12.55,0.0,0,0,0,0.125,12.5,0.0,-14310,5,0,0.125,12.55,0.0,0,0,0,0.0,12.55,0.0,0,0,0,0.0,12.55,0.0,0,0,0,0.0,12.6,0.0,0,0,0,kReverse,kOff,-86.04,1.72,-173.86,0.18103027,-0.8319092,0.10949707,31.0,0.0,-142.0,-4.7142944,-0.82170105,
28.771218,true,true,true,0.0,-0.0078125,0.0,-0.0078125,false,false,false,false,0.0,-0.0078125,0.0,-0.0078125,false,false,false,false,0.125,12.55,0.0,-3204,23,0,0.125,12.55,0.0,0,0,0,0.125,12.5,0.0,-14305,11,0,0.125,12.55,0.0,0,0,0,0.0,12.55,0.0,0,0,0,0.0,12.55,0.0,0,0,0,0.0,12.6,0.0,0,0,0,kReverse,kOff,-85.81,1.9,-173.48,0.04071045,-1.0585327,-0.019897461,31.0,0.0,65.0,-4.7167053,-0.8202667,
28.798973999999998,true,true,true,0.0,-0.0078125,0.0,-0.0078125,false,false,false,false,0.0,-0.0078125,0.0,-0.0078125,false,false,false,false,0.125,12.55,0.0,-3201,24,0,0.125,12.55,0.0,0,0,0,0.125,12.5,0.0,-14303,12,0,0.125,12.55,0.0,0,0,0,0.0,12.55,0.0,0,0,0,0.0,12.55,0.0,0,0,0,0.0,12.6,0.0,0,0,0,kReverse,kOff,-85.79,1.79,-173.5,-0.09588623,-0.96051025,-0.064697266,31.0,0.0,178.0,-4.7186737,-0.8194885,
28.825722000000003,true,true,true,0.0,-0.0078125,0.0,-0.0078125,false,false,false,false,0.0,-0.0078125,0.0,-0.0078125,false,false,false,false,0.125,12.55,0.0,-3198,22,0,0.125,12.55,0.0,0,0,0,0.125,12.5,0.0,-14303,10,0,0.125,12.55,0.0,0,0,0,0.0,12.55,0.0,0,0,0,0.0,12.55,0.0,0,0,0,0.0,12.6,0.0,0,0,0,kReverse,kOff,-85.93,1.65,-173.78,-0.022521973,-0.99243164,0.043395996,31.0,0.0,48.0,-4.719742,-0.8195038,
28.852239,true,true,true,0.0,-0.0078125,0.0,-0.0078125,false,false,false,false,0.0,-0.0078125,0.0,-0.0078125,false,false,false,false,0.125,12.55,0.0,-3195,16,0,0.125,12.55,0.0,0,0,0,0.125,12.5,0.0,-14303,8,0,0.125,12.55,0.0,0,0,0,0.0,12.55,0.0,0,0,0,0.0,12.55,0.0,0,0,0,0.0,12.6,0.0,0,0,0,kReverse,kOff,-86.0,1.67,-173.88,0.11114502,-0.9996948,-0.046936035,31.0,0.0,33.0,-4.7204285,-0.81925964,
28.880176,true,true,true,0.0,-0.0078125,0.0,-0.0078125,false,false,false,false,0.0,-0.0078125,0.0,-0.0078125,false,false,false,false,0.125,12.55,0.0,-3194,13,0,0.125,12.55,0.0,0,0,0,0.125,12.5,0.0,-14303,5,0,0.125,12.55,0.0,0,0,0,0.0,12.55,0.0,0,0,0,0.0,12.55,0.0,0,0,0,0.0,12.6,0.0,0,0,0,kReverse,kOff,-86.01,1.75,-173.88,0.13171387,-0.96362305,0.038024902,31.0,0.0,-47.0,-4.720749,-0.8189087,
28.908512,true,true,true,0.0,-0.0078125,0.0,-0.0078125,false,false,false,false,0.0,-0.0078125,0.0,-0.0078125,false,false,false,false,0.125,12.55,0.0,-3194,10,0,0.125,12.55,0.0,0,0,0,0.125,12.55,0.0,-14303,1,0,0.125,12.55,0.0,0,0,0,0.0,12.55,0.0,0,0,0,0.0,12.55,0.0,0,0,0,0.0,12.6,0.0,0,0,0,kReverse,kOff,-86.0,1.81,-173.82,0.0015869141,-0.93200684,0.047729492,31.0,0.0,25.0,-4.7216034,-0.81741333,
28.936623,true,true,true,0.0,-0.0078125,0.0,-0.0078125,false,false,false,false,0.0,-0.0078125,0.0,-0.0078125,false,false,false,false,0.125,12.55,0.0,-3194,5,0,0.125,12.55,0.0,0,0,0,0.125,12.55,0.0,-14303,0,0,0.125,12.55,0.0,0,0,0,0.0,12.55,0.0,0,0,0,0.0,12.55,0.0,0,0,0,0.0,12.6,0.0,0,0,0,kReverse,kOff,-86.02,1.79,-173.86,0.01977539,-1.00354,0.009887695,31.0,0.0,47.0,-4.721817,-0.81689453,
28.967961000000003,true,true,true,0.0,-0.0078125,0.0,-0.0078125,false,false,false,false,0.0,-0.0078125,0.0,-0.0078125,false,false,false,false,0.125,12.55,0.0,-3194,3,0,0.125,12.55,0.0,0,0,0,0.125,12.55,0.0,-14303,0,0,0.125,12.55,0.0,0,0,0,0.0,12.55,0.0,0,0,0,0.0,12.55,0.0,0,0,0,0.0,12.6,0.0,0,0,0,kReverse,kOff,-86.0,1.81,-173.81,0.035339355,-1.0062256,0.0881958,31.0,0.0,-21.0,-4.722275,-0.81585693,
28.994042999999998,true,true,true,0.0,-0.0078125,0.0,-0.0078125,false,false,false,false,0.0,-0.0078125,0.0,-0.0078125,false,false,false,false,0.125,12.55,0.0,-3194,0,0,0.125,12.55,0.0,0,0,0,0.125,12.55,0.0,-14303,0,0,0.125,12.55,0.0,0,0,0,0.0,12.55,0.0,0,0,0,0.0,12.55,0.0,0,0,0,0.0,12.6,0.0,0,0,0,kReverse,kOff,-85.95,1.8,-173.74,0.049560547,-1.0010986,0.11291504,31.01,0.0,-49.0,-4.7233124,-0.814621,
29.028481,true,true,true,0.0,-0.0078125,0.0,-0.0078125,false,false,false,false,0.0,-0.0078125,0.0,-0.0078125,false,false,false,false,0.125,12.55,0.0,-3194,0,0,0.125,12.55,0.0,0,0,0,0.125,12.55,0.0,-14303,0,0,0.125,12.55,0.0,0,0,0,0.0,12.55,0.0,0,0,0,0.0,12.55,0.0,0,0,0,0.0,12.6,0.0,0,0,0,kReverse,kOff,-85.98,1.79,-173.78,0.057922363,-0.86065674,0.2420044,31.01,0.0,-165.0,-4.723877,-0.8143463,
29.052036999999995,true,true,true,0.0,-0.0078125,0.0,-0.0078125,false,false,false,false,0.0,-0.0078125,0.0,-0.0078125,false,false,false,false,0.125,12.55,0.0,-3194,0,0,0.125,12.55,0.0,0,0,0,0.125,12.55,0.0,-14303,0,0,0.125,12.55,0.0,0,0,0,0.0,12.55,0.0,0,0,0,0.0,12.55,0.0,0,0,0,0.0,12.6,0.0,0,0,0,kReverse,kOff,-85.83,1.78,-173.59,6.1035156E-5,-0.960083,-0.11505127,31.01,0.0,156.0,-4.7240753,-0.8133087,
29.072476,true,true,true,0.0,-0.0078125,0.0,-0.0078125,false,false,false,false,0.0,-0.0078125,0.0,-0.0078125,false,false,false,false,0.125,12.55,0.0,-3194,0,0,0.125,12.55,0.0,0,0,0,0.125,12.55,0.0,-14303,0,0,0.125,12.55,0.0,0,0,0,0.0,12.55,0.0,0,0,0,0.0,12.55,0.0,0,0,0,0.0,12.6,0.0,0,0,0,kReverse,kOff,-85.88,1.77,-173.68,0.059570312,-0.9613037,0.40478516,31.01,0.0,-283.0,-4.724045,-0.8127289,
29.093557,true,true,true,0.0,-0.0078125,0.0,-0.0078125,false,false,false,false,0.0,-0.0078125,0.0,-0.0078125,false,false,false,false,0.125,12.55,0.0,-3194,0,0,0.125,12.55,0.0,0,0,0,0.125,12.55,0.0,-14303,0,0,0.125,12.55,0.0,0,0,0,0.0,12.55,0.0,0,0,0,0.0,12.55,0.0,0,0,0,0.0,12.6,0.0,0,0,0,kReverse,kOff,-85.82,1.76,-173.61,0.028930664,-0.96417236,-0.033935547,31.01,0.0,63.0,-4.724365,-0.81185913,
29.122553999999997,true,true,true,0.0,-0.0078125,0.0,-0.0078125,false,false,false,false,0.0,-0.0078125,0.0,-0.0078125,false,false,false,false,0.125,12.55,0.0,-3194,0,0,0.125,12.55,0.0,0,0,0,0.125,12.55,0.0,-14303,0,0,0.125,12.55,0.0,0,0,0,0.0,12.55,0.0,0,0,0,0.0,12.55,0.0,0,0,0,0.125,12.6,0.0,0,0,0,kReverse,kOff,-85.79,1.83,-173.53,0.058166504,-0.9963989,0.11633301,31.01,0.0,-55.0,-4.7248077,-0.81082153,
29.155209000000003,true,true,true,0.0,-0.0078125,0.0,-0.0078125,false,false,false,false,0.0,-0.0078125,0.0,-0.0078125,false,false,false,false,0.125,12.55,0.0,-3194,0,0,0.125,12.55,0.0,0,0,0,0.125,12.55,0.0,-14303,0,0,0.125,12.55,0.0,0,0,0,0.0,12.55,0.0,0,0,0,0.0,12.55,0.0,0,0,0,0.0,12.6,0.0,0,0,0,kReverse,kOff,-85.82,1.82,-173.57,0.038269043,-0.9657593,0.09838867,31.01,0.0,-31.0,-4.725357,-0.81082153,
29.181606,true,true,true,0.0,-0.0078125,0.0,-0.0078125,false,false,false,false,0.0,-0.0078125,0.0,-0.0078125,false,false,false,false,0.125,12.55,0.0,-3194,0,0,0.125,12.55,0.0,0,0,0,0.125,12.55,0.0,-14303,0,0,0.125,12.55,0.0,0,0,0,0.0,12.55,0.0,0,0,0,0.0,12.55,0.0,0,0,0,0.0,12.6,0.0,0,0,0,kReverse,kOff,-85.82,1.82,-173.56,0.025512695,-1.0001221,0.041931152,31.01,0.0,22.0,-4.725937,-0.810791,
29.213703000000002,true,true,true,0.0,-0.0078125,0.0,-0.0078125,false,false,false,false,0.0,-0.0078125,0.0,-0.0078125,false,false,false,false,0.125,12.55,0.0,-3194,0,0,0.125,12.55,0.0,0,0,0,0.125,12.55,0.0,-14303,0,0,0.125,12.6,0.0,0,0,0,0.0,12.55,0.0,0,0,0,0.0,12.55,0.0,0,0,0,0.125,12.6,0.0,0,0,0,kReverse,kOff,-85.8,1.81,-173.53,0.015380859,-0.98638916,-0.014160156,31.01,0.0,71.0,-4.726425,-0.8107147,
29.247339999999998,true,true,true,0.0,-0.0078125,0.0,-0.0078125,false,false,false,false,0.0,-0.0078125,0.0,-0.0078125,false,false,false,false,0.125,12.55,0.0,-3194,0,0,0.125,12.55,0.0,0,0,0,0.125,12.55,0.0,-14303,0,0,0.125,12.6,0.0,0,0,0,0.0,12.55,0.0,0,0,0,0.0,12.55,0.0,0,0,0,0.0,12.6,0.0,0,0,0,kReverse,kOff,-85.85,1.78,-173.62,0.009094238,-1.0079346,0.06304932,31.01,0.0,16.0,-4.726654,-0.8105774,
29.274438999999997,true,true,true,0.0,-0.0078125,0.0,-0.0078125,false,false,false,false,0.0,-0.0078125,0.0,-0.0078125,false,false,false,false,0.125,12.55,0.0,-3194,0,0,0.125,12.55,0.0,0,0,0,0.125,12.55,0.0,-14303,0,0,0.125,12.6,0.0,0,0,0,0.0,12.55,0.0,0,0,0,0.0,12.55,0.0,0,0,0,0.0,12.6,0.0,0,0,0,kReverse,kOff,-85.91,1.77,-173.72,0.050598145,-0.9854126,0.047302246,31.01,0.0,0.0,-4.7266693,-0.810379,
29.297672,true,true,true,0.0,-0.0078125,0.0,-0.0078125,false,false,false,false,0.0,-0.0078125,0.0,-0.0078125,false,false,false,false,0.125,12.55,0.0,-3194,0,0,0.125,12.55,0.0,0,0,0,0.125,12.55,0.0,-14303,0,0,0.125,12.6,0.0,0,0,0,0.0,12.55,0.0,0,0,0,0.0,12.55,0.0,0,0,0,0.0,12.6,0.0,0,0,0,kReverse,kOff,-85.89,1.79,-173.69,0.07098389,-0.97161865,0.030212402,31.01,0.0,0.0,-4.7266693,-0.8101959,
29.329449,true,true,true,0.0,-0.0078125,0.0,-0.0078125,false,false,false,false,0.0,-0.0078125,0.0,-0.0078125,false,false,false,false,0.125,12.55,0.0,-3194,0,0,0.125,12.55,0.0,0,0,0,0.125,12.55,0.0,-14303,0,0,0.125,12.6,0.0,0,0,0,0.0,12.55,0.0,0,0,0,0.0,12.55,0.0,0,0,0,0.0,12.6,0.0,0,0,0,kReverse,kOff,-85.86,1.84,-173.62,0.056518555,-0.99176025,0.044067383,31.01,0.0,21.0,-4.726654,-0.8093567,
29.355014000000004,true,true,true,0.0,-0.0078125,0.0,-0.0078125,false,false,false,false,0.0,-0.0078125,0.0,-0.0078125,false,false,false,false,0.125,12.55,0.0,-3194,0,0,0.125,12.55,0.0,0,0,0,0.125,12.55,0.0,-14303,0,0,0.125,12.6,0.0,0,0,0,0.0,12.55,0.0,0,0,0,0.0,12.55,0.0,0,0,0,0.0,12.6,0.0,0,0,0,kReverse,kOff,-85.85,1.85,-173.6,0.023742676,-0.9569702,0.09277344,31.01,0.0,-19.0,-4.726639,-0.80903625,
29.388360000000002,true,true,true,0.0,-0.0078125,0.0,-0.0078125,false,false,false,false,0.0,-0.0078125,0.0,-0.0078125,false,false,false,false,0.125,12.55,0.0,-3194,0,0,0.125,12.55,0.0,0,0,0,0.125,12.55,0.0,-14303,0,0,0.125,12.6,0.0,0,0,0,0.0,12.55,0.0,0,0,0,0.0,12.55,0.0,0,0,0,0.0,12.6,0.0,0,0,0,kReverse,kOff,-85.83,1.84,-173.57,0.015197754,-0.98083496,0.1015625,31.01,0.0,-18.0,-4.7266846,-0.8085327,
29.413794000000003,true,true,true,0.0,-0.0078125,0.0,-0.0078125,false,false,false,false,0.0,-0.0078125,0.0,-0.0078125,false,false,false,false,0.125,12.55,0.0,-3194,0,0,0.125,12.55,0.0,0,0,0,0.125,12.55,0.0,-14303,0,0,0.125,12.6,0.0,0,0,0,0.0,12.55,0.0,0,0,0,0.0,12.55,0.0,0,0,0,0.0,12.6,0.0,0,0,0,kReverse,kOff,-85.92,1.81,-173.7,0.07519531,-1.0878296,0.41571045,31.01,0.0,-293.0,-4.7276154,-0.80862427,
29.435933,true,true,true,0.0,-0.0078125,0.0,-0.0078125,false,false,false,false,0.0,-0.0078125,0.0,-0.0078125,false,false,false,false,0.125,12.55,0.0,-3194,0,0,0.125,12.55,0.0,0,0,0,0.125,12.55,0.0,-14303,0,0,0.125,12.6,0.0,0,0,0,0.0,12.55,0.0,0,0,0,0.0,12.55,0.0,0,0,0,0.0,12.6,0.0,0,0,0,kReverse,kOff,-85.8,1.81,-173.53,-4.8828125E-4,-0.98498535,-0.078063965,31.01,0.0,130.0,-4.729004,-0.80908203,
29.473377999999997,true,true,true,0.0,-0.0078125,0.0,-0.0078125,false,false,false,false,0.0,-0.0078125,0.0,-0.0078125,false,false,false,false,0.125,12.55,0.0,-3194,0,0,0.125,12.55,0.0,0,0,0,0.125,12.55,0.0,-14303,0,0,0.125,12.6,0.0,0,0,0,0.0,12.55,0.0,0,0,0,0.0,12.55,0.0,0,0,0,0.0,12.6,0.0,0,0,0,kReverse,kOff,-85.79,1.82,-173.52,0.055725098,-0.9834595,0.1831665,31.01,0.0,-106.0,-4.730362,-0.80952454,
29.496539,true,true,true,0.0,-0.0078125,0.0,-0.0078125,false,false,false,false,0.0,-0.0078125,0.0,-0.0078125,false,false,false,false,0.125,12.55,0.0,-3194,0,0,0.125,12.55,0.0,0,0,0,0.125,12.55,0.0,-14303,0,0,0.125,12.6,0.0,0,0,0,0.0,12.55,0.0,0,0,0,0.0,12.55,0.0,0,0,0,0.0,12.6,0.0,0,0,0,kReverse,kOff,-85.75,1.83,-173.47,0.0357666,-0.9921875,0.07501221,31.01,0.0,-9.0,-4.731201,-0.8101196,
29.520970000000002,true,true,true,0.0,-0.0078125,0.0,-0.0078125,false,false,false,false,0.0,-0.0078125,0.0,-0.0078125,false,false,false,false,0.125,12.55,0.0,-3194,0,0,0.125,12.55,0.0,0,0,0,0.125,12.55,0.0,-14303,0,0,0.125,12.6,0.0,0,0,0,0.0,12.55,0.0,0,0,0,0.0,12.55,0.0,0,0,0,0.0,12.6,0.0,0,0,0,kReverse,kOff,-85.73,1.85,-173.44,0.04864502,-0.9854126,0.09991455,31.0,0.0,-36.0,-4.7328796,-0.8103943,
29.547017999999998,true,true,true,0.0,-0.0078125,0.0,-0.0078125,false,false,false,false,0.0,-0.0078125,0.0,-0.0078125,false,false,false,false,0.125,12.55,0.0,-3194,0,0,0.125,12.55,0.0,0,0,0,0.125,12.55,0.0,-14303,0,0,0.125,12.6,0.0,0,0,0,0.0,12.55,0.0,0,0,0,0.0,12.55,0.0,0,0,0,0.0,12.6,0.0,0,0,0,kReverse,kOff,-85.73,1.85,-173.43,0.029907227,-1.0501709,0.047790527,31.0,0.0,20.0,-4.7346497,-0.81100464,
29.575565,true,true,true,0.0,-0.0078125,0.0,-0.0078125,false,false,false,false,0.0,-0.0078125,0.0,-0.0078125,false,false,false,false,0.125,12.55,0.0,-3194,0,0,0.125,12.55,0.0,0,0,0,0.125,12.55,0.0,-14303,0,0,0.125,12.6,0.0,0,0,0,0.0,12.55,0.0,0,0,0,0.0,12.55,0.0,0,0,0,0.0,12.6,0.0,0,0,0,kReverse,kOff,-85.73,1.85,-173.42,0.02947998,-0.9956665,0.051086426,31.0,0.0,13.0,-4.7363586,-0.81129456,
29.60025,true,true,true,0.0,-0.0078125,0.0,-0.0078125,false,false,false,false,0.0,-0.0078125,0.0,-0.0078125,false,false,false,false,0.125,12.55,0.0,-3194,0,0,0.125,12.55,0.0,0,0,0,0.125,12.55,0.0,-14303,0,0,0.125,12.6,0.0,0,0,0,0.0,12.55,0.0,0,0,0,0.0,12.55,0.0,0,0,0,0.0,12.6,0.0,0,0,0,kReverse,kOff,-85.74,1.84,-173.44,0.019714355,-0.98358154,0.05230713,31.0,0.0,18.0,-4.7363586,-0.81129456,
29.627084000000004,true,true,true,0.0,-0.0078125,0.0,-0.0078125,false,false,false,false,0.0,-0.0078125,0.0,-0.0078125,false,false,false,false,0.125,12.55,0.0,-3194,0,0,0.125,12.55,0.0,0,0,0,0.125,12.55,0.0,-14303,0,0,0.125,12.6,0.0,0,0,0,0.0,12.55,0.0,0,0,0,0.0,12.55,0.0,0,0,0,0.0,12.6,0.0,0,0,0,kReverse,kOff,-85.79,1.82,-173.53,0.021362305,-0.9887085,-1.2207031E-4,31.0,0.0,57.0,-4.736191,-0.81126404,
29.656333,true,true,true,0.0,-0.0078125,0.07086614519357681,-0.0078125,false,false,false,false,0.0,-0.0078125,0.0,-0.0078125,false,false,false,false,0.125,12.55,0.0,-3194,0,0,0.125,12.55,0.0,0,0,0,0.125,12.55,0.0,-14303,0,0,0.125,12.6,0.0,0,0,0,0.0,12.55,0.0,0,0,0,0.0,12.55,0.0,0,0,0,0.0,12.6,0.0,0,0,0,kReverse,kOff,-85.81,1.84,-173.55,0.068603516,-0.98480225,0.060058594,31.0,0.0,-19.0,-4.736023,-0.8110657,
29.685413999999998,true,true,true,0.0,-0.0078125,0.14173229038715363,-0.0078125,false,false,false,false,0.0,-0.0078125,0.0,-0.0078125,false,false,false,false,0.125,12.55,0.0,-3195,0,0,0.25,12.55,0.0,0,0,0,0.5,12.55,0.0,-14302,0,0,0.25,12.55,0.0,0,0,0,0.0,12.55,0.0,0,0,0,0.0,12.55,0.0,0,0,0,0.0,12.6,0.0,0,0,0,kReverse,kOff,-85.77,1.87,-173.49,0.04168701,-0.98657227,0.0736084,31.0,0.0,-12.0,-4.736023,-0.81074524,
29.715266000000003,true,true,true,0.0,-0.0078125,0.19685038924217224,-0.0078125,false,false,false,false,0.0,-0.0078125,0.0,-0.0078125,false,false,false,false,0.625,12.55,0.0,-3203,-2,0,0.625,12.55,0.0,0,0,0,0.625,12.55,0.0,-14297,0,0,0.625,12.55,0.0,0,0,0,0.0,12.55,0.0,0,0,0,0.0,12.5,0.0,0,0,0,0.0,12.6,0.0,0,0,0,kReverse,kOff,-85.78,1.87,-173.48,0.03289795,-1.0223999,0.07922363,31.0,0.0,-8.0,-4.736023,-0.81074524,
29.742756999999997,true,true,true,0.0,-0.0078125,0.19685038924217224,-0.0078125,false,false,false,false,0.0,-0.0078125,0.0,-0.0078125,false,false,false,false,1.0,12.55,0.0,-3212,-6,0,1.0,12.55,0.0,0,0,0,1.0,12.55,0.0,-14288,3,0,0.75,12.55,0.0,0,0,0,0.0,12.55,0.0,0,0,0,0.0,12.5,0.0,0,0,0,0.0,12.6,0.0,0,0,0,kReverse,kOff,-85.9,1.9,-173.62,0.18920898,-0.9767456,-0.32995605,31.0,0.0,205.0,-4.7357635,-0.81036377,
29.771860999999998,true,true,true,0.0,-0.0078125,0.19685038924217224,-0.0078125,false,false,false,false,0.0,-0.0078125,0.0,-0.0078125,false,false,false,false,2.0,12.55,0.0,-3220,-18,0,2.125,12.55,0.0,0,0,0,1.75,12.55,0.0,-14277,17,0,1.75,12.55,0.0,0,0,0,0.0,12.55,0.0,0,0,0,0.0,12.5,0.0,0,0,0,0.0,12.6,0.0,0,0,0,kReverse,kOff,-86.13,1.99,-173.88,0.10333252,-0.8666382,-0.1295166,31.0,0.0,94.0,-4.735321,-0.8096466,
29.795264000000003,true,true,true,0.0,-0.0078125,0.19685038924217224,-0.0078125,false,false,false,false,0.0,-0.0078125,0.0,-0.0078125,false,false,false,false,2.25,12.55,0.0,-3226,-23,0,2.375,12.55,0.0,0,0,0,2.0,12.55,0.0,-14272,23,0,2.125,12.55,0.0,0,0,0,0.0,12.55,0.0,0,0,0,0.0,12.5,0.0,0,0,0,0.0,12.6,0.0,0,0,0,kReverse,kOff,-86.06,1.9,-173.72,0.022888184,-1.02594,0.07128906,31.0,0.0,0.0,-4.7346497,-0.80844116,
29.823415999999998,true,true,true,0.0,-0.0078125,0.22047244012355804,-0.0078125,false,false,false,false,0.0,-0.0078125,0.0,-0.0078125,false,false,false,false,2.5,12.55,0.0,-3233,-26,0,2.625,12.55,0.0,0,0,0,2.125,12.55,0.0,-14267,27,0,2.375,12.55,0.0,0,0,0,0.0,12.55,0.0,0,0,0,0.0,12.5,0.0,0,0,0,0.0,12.6,0.0,0,0,0,kReverse,kOff,-86.05,1.97,-173.54,0.042114258,-0.9785156,-0.011779785,31.0,0.0,50.0,-4.734268,-0.8072357,
29.848701000000002,true,true,true,0.0,-0.0078125,0.22834645211696625,-0.0078125,false,false,false,false,0.0,-0.0078125,0.0,-0.0078125,false,false,false,false,2.375,12.55,0.0,-3240,-28,0,2.75,12.25,0.0,0,0,0,2.25,12.25,0.0,-14254,28,0,2.375,12.3,0.0,0,0,0,0.0,12.3,0.0,0,0,0,0.0,12.5,0.0,0,0,0,0.0,12.35,0.0,0,0,0,kReverse,kOff,-86.09,1.86,-173.46,-0.049987793,-0.92315674,0.029174805,31.0,0.0,68.0,-4.7332764,-0.8058777,
29.874540999999997,true,true,true,0.0,-0.0078125,0.25984251499176025,-0.0078125,false,false,false,false,0.0,-0.0078125,0.0,-0.0078125,false,false,false,false,2.75,12.25,0.0,-3256,-30,0,2.875,12.25,0.0,0,0,0,2.375,12.25,0.0,-14248,27,0,2.5,12.3,0.0,0,0,0,0.0,12.3,0.0,0,0,0,0.0,12.25,0.0,0,0,0,0.0,12.35,0.0,0,0,0,kReverse,kOff,-86.12,1.94,-173.31,0.10467529,-0.94573975,0.012207031,31.0,0.0,-6.0,-4.7321777,-0.8043823,
29.899173,true,true,true,0.0,-0.0078125,0.28346458077430725,-0.0078125,false,false,false,false,0.0,-0.0078125,0.0,-0.0078125,false,false,false,false,3.0,12.25,0.0,-3265,-33,0,3.125,12.25,0.0,0,0,0,2.5,12.25,0.0,-14240,27,0,2.75,12.3,0.0,0,0,0,0.0,12.3,0.0,0,0,0,0.0,12.25,0.0,0,0,0,0.0,12.35,0.0,0,0,0,kReverse,kOff,-86.12,1.98,-173.19,-0.032714844,-0.9440918,0.01940918,31.0,0.0,66.0,-4.7316284,-0.80355835,
29.927669,true,true,true,0.0,-0.0078125,0.30708661675453186,-0.0078125,false,false,false,false,0.0,-0.0078125,0.0,-0.0078125,false,false,false,false,3.375,12.25,0.0,-3276,-37,0,3.875,12.25,0.0,0,0,0,3.25,12.25,0.0,-14222,33,0,3.375,12.3,0.0,0,0,0,0.0,12.3,0.0,0,0,0,0.0,12.25,0.0,0,0,0,0.0,12.35,0.0,0,0,0,kReverse,kOff,-86.16,1.89,-173.01,0.057739258,-0.92315674,0.0032348633,31.0,0.0,27.0,-4.7304535,-0.8020935,
29.953129,true,true,true,0.0,-0.0078125,0.33070865273475647,-0.0078125,false,false,false,false,0.0,-0.0078125,0.0,-0.0078125,false,false,false,false,4.5,12.25,0.0,-3301,-45,0,4.375,12.25,0.0,0,0,0,3.625,12.25,0.0,-14212,36,0,3.875,12.3,0.0,0,0,0,0.0,12.3,0.0,0,0,0,0.0,12.25,0.0,0,0,0,0.0,12.35,0.0,0,0,0,kReverse,kOff,-86.21,1.93,-172.76,0.0076293945,-0.94885254,-0.06854248,31.0,0.0,117.0,-4.728958,-0.800354,
29.977635999999997,true,true,true,0.0,-0.0078125,0.33070865273475647,-0.0078125,false,false,false,false,0.0,-0.0078125,0.0,-0.0078125,false,false,false,false,5.125,12.25,0.0,-3316,-50,0,5.125,12.25,0.0,0,0,0,4.25,12.25,0.0,-14199,40,0,4.5,12.3,0.0,0,0,0,0.0,12.3,0.0,0,0,0,0.0,12.25,0.0,0,0,0,0.125,12.35,0.0,0,0,0,kReverse,kOff,-86.28,1.85,-172.48,0.051940918,-0.91192627,0.0018310547,31.0,0.0,31.0,-4.726654,-0.7984772,
30.007218999999996,true,true,true,0.0,-0.0078125,0.33070865273475647,-0.0078125,false,false,false,false,0.0,-0.0078125,0.0,-0.0078125,false,false,false,false,5.375,12.25,0.0,-3331,-55,0,5.625,11.95,0.0,0,0,0,4.875,12.25,0.0,-14171,51,0,5.0,12.3,0.0,0,0,0,0.0,12.0,0.0,0,0,0,0.0,12.25,0.0,0,0,0,0.125,12.35,0.0,0,0,0,kReverse,kOff,-86.26,1.86,-172.19,0.20715332,-1.2302246,0.07507324,31.0,0.0,-84.0,-4.7254333,-0.79740906,
30.031881000000002,true,true,true,0.0,-0.0078125,0.33070865273475647,-0.0078125,false,false,false,false,0.0,-0.0078125,0.0,-0.0078125,false,false,false,false,5.5,11.95,0.0,-3366,-68,0,5.625,11.95,0.0,0,0,0,4.875,11.9,0.0,-14155,57,0,5.25,12.0,0.0,0,0,0,0.0,12.0,0.0,0,0,0,0.0,12.0,0.0,0,0,0,0.0,12.05,0.0,0,0,0,kReverse,kOff,-86.2,1.9,-171.42,-0.016662598,-0.69195557,0.10308838,30.95,0.0,-39.0,-4.7231903,-0.7950592,
30.054550000000003,true,true,true,0.0,-0.0078125,0.33070865273475647,-0.0078125,false,false,false,false,0.0,-0.0078125,0.0,-0.0078125,false,false,false,false,5.25,11.95,0.0,-3385,-74,0,5.5,11.95,0.0,0,0,0,4.75,11.9,0.0,-14138,63,0,5.0,12.0,0.0,0,0,0,0.0,12.0,0.0,0,0,0,0.0,12.0,0.0,0,0,0,0.0,12.05,0.0,0,0,0,kReverse,kOff,-86.19,1.9,-170.55,-0.01574707,-0.98223877,0.06744385,30.95,0.0,9.0,-4.7208557,-0.79270935,
30.079411999999998,true,true,true,0.0,-0.0078125,0.3385826647281647,-0.0078125,false,false,false,false,0.0,-0.0078125,0.0,-0.0078125,false,false,false,false,5.0,11.95,0.0,-3406,-81,0,5.25,11.95,0.0,0,0,0,4.375,11.9,0.0,-14121,69,0,4.875,12.0,0.0,0,0,0,0.0,12.0,0.0,0,0,0,0.0,12.0,0.0,0,0,0,0.0,12.05,0.0,0,0,0,kReverse,kOff,-86.12,1.91,-169.85,0.023254395,-1.062439,0.20019531,30.95,0.0,-122.0,-4.7197266,-0.7915802,
30.101774,true,true,true,0.0,-0.0078125,0.3385826647281647,-0.0078125,false,false,false,false,0.0,-0.0078125,0.0,-0.0078125,false,false,false,false,4.875,11.95,0.0,-3427,-87,0,5.125,11.95,0.0,0,0,0,4.375,11.9,0.0,-14102,75,0,4.875,12.0,0.0,0,0,0,0.0,12.0,0.0,0,0,0,0.0,12.0,0.0,0,0,0,0.0,12.05,0.0,0,0,0,kReverse,kOff,-86.0,1.97,-168.99,0.11999512,-1.1356812,0.3357544,30.95,0.0,-277.0,-4.718857,-0.79052734,
30.122239,true,true,true,0.0,-0.0078125,0.3385826647281647,-0.0078125,false,false,false,false,0.0,-0.0078125,0.0,-0.0078125,false,false,false,false,4.75,11.95,0.0,-3448,-92,0,5.125,11.95,0.0,0,0,0,4.5,11.9,0.0,-14085,80,0,4.875,12.0,0.0,0,0,0,0.0,12.0,0.0,0,0,0,0.0,12.0,0.0,0,0,0,0.0,12.05,0.0,0,0,0,kReverse,kOff,-85.77,2.3,-167.18,0.10760498,-1.293457,-0.083618164,30.95,0.0,137.0,-4.717911,-0.7880707,
30.138723,true,true,true,0.0,-0.0078125,0.3385826647281647,-0.0078125,false,false,false,false,0.0,-0.0078125,0.0,-0.0078125,false,false,false,false,4.75,11.95,0.0,-3470,-96,0,5.125,11.95,0.0,0,0,0,4.625,11.9,0.0,-14069,83,0,5.125,12.0,0.0,0,0,0,0.0,12.0,0.0,0,0,0,0.0,12.0,0.0,0,0,0,0.0,12.05,0.0,0,0,0,kReverse,kOff,-86.01,2.28,-167.19,-0.24761963,-1.4958496,-0.17266846,30.95,0.0,335.0,-4.7171326,-0.78681946,
30.165812,true,true,true,0.0,-0.0078125,0.3385826647281647,-0.0078125,false,false,false,false,0.0,-0.0078125,0.0,-0.0078125,false,false,false,false,4.75,11.95,0.0,-3493,-100,0,5.125,11.95,0.0,0,0,0,4.875,11.9,0.0,-14053,84,0,5.125,12.0,0.0,0,0,0,0.0,12.05,0.0,0,0,0,0.0,12.0,0.0,0,0,0,0.0,12.1,0.0,0,0,0,kReverse,kOff,-86.57,1.78,-166.75,-0.010437012,-1.0206909,0.18023682,30.95,0.0,-113.0,-4.7147675,-0.78556824,
30.194733999999997,true,true,true,0.0,-0.0078125,0.3385826647281647,-0.0078125,false,false,false,false,0.0,-0.0078125,0.0,-0.0078125,false,false,false,false,4.5,12.0,0.0,-3541,-107,0,4.875,11.95,0.0,0,0,0,4.375,12.0,0.0,-14012,86,0,4.875,12.0,0.0,0,0,0,0.0,12.05,0.0,0,0,0,0.0,12.05,0.0,0,0,0,0.0,12.1,0.0,0,0,0,kReverse,kOff,-86.52,2.1,-163.88,0.40112305,-1.3812866,0.027709961,30.95,0.0,-27.0,-4.712326,-0.7839203,
30.216438999999998,true,true,true,0.0,-0.0078125,0.3385826647281647,-0.0078125,false,false,false,false,0.0,-0.0078125,0.0,-0.0078125,false,false,false,false,4.375,12.0,0.0,-3564,-111,0,4.75,11.95,0.0,0,0,0,4.0,12.0,0.0,-13989,88,0,4.625,12.0,0.0,0,0,0,0.0,12.05,0.0,0,0,0,0.0,12.05,0.0,0,0,0,0.0,12.1,0.0,0,0,0,kReverse,kOff,-86.37,2.33,-161.02,-7.9345703E-4,-1.104126,-0.066589355,30.95,0.0,151.0,-4.7098083,-0.7815399,
30.241891000000003,true,true,true,0.0,-0.0078125,0.3385826647281647,-0.0078125,false,false,false,false,0.0,-0.0078125,0.0,-0.0078125,false,false,false,false,4.125,12.0,0.0,-3590,-115,0,4.375,11.95,0.0,0,0,0,3.625,12.0,0.0,-13964,93,0,4.25,12.0,0.0,0,0,0,0.0,12.05,0.0,0,0,0,0.0,12.05,0.0,0,0,0,0.0,12.1,0.0,0,0,0,kReverse,kOff,-86.25,2.33,-149.73,-0.013305664,-1.2745361,-0.054748535,30.95,0.0,125.0,-4.708313,-0.7805481,
30.267163999999998,true,true,true,0.0,-0.0078125,0.3385826647281647,-0.0078125,false,false,false,false,0.0,-0.0078125,0.0,-0.0078125,false,false,false,false,4.125,12.0,0.0,-3616,-118,0,4.375,11.95,0.0,0,0,0,3.25,12.0,0.0,-13913,109,0,3.875,12.0,0.0,0,0,0,0.0,12.05,0.0,0,0,0,0.0,12.05,0.0,0,0,0,0.0,12.1,0.0,0,0,0,kReverse,kOff,-86.02,2.49,-117.6,0.31536865,-1.0888062,0.05065918,30.95,0.0,0.0,-4.706711,-0.7783203,
30.292093,true,true,true,0.0,-0.0078125,0.3385826647281647,-0.0078125,false,false,false,false,0.0,-0.0078125,0.0,-0.0078125,false,false,false,false,3.875,12.0,0.0,-3669,-126,0,4.25,11.95,0.0,0,0,0,3.25,12.0,0.0,-13889,116,0,3.875,12.0,0.0,0,0,0,0.0,12.05,0.0,0,0,0,0.0,12.05,0.0,0,0,0,0.0,12.1,0.0,0,0,0,kReverse,kOff,-85.91,2.62,-87.46,0.07873535,-1.019165,0.37304688,30.95,0.0,-316.0,-4.7069244,-0.7768707,
30.316250999999998,true,true,true,0.0,-0.0078125,0.4488188922405243,-0.0078125,false,false,false,false,0.0,-0.0078125,0.0,-0.0078125,false,false,false,false,3.875,12.0,0.0,-3696,-128,0,4.25,11.95,0.0,0,0,0,3.5,12.0,0.0,-13867,120,0,4.125,12.0,0.0,0,0,0,0.0,12.05,0.0,0,0,0,0.0,12.05,0.0,0,0,0,0.0,12.1,0.0,0,0,0,kReverse,kOff,-85.95,2.6,-39.0,-0.16802979,-1.0123901,-0.38208008,30.95,0.0,421.0,-4.7075653,-0.7740936,
30.339059999999996,true,true,true,0.0,-0.0078125,0.7007874250411987,-0.0078125,false,false,false,false,0.0,-0.0078125,0.0,-0.0078125,false,false,false,false,5.0,12.0,0.0,-3726,-130,0,4.625,12.05,0.0,0,0,0,4.25,12.0,0.0,-13844,121,0,4.25,12.05,0.0,0,0,0,0.0,12.0,0.0,0,0,0,0.0,11.9,0.0,0,0,0,0.125,12.05,0.0,0,0,0,kReverse,kOff,-86.6,2.16,-18.11,-0.40393066,-1.517273,0.44366455,30.95,0.0,-428.0,-4.707672,-0.7724762,
30.370957999999998,true,true,true,0.0,-0.0078125,0.8582677245140076,-0.0078125,false,false,false,false,0.0,-0.0078125,0.0,-0.0078125,false,false,false,false,7.375,12.0,0.0,-3756,-133,0,9.875,12.05,0.0,0,0,0,11.625,12.0,0.0,-13787,120,0,11.0,12.05,0.0,0,0,0,0.0,12.0,0.0,0,0,0,0.0,11.9,0.0,0,0,0,0.0,12.05,0.0,0,0,0,kReverse,kOff,-86.8,2.18,-9.72,0.26519775,-0.82214355,-0.17297363,30.95,0.0,246.0,-4.7086487,-0.7717438,
30.395322,true,true,true,0.0,-0.0078125,1.0,-0.0078125,false,false,false,false,0.0,-0.0078125,0.0,-0.0078125,false,false,false,false,19.0,12.0,0.0,-3829,-143,0,15.375,12.05,0.0,0,0,0,18.25,12.0,0.0,-13751,123,0,16.75,12.05,0.0,0,0,0,0.0,12.0,0.0,0,0,0,0.0,11.9,0.0,0,0,0,0.0,12.05,0.0,0,0,0,kReverse,kOff,-86.99,2.44,-3.72,0.021484375,-1.2808838,0.11651611,30.95,0.0,-83.0,-4.7085724,-0.770813,
30.431493999999997,true,true,true,0.0,-0.0078125,1.0,-0.0078125,false,false,false,false,0.0,-0.0078125,0.0,-0.0078125,false,false,false,false,32.875,12.0,0.0,-3919,-167,0,29.125,12.05,0.0,0,0,0,30.0,12.0,0.0,-13660,149,0,33.125,12.05,0.0,0,0,0,0.0,12.0,0.0,0,0,0,0.0,11.9,0.0,0,0,0,0.125,12.05,0.0,0,0,0,kReverse,kOff,-86.55,2.93,-0.97,0.25604248,-0.24108887,0.7067871,30.95,0.0,-531.0,-4.7077637,-0.7691345,
30.479430999999998,true,true,true,0.0,-0.0078125,1.0,-0.0078125,false,false,false,false,0.0,-0.0078125,0.0,-0.0078125,false,false,false,false,35.0,12.0,0.0,-4037,-205,0,31.25,9.75,0.0,0,0,0,28.375,9.850000000000001,0.0,-13417,252,0,30.125,9.95,0.0,0,0,0,0.0,10.15,0.0,0,0,0,0.0,10.2,0.0,0,0,0,0.0,10.2,0.0,0,0,0,kReverse,kOff,-86.46,3.14,1.1,-0.819397,-2.0,0.12060547,30.95,0.0,-626.0,-4.7069855,-0.76516724,
30.543222999999998,true,true,true,0.0,-0.0078125,1.0,-0.0078125,false,false,false,false,0.0,-0.0078125,0.0,-0.0078125,false,false,false,false,25.75,9.95,0.0,-4249,-298,0,25.125,9.75,0.0,0,0,0,27.875,9.850000000000001,0.0,-13359,276,0,29.875,9.95,0.0,0,0,0,0.0,10.15,0.0,0,0,0,0.0,10.2,0.0,0,0,0,0.0,10.2,0.0,0,0,0,kReverse,kOff,-87.14,2.31,0.93,-0.23400879,-1.4203491,-1.3713989,30.99,0.0,671.0,-4.706024,-0.7715149,
30.575368,true,true,true,0.0,-0.0078125,1.0,-0.0078125,false,false,false,false,0.0,-0.0078125,0.0,-0.0078125,false,false,false,false,32.375,9.95,0.0,-4374,-331,0,32.625,9.75,0.0,0,0,0,25.875,9.850000000000001,0.0,-13223,307,0,28.125,9.95,0.0,0,0,0,0.0,10.15,0.0,0,0,0,0.0,10.2,0.0,0,0,0,0.0,10.2,0.0,0,0,0,kReverse,kOff,-87.4,2.21,1.26,-0.36871338,-0.36871338,-0.6335449,30.99,0.0,56.0,-4.7048187,-0.776062,
30.597631,true,true,true,0.0,-0.0078125,1.0,-0.0078125,false,false,false,false,0.0,-0.0078125,0.0,-0.0078125,false,false,false,false,30.0,9.95,0.0,-4443,-334,0,31.375,9.75,0.0,0,0,0,23.875,9.850000000000001,0.0,-13149,317,0,26.25,9.95,0.0,0,0,0,0.0,10.15,0.0,0,0,0,0.0,10.2,0.0,0,0,0,0.0,10.2,0.0,0,0,0,kReverse,kOff,-86.9,2.58,1.73,0.15045166,-1.0539551,-0.0075683594,30.99,0.0,109.0,-4.7029114,-0.785202,
30.623091,true,true,true,0.0,-0.0078125,1.0,-0.0078125,false,false,false,false,0.0,-0.0078125,0.0,-0.0078125,false,false,false,false,28.25,9.95,0.0,-4515,-330,0,28.875,9.75,0.0,0,0,0,22.875,9.850000000000001,0.0,-13076,326,0,25.125,9.95,0.0,0,0,0,0.0,10.15,0.0,0,0,0,0.0,10.2,0.0,0,0,0,0.0,10.2,0.0,0,0,0,kReverse,kOff,-86.13,3.45,2.89,-0.033569336,-0.871521,-0.6442871,30.99,0.0,123.0,-4.6999664,-0.79493713,
30.64689,true,true,true,0.0,-0.0078125,1.0,-0.0078125,false,false,false,false,0.0,-0.0078125,0.0,-0.0078125,false,false,false,false,27.625,9.95,0.0,-4581,-326,0,28.125,9.7,0.0,0,0,0,23.75,9.850000000000001,0.0,-12934,345,0,25.875,9.8,0.0,0,0,0,0.0,10.0,0.0,0,0,0,0.0,10.2,0.0,0,0,0,0.0,10.0,0.0,0,0,0,kReverse,kOff,-86.27,3.48,3.17,-0.47229004,-0.99572754,-0.9411621,30.99,0.0,-292.0,-4.698395,-0.8012848,
30.675523000000002,true,true,true,0.0,-0.0078125,1.0,-0.0078125,false,false,false,false,0.0,-0.0078125,0.0,-0.0078125,false,false,false,false,26.875,9.75,0.0,-4721,-336,0,28.125,9.7,0.0,0,0,0,24.125,9.850000000000001,0.0,-12865,352,0,26.0,9.8,0.0,0,0,0,0.0,10.0,0.0,0,0,0,0.0,10.0,0.0,0,0,0,0.125,10.0,0.0,0,0,0,kReverse,kOff,-86.69,3.17,3.03,-0.6716919,-0.7972412,-0.3032837,30.99,0.0,-656.0,-4.6974792,-0.8086395,
30.698565000000002,true,true,true,0.0,-0.0078125,1.0,-0.0078125,false,false,false,false,0.0,-0.0078125,0.0,-0.0078125,false,false,false,false,27.125,9.75,0.0,-4794,-344,0,27.875,9.7,0.0,0,0,0,23.375,9.850000000000001,0.0,-12790,356,0,25.375,9.8,0.0,0,0,0,0.0,10.0,0.0,0,0,0,0.0,10.0,0.0,0,0,0,0.0,10.0,0.0,0,0,0,kReverse,kOff,-87.52,2.41,2.41,-0.5083008,-0.989624,-0.29315186,30.99,0.0,-553.0,-4.699341,-0.8251343,
30.727048000000003,true,true,true,0.0,-0.0078125,0.8503937125205994,-0.0078125,false,false,false,false,0.0,-0.0078125,0.0,-0.0078125,false,false,false,false,27.125,9.75,0.0,-4863,-347,0,27.625,9.7,0.0,0,0,0,20.625,9.850000000000001,0.0,-12629,363,0,23.0,9.8,0.0,0,0,0,0.0,10.0,0.0,0,0,0,0.0,10.0,0.0,0,0,0,0.0,10.0,0.0,0,0,0,kReverse,kOff,-87.5,2.44,2.54,-0.47442627,-0.41052246,-0.58776855,30.99,0.0,-595.0,-4.7039795,-0.8430176,
30.754906000000002,true,true,true,0.0,-0.0078125,0.25984251499176025,-0.0078125,false,false,false,false,0.0,-0.0078125,0.0,-0.0078125,false,false,false,false,21.75,9.75,0.0,-5011,-353,0,24.875,9.7,0.0,0,0,0,17.375,9.850000000000001,0.0,-12548,371,0,21.0,9.8,0.0,0,0,0,0.0,10.0,0.0,0,0,0,0.0,10.0,0.0,0,0,0,0.0,10.0,0.0,0,0,0,kReverse,kOff,-87.51,2.42,2.63,-0.29986572,-1.2410889,0.1652832,30.99,0.0,-270.0,-4.711426,-0.86242676,
30.780483,true,true,true,0.0,-0.0078125,0.031496062874794006,-0.0078125,false,false,false,false,0.0,-0.0078125,0.0,-0.0078125,false,false,false,false,16.0,9.75,0.0,-5089,-358,0,20.875,9.7,0.0,0,0,0,12.625,9.850000000000001,0.0,-12473,381,0,16.625,9.8,0.0,0,0,0,0.0,10.0,0.0,0,0,0,0.0,10.0,0.0,0,0,0,0.0,10.0,0.0,0,0,0,kReverse,kOff,-87.2,2.67,3.08,-0.042907715,-1.0804443,0.2977295,30.99,0.0,45.0,-4.7156067,-0.87176514,
30.806853000000004,true,true,true,0.0,-0.0078125,0.0,-0.0078125,false,false,false,false,0.0,-0.0078125,0.0,-0.0078125,false,false,false,false,9.125,9.75,0.0,-5156,-361,0,7.0,12.0,0.0,0,0,0,2.75,12.05,0.0,-12347,385,0,5.25,12.1,0.0,0,0,0,0.0,12.15,0.0,0,0,0,0.0,10.0,0.0,0,0,0,0.0,12.25,0.0,0,0,0,kReverse,kOff,-86.31,3.45,4.42,-0.021728516,-1.5508423,-0.16912842,30.99,0.0,-214.0,-4.7239227,-0.89038086,
30.835672,true,true,true,0.0,-0.0078125,0.0,-0.0078125,false,false,false,false,0.0,-0.0078125,0.0,-0.0078125,false,false,false,false,1.5,12.1,0.0,-5243,-349,0,2.25,12.0,0.0,0,0,0,1.125,12.05,0.0,-12311,370,0,1.875,12.1,0.0,0,0,0,0.0,12.15,0.0,0,0,0,0.0,12.25,0.0,0,0,0,0.0,12.25,0.0,0,0,0,kReverse,kOff,-86.15,3.49,5.15,0.26171875,-1.0943604,0.20959473,30.99,0.0,263.0,-4.732773,-0.9072113,
30.857945999999995,true,true,true,0.0,-0.0078125,0.0,-0.0078125,false,false,false,false,0.0,-0.0078125,0.0,-0.0078125,false,false,false,false,0.125,12.1,0.0,-5283,-325,0,0.625,12.0,0.0,0,0,0,0.125,12.05,0.0,-12276,339,0,0.375,12.1,0.0,0,0,0,0.0,12.15,0.0,0,0,0,0.0,12.25,0.0,0,0,0,0.0,12.25,0.0,0,0,0,kReverse,kOff,-86.4,3.25,5.34,-1.0290527,-1.2955322,-0.57629395,30.99,0.0,-1138.0,-4.742859,-0.9226074,
30.881701999999997,true,true,true,0.0,-0.0078125,0.0,-0.0078125,false,false,false,false,0.0,-0.0078125,0.0,-0.0078125,false,false,false,false,0.125,12.1,0.0,-5327,-292,0,0.0,12.0,0.0,0,0,0,0.125,12.05,0.0,-12229,300,0,0.0,12.1,0.0,0,0,0,0.0,12.15,0.0,0,0,0,0.0,12.25,0.0,0,0,0,0.125,12.25,0.0,0,0,0,kReverse,kOff,-87.3,2.33,4.45,-1.4765625,-1.8317871,-0.23162842,30.99,0.0,-1057.0,-4.749939,-0.92889404,
30.903309,true,true,true,0.0,-0.0078125,0.0,-0.0078125,false,false,false,false,0.0,-0.0078125,0.0,-0.0078125,false,false,false,false,0.125,12.1,0.0,-5373,-259,0,0.125,12.0,0.0,0,0,0,0.125,12.05,0.0,-12189,263,0,0.0,12.1,0.0,0,0,0,0.0,12.15,0.0,0,0,0,0.0,12.25,0.0,0,0,0,0.125,12.25,0.0,0,0,0,kReverse,kOff,-88.42,1.18,3.31,-1.274292,-1.0565186,-0.50946045,30.99,0.0,-1041.0,-4.7680664,-0.9381256,
30.928361,true,true,true,0.0,-0.0078125,0.0,-0.0078125,false,false,false,false,0.0,-0.0078125,0.0,-0.0078125,false,false,false,false,0.125,12.1,0.0,-5417,-234,0,0.125,12.0,0.0,0,0,0,0.125,12.05,0.0,-12119,209,0,0.0,12.1,0.0,0,0,0,0.0,12.15,0.0,0,0,0,0.0,12.25,0.0,0,0,0,0.125,12.25,0.0,0,0,0,kReverse,kOff,-89.03,0.52,2.4,-0.11602783,-1.017334,-0.1862793,30.99,0.0,-233.0,-4.789444,-0.945282,
30.956245000000003,true,true,true,0.0,-0.0078125,0.0,-0.0078125,false,false,false,false,0.0,-0.0078125,0.0,-0.0078125,false,false,false,false,0.125,12.1,0.0,-5499,-214,0,0.125,12.0,0.0,0,0,0,0.125,12.05,0.0,-12087,196,0,0.0,12.1,0.0,0,0,0,0.0,12.15,0.0,0,0,0,0.0,12.25,0.0,0,0,0,0.125,12.25,0.0,0,0,0,kReverse,kOff,-88.58,1.26,3.24,-0.07928467,-1.0140381,-0.00592041,30.99,0.0,-47.0,-4.800308,-0.94921875,
30.981186,true,true,true,0.0,-0.0078125,0.0,-0.0078125,false,false,false,false,0.0,-0.0078125,0.0,-0.0078125,false,false,false,false,0.125,12.4,0.0,-5537,-214,0,0.125,12.4,0.0,0,0,0,0.125,12.4,0.0,-12056,188,0,0.0,12.4,0.0,0,0,0,0.0,12.4,0.0,0,0,0,0.0,12.4,0.0,0,0,0,0.125,12.450000000000001,0.0,0,0,0,kReverse,kOff,-88.48,1.23,5.15,-0.48181152,-1.4118652,0.1270752,30.99,0.0,-8.0,-4.822754,-0.9561157,
31.000756999999997,true,true,true,0.0,-0.0078125,0.0,-0.0078125,false,false,false,false,0.0,-0.0078125,0.0,-0.0078125,false,false,false,false,0.125,12.4,0.0,-5574,-212,0,0.125,12.4,0.0,0,0,0,0.125,12.4,0.0,-12027,180,0,0.0,12.4,0.0,0,0,0,0.0,12.4,0.0,0,0,0,0.0,12.4,0.0,0,0,0,0.0,12.450000000000001,0.0,0,0,0,kReverse,kOff,-88.29,1.18,8.03,0.059387207,-1.0041504,0.30743408,30.99,0.0,288.0,-4.833908,-0.9589386,
31.023473,true,true,true,0.0,-0.0078125,0.0,-0.0078125,false,false,false,false,0.0,-0.0078125,0.0,-0.0078125,false,false,false,false,0.125,12.4,0.0,-5610,-206,0,0.125,12.4,0.0,0,0,0,0.125,12.4,0.0,-12001,169,0,0.0,12.4,0.0,0,0,0,0.0,12.4,0.0,0,0,0,0.0,12.4,0.0,0,0,0,0.0,12.450000000000001,0.0,0,0,0,kReverse,kOff,-87.92,1.36,12.58,0.14587402,-0.6072998,-0.103027344,30.99,0.0,22.0,-4.856018,-0.96502686,
31.04413,true,true,true,0.0,-0.0078125,0.0,-0.0078125,false,false,false,false,0.0,-0.0078125,0.0,-0.0078125,false,false,false,false,0.125,12.4,0.0,-5643,-197,0,0.125,12.4,0.0,0,0,0,0.125,12.4,0.0,-11983,157,0,0.0,12.4,0.0,0,0,0,0.0,12.4,0.0,0,0,0,0.0,12.4,0.0,0,0,0,0.0,12.450000000000001,0.0,0,0,0,kReverse,kOff,-87.19,1.88,28.76,0.39001465,-1.1470947,0.5187988,30.95,0.0,500.0,-4.8667297,-0.96858215,
31.070386,true,true,true,0.0,-0.0078125,0.0,-0.0078125,false,false,false,false,0.0,-0.0078125,0.0,-0.0078125,false,false,false,false,0.125,12.4,0.0,-5674,-188,0,0.125,12.4,0.0,0,0,0,0.125,12.4,0.0,-11965,126,0,0.0,12.4,0.0,0,0,0,0.0,12.4,0.0,0,0,0,0.0,12.4,0.0,0,0,0,0.0,12.450000000000001,0.0,0,0,0,kReverse,kOff,-86.91,2.28,55.68,-0.18670654,-1.0373535,0.043640137,30.95,0.0,0.0,-4.886841,-0.9762726,
31.091510999999997,true,true,true,0.0,-0.0078125,0.0,-0.0078125,false,false,false,false,0.0,-0.0078125,0.0,-0.0078125,false,false,false,false,0.125,12.4,0.0,-5703,-179,0,0.125,12.4,0.0,0,0,0,0.125,12.4,0.0,-11963,104,0,0.0,12.4,0.0,0,0,0,0.0,12.4,0.0,0,0,0,0.0,12.4,0.0,0,0,0,0.0,12.450000000000001,0.0,0,0,0,kReverse,kOff,-87.51,1.99,72.14,-0.8986206,-1.0715332,-0.19793701,30.95,0.0,-233.0,-4.896942,-0.9792938,
31.113431,true,true,true,0.0,-0.0078125,0.0,-0.0078125,false,false,false,false,0.0,-0.0078125,0.0,-0.0078125,false,false,false,false,0.125,12.4,0.0,-5753,-160,0,0.125,12.4,0.0,0,0,0,0.125,12.4,0.0,-11962,79,0,0.0,12.4,0.0,0,0,0,0.0,12.4,0.0,0,0,0,0.0,12.4,0.0,0,0,0,0.0,12.450000000000001,0.0,0,0,0,kReverse,kOff,-89.11,0.42,151.56,-0.82696533,-1.003418,0.3218994,30.95,0.0,328.0,-4.916687,-0.9813843,
31.134372000000003,true,true,true,0.0,-0.0078125,0.0,-0.0078125,false,false,false,false,0.0,-0.0078125,0.0,-0.0078125,false,false,false,false,0.125,12.4,0.0,-5774,-149,0,0.125,12.450000000000001,0.0,0,0,0,0.125,12.4,0.0,-11960,55,0,0.0,12.450000000000001,0.0,0,0,0,0.0,12.4,0.0,0,0,0,0.0,12.4,0.0,0,0,0,0.0,12.450000000000001,0.0,0,0,0,kReverse,kOff,-89.2,0.16,161.75,-0.04309082,-1.1601562,0.32855225,30.95,0.0,314.0,-4.9259033,-0.9812012,
31.155877,true,true,true,0.0,-0.0078125,0.0,-0.0078125,false,false,false,false,0.0,-0.0078125,0.0,-0.0078125,false,false,false,false,0.125,12.4,0.0,-5793,-137,0,0.125,12.450000000000001,0.0,0,0,0,0.125,12.4,0.0,-11959,34,0,0.0,12.450000000000001,0.0,0,0,0,0.0,12.4,0.0,0,0,0,0.0,12.4,0.0,0,0,0,0.0,12.450000000000001,0.0,0,0,0,kReverse,kOff,-88.8,0.42,164.25,0.03265381,-0.84765625,0.21685791,30.95,0.0,198.0,-4.94339,-0.9814148,
31.176672,true,true,true,0.0,-0.0078125,0.0,-0.0078125,false,false,false,false,0.0,-0.0078125,0.0,-0.0078125,false,false,false,false,0.125,12.4,0.0,-5810,-125,0,0.125,12.450000000000001,0.0,0,0,0,0.125,12.4,0.0,-11959,19,0,0.125,12.450000000000001,0.0,0,0,0,0.0,12.4,0.0,0,0,0,0.0,12.4,0.0,0,0,0,0.0,12.450000000000001,0.0,0,0,0,kReverse,kOff,-88.65,0.59,165.59,0.2631836,-1.0686646,0.2088623,30.95,0.0,166.0,-4.9517517,-0.98184204,
31.205980000000004,true,true,true,0.0,-0.0078125,0.0,-0.0078125,false,false,false,false,0.0,-0.0078125,0.0,-0.0078125,false,false,false,false,0.125,12.4,0.0,-5824,-113,0,0.125,12.450000000000001,0.0,0,0,0,0.125,12.4,0.0,-11959,5,0,0.125,12.450000000000001,0.0,0,0,0,0.0,12.4,0.0,0,0,0,0.0,12.4,0.0,0,0,0,0.0,12.450000000000001,0.0,0,0,0,kReverse,kOff,-87.97,1.1,162.92,0.4837036,-1.0107422,0.077697754,30.95,0.0,5.0,-4.96756,-0.9841461,
31.233095999999996,true,true,true,0.0,-0.0078125,0.0,-0.0078125,false,false,false,false,0.0,-0.0078125,0.0,-0.0078125,false,false,false,false,0.125,12.4,0.0,-5846,-90,0,0.125,12.450000000000001,0.0,0,0,0,0.125,12.4,0.0,-11959,3,0,0.125,12.450000000000001,0.0,0,0,0,0.0,12.4,0.0,0,0,0,0.0,12.4,0.0,0,0,0,0.0,12.450000000000001,0.0,0,0,0,kReverse,kOff,-87.42,1.63,161.7,-0.061035156,-1.2312622,0.47961426,30.95,0.0,443.0,-4.982559,-0.9884796,
31.256076,true,true,true,0.0,-0.0078125,0.0,-0.0078125,false,false,false,false,0.0,-0.0078125,0.0,-0.0078125,false,false,false,false,0.125,12.4,0.0,-5855,-79,0,0.125,12.450000000000001,0.0,0,0,0,0.125,12.4,0.0,-11959,2,0,0.125,12.450000000000001,0.0,0,0,0,0.0,12.4,0.0,0,0,0,0.0,12.4,0.0,0,0,0,0.0,12.450000000000001,0.0,0,0,0,kReverse,kOff,-87.4,1.21,160.04,-0.44396973,-1.0767212,0.45025635,30.95,0.0,452.0,-4.9954224,-0.9920044,
31.281945999999998,true,true,true,0.0,-0.0078125,0.0,-0.0078125,false,false,false,false,0.0,-0.0078125,0.0,-0.0078125,false,false,false,false,0.125,12.4,0.0,-5862,-68,0,0.125,12.450000000000001,0.0,0,0,0,0.125,12.4,0.0,-11959,1,0,0.125,12.450000000000001,0.0,0,0,0,0.0,12.4,0.0,0,0,0,0.0,12.4,0.0,0,0,0,0.0,12.450000000000001,0.0,0,0,0,kReverse,kOff,-87.4,0.95,159.45,-0.16900635,-1.0008545,0.5228882,30.95,0.0,497.0,-5.000931,-0.99313354,
31.305305999999998,true,true,true,0.0,-0.0078125,0.0,-0.0078125,false,false,false,false,0.0,-0.0078125,0.0,-0.0078125,false,false,false,false,0.125,12.450000000000001,0.0,-5869,-58,0,0.125,12.450000000000001,0.0,0,0,0,0.125,12.450000000000001,0.0,-11962,0,0,0.125,12.450000000000001,0.0,0,0,0,0.0,12.450000000000001,0.0,0,0,0,0.0,12.450000000000001,0.0,0,0,0,0.0,12.5,0.0,0,0,0,kReverse,kOff,-87.31,0.89,158.88,0.055786133,-1.1234741,0.15270996,30.95,0.0,98.0,-5.006027,-0.9941864,
31.329974000000004,true,true,true,0.0,-0.0078125,0.0,-0.0078125,false,false,false,false,0.0,-0.0078125,0.0,-0.0078125,false,false,false,false,0.125,12.450000000000001,0.0,-5876,-49,0,0.125,12.450000000000001,0.0,0,0,0,0.125,12.450000000000001,0.0,-11963,-1,0,0.125,12.450000000000001,0.0,0,0,0,0.0,12.450000000000001,0.0,0,0,0,0.0,12.450000000000001,0.0,0,0,0,0.0,12.5,0.0,0,0,0,kReverse,kOff,-87.14,1.03,158.96,0.095825195,-0.91363525,0.25683594,30.95,0.0,203.0,-5.0156097,-0.99671936,
31.351203,true,true,true,0.0,-0.0078125,0.0,-0.0078125,false,false,false,false,0.0,-0.0078125,0.0,-0.0078125,false,false,false,false,0.125,12.450000000000001,0.0,-5882,-43,0,0.125,12.450000000000001,0.0,0,0,0,0.125,12.450000000000001,0.0,-11963,-2,0,0.125,12.450000000000001,0.0,0,0,0,0.0,12.450000000000001,0.0,0,0,0,0.0,12.450000000000001,0.0,0,0,0,0.0,12.5,0.0,0,0,0,kReverse,kOff,-86.93,1.1,158.53,0.14971924,-0.94976807,0.1449585,30.95,0.0,81.0,-5.024353,-0.99983215,
31.375956,true,true,true,0.0,-0.0078125,0.0,-0.0078125,false,false,false,false,0.0,-0.0078125,0.0,-0.0078125,false,false,false,false,0.125,12.450000000000001,0.0,-5887,-33,0,0.125,12.450000000000001,0.0,0,0,0,0.125,12.450000000000001,0.0,-11963,-3,0,0.125,12.450000000000001,0.0,0,0,0,0.0,12.450000000000001,0.0,0,0,0,0.0,12.450000000000001,0.0,0,0,0,0.0,12.5,0.0,0,0,0,kReverse,kOff,-86.53,1.3,157.09,0.12194824,-1.0010986,0.051696777,30.95,0.0,-16.0,-5.032837,-1.0037079,
31.399909,true,true,true,0.0,-0.0078125,0.0,-0.0078125,false,false,false,false,0.0,-0.0078125,0.0,-0.0078125,false,false,false,false,0.125,12.450000000000001,0.0,-5887,-27,0,0.125,12.450000000000001,0.0,0,0,0,0.125,12.450000000000001,0.0,-11963,-3,0,0.125,12.450000000000001,0.0,0,0,0,0.0,12.450000000000001,0.0,0,0,0,0.0,12.450000000000001,0.0,0,0,0,0.0,12.5,0.0,0,0,0,kReverse,kOff,-86.42,1.32,156.51,-0.15710449,-0.9810791,0.12854004,30.95,0.0,91.0,-5.041153,-1.0076141,
31.444654999999997,true,true,true,0.0,-0.0078125,0.0,-0.0078125,false,false,false,false,0.0,-0.0078125,0.0,-0.0078125,false,false,false,false,0.125,12.450000000000001,0.0,-5887,-15,0,0.125,12.450000000000001,0.0,0,0,0,0.125,12.450000000000001,0.0,-11963,-2,0,0.125,12.450000000000001,0.0,0,0,0,0.0,12.450000000000001,0.0,0,0,0,0.0,12.450000000000001,0.0,0,0,0,0.0,12.55,0.0,0,0,0,kReverse,kOff,-86.17,1.01,153.68,-0.032470703,-0.99523926,0.13671875,30.95,0.0,78.0,-5.0491943,-1.0108032,
31.473722000000002,true,true,true,0.0,-0.0078125,0.0,-0.0078125,false,false,false,false,0.0,-0.0078125,0.0,-0.0078125,false,false,false,false,0.125,12.450000000000001,0.0,-5887,-4,0,0.125,12.450000000000001,0.0,0,0,0,0.125,12.450000000000001,0.0,-11963,0,0,0.125,12.450000000000001,0.0,0,0,0,0.0,12.450000000000001,0.0,0,0,0,0.0,12.450000000000001,0.0,0,0,0,0.0,12.55,0.0,0,0,0,kReverse,kOff,-86.06,0.95,152.26,-0.0076293945,-0.9527588,0.11859131,30.95,0.0,57.0,-5.0568695,-1.0137482,
31.497352,true,true,true,0.0,-0.0078125,0.0,-0.0078125,false,false,false,false,0.0,-0.0078125,0.0,-0.0078125,false,false,false,false,0.125,12.450000000000001,0.0,-5887,-1,0,0.125,12.450000000000001,0.0,0,0,0,0.125,12.450000000000001,0.0,-11964,0,0,0.125,12.450000000000001,0.0,0,0,0,0.0,12.450000000000001,0.0,0,0,0,0.0,12.450000000000001,0.0,0,0,0,0.0,12.55,0.0,0,0,0,kReverse,kOff,-86.07,0.99,152.11,0.11279297,-0.9776001,0.0703125,30.95,0.0,-6.0,-5.064331,-1.0167847,
