timer,lineLeft,lineCenter,lineRight,driverLeftX,driverLeftY,driverRightX,driverRightY,driverA,driverB,driverX,driverY,operatorLeftX,operatorLeftY,operatorRightX,operatorRightY,operatorA,operatorB,operatorX,operatorY,LeftFrontCurrent,LeftFrontVoltage,LeftFrontValue,LeftFrontPosition,LeftFrontVelocity,LeftFrontFaults,LeftRearCurrent,LeftRearVoltage,LeftRearValue,LeftRearPosition,LeftRearVelocity,LeftRearFaults,RightFrontCurrent,RightFrontVoltage,RightFrontValue,RightFrontPosition,RightFrontVelocity,RightFrontFaults,RightRearCurrent,RightRearVoltage,RightRearValue,RightRearPosition,RightRearVelocity,RightRearFaults,LiftCurrent,LiftVoltage,LiftValue,LiftPosition,LiftVelocity,LiftFaults,WristCurrent,WristVoltage,WristValue,WristPosition,WristVelocity,WristFaults,RollerCurrent,RollerVoltage,RollerValue,RollerPosition,RollerVelocity,RollerFaults,PushersState,PivotsState,navx_Pitch,navx_Roll,navx_Yaw,navx_XAcc,navx_YAcc,navx_ZAcc,navx_Temp,navx_Bar,navx_Alt,navx_XDis,navx_YDis,
996.005034,true,true,true,0.0,-0.0078125,0.0,-0.0078125,false,false,false,false,0.0,-0.0078125,0.0,-0.0078125,false,false,false,false,0.125,12.65,0.0,-11298,0,0,0.125,12.65,0.0,0,0,0,0.125,12.65,0.0,-14357,0,0,0.125,12.700000000000001,0.0,0,0,0,0.0,12.65,0.0,-6,0,0,0.0,12.65,0.0,0,0,0,0.125,12.75,0.0,0,0,0,kReverse,kOff,-86.98,1.77,-36.05,0.03125,-0.9813843,0.040771484,33.16,0.0,1.0,-7.500473,-2.9816132,
996.0341589999999,true,true,true,0.0,-0.0078125,0.0,-0.0078125,false,false,false,false,0.0,-0.0078125,0.0,-0.0078125,false,false,false,false,0.125,12.65,0.0,-11298,0,0,0.125,12.65,0.0,0,0,0,0.125,12.65,0.0,-14357,0,0,0.125,12.700000000000001,0.0,0,0,0,0.0,12.65,0.0,-6,0,0,0.0,12.65,0.0,0,0,0,0.125,12.75,0.0,0,0,0,kReverse,kOff,-86.99,1.76,-36.07,0.029052734,-0.98461914,0.039916992,33.16,0.0,1.0,-7.500473,-2.9816132,
996.061206,true,true,true,0.0,-0.0078125,0.0,-0.0078125,false,false,false,false,0.0,-0.0078125,0.0,-0.0078125,false,false,false,false,0.125,12.65,0.0,-11298,0,0,0.125,12.65,0.0,0,0,0,0.125,12.65,0.0,-14357,0,0,0.125,12.700000000000001,0.0,0,0,0,0.0,12.65,0.0,-6,0,0,0.0,12.65,0.0,0,0,0,0.125,12.75,0.0,0,0,0,kReverse,kOff,-86.99,1.76,-36.07,0.029785156,-0.982666,0.039123535,33.16,0.0,2.0,-7.500473,-2.9816132,
996.08175,true,true,true,0.0,-0.0078125,0.0,-0.0078125,false,false,false,false,0.0,-0.0078125,0.0,-0.0078125,false,false,false,false,0.125,12.65,0.0,-11298,0,0,0.125,12.65,0.0,0,0,0,0.125,12.65,0.0,-14357,0,0,0.125,12.700000000000001,0.0,0,0,0,0.0,12.65,0.0,-6,0,0,0.0,12.65,0.0,0,0,0,0.125,12.75,0.0,0,0,0,kReverse,kOff,-86.99,1.76,-35.97,0.029968262,-0.98150635,0.04498291,33.16,0.0,-3.0,-7.500473,-2.9816132,
996.1044179999999,true,true,true,0.0,-0.0078125,0.0,-0.0078125,false,false,false,false,0.0,-0.0078125,0.0,-0.0078125,false,false,false,false,0.125,12.65,0.0,-11298,0,0,0.125,12.65,0.0,0,0,0,0.125,12.65,0.0,-14357,0,0,0.125,12.700000000000001,0.0,0,0,0,0.0,12.65,0.0,-6,0,0,0.0,12.65,0.0,0,0,0,0.125,12.75,0.0,0,0,0,kReverse,kOff,-86.99,1.76,-35.95,0.029296875,-0.97991943,0.044433594,33.16,0.0,-2.0,-7.500473,-2.9816132,
996.124486,true,true,true,0.0,-0.0078125,0.0,-0.0078125,false,false,false,false,0.0,-0.0078125,0.0,-0.0078125,false,false,false,false,0.125,12.65,0.0,-11298,0,0,0.125,12.65,0.0,0,0,0,0.125,12.65,0.0,-14357,0,0,0.125,12.700000000000001,0.0,0,0,0,0.0,12.65,0.0,-6,0,0,0.0,12.65,0.0,0,0,0,0.125,12.75,0.0,0,0,0,kReverse,kOff,-86.99,1.76,-35.95,0.029296875,-0.97991943,0.044433594,33.16,0.0,-2.0,-7.500473,-2.9816132,
996.14697,true,true,true,0.0,-0.0078125,0.0,-0.0078125,false,false,false,false,0.0,-0.0078125,0.0,-0.0078125,false,false,false,false,0.125,12.65,0.0,-11298,0,0,0.125,12.65,0.0,0,0,0,0.125,12.65,0.0,-14357,0,0,0.125,12.700000000000001,0.0,0,0,0,0.0,12.65,0.0,-6,0,0,0.0,12.65,0.0,0,0,0,0.125,12.75,0.0,0,0,0,kReverse,kOff,-86.99,1.76,-35.95,0.030822754,-0.98321533,0.04296875,33.16,0.0,-1.0,-7.500473,-2.9816132,
996.164126,true,true,true,0.0,-0.0078125,0.0,-0.0078125,false,false,false,false,0.0,-0.0078125,0.0,-0.0078125,false,false,false,false,0.125,12.65,0.0,-11298,0,0,0.125,12.65,0.0,0,0,0,0.125,12.65,0.0,-14357,0,0,0.125,12.700000000000001,0.0,0,0,0,0.0,12.65,0.0,-6,0,0,0.0,12.65,0.0,0,0,0,0.125,12.75,0.0,0,0,0,kReverse,kOff,-86.99,1.76,-35.95,0.02960205,-0.982605,0.03704834,33.16,0.0,4.0,-7.500473,-2.9816132,
996.191031,true,true,true,0.0,-0.0078125,0.0,-0.0078125,false,false,false,false,0.0,-0.0078125,0.0,-0.0078125,false,false,false,false,0.125,12.65,0.0,-11298,0,0,0.125,12.65,0.0,0,0,0,0.125,12.65,0.0,-14357,0,0,0.125,12.700000000000001,0.0,0,0,0,0.0,12.65,0.0,-6,0,0,0.0,12.65,0.0,0,0,0,0.125,12.75,0.0,0,0,0,kReverse,kOff,-86.99,1.76,-35.97,0.0289917,-0.98339844,0.04083252,33.16,0.0,0.0,-7.500473,-2.9816132,
996.213408,true,true,true,0.0,-0.0078125,0.0,-0.0078125,false,false,false,false,0.0,-0.0078125,0.0,-0.0078125,false,false,false,false,0.125,12.65,0.0,-11298,0,0,0.125,12.65,0.0,0,0,0,0.125,12.65,0.0,-14357,0,0,0.125,12.700000000000001,0.0,0,0,0,0.0,12.65,0.0,-6,0,0,0.0,12.65,0.0,0,0,0,0.125,12.75,0.0,0,0,0,kReverse,kOff,-86.99,1.76,-35.95,0.028747559,-0.9814453,0.037902832,33.16,0.0,3.0,-7.500473,-2.9816132,
996.2356289999999,true,true,true,0.0,-0.0078125,0.0,-0.0078125,false,false,false,false,0.0,-0.0078125,0.0,-0.0078125,false,false,false,false,0.125,12.65,0.0,-11298,0,0,0.125,12.65,0.0,0,0,0,0.125,12.65,0.0,-14357,0,0,0.125,12.700000000000001,0.0,0,0,0,0.0,12.65,0.0,-6,0,0,0.0,12.65,0.0,0,0,0,0.125,12.75,0.0,0,0,0,kReverse,kOff,-86.99,1.76,-35.97,0.031921387,-0.9866333,0.0435791,33.16,0.0,-1.0,-7.500473,-2.9816132,
996.259363,true,true,true,0.0,-0.0078125,0.0,-0.0078125,false,false,false,false,0.0,-0.0078125,0.0,-0.0078125,false,false,false,false,0.125,12.65,0.0,-11298,0,0,0.125,12.65,0.0,0,0,0,0.125,12.65,0.0,-14357,0,0,0.125,12.700000000000001,0.0,0,0,0,0.0,12.65,0.0,-6,0,0,0.0,12.65,0.0,0,0,0,0.125,12.75,0.0,0,0,0,kReverse,kOff,-86.99,1.76,-35.97,0.031982422,-0.98394775,0.04168701,33.16,0.0,0.0,-7.500473,-2.9816132,
996.2805999999999,true,true,true,0.0,-0.0078125,0.0,-0.0078125,false,false,false,false,0.0,-0.0078125,0.0,-0.0078125,false,false,false,false,0.125,12.65,0.0,-11298,0,0,0.125,12.65,0.0,0,0,0,0.125,12.65,0.0,-14357,0,0,0.125,12.700000000000001,0.0,0,0,0,0.0,12.65,0.0,-6,0,0,0.0,12.65,0.0,0,0,0,0.125,12.75,0.0,0,0,0,kReverse,kOff,-86.99,1.76,-35.97,0.028625488,-0.97998047,0.046203613,33.16,0.0,-4.0,-7.500473,-2.9816132,
996.300135,true,true,true,0.0,-0.0078125,0.0,-0.0078125,false,false,false,false,0.0,-0.0078125,0.0,-0.0078125,false,false,false,false,0.125,12.65,0.0,-11298,0,0,0.125,12.65,0.0,0,0,0,0.125,12.65,0.0,-14357,0,0,0.125,12.700000000000001,0.0,0,0,0,0.0,12.65,0.0,-6,0,0,0.0,12.65,0.0,0,0,0,0.125,12.75,0.0,0,0,0,kReverse,kOff,-86.99,1.76,-35.97,0.028137207,-0.9807129,0.039855957,33.16,0.0,1.0,-7.500473,-2.9816132,
996.3233270000001,true,true,true,0.0,-0.0078125,0.0,-0.0078125,false,false,false,false,0.0,-0.0078125,0.0,-0.0078125,false,false,false,false,0.125,12.65,0.0,-11298,0,0,0.125,12.65,0.0,0,0,0,0.125,12.65,0.0,-14357,0,0,0.125,12.700000000000001,0.0,0,0,0,0.0,12.65,0.0,-6,0,0,0.0,12.65,0.0,0,0,0,0.125,12.75,0.0,0,0,0,kReverse,kOff,-86.99,1.76,-35.97,0.030578613,-0.984375,0.038635254,33.14,0.0,3.0,-7.500473,-2.9816132,
996.342908,true,true,true,0.0,-0.0078125,0.0,-0.0078125,false,false,false,false,0.0,-0.0078125,0.0,-0.0078125,false,false,false,false,0.125,12.65,0.0,-11298,0,0,0.125,12.65,0.0,0,0,0,0.125,12.65,0.0,-14357,0,0,0.125,12.700000000000001,0.0,0,0,0,0.0,12.65,0.0,-6,0,0,0.0,12.65,0.0,0,0,0,0.125,12.75,0.0,0,0,0,kReverse,kOff,-86.99,1.76,-35.97,0.034423828,-0.9824219,0.037719727,33.14,0.0,4.0,-7.500473,-2.9816132,
996.366045,true,true,true,0.0,-0.0078125,0.0,-0.0078125,false,false,false,false,0.0,-0.0078125,0.0,-0.0078125,false,false,false,false,0.125,12.65,0.0,-11298,0,0,0.125,12.65,0.0,0,0,0,0.125,12.65,0.0,-14357,0,0,0.125,12.700000000000001,0.0,0,0,0,0.0,12.65,0.0,-6,0,0,0.0,12.65,0.0,0,0,0,0.125,12.75,0.0,0,0,0,kReverse,kOff,-86.99,1.76,-35.97,0.029907227,-0.9854126,0.041015625,33.14,0.0,0.0,-7.500473,-2.9816132,
996.388189,true,true,true,0.0,-0.0078125,0.0,-0.0078125,false,false,false,false,0.0,-0.0078125,0.0,-0.0078125,false,false,false,false,0.125,12.65,0.0,-11298,0,0,0.125,12.65,0.0,0,0,0,0.125,12.65,0.0,-14357,0,0,0.125,12.700000000000001,0.0,0,0,0,0.0,12.65,0.0,-6,0,0,0.0,12.65,0.0,0,0,0,0.125,12.75,0.0,0,0,0,kReverse,kOff,-86.99,1.76,-35.93,0.031982422,-0.9834595,0.039794922,33.14,0.0,1.0,-7.500473,-2.9816132,
996.408393,true,true,true,0.0,-0.0078125,0.0,-0.0078125,false,false,false,false,0.0,-0.0078125,0.0,-0.0078125,false,false,false,false,0.125,12.65,0.0,-11298,0,0,0.125,12.65,0.0,0,0,0,0.125,12.65,0.0,-14357,0,0,0.125,12.700000000000001,0.0,0,0,0,0.0,12.65,0.0,-6,0,0,0.0,12.65,0.0,0,0,0,0.125,12.75,0.0,0,0,0,kReverse,kOff,-86.99,1.76,-35.93,0.031677246,-0.9857788,0.036743164,33.14,0.0,5.0,-7.500473,-2.9816132,
996.430575,true,true,true,0.0,-0.0078125,0.0,-0.0078125,false,false,false,false,0.0,-0.0078125,0.0,-0.0078125,false,false,false,false,0.125,12.65,0.0,-11298,0,0,0.125,12.65,0.0,0,0,0,0.125,12.65,0.0,-14357,0,0,0.125,12.700000000000001,0.0,0,0,0,0.0,12.65,0.0,-6,0,0,0.0,12.65,0.0,0,0,0,0.125,12.75,0.0,0,0,0,kReverse,kOff,-86.99,1.77,-35.89,0.026977539,-0.9812622,0.042175293,33.14,0.0,0.0,-7.500473,-2.9816132,
996.451225,true,true,true,0.0,-0.0078125,0.0,-0.0078125,false,false,false,false,0.0,-0.0078125,0.0,-0.0078125,false,false,false,false,0.125,12.65,0.0,-11298,0,0,0.125,12.65,0.0,0,0,0,0.125,12.65,0.0,-14357,0,0,0.125,12.700000000000001,0.0,0,0,0,0.0,12.65,0.0,-6,0,0,0.0,12.65,0.0,0,0,0,0.125,12.75,0.0,0,0,0,kReverse,kOff,-86.99,1.76,-35.93,0.032348633,-0.9829712,0.03881836,33.14,0.0,2.0,-7.500473,-2.9816132,
996.472372,true,true,true,0.0,-0.0078125,0.0,-0.0078125,false,false,false,false,0.0,-0.0078125,0.0,-0.0078125,false,false,false,false,0.125,12.65,0.0,-11298,0,0,0.125,12.65,0.0,0,0,0,0.125,12.65,0.0,-14357,0,0,0.125,12.700000000000001,0.0,0,0,0,0.0,12.65,0.0,-6,0,0,0.0,12.65,0.0,0,0,0,0.125,12.75,0.0,0,0,0,kReverse,kOff,-86.99,1.77,-35.91,0.032226562,-0.98638916,0.045166016,33.14,0.0,-3.0,-7.500473,-2.9816132,
996.4941689999999,true,true,true,0.0,-0.0078125,0.0,-0.0078125,false,false,false,false,0.0,-0.0078125,0.0,-0.0078125,false,false,false,false,0.125,12.65,0.0,-11298,0,0,0.125,12.65,0.0,0,0,0,0.125,12.65,0.0,-14357,0,0,0.125,12.700000000000001,0.0,0,0,0,0.0,12.65,0.0,-6,0,0,0.0,12.65,0.0,0,0,0,0.125,12.75,0.0,0,0,0,kReverse,kOff,-86.99,1.77,-35.91,0.03503418,-0.98187256,0.043518066,33.14,0.0,-1.0,-7.500473,-2.9816132,
996.519684,true,true,true,0.0,-0.0078125,0.0,-0.0078125,false,false,false,false,0.0,-0.0078125,0.0,-0.0078125,false,false,false,false,0.125,12.65,0.0,-11298,0,0,0.125,12.65,0.0,0,0,0,0.125,12.65,0.0,-14357,0,0,0.125,12.700000000000001,0.0,0,0,0,0.0,12.65,0.0,-6,0,0,0.0,12.65,0.0,0,0,0,0.125,12.75,0.0,0,0,0,kReverse,kOff,-86.99,1.77,-35.91,0.032592773,-0.98339844,0.036193848,33.14,0.0,5.0,-7.500473,-2.9816132,
996.542341,true,true,true,0.0,-0.0078125,0.0,-0.0078125,false,false,false,false,0.0,-0.0078125,0.0,-0.0078125,false,false,false,false,0.125,12.65,0.0,-11298,0,0,0.125,12.65,0.0,0,0,0,0.125,12.65,0.0,-14357,0,0,0.125,12.700000000000001,0.0,0,0,0,0.0,12.65,0.0,-6,0,0,0.0,12.65,0.0,0,0,0,0.125,12.75,0.0,0,0,0,kReverse,kOff,-86.99,1.77,-35.91,0.029907227,-0.98339844,0.03881836,33.14,0.0,2.0,-7.500473,-2.9816132,
996.561696,true,true,true,0.0,-0.0078125,0.0,-0.0078125,false,false,false,false,0.0,-0.0078125,0.0,-0.0078125,false,false,false,false,0.125,12.65,0.0,-11298,0,0,0.125,12.65,0.0,0,0,0,0.125,12.65,0.0,-14357,0,0,0.125,12.700000000000001,0.0,0,0,0,0.0,12.65,0.0,-6,0,0,0.0,12.65,0.0,0,0,0,0.125,12.75,0.0,0,0,0,kReverse,kOff,-86.99,1.76,-35.81,0.029785156,-0.98205566,0.04309082,33.14,0.0,-1.0,-7.500473,-2.9816132,
996.580363,true,true,true,0.0,-0.0078125,0.0,-0.0078125,false,false,false,false,0.0,-0.0078125,0.0,-0.0078125,false,false,false,false,0.125,12.65,0.0,-11298,0,0,0.125,12.65,0.0,0,0,0,0.125,12.65,0.0,-14357,0,0,0.125,12.700000000000001,0.0,0,0,0,0.0,12.65,0.0,-6,0,0,0.0,12.65,0.0,0,0,0,0.125,12.75,0.0,0,0,0,kReverse,kOff,-86.99,1.77,-35.91,0.031311035,-0.98223877,0.039611816,33.14,0.0,2.0,-7.500473,-2.9816132,
996.600296,true,true,true,0.0,-0.0078125,0.0,-0.0078125,false,false,false,false,0.0,-0.0078125,0.0,-0.0078125,false,false,false,false,0.125,12.65,0.0,-11298,0,0,0.125,12.65,0.0,0,0,0,0.125,12.65,0.0,-14357,0,0,0.125,12.700000000000001,0.0,0,0,0,0.0,12.65,0.0,-6,0,0,0.0,12.65,0.0,0,0,0,0.125,12.75,0.0,0,0,0,kReverse,kOff,-86.99,1.76,-35.81,0.030395508,-0.9838867,0.03765869,33.14,0.0,4.0,-7.500473,-2.9816132,
996.619412,true,true,true,0.0,-0.0078125,0.0,-0.0078125,false,false,false,false,0.0,-0.0078125,0.0,-0.0078125,false,false,false,false,0.125,12.65,0.0,-11298,0,0,0.125,12.65,0.0,0,0,0,0.125,12.65,0.0,-14357,0,0,0.125,12.700000000000001,0.0,0,0,0,0.0,12.65,0.0,-6,0,0,0.0,12.65,0.0,0,0,0,0.125,12.75,0.0,0,0,0,kReverse,kOff,-86.99,1.76,-35.81,0.028320312,-0.98236084,0.039367676,33.14,0.0,2.0,-7.500473,-2.9816132,
996.6413279999999,true,true,true,0.0,-0.0078125,0.0,-0.0078125,false,false,false,false,0.0,-0.0078125,0.0,-0.0078125,false,false,false,false,0.125,12.65,0.0,-11298,0,0,0.125,12.65,0.0,0,0,0,0.125,12.65,0.0,-14357,0,0,0.125,12.700000000000001,0.0,0,0,0,0.0,12.65,0.0,-6,0,0,0.0,12.65,0.0,0,0,0,0.125,12.75,0.0,0,0,0,kReverse,kOff,-86.99,1.76,-35.81,0.031311035,-0.98516846,0.03845215,33.14,0.0,3.0,-7.500473,-2.9816132,
996.6634200000001,true,true,true,0.0,-0.0078125,0.0,-0.0078125,false,false,false,false,0.0,-0.0078125,0.0,-0.0078125,false,false,false,false,0.125,12.65,0.0,-11298,0,0,0.125,12.65,0.0,0,0,0,0.125,12.65,0.0,-14357,0,0,0.125,12.700000000000001,0.0,0,0,0,0.0,12.65,0.0,-6,0,0,0.0,12.65,0.0,0,0,0,0.125,12.75,0.0,0,0,0,kReverse,kOff,-86.99,1.76,-35.81,0.031982422,-0.9829712,0.03930664,33.14,0.0,2.0,-7.500473,-2.9816132,
996.684955,true,true,true,0.0,-0.0078125,0.0,-0.0078125,false,false,false,false,0.0,-0.0078125,0.0,-0.0078125,false,false,false,false,0.125,12.65,0.0,-11298,0,0,0.125,12.65,0.0,0,0,0,0.125,12.65,0.0,-14357,0,0,0.125,12.700000000000001,0.0,0,0,0,0.0,12.65,0.0,-6,0,0,0.0,12.65,0.0,0,0,0,0.125,12.75,0.0,0,0,0,kReverse,kOff,-86.99,1.77,-35.77,0.03149414,-0.9812622,0.04473877,33.14,0.0,-3.0,-7.500473,-2.9816132,
996.699929,true,true,true,0.0,-0.0078125,0.0,-0.0078125,false,false,false,false,0.0,-0.0078125,0.0,-0.0078125,false,false,false,false,0.125,12.65,0.0,-11298,0,0,0.125,12.65,0.0,0,0,0,0.125,12.65,0.0,-14357,0,0,0.125,12.700000000000001,0.0,0,0,0,0.0,12.65,0.0,-6,0,0,0.0,12.65,0.0,0,0,0,0.125,12.75,0.0,0,0,0,kReverse,kOff,-86.99,1.77,-35.77,0.029052734,-0.9846802,0.042541504,33.14,0.0,0.0,-7.500473,-2.9816132,
996.731137,true,true,true,0.0,-0.0078125,0.0,-0.0078125,false,false,false,false,0.0,-0.0078125,0.0,-0.0078125,false,false,false,false,0.125,12.65,0.0,-11298,0,0,0.125,12.65,0.0,0,0,0,0.125,12.65,0.0,-14357,0,0,0.125,12.700000000000001,0.0,0,0,0,0.0,12.65,0.0,-6,0,0,0.0,12.65,0.0,0,0,0,0.125,12.75,0.0,0,0,0,kReverse,kOff,-86.99,1.77,-35.77,0.03265381,-0.982666,0.04119873,33.14,0.0,0.0,-7.500473,-2.9816132,
996.755494,true,true,true,0.0,-0.0078125,0.0,-0.0078125,false,false,false,false,0.0,-0.0078125,0.0,-0.0078125,false,false,false,false,0.125,12.65,0.0,-11298,0,0,0.125,12.65,0.0,0,0,0,0.125,12.65,0.0,-14357,0,0,0.125,12.700000000000001,0.0,0,0,0,0.0,12.65,0.0,-6,0,0,0.0,12.65,0.0,0,0,0,0.125,12.75,0.0,0,0,0,kReverse,kOff,-86.99,1.77,-35.73,0.034851074,-0.98339844,0.037475586,33.14,0.0,4.0,-7.500473,-2.9816132,
996.776497,true,true,true,0.0,-0.0078125,0.0,-0.0078125,false,false,false,false,0.0,-0.0078125,0.0,-0.0078125,false,false,false,false,0.125,12.65,0.0,-11298,0,0,0.125,12.65,0.0,0,0,0,0.125,12.65,0.0,-14357,0,0,0.125,12.700000000000001,0.0,0,0,0,0.0,12.65,0.0,-6,0,0,0.0,12.65,0.0,0,0,0,0.125,12.75,0.0,0,0,0,kReverse,kOff,-87.0,1.77,-35.75,0.03173828,-0.9847412,0.04034424,33.14,0.0,1.0,-7.500473,-2.9816132,
996.800877,true,true,true,0.0,-0.0078125,0.0,-0.0078125,false,false,false,false,0.0,-0.0078125,0.0,-0.0078125,false,false,false,false,0.125,12.65,0.0,-11298,0,0,0.125,12.65,0.0,0,0,0,0.125,12.65,0.0,-14357,0,0,0.125,12.700000000000001,0.0,0,0,0,0.0,12.65,0.0,-6,0,0,0.0,12.65,0.0,0,0,0,0.125,12.75,0.0,0,0,0,kReverse,kOff,-86.99,1.77,-35.73,0.028320312,-0.9837036,0.041381836,33.14,0.0,0.0,-7.500473,-2.9816132,
996.82209,true,true,true,0.0,-0.0078125,0.0,-0.0078125,false,false,false,false,0.0,-0.0078125,0.0,-0.0078125,false,false,false,false,0.125,12.65,0.0,-11298,0,0,0.125,12.65,0.0,0,0,0,0.125,12.65,0.0,-14357,0,0,0.125,12.700000000000001,0.0,0,0,0,0.0,12.65,0.0,-6,0,0,0.0,12.65,0.0,0,0,0,0.125,12.75,0.0,0,0,0,kReverse,kOff,-86.99,1.77,-35.73,0.03149414,-0.9863281,0.044677734,33.15,0.0,-2.0,-7.500473,-2.9816132,
996.847283,true,true,true,0.0,-0.0078125,0.0,-0.0078125,false,false,false,false,0.0,-0.0078125,0.0,-0.0078125,false,false,false,false,0.125,12.65,0.0,-11298,0,0,0.125,12.65,0.0,0,0,0,0.125,12.65,0.0,-14357,0,0,0.125,12.700000000000001,0.0,0,0,0,0.0,12.65,0.0,-6,0,0,0.0,12.65,0.0,0,0,0,0.125,12.75,0.0,0,0,0,kReverse,kOff,-86.99,1.77,-35.73,0.02923584,-0.980896,0.044555664,33.15,0.0,-3.0,-7.500473,-2.9816132,
996.867605,true,true,true,0.0,-0.0078125,0.0,-0.0078125,false,false,false,false,0.0,-0.0078125,0.0,-0.0078125,false,false,false,false,0.125,12.65,0.0,-11298,0,0,0.125,12.65,0.0,0,0,0,0.125,12.65,0.0,-14357,0,0,0.125,12.700000000000001,0.0,0,0,0,0.0,12.65,0.0,-6,0,0,0.0,12.65,0.0,0,0,0,0.125,12.75,0.0,0,0,0,kReverse,kOff,-86.99,1.77,-35.73,0.031799316,-0.9830322,0.04486084,33.15,0.0,-3.0,-7.500473,-2.9816132,
996.8910119999999,true,true,true,0.0,-0.0078125,0.0,-0.0078125,false,false,false,false,0.0,-0.0078125,0.0,-0.0078125,false,false,false,false,0.125,12.65,0.0,-11298,0,0,0.125,12.65,0.0,0,0,0,0.125,12.65,0.0,-14357,0,0,0.125,12.700000000000001,0.0,0,0,0,0.0,12.65,0.0,-6,0,0,0.0,12.65,0.0,0,0,0,0.125,12.75,0.0,0,0,0,kReverse,kOff,-86.99,1.77,-35.73,0.033447266,-0.982605,0.041870117,33.15,0.0,0.0,-7.500473,-2.9816132,
996.9123619999999,true,true,true,0.0,-0.0078125,0.0,-0.0078125,false,false,false,false,0.0,-0.0078125,0.0,-0.0078125,false,false,false,false,0.125,12.65,0.0,-11298,0,0,0.125,12.65,0.0,0,0,0,0.125,12.65,0.0,-14357,0,0,0.125,12.700000000000001,0.0,0,0,0,0.0,12.65,0.0,-6,0,0,0.0,12.65,0.0,0,0,0,0.125,12.75,0.0,0,0,0,kReverse,kOff,-87.0,1.77,-35.68,0.031555176,-0.9814453,0.040039062,33.15,0.0,1.0,-7.500473,-2.9816132,
996.932328,true,true,true,0.0,-0.0078125,0.0,-0.0078125,false,false,false,false,0.0,-0.0078125,0.0,-0.0078125,false,false,false,false,0.125,12.65,0.0,-11298,0,0,0.125,12.65,0.0,0,0,0,0.125,12.65,0.0,-14357,0,0,0.125,12.700000000000001,0.0,0,0,0,0.0,12.65,0.0,-6,0,0,0.0,12.65,0.0,0,0,0,0.125,12.75,0.0,0,0,0,kReverse,kOff,-86.99,1.77,-35.73,0.029541016,-0.9796753,0.043029785,33.15,0.0,-1.0,-7.500473,-2.9816132,
996.9557110000001,true,true,true,0.0,-0.0078125,0.0,-0.0078125,false,false,false,false,0.0,-0.0078125,0.0,-0.0078125,false,false,false,false,0.125,12.65,0.0,-11298,0,0,0.125,12.65,0.0,0,0,0,0.125,12.65,0.0,-14357,0,0,0.125,12.700000000000001,0.0,0,0,0,0.0,12.65,0.0,-6,0,0,0.0,12.65,0.0,0,0,0,0.125,12.75,0.0,0,0,0,kReverse,kOff,-86.99,1.77,-35.73,0.031677246,-0.9838867,0.042236328,33.15,0.0,0.0,-7.500473,-2.9816132,
996.979809,true,true,true,0.0,-0.0078125,0.0,-0.0078125,false,false,false,false,0.0,-0.0078125,0.0,-0.0078125,false,false,false,false,0.125,12.65,0.0,-11298,0,0,0.125,12.65,0.0,0,0,0,0.125,12.65,0.0,-14357,0,0,0.125,12.700000000000001,0.0,0,0,0,0.0,12.65,0.0,-6,0,0,0.0,12.65,0.0,0,0,0,0.125,12.75,0.0,0,0,0,kReverse,kOff,-87.0,1.77,-35.68,0.030822754,-0.9814453,0.04119873,33.15,0.0,0.0,-7.500473,-2.9816132,
997.0012419999999,true,true,true,0.0,-0.0078125,0.0,-0.0078125,false,false,false,false,0.0,-0.0078125,0.0,-0.0078125,false,false,false,false,0.125,12.65,0.0,-11298,0,0,0.125,12.65,0.0,0,0,0,0.125,12.65,0.0,-14357,0,0,0.125,12.700000000000001,0.0,0,0,0,0.0,12.65,0.0,-6,0,0,0.0,12.65,0.0,0,0,0,0.125,12.75,0.0,0,0,0,kReverse,kOff,-87.0,1.77,-35.68,0.031433105,-0.9818115,0.04345703,33.15,0.0,-1.0,-7.500473,-2.9816132,
997.023985,true,true,true,0.0,-0.0078125,0.0,-0.0078125,false,false,false,false,0.0,-0.0078125,0.0,-0.0078125,false,false,false,false,0.125,12.65,0.0,-11298,0,0,0.125,12.65,0.0,0,0,0,0.125,12.65,0.0,-14357,0,0,0.125,12.700000000000001,0.0,0,0,0,0.0,12.65,0.0,-6,0,0,0.0,12.65,0.0,0,0,0,0.125,12.75,0.0,0,0,0,kReverse,kOff,-87.0,1.77,-35.68,0.03149414,-0.9845581,0.041748047,33.15,0.0,0.0,-7.500473,-2.9816132,
997.043763,true,true,true,0.0,-0.0078125,0.0,-0.0078125,false,false,false,false,0.0,-0.0078125,0.0,-0.0078125,false,false,false,false,0.125,12.65,0.0,-11298,0,0,0.125,12.65,0.0,0,0,0,0.125,12.65,0.0,-14357,0,0,0.125,12.700000000000001,0.0,0,0,0,0.0,12.65,0.0,-6,0,0,0.0,12.65,0.0,0,0,0,0.125,12.75,0.0,0,0,0,kReverse,kOff,-87.0,1.77,-35.68,0.028503418,-0.9850464,0.046325684,33.15,0.0,-4.0,-7.500473,-2.9816132,
997.06562,true,true,true,0.0,-0.0078125,0.0,-0.0078125,false,false,false,false,0.0,-0.0078125,0.0,-0.0078125,false,false,false,false,0.125,12.65,0.0,-11298,0,0,0.125,12.65,0.0,0,0,0,0.125,12.65,0.0,-14357,0,0,0.125,12.700000000000001,0.0,0,0,0,0.0,12.65,0.0,-6,0,0,0.0,12.65,0.0,0,0,0,0.125,12.75,0.0,0,0,0,kReverse,kOff,-87.0,1.77,-35.68,0.027709961,-0.9812012,0.0435791,33.15,0.0,-2.0,-7.500473,-2.9816132,
997.089132,true,true,true,0.0,-0.0078125,0.0,-0.0078125,false,false,false,false,0.0,-0.0078125,0.0,-0.0078125,false,false,false,false,0.125,12.65,0.0,-11298,0,0,0.125,12.65,0.0,0,0,0,0.125,12.65,0.0,-14357,0,0,0.125,12.700000000000001,0.0,0,0,0,0.0,12.65,0.0,-6,0,0,0.0,12.65,0.0,0,0,0,0.125,12.75,0.0,0,0,0,kReverse,kOff,-87.0,1.77,-35.68,0.028198242,-0.98376465,0.043151855,33.15,0.0,-1.0,-7.500473,-2.9816132,
997.109089,true,true,true,0.0,-0.0078125,0.0,-0.0078125,false,false,false,false,0.0,-0.0078125,0.0,-0.0078125,false,false,false,false,0.125,12.65,0.0,-11298,0,0,0.125,12.65,0.0,0,0,0,0.125,12.65,0.0,-14357,0,0,0.125,12.700000000000001,0.0,0,0,0,0.0,12.65,0.0,-6,0,0,0.0,12.65,0.0,0,0,0,0.125,12.75,0.0,0,0,0,kReverse,kOff,-87.0,1.77,-35.68,0.027954102,-0.9836426,0.044677734,33.15,0.0,-3.0,-7.500473,-2.9816132,
997.130175,true,true,true,0.0,-0.0078125,0.0,-0.0078125,false,false,false,false,0.0,-0.0078125,0.0,-0.0078125,false,false,false,false,0.125,12.65,0.0,-11298,0,0,0.125,12.65,0.0,0,0,0,0.125,12.65,0.0,-14357,0,0,0.125,12.700000000000001,0.0,0,0,0,0.0,12.65,0.0,-6,0,0,0.0,12.65,0.0,0,0,0,0.125,12.75,0.0,0,0,0,kReverse,kOff,-87.0,1.77,-35.68,0.030456543,-0.98327637,0.040527344,33.15,0.0,0.0,-7.500473,-2.9816132,
997.162966,true,true,true,0.0,-0.0078125,0.0,-0.0078125,false,false,false,false,0.0,-0.0078125,0.0,-0.0078125,false,false,false,false,0.125,12.65,0.0,-11298,0,0,0.125,12.65,0.0,0,0,0,0.125,12.65,0.0,-14357,0,0,0.125,12.700000000000001,0.0,0,0,0,0.0,12.65,0.0,-6,0,0,0.0,12.65,0.0,0,0,0,0.125,12.75,0.0,0,0,0,kReverse,kOff,-87.0,1.77,-35.68,0.03149414,-0.98394775,0.042663574,33.15,0.0,-1.0,-7.500473,-2.9816132,
997.189351,true,true,true,0.0,-0.0078125,0.0,-0.0078125,false,false,false,false,0.0,-0.0078125,0.0,-0.0078125,false,false,false,false,0.125,12.65,0.0,-11298,0,0,0.125,12.65,0.0,0,0,0,0.125,12.65,0.0,-14357,0,0,0.125,12.700000000000001,0.0,0,0,0,0.0,12.65,0.0,-6,0,0,0.0,12.65,0.0,0,0,0,0.125,12.75,0.0,0,0,0,kReverse,kOff,-87.0,1.77,-35.68,0.027893066,-0.98480225,0.042053223,33.15,0.0,0.0,-7.500473,-2.9816132,
997.2120649999999,true,true,true,0.0,-0.0078125,0.0,-0.0078125,false,false,false,false,0.0,-0.0078125,0.0,-0.0078125,false,false,false,false,0.125,12.65,0.0,-11298,0,0,0.125,12.65,0.0,0,0,0,0.125,12.65,0.0,-14357,0,0,0.125,12.700000000000001,0.0,0,0,0,0.0,12.65,0.0,-6,0,0,0.0,12.65,0.0,0,0,0,0.125,12.75,0.0,0,0,0,kReverse,kOff,-87.0,1.77,-35.68,0.02923584,-0.984375,0.042114258,33.15,0.0,0.0,-7.500473,-2.9816132,
997.2338249999999,true,true,true,0.0,-0.0078125,0.0,-0.0078125,false,false,false,false,0.0,-0.0078125,0.0,-0.0078125,false,false,false,false,0.125,12.65,0.0,-11298,0,0,0.125,12.65,0.0,0,0,0,0.125,12.65,0.0,-14357,0,0,0.125,12.700000000000001,0.0,0,0,0,0.0,12.65,0.0,-6,0,0,0.0,12.65,0.0,0,0,0,0.125,12.75,0.0,0,0,0,kReverse,kOff,-87.0,1.77,-35.68,0.03149414,-0.9827881,0.044555664,33.15,0.0,-3.0,-7.500473,-2.9816132,
997.252718,true,true,true,0.0,-0.0078125,0.0,-0.0078125,false,false,false,false,0.0,-0.0078125,0.0,-0.0078125,false,false,false,false,0.125,12.65,0.0,-11298,0,0,0.125,12.65,0.0,0,0,0,0.125,12.65,0.0,-14357,0,0,0.125,12.700000000000001,0.0,0,0,0,0.0,12.65,0.0,-6,0,0,0.0,12.65,0.0,0,0,0,0.125,12.75,0.0,0,0,0,kReverse,kOff,-87.0,1.77,-35.68,0.030822754,-0.9822998,0.04260254,33.15,0.0,-1.0,-7.500473,-2.9816132,
997.2751119999999,true,true,true,0.0,-0.0078125,0.0,-0.0078125,false,false,false,false,0.0,-0.0078125,0.0,-0.0078125,false,false,false,false,0.125,12.65,0.0,-11298,0,0,0.125,12.65,0.0,0,0,0,0.125,12.65,0.0,-14357,0,0,0.125,12.700000000000001,0.0,0,0,0,0.0,12.65,0.0,-6,0,0,0.0,12.65,0.0,0,0,0,0.125,12.75,0.0,0,0,0,kReverse,kOff,-87.0,1.77,-35.68,0.030578613,-0.9833374,0.041809082,33.15,0.0,0.0,-7.500473,-2.9816132,
997.299394,true,true,true,0.0,-0.0078125,0.0,-0.0078125,false,false,false,false,0.0,-0.0078125,0.0,-0.0078125,false,false,false,false,0.125,12.65,0.0,-11298,0,0,0.125,12.65,0.0,0,0,0,0.125,12.65,0.0,-14357,0,0,0.125,12.700000000000001,0.0,0,0,0,0.0,12.65,0.0,-6,0,0,0.0,12.65,0.0,0,0,0,0.125,12.75,0.0,0,0,0,kReverse,kOff,-87.0,1.77,-35.68,0.030151367,-0.98480225,0.04626465,33.15,0.0,-4.0,-7.500473,-2.9816132,
997.318859,true,true,true,0.0,-0.0078125,0.0,-0.0078125,false,false,false,false,0.0,-0.0078125,0.0,-0.0078125,false,false,false,false,0.125,12.65,0.0,-11298,0,0,0.125,12.65,0.0,0,0,0,0.125,12.65,0.0,-14357,0,0,0.125,12.700000000000001,0.0,0,0,0,0.0,12.65,0.0,-6,0,0,0.0,12.65,0.0,0,0,0,0.125,12.75,0.0,0,0,0,kReverse,kOff,-86.99,1.77,-35.72,0.027404785,-0.9848633,0.0390625,33.15,0.0,2.0,-7.500473,-2.9816132,
997.341499,true,true,true,0.0,-0.0078125,0.0,-0.0078125,false,false,false,false,0.0,-0.0078125,0.0,-0.0078125,false,false,false,false,0.125,12.65,0.0,-11298,0,0,0.125,12.65,0.0,0,0,0,0.125,12.65,0.0,-14357,0,0,0.125,12.700000000000001,0.0,0,0,0,0.0,12.65,0.0,-6,0,0,0.0,12.65,0.0,0,0,0,0.125,12.75,0.0,0,0,0,kReverse,kOff,-86.99,1.77,-35.72,0.03137207,-0.98028564,0.04034424,33.18,0.0,1.0,-7.500473,-2.9816132,
997.365324,true,true,true,0.0,-0.0078125,0.0,-0.0078125,false,false,false,false,0.0,-0.0078125,0.0,-0.0078125,false,false,false,false,0.125,12.65,0.0,-11298,0,0,0.125,12.65,0.0,0,0,0,0.125,12.65,0.0,-14357,0,0,0.125,12.700000000000001,0.0,0,0,0,0.0,12.65,0.0,-6,0,0,0.0,12.65,0.0,0,0,0,0.125,12.75,0.0,0,0,0,kReverse,kOff,-86.99,1.77,-35.72,0.030090332,-0.9837036,0.042663574,33.18,0.0,-1.0,-7.500473,-2.9816132,
997.387037,true,true,true,0.0,-0.0078125,0.0,-0.0078125,false,false,false,false,0.0,-0.0078125,0.0,-0.0078125,false,false,false,false,0.125,12.65,0.0,-11298,0,0,0.125,12.65,0.0,0,0,0,0.125,12.65,0.0,-14357,0,0,0.125,12.700000000000001,0.0,0,0,0,0.0,12.65,0.0,-6,0,0,0.0,12.65,0.0,0,0,0,0.125,12.75,0.0,0,0,0,kReverse,kOff,-87.0,1.77,-35.62,0.03149414,-0.98669434,0.039367676,33.18,0.0,2.0,-7.500473,-2.9816132,
997.408902,true,true,true,0.0,-0.0078125,0.0,-0.0078125,false,false,false,false,0.0,-0.0078125,0.0,-0.0078125,false,false,false,false,0.125,12.65,0.0,-11298,0,0,0.125,12.65,0.0,0,0,0,0.125,12.65,0.0,-14357,0,0,0.125,12.700000000000001,0.0,0,0,0,0.0,12.65,0.0,-6,0,0,0.0,12.65,0.0,0,0,0,0.125,12.75,0.0,0,0,0,kReverse,kOff,-87.0,1.77,-35.58,0.028625488,-0.9818115,0.04547119,33.18,0.0,-4.0,-7.500473,-2.9816132,
997.428374,true,true,true,0.0,-0.0078125,0.0,-0.0078125,false,false,false,false,0.0,-0.0078125,0.0,-0.0078125,false,false,false,false,0.125,12.65,0.0,-11298,0,0,0.125,12.65,0.0,0,0,0,0.125,12.65,0.0,-14357,0,0,0.125,12.700000000000001,0.0,0,0,0,0.0,12.65,0.0,-6,0,0,0.0,12.65,0.0,0,0,0,0.125,12.75,0.0,0,0,0,kReverse,kOff,-87.0,1.77,-35.58,0.028869629,-0.9838867,0.040283203,33.18,0.0,1.0,-7.500473,-2.9816132,
997.449817,true,true,true,0.0,-0.0078125,0.0,-0.0078125,false,false,false,false,0.0,-0.0078125,0.0,-0.0078125,false,false,false,false,0.125,12.65,0.0,-11298,0,0,0.125,12.65,0.0,0,0,0,0.125,12.65,0.0,-14357,0,0,0.125,12.700000000000001,0.0,0,0,0,0.0,12.65,0.0,-6,0,0,0.0,12.65,0.0,0,0,0,0.125,12.75,0.0,0,0,0,kReverse,kOff,-87.0,1.77,-35.58,0.03277588,-0.98431396,0.041870117,33.18,0.0,0.0,-7.500473,-2.9816132,
997.471943,true,true,true,0.0,-0.0078125,0.0,-0.0078125,false,false,false,false,0.0,-0.0078125,0.0,-0.0078125,false,false,false,false,0.125,12.65,0.0,-11298,0,0,0.125,12.65,0.0,0,0,0,0.125,12.65,0.0,-14357,0,0,0.125,12.700000000000001,0.0,0,0,0,0.0,12.65,0.0,-6,0,0,0.0,12.65,0.0,0,0,0,0.125,12.75,0.0,0,0,0,kReverse,kOff,-87.0,1.77,-35.58,0.03277588,-0.98431396,0.041870117,33.18,0.0,0.0,-7.500473,-2.9816132,
997.494162,true,true,true,0.0,-0.0078125,0.0,-0.0078125,false,false,false,false,0.0,-0.0078125,0.0,-0.0078125,false,false,false,false,0.125,12.65,0.0,-11298,0,0,0.125,12.65,0.0,0,0,0,0.125,12.65,0.0,-14357,0,0,0.125,12.700000000000001,0.0,0,0,0,0.0,12.65,0.0,-6,0,0,0.0,12.65,0.0,0,0,0,0.125,12.75,0.0,0,0,0,kReverse,kOff,-87.0,1.77,-35.58,0.032409668,-0.98236084,0.039001465,33.18,0.0,2.0,-7.500473,-2.9816132,
997.516517,true,true,true,0.0,-0.0078125,0.0,-0.0078125,false,false,false,false,0.0,-0.0078125,0.0,-0.0078125,false,false,false,false,0.125,12.65,0.0,-11298,0,0,0.125,12.65,0.0,0,0,0,0.125,12.65,0.0,-14357,0,0,0.125,12.700000000000001,0.0,0,0,0,0.0,12.65,0.0,-6,0,0,0.0,12.65,0.0,0,0,0,0.125,12.75,0.0,0,0,0,kReverse,kOff,-87.0,1.77,-35.54,0.028259277,-0.9869995,0.039733887,33.18,0.0,1.0,-7.500473,-2.9816132,
997.539664,true,true,true,0.0,-0.0078125,0.0,-0.0078125,false,false,false,false,0.0,-0.0078125,0.0,-0.0078125,false,false,false,false,0.125,12.65,0.0,-11298,0,0,0.125,12.65,0.0,0,0,0,0.125,12.65,0.0,-14357,0,0,0.125,12.700000000000001,0.0,0,0,0,0.0,12.65,0.0,-6,0,0,0.0,12.65,0.0,0,0,0,0.125,12.75,0.0,0,0,0,kReverse,kOff,-87.0,1.77,-35.58,0.031799316,-0.9835205,0.04046631,33.18,0.0,1.0,-7.500473,-2.9816132,
997.560677,true,true,true,0.0,-0.0078125,0.0,-0.0078125,false,false,false,false,0.0,-0.0078125,0.0,-0.0078125,false,false,false,false,0.125,12.65,0.0,-11298,0,0,0.125,12.65,0.0,0,0,0,0.125,12.65,0.0,-14357,0,0,0.125,12.700000000000001,0.0,0,0,0,0.0,12.65,0.0,-6,0,0,0.0,12.65,0.0,0,0,0,0.125,12.75,0.0,0,0,0,kReverse,kOff,-87.0,1.77,-35.58,0.030883789,-0.98217773,0.040100098,33.18,0.0,1.0,-7.500473,-2.9816132,
997.5813880000001,true,true,true,0.0,-0.0078125,0.0,-0.0078125,false,false,false,false,0.0,-0.0078125,0.0,-0.0078125,false,false,false,false,0.125,12.65,0.0,-11298,0,0,0.125,12.65,0.0,0,0,0,0.125,12.65,0.0,-14357,0,0,0.125,12.700000000000001,0.0,0,0,0,0.0,12.65,0.0,-6,0,0,0.0,12.65,0.0,0,0,0,0.125,12.75,0.0,0,0,0,kReverse,kOff,-87.01,1.77,-35.46,0.032287598,-0.98236084,0.041748047,33.18,0.0,0.0,-7.500473,-2.9816132,
997.602601,true,true,true,0.0,-0.0078125,0.0,-0.0078125,false,false,false,false,0.0,-0.0078125,0.0,-0.0078125,false,false,false,false,0.125,12.65,0.0,-11298,0,0,0.125,12.65,0.0,0,0,0,0.125,12.65,0.0,-14357,0,0,0.125,12.700000000000001,0.0,0,0,0,0.0,12.65,0.0,-6,0,0,0.0,12.65,0.0,0,0,0,0.125,12.75,0.0,0,0,0,kReverse,kOff,-87.01,1.77,-35.46,0.031433105,-0.9827881,0.039733887,33.18,0.0,1.0,-7.500473,-2.9816132,
997.625412,true,true,true,0.0,-0.0078125,0.0,-0.0078125,false,false,false,false,0.0,-0.0078125,0.0,-0.0078125,false,false,false,false,0.125,12.65,0.0,-11298,0,0,0.125,12.65,0.0,0,0,0,0.125,12.65,0.0,-14357,0,0,0.125,12.700000000000001,0.0,0,0,0,0.0,12.65,0.0,-6,0,0,0.0,12.65,0.0,0,0,0,0.125,12.75,0.0,0,0,0,kReverse,kOff,-87.01,1.77,-35.46,0.031555176,-0.9854126,0.047729492,33.18,0.0,-6.0,-7.500473,-2.9816132,
997.6465450000001,true,true,true,0.0,-0.0078125,0.0,-0.0078125,false,false,false,false,0.0,-0.0078125,0.0,-0.0078125,false,false,false,false,0.125,12.65,0.0,-11298,0,0,0.125,12.65,0.0,0,0,0,0.125,12.65,0.0,-14357,0,0,0.125,12.700000000000001,0.0,0,0,0,0.0,12.65,0.0,-6,0,0,0.0,12.65,0.0,0,0,0,0.125,12.75,0.0,0,0,0,kReverse,kOff,-87.01,1.77,-35.46,0.031555176,-0.98132324,0.045288086,33.18,0.0,-4.0,-7.500473,-2.9816132,
997.669383,true,true,true,0.0,-0.0078125,0.0,-0.0078125,false,false,false,false,0.0,-0.0078125,0.0,-0.0078125,false,false,false,false,0.125,12.65,0.0,-11298,0,0,0.125,12.65,0.0,0,0,0,0.125,12.65,0.0,-14357,0,0,0.125,12.700000000000001,0.0,0,0,0,0.0,12.65,0.0,-6,0,0,0.0,12.65,0.0,0,0,0,0.125,12.75,0.0,0,0,0,kReverse,kOff,-87.01,1.76,-35.51,0.028442383,-0.98413086,0.035949707,33.18,0.0,5.0,-7.500473,-2.9816132,
997.690036,true,true,true,0.0,-0.0078125,0.0,-0.0078125,false,false,false,false,0.0,-0.0078125,0.0,-0.0078125,false,false,false,false,0.125,12.65,0.0,-11298,0,0,0.125,12.65,0.0,0,0,0,0.125,12.65,0.0,-14357,0,0,0.125,12.700000000000001,0.0,0,0,0,0.0,12.65,0.0,-6,0,0,0.0,12.65,0.0,0,0,0,0.125,12.75,0.0,0,0,0,kReverse,kOff,-87.01,1.77,-35.46,0.030212402,-0.9838867,0.04168701,33.18,0.0,0.0,-7.500473,-2.9816132,
997.712344,true,true,true,0.0,-0.0078125,0.0,-0.0078125,false,false,false,false,0.0,-0.0078125,0.0,-0.0078125,false,false,false,false,0.125,12.65,0.0,-11298,0,0,0.125,12.65,0.0,0,0,0,0.125,12.65,0.0,-14357,0,0,0.125,12.700000000000001,0.0,0,0,0,0.0,12.65,0.0,-6,0,0,0.0,12.65,0.0,0,0,0,0.125,12.75,0.0,0,0,0,kReverse,kOff,-87.01,1.77,-35.46,0.029418945,-0.98376465,0.043518066,33.18,0.0,-2.0,-7.500473,-2.9816132,
997.731074,true,true,true,0.0,-0.0078125,0.0,-0.0078125,false,false,false,false,0.0,-0.0078125,0.0,-0.0078125,false,false,false,false,0.125,12.65,0.0,-11298,0,0,0.125,12.65,0.0,0,0,0,0.125,12.65,0.0,-14357,0,0,0.125,12.700000000000001,0.0,0,0,0,0.0,12.65,0.0,-6,0,0,0.0,12.65,0.0,0,0,0,0.125,12.75,0.0,0,0,0,kReverse,kOff,-87.01,1.77,-35.46,0.03289795,-0.9817505,0.04119873,33.18,0.0,0.0,-7.500473,-2.9816132,
997.7519960000001,true,true,true,0.0,-0.0078125,0.0,-0.0078125,false,false,false,false,0.0,-0.0078125,0.0,-0.0078125,false,false,false,false,0.125,12.65,0.0,-11298,0,0,0.125,12.65,0.0,0,0,0,0.125,12.65,0.0,-14357,0,0,0.125,12.700000000000001,0.0,0,0,0,0.0,12.65,0.0,-6,0,0,0.0,12.65,0.0,0,0,0,0.125,12.75,0.0,0,0,0,kReverse,kOff,-87.01,1.77,-35.46,0.029418945,-0.98461914,0.03942871,33.18,0.0,1.0,-7.500473,-2.9816132,
997.7730339999999,true,true,true,0.0,-0.0078125,0.0,-0.0078125,false,false,false,false,0.0,-0.0078125,0.0,-0.0078125,false,false,false,false,0.125,12.65,0.0,-11298,0,0,0.125,12.65,0.0,0,0,0,0.125,12.65,0.0,-14357,0,0,0.125,12.700000000000001,0.0,0,0,0,0.0,12.65,0.0,-6,0,0,0.0,12.65,0.0,0,0,0,0.125,12.75,0.0,0,0,0,kReverse,kOff,-87.01,1.77,-35.46,0.029663086,-0.9817505,0.03729248,33.18,0.0,3.0,-7.500473,-2.9816132,
997.797806,true,true,true,0.0,-0.0078125,0.0,-0.0078125,false,false,false,false,0.0,-0.0078125,0.0,-0.0078125,false,false,false,false,0.125,12.65,0.0,-11298,0,0,0.125,12.65,0.0,0,0,0,0.125,12.65,0.0,-14357,0,0,0.125,12.700000000000001,0.0,0,0,0,0.0,12.65,0.0,-6,0,0,0.0,12.65,0.0,0,0,0,0.125,12.75,0.0,0,0,0,kReverse,kOff,-87.01,1.77,-35.46,0.030700684,-0.9835205,0.041015625,33.18,0.0,0.0,-7.500473,-2.9816132,
997.818446,true,true,true,0.0,-0.0078125,0.0,-0.0078125,false,false,false,false,0.0,-0.0078125,0.0,-0.0078125,false,false,false,false,0.125,12.65,0.0,-11298,0,0,0.125,12.65,0.0,0,0,0,0.125,12.65,0.0,-14357,0,0,0.125,12.700000000000001,0.0,0,0,0,0.0,12.65,0.0,-6,0,0,0.0,12.65,0.0,0,0,0,0.125,12.75,0.0,0,0,0,kReverse,kOff,-87.01,1.77,-35.46,0.030334473,-0.98443604,0.039489746,33.18,0.0,1.0,-7.500473,-2.9816132,
997.8404390000001,true,true,true,0.0,-0.0078125,0.0,-0.0078125,false,false,false,false,0.0,-0.0078125,0.0,-0.0078125,false,false,false,false,0.125,12.65,0.0,-11298,0,0,0.125,12.65,0.0,0,0,0,0.125,12.65,0.0,-14357,0,0,0.125,12.700000000000001,0.0,0,0,0,0.0,12.65,0.0,-6,0,0,0.0,12.65,0.0,0,0,0,0.125,12.75,0.0,0,0,0,kReverse,kOff,-87.01,1.77,-35.46,0.02935791,-0.98236084,0.038269043,33.18,0.0,2.0,-7.500473,-2.9816132,
997.865751,true,true,true,0.0,-0.0078125,0.0,-0.0078125,false,false,false,false,0.0,-0.0078125,0.0,-0.0078125,false,false,false,false,0.125,12.65,0.0,-11298,0,0,0.125,12.65,0.0,0,0,0,0.125,12.65,0.0,-14357,0,0,0.125,12.700000000000001,0.0,0,0,0,0.0,12.65,0.0,-6,0,0,0.0,12.65,0.0,0,0,0,0.125,12.75,0.0,0,0,0,kReverse,kOff,-87.01,1.77,-35.46,0.030151367,-0.98321533,0.042175293,33.16,0.0,0.0,-7.500473,-2.9816132,
997.887345,true,true,true,0.0,-0.0078125,0.0,-0.0078125,false,false,false,false,0.0,-0.0078125,0.0,-0.0078125,false,false,false,false,0.125,12.65,0.0,-11298,0,0,0.125,12.65,0.0,0,0,0,0.125,12.65,0.0,-14357,0,0,0.125,12.700000000000001,0.0,0,0,0,0.0,12.65,0.0,-6,0,0,0.0,12.65,0.0,0,0,0,0.125,12.75,0.0,0,0,0,kReverse,kOff,-87.01,1.77,-35.46,0.031066895,-0.98443604,0.045654297,33.16,0.0,-4.0,-7.500473,-2.9816132,
997.90751,true,true,true,0.0,-0.0078125,0.0,-0.0078125,false,false,false,false,0.0,-0.0078125,0.0,-0.0078125,false,false,false,false,0.125,12.65,0.0,-11298,0,0,0.125,12.65,0.0,0,0,0,0.125,12.65,0.0,-14357,0,0,0.125,12.700000000000001,0.0,0,0,0,0.0,12.65,0.0,-6,0,0,0.0,12.65,0.0,0,0,0,0.125,12.75,0.0,0,0,0,kReverse,kOff,-87.01,1.77,-35.46,0.028381348,-0.98217773,0.041870117,33.16,0.0,0.0,-7.500473,-2.9816132,
997.9305529999999,true,true,true,0.0,-0.0078125,0.0,-0.0078125,false,false,false,false,0.0,-0.0078125,0.0,-0.0078125,false,false,false,false,0.125,12.65,0.0,-11298,0,0,0.125,12.65,0.0,0,0,0,0.125,12.65,0.0,-14357,0,0,0.125,12.700000000000001,0.0,0,0,0,0.0,12.65,0.0,-6,0,0,0.0,12.65,0.0,0,0,0,0.125,12.75,0.0,0,0,0,kReverse,kOff,-87.01,1.77,-35.46,0.032226562,-0.9813843,0.0413208,33.16,0.0,0.0,-7.500473,-2.9816132,
997.951363,true,true,true,0.0,-0.0078125,0.0,-0.0078125,false,false,false,false,0.0,-0.0078125,0.0,-0.0078125,false,false,false,false,0.125,12.65,0.0,-11298,0,0,0.125,12.65,0.0,0,0,0,0.125,12.65,0.0,-14357,0,0,0.125,12.700000000000001,0.0,0,0,0,0.0,12.65,0.0,-6,0,0,0.0,12.65,0.0,0,0,0,0.125,12.75,0.0,0,0,0,kReverse,kOff,-87.01,1.77,-35.42,0.029052734,-0.9829712,0.0368042,33.16,0.0,4.0,-7.500473,-2.9816132,
997.9711990000001,true,true,true,0.0,-0.0078125,0.0,-0.0078125,false,false,false,false,0.0,-0.0078125,0.0,-0.0078125,false,false,false,false,0.125,12.65,0.0,-11298,0,0,0.125,12.65,0.0,0,0,0,0.125,12.65,0.0,-14357,0,0,0.125,12.700000000000001,0.0,0,0,0,0.0,12.65,0.0,-6,0,0,0.0,12.65,0.0,0,0,0,0.125,12.75,0.0,0,0,0,kReverse,kOff,-87.01,1.77,-35.46,0.02947998,-0.98272705,0.045837402,33.16,0.0,-4.0,-7.500473,-2.9816132,
997.99185,true,true,true,0.0,-0.0078125,0.0,-0.0078125,false,false,false,false,0.0,-0.0078125,0.0,-0.0078125,false,false,false,false,0.125,12.65,0.0,-11298,0,0,0.125,12.65,0.0,0,0,0,0.125,12.65,0.0,-14357,0,0,0.125,12.700000000000001,0.0,0,0,0,0.0,12.65,0.0,-6,0,0,0.0,12.65,0.0,0,0,0,0.125,12.75,0.0,0,0,0,kReverse,kOff,-87.01,1.77,-35.46,0.030151367,-0.9838257,0.043701172,33.16,0.0,-2.0,-7.500473,-2.9816132,
998.0112929999999,true,true,true,0.0,-0.0078125,0.0,-0.0078125,false,false,false,false,0.0,-0.0078125,0.0,-0.0078125,false,false,false,false,0.125,12.65,0.0,-11298,0,0,0.125,12.65,0.0,0,0,0,0.125,12.65,0.0,-14357,0,0,0.125,12.700000000000001,0.0,0,0,0,0.0,12.65,0.0,-6,0,0,0.0,12.65,0.0,0,0,0,0.125,12.75,0.0,0,0,0,kReverse,kOff,-87.01,1.77,-35.42,0.030273438,-0.9833374,0.044128418,33.16,0.0,-2.0,-7.500473,-2.9816132,
998.032542,true,true,true,0.0,-0.0078125,0.0,-0.0078125,false,false,false,false,0.0,-0.0078125,0.0,-0.0078125,false,false,false,false,0.125,12.65,0.0,-11298,0,0,0.125,12.65,0.0,0,0,0,0.125,12.65,0.0,-14357,0,0,0.125,12.700000000000001,0.0,0,0,0,0.0,12.65,0.0,-6,0,0,0.0,12.65,0.0,0,0,0,0.125,12.75,0.0,0,0,0,kReverse,kOff,-87.01,1.77,-35.46,0.03112793,-0.982666,0.03918457,33.16,0.0,2.0,-7.500473,-2.9816132,
998.054701,true,true,true,0.0,-0.0078125,0.0,-0.0078125,false,false,false,false,0.0,-0.0078125,0.0,-0.0078125,false,false,false,false,0.125,12.65,0.0,-11298,0,0,0.125,12.65,0.0,0,0,0,0.125,12.65,0.0,-14357,0,0,0.125,12.700000000000001,0.0,0,0,0,0.0,12.65,0.0,-6,0,0,0.0,12.65,0.0,0,0,0,0.125,12.75,0.0,0,0,0,kReverse,kOff,-87.01,1.77,-35.46,0.031555176,-0.9845581,0.040283203,33.16,0.0,1.0,-7.500473,-2.9816132,
998.079426,true,true,true,0.0,-0.0078125,0.0,-0.0078125,false,false,false,false,0.0,-0.0078125,0.0,-0.0078125,false,false,false,false,0.125,12.65,0.0,-11298,0,0,0.125,12.65,0.0,0,0,0,0.125,12.65,0.0,-14357,0,0,0.125,12.700000000000001,0.0,0,0,0,0.0,12.65,0.0,-6,0,0,0.0,12.65,0.0,0,0,0,0.125,12.75,0.0,0,0,0,kReverse,kOff,-87.01,1.77,-35.52,0.03137207,-0.9833374,0.040405273,33.16,0.0,0.0,-7.500473,-2.9816132,
998.101593,true,true,true,0.0,-0.0078125,0.0,-0.0078125,false,false,false,false,0.0,-0.0078125,0.0,-0.0078125,false,false,false,false,0.125,12.65,0.0,-11298,0,0,0.125,12.65,0.0,0,0,0,0.125,12.65,0.0,-14357,0,0,0.125,12.700000000000001,0.0,0,0,0,0.0,12.65,0.0,-6,0,0,0.0,12.65,0.0,0,0,0,0.125,12.75,0.0,0,0,0,kReverse,kOff,-87.01,1.77,-35.42,0.030578613,-0.9833374,0.037841797,33.16,0.0,3.0,-7.500473,-2.9816132,
998.122819,true,true,true,0.0,-0.0078125,0.0,-0.0078125,false,false,false,false,0.0,-0.0078125,0.0,-0.0078125,false,false,false,false,0.125,12.65,0.0,-11298,0,0,0.125,12.65,0.0,0,0,0,0.125,12.65,0.0,-14357,0,0,0.125,12.700000000000001,0.0,0,0,0,0.0,12.65,0.0,-6,0,0,0.0,12.65,0.0,0,0,0,0.125,12.75,0.0,0,0,0,kReverse,kOff,-87.01,1.77,-35.46,0.030639648,-0.9817505,0.044921875,33.16,0.0,-3.0,-7.500473,-2.9816132,
998.145144,true,true,true,0.0,-0.0078125,0.0,-0.0078125,false,false,false,false,0.0,-0.0078125,0.0,-0.0078125,false,false,false,false,0.125,12.65,0.0,-11298,0,0,0.125,12.65,0.0,0,0,0,0.125,12.65,0.0,-14357,0,0,0.125,12.700000000000001,0.0,0,0,0,0.0,12.65,0.0,-6,0,0,0.0,12.65,0.0,0,0,0,0.125,12.75,0.0,0,0,0,kReverse,kOff,-87.0,1.77,-35.54,0.029846191,-0.9821167,0.04296875,33.16,0.0,-1.0,-7.500473,-2.9816132,
998.1652260000001,true,true,true,0.0,-0.0078125,0.0,-0.0078125,false,false,false,false,0.0,-0.0078125,0.0,-0.0078125,false,false,false,false,0.125,12.65,0.0,-11298,0,0,0.125,12.65,0.0,0,0,0,0.125,12.65,0.0,-14357,0,0,0.125,12.65,0.0,0,0,0,0.0,12.65,0.0,-6,0,0,0.0,12.65,0.0,0,0,0,0.125,12.75,0.0,0,0,0,kReverse,kOff,-87.0,1.77,-35.54,0.031188965,-0.98480225,0.043273926,33.16,0.0,-1.0,-7.500473,-2.9816132,
998.197581,true,true,true,0.0,-0.0078125,0.0,-0.0078125,false,false,false,false,0.0,-0.0078125,0.0,-0.0078125,false,false,false,false,0.125,12.65,0.0,-11298,0,0,0.125,12.65,0.0,0,0,0,0.125,12.65,0.0,-14357,0,0,0.125,12.65,0.0,0,0,0,0.0,12.65,0.0,-6,0,0,0.0,12.65,0.0,0,0,0,0.125,12.75,0.0,0,0,0,kReverse,kOff,-87.0,1.77,-35.54,0.031982422,-0.98516846,0.039245605,33.16,0.0,2.0,-7.500473,-2.9816132,
998.223972,true,true,true,0.0,-0.0078125,0.0,-0.0078125,false,false,false,false,0.0,-0.0078125,0.0,-0.0078125,false,false,false,false,0.125,12.65,0.0,-11298,0,0,0.125,12.65,0.0,0,0,0,0.125,12.65,0.0,-14357,0,0,0.125,12.65,0.0,0,0,0,0.0,12.65,0.0,-6,0,0,0.0,12.65,0.0,0,0,0,0.125,12.75,0.0,0,0,0,kReverse,kOff,-87.01,1.77,-35.44,0.02960205,-0.98461914,0.03955078,33.16,0.0,1.0,-7.500473,-2.9816132,
998.247479,true,true,true,0.0,-0.0078125,0.0,-0.0078125,false,false,false,false,0.0,-0.0078125,0.0,-0.0078125,false,false,false,false,0.125,12.65,0.0,-11298,0,0,0.125,12.65,0.0,0,0,0,0.125,12.65,0.0,-14357,0,0,0.125,12.65,0.0,0,0,0,0.0,12.65,0.0,-6,0,0,0.0,12.65,0.0,0,0,0,0.125,12.75,0.0,0,0,0,kReverse,kOff,-87.0,1.77,-35.54,0.030700684,-0.9867554,0.041992188,33.16,0.0,0.0,-7.500473,-2.9816132,
998.2696080000001,true,true,true,0.0,-0.0078125,0.0,-0.0078125,false,false,false,false,0.0,-0.0078125,0.0,-0.0078125,false,false,false,false,0.125,12.65,0.0,-11298,0,0,0.125,12.65,0.0,0,0,0,0.125,12.65,0.0,-14357,0,0,0.125,12.65,0.0,0,0,0,0.0,12.65,0.0,-6,0,0,0.0,12.65,0.0,0,0,0,0.125,12.75,0.0,0,0,0,kReverse,kOff,-87.0,1.77,-35.54,0.0289917,-0.9846802,0.040222168,33.16,0.0,1.0,-7.500473,-2.9816132,
998.29113,true,true,true,0.0,-0.0078125,0.0,-0.0078125,false,false,false,false,0.0,-0.0078125,0.0,-0.0078125,false,false,false,false,0.125,12.65,0.0,-11298,0,0,0.125,12.65,0.0,0,0,0,0.125,12.65,0.0,-14357,0,0,0.125,12.65,0.0,0,0,0,0.0,12.65,0.0,-6,0,0,0.0,12.65,0.0,0,0,0,0.125,12.75,0.0,0,0,0,kReverse,kOff,-87.01,1.77,-35.44,0.03326416,-0.9852295,0.0413208,33.16,0.0,0.0,-7.500473,-2.9816132,
998.3123099999999,true,true,true,0.0,-0.0078125,0.0,-0.0078125,false,false,false,false,0.0,-0.0078125,0.0,-0.0078125,false,false,false,false,0.125,12.65,0.0,-11298,0,0,0.125,12.65,0.0,0,0,0,0.125,12.65,0.0,-14357,0,0,0.125,12.65,0.0,0,0,0,0.0,12.65,0.0,-6,0,0,0.0,12.65,0.0,0,0,0,0.125,12.75,0.0,0,0,0,kReverse,kOff,-87.01,1.77,-35.44,0.030334473,-0.9845581,0.039855957,33.16,0.0,1.0,-7.500473,-2.9816132,
998.335822,true,true,true,0.0,-0.0078125,0.0,-0.0078125,false,false,false,false,0.0,-0.0078125,0.0,-0.0078125,false,false,false,false,0.125,12.65,0.0,-11298,0,0,0.125,12.65,0.0,0,0,0,0.125,12.65,0.0,-14357,0,0,0.125,12.700000000000001,0.0,0,0,0,0.125,12.65,0.0,-6,0,0,0.0,12.65,0.0,0,0,0,0.125,12.75,0.0,0,0,0,kReverse,kOff,-87.0,1.77,-35.54,0.030639648,-0.9796753,0.042541504,33.16,0.0,-1.0,-7.500473,-2.9816132,
998.35797,true,true,true,0.0,-0.0078125,0.0,-0.0078125,false,false,false,false,0.0,-0.0078125,0.0,-0.0078125,false,false,false,false,0.125,12.65,0.0,-11298,0,0,0.125,12.65,0.0,0,0,0,0.125,12.65,0.0,-14357,0,0,0.125,12.700000000000001,0.0,0,0,0,0.0,12.65,0.0,-6,0,0,0.0,12.65,0.0,0,0,0,0.125,12.75,0.0,0,0,0,kReverse,kOff,-87.0,1.77,-35.54,0.030029297,-0.98114014,0.040893555,33.17,0.0,0.0,-7.500473,-2.9816132,
998.380012,true,true,true,0.0,-0.0078125,0.0,-0.0078125,false,false,false,false,0.0,-0.0078125,0.0,-0.0078125,false,false,false,false,0.125,12.65,0.0,-11298,0,0,0.125,12.65,0.0,0,0,0,0.125,12.65,0.0,-14357,0,0,0.125,12.700000000000001,0.0,0,0,0,0.0,12.65,0.0,-6,0,0,0.0,12.65,0.0,0,0,0,0.125,12.75,0.0,0,0,0,kReverse,kOff,-87.0,1.77,-35.58,0.02758789,-0.9842529,0.039611816,33.17,0.0,1.0,-7.500473,-2.9816132,
998.4045080000001,true,true,true,0.0,-0.0078125,0.0,-0.0078125,false,false,false,false,0.0,-0.0078125,0.0,-0.0078125,false,false,false,false,0.125,12.65,0.0,-11298,0,0,0.125,12.65,0.0,0,0,0,0.125,12.65,0.0,-14357,0,0,0.125,12.700000000000001,0.0,0,0,0,0.0,12.65,0.0,-6,0,0,0.0,12.65,0.0,0,0,0,0.125,12.75,0.0,0,0,0,kReverse,kOff,-87.01,1.77,-35.44,0.03253174,-0.98413086,0.045410156,33.17,0.0,-3.0,-7.500473,-2.9816132,
998.4248049999999,true,true,true,0.0,-0.0078125,0.0,-0.0078125,false,false,false,false,0.0,-0.0078125,0.0,-0.0078125,false,false,false,false,0.125,12.65,0.0,-11298,0,0,0.125,12.65,0.0,0,0,0,0.125,12.65,0.0,-14357,0,0,0.125,12.700000000000001,0.0,0,0,0,0.0,12.65,0.0,-6,0,0,0.0,12.65,0.0,0,0,0,0.125,12.75,0.0,0,0,0,kReverse,kOff,-87.01,1.77,-35.48,0.027832031,-0.982666,0.045654297,33.17,0.0,-4.0,-7.500473,-2.9816132,
998.4486949999999,true,true,true,0.0,-0.0078125,0.0,-0.0078125,false,false,false,false,0.0,-0.0078125,0.0,-0.0078125,false,false,false,false,0.125,12.65,0.0,-11298,0,0,0.125,12.65,0.0,0,0,0,0.125,12.65,0.0,-14357,0,0,0.125,12.700000000000001,0.0,0,0,0,0.0,12.65,0.0,-6,0,0,0.0,12.65,0.0,0,0,0,0.125,12.75,0.0,0,0,0,kReverse,kOff,-87.01,1.77,-35.48,0.031921387,-0.9831543,0.0357666,33.17,0.0,5.0,-7.500473,-2.9816132,
998.470625,true,true,true,0.0,-0.0078125,0.0,-0.0078125,false,false,false,false,0.0,-0.0078125,0.0,-0.0078125,false,false,false,false,0.125,12.65,0.0,-11298,0,0,0.125,12.65,0.0,0,0,0,0.125,12.65,0.0,-14357,0,0,0.125,12.700000000000001,0.0,0,0,0,0.0,12.65,0.0,-6,0,0,0.0,12.65,0.0,0,0,0,0.125,12.75,0.0,0,0,0,kReverse,kOff,-87.01,1.77,-35.44,0.029174805,-0.98254395,0.038024902,33.17,0.0,3.0,-7.500473,-2.9816132,
998.491392,true,true,true,0.0,-0.0078125,0.0,-0.0078125,false,false,false,false,0.0,-0.0078125,0.0,-0.0078125,false,false,false,false,0.125,12.65,0.0,-11298,0,0,0.125,12.65,0.0,0,0,0,0.125,12.65,0.0,-14357,0,0,0.125,12.700000000000001,0.0,0,0,0,0.0,12.65,0.0,-6,0,0,0.0,12.65,0.0,0,0,0,0.125,12.75,0.0,0,0,0,kReverse,kOff,-87.01,1.77,-35.44,0.028808594,-0.98291016,0.04626465,33.17,0.0,-5.0,-7.500473,-2.9816132,
998.512472,true,true,true,0.0,-0.0078125,0.0,-0.0078125,false,false,false,false,0.0,-0.0078125,0.0,-0.0078125,false,false,false,false,0.125,12.65,0.0,-11298,0,0,0.125,12.65,0.0,0,0,0,0.125,12.65,0.0,-14357,0,0,0.125,12.700000000000001,0.0,0,0,0,0.0,12.65,0.0,-6,0,0,0.0,12.65,0.0,0,0,0,0.125,12.75,0.0,0,0,0,kReverse,kOff,-87.01,1.77,-35.48,0.032836914,-0.9842529,0.041381836,33.17,0.0,0.0,-7.500473,-2.9816132,
998.5371700000001,true,true,true,0.0,-0.0078125,0.0,-0.0078125,false,false,false,false,0.0,-0.0078125,0.0,-0.0078125,false,false,false,false,0.125,12.65,0.0,-11298,0,0,0.125,12.65,0.0,0,0,0,0.125,12.65,0.0,-14357,0,0,0.125,12.700000000000001,0.0,0,0,0,0.0,12.65,0.0,-6,0,0,0.0,12.65,0.0,0,0,0,0.125,12.75,0.0,0,0,0,kReverse,kOff,-87.01,1.77,-35.48,0.029418945,-0.98291016,0.04168701,33.17,0.0,0.0,-7.500473,-2.9816132,
998.5585590000001,true,true,true,0.0,-0.0078125,0.0,-0.0078125,false,false,false,false,0.0,-0.0078125,0.0,-0.0078125,false,false,false,false,0.125,12.65,0.0,-11298,0,0,0.125,12.65,0.0,0,0,0,0.125,12.65,0.0,-14357,0,0,0.125,12.700000000000001,0.0,0,0,0,0.125,12.65,0.0,-6,0,0,0.0,12.65,0.0,0,0,0,0.125,12.75,0.0,0,0,0,kReverse,kOff,-87.01,1.77,-35.44,0.032043457,-0.9838867,0.04272461,33.17,0.0,-1.0,-7.500473,-2.9816132,
998.5772900000001,true,true,true,0.0,-0.0078125,0.0,-0.0078125,false,false,false,false,0.0,-0.0078125,0.0,-0.0078125,false,false,false,false,0.125,12.65,0.0,-11298,0,0,0.125,12.65,0.0,0,0,0,0.125,12.65,0.0,-14357,0,0,0.125,12.700000000000001,0.0,0,0,0,0.0,12.65,0.0,-6,0,0,0.0,12.65,0.0,0,0,0,0.125,12.75,0.0,0,0,0,kReverse,kOff,-87.01,1.77,-35.44,0.032287598,-0.9831543,0.046203613,33.17,0.0,-4.0,-7.500473,-2.9816132,
998.596456,true,true,true,0.0,-0.0078125,0.0,-0.0078125,false,false,false,false,0.0,-0.0078125,0.0,-0.0078125,false,false,false,false,0.125,12.65,0.0,-11298,0,0,0.125,12.65,0.0,0,0,0,0.125,12.65,0.0,-14357,0,0,0.125,12.700000000000001,0.0,0,0,0,0.0,12.65,0.0,-6,0,0,0.0,12.65,0.0,0,0,0,0.125,12.75,0.0,0,0,0,kReverse,kOff,-87.01,1.77,-35.44,0.029724121,-0.9842529,0.041809082,33.17,0.0,0.0,-7.500473,-2.9816132,
998.617036,true,true,true,0.0,-0.0078125,0.0,-0.0078125,false,false,false,false,0.0,-0.0078125,0.0,-0.0078125,false,false,false,false,0.125,12.65,0.0,-11298,0,0,0.125,12.65,0.0,0,0,0,0.125,12.65,0.0,-14357,0,0,0.125,12.700000000000001,0.0,0,0,0,0.0,12.65,0.0,-6,0,0,0.0,12.65,0.0,0,0,0,0.125,12.75,0.0,0,0,0,kReverse,kOff,-87.0,1.77,-35.42,0.03161621,-0.9816284,0.03704834,33.17,0.0,4.0,-7.500473,-2.9816132,
998.636113,true,true,true,0.0,-0.0078125,0.0,-0.0078125,false,false,false,false,0.0,-0.0078125,0.0,-0.0078125,false,false,false,false,0.125,12.65,0.0,-11298,0,0,0.125,12.65,0.0,0,0,0,0.125,12.65,0.0,-14357,0,0,0.125,12.700000000000001,0.0,0,0,0,0.0,12.65,0.0,-6,0,0,0.0,12.65,0.0,0,0,0,0.125,12.75,0.0,0,0,0,kReverse,kOff,-87.0,1.77,-35.42,0.029724121,-0.98217773,0.03643799,33.17,0.0,4.0,-7.500473,-2.9816132,
998.6613669999999,true,true,true,0.0,-0.0078125,0.0,-0.0078125,false,false,false,false,0.0,-0.0078125,0.0,-0.0078125,false,false,false,false,0.125,12.65,0.0,-11298,0,0,0.125,12.65,0.0,0,0,0,0.125,12.65,0.0,-14357,0,0,0.125,12.700000000000001,0.0,0,0,0,0.0,12.65,0.0,-6,0,0,0.0,12.65,0.0,0,0,0,0.125,12.75,0.0,0,0,0,kReverse,kOff,-87.0,1.77,-35.42,0.02746582,-0.9841919,0.044677734,33.17,0.0,-3.0,-7.500473,-2.9816132,
998.685235,true,true,true,0.0,-0.0078125,0.0,-0.0078125,false,false,false,false,0.0,-0.0078125,0.0,-0.0078125,false,false,false,false,0.125,12.65,0.0,-11298,0,0,0.125,12.65,0.0,0,0,0,0.125,12.65,0.0,-14357,0,0,0.125,12.700000000000001,0.0,0,0,0,0.0,12.65,0.0,-6,0,0,0.0,12.65,0.0,0,0,0,0.125,12.75,0.0,0,0,0,kReverse,kOff,-87.0,1.77,-35.42,0.033203125,-0.98553467,0.039794922,33.17,0.0,1.0,-7.500473,-2.9816132,
998.7048490000001,true,true,true,0.0,-0.0078125,0.0,-0.0078125,false,false,false,false,0.0,-0.0078125,0.0,-0.0078125,false,false,false,false,0.125,12.65,0.0,-11298,0,0,0.125,12.65,0.0,0,0,0,0.125,12.65,0.0,-14357,0,0,0.125,12.700000000000001,0.0,0,0,0,0.0,12.65,0.0,-6,0,0,0.0,12.65,0.0,0,0,0,0.125,12.75,0.0,0,0,0,kReverse,kOff,-87.0,1.77,-35.42,0.02722168,-0.9838257,0.035949707,33.17,0.0,5.0,-7.500473,-2.9816132,
998.727513,true,true,true,0.0,-0.0078125,0.0,-0.0078125,false,false,false,false,0.0,-0.0078125,0.0,-0.0078125,false,false,false,false,0.125,12.65,0.0,-11298,0,0,0.125,12.65,0.0,0,0,0,0.125,12.65,0.0,-14357,0,0,0.125,12.700000000000001,0.0,0,0,0,0.0,12.65,0.0,-6,0,0,0.0,12.65,0.0,0,0,0,0.125,12.75,0.0,0,0,0,kReverse,kOff,-87.0,1.77,-35.45,0.030822754,-0.9838867,0.040771484,33.17,0.0,0.0,-7.500473,-2.9816132,
998.747718,true,true,true,0.0,-0.0078125,0.0,-0.0078125,false,false,false,false,0.0,-0.0078125,0.0,-0.0078125,false,false,false,false,0.125,12.65,0.0,-11298,0,0,0.125,12.65,0.0,0,0,0,0.125,12.65,0.0,-14357,0,0,0.125,12.700000000000001,0.0,0,0,0,0.0,12.65,0.0,-6,0,0,0.0,12.65,0.0,0,0,0,0.125,12.75,0.0,0,0,0,kReverse,kOff,-87.0,1.77,-35.42,0.029724121,-0.98339844,0.041137695,33.17,0.0,0.0,-7.500473,-2.9816132,
998.7690869999999,true,true,true,0.0,-0.0078125,0.0,-0.0078125,false,false,false,false,0.0,-0.0078125,0.0,-0.0078125,false,false,false,false,0.125,12.65,0.0,-11298,0,0,0.125,12.65,0.0,0,0,0,0.125,12.65,0.0,-14357,0,0,0.125,12.700000000000001,0.0,0,0,0,0.0,12.65,0.0,-6,0,0,0.0,12.65,0.0,0,0,0,0.125,12.75,0.0,0,0,0,kReverse,kOff,-87.0,1.77,-35.43,0.029785156,-0.9819946,0.03955078,33.17,0.0,1.0,-7.500473,-2.9816132,
998.789727,true,true,true,0.0,-0.0078125,0.0,-0.0078125,false,false,false,false,0.0,-0.0078125,0.0,-0.0078125,false,false,false,false,0.125,12.65,0.0,-11298,0,0,0.125,12.65,0.0,0,0,0,0.125,12.65,0.0,-14357,0,0,0.125,12.700000000000001,0.0,0,0,0,0.0,12.65,0.0,-6,0,0,0.0,12.65,0.0,0,0,0,0.125,12.75,0.0,0,0,0,kReverse,kOff,-87.0,1.77,-35.43,0.030395508,-0.9819336,0.03753662,33.17,0.0,3.0,-7.500473,-2.9816132,
998.8113490000001,true,true,true,0.0,-0.0078125,0.0,-0.0078125,false,false,false,false,0.0,-0.0078125,0.0,-0.0078125,false,false,false,false,0.125,12.65,0.0,-11298,0,0,0.125,12.65,0.0,0,0,0,0.125,12.65,0.0,-14357,0,0,0.125,12.700000000000001,0.0,0,0,0,0.0,12.65,0.0,-6,0,0,0.0,12.65,0.0,0,0,0,0.125,12.75,0.0,0,0,0,kReverse,kOff,-87.0,1.77,-35.43,0.029174805,-0.97979736,0.041381836,33.17,0.0,0.0,-7.500473,-2.9816132,
998.833072,true,true,true,0.0,-0.0078125,0.0,-0.0078125,false,false,false,false,0.0,-0.0078125,0.0,-0.0078125,false,false,false,false,0.125,12.65,0.0,-11298,0,0,0.125,12.65,0.0,0,0,0,0.125,12.65,0.0,-14357,0,0,0.125,12.700000000000001,0.0,0,0,0,0.0,12.65,0.0,-6,0,0,0.0,12.65,0.0,0,0,0,0.125,12.75,0.0,0,0,0,kReverse,kOff,-87.0,1.77,-35.43,0.029846191,-0.9827881,0.040039062,33.17,0.0,1.0,-7.500473,-2.9816132,
998.851472,true,true,true,0.0,-0.0078125,0.0,-0.0078125,false,false,false,false,0.0,-0.0078125,0.0,-0.0078125,false,false,false,false,0.125,12.65,0.0,-11298,0,0,0.125,12.65,0.0,0,0,0,0.125,12.65,0.0,-14357,0,0,0.125,12.700000000000001,0.0,0,0,0,0.0,12.65,0.0,-6,0,0,0.0,12.65,0.0,0,0,0,0.125,12.75,0.0,0,0,0,kReverse,kOff,-87.0,1.77,-35.43,0.03100586,-0.9829712,0.04345703,33.17,0.0,-1.0,-7.500473,-2.9816132,
998.872657,true,true,true,0.0,-0.0078125,0.0,-0.0078125,false,false,false,false,0.0,-0.0078125,0.0,-0.0078125,false,false,false,false,0.125,12.65,0.0,-11298,0,0,0.125,12.65,0.0,0,0,0,0.125,12.65,0.0,-14357,0,0,0.125,12.700000000000001,0.0,0,0,0,0.0,12.65,0.0,-6,0,0,0.0,12.65,0.0,0,0,0,0.125,12.75,0.0,0,0,0,kReverse,kOff,-87.0,1.77,-35.43,0.030029297,-0.98291016,0.039489746,33.15,0.0,1.0,-7.500473,-2.9816132,
998.89538,true,true,true,0.0,-0.0078125,0.0,-0.0078125,false,false,false,false,0.0,-0.0078125,0.0,-0.0078125,false,false,false,false,0.125,12.65,0.0,-11298,0,0,0.125,12.65,0.0,0,0,0,0.125,12.65,0.0,-14357,0,0,0.125,12.700000000000001,0.0,0,0,0,0.0,12.65,0.0,-6,0,0,0.0,12.65,0.0,0,0,0,0.125,12.75,0.0,0,0,0,kReverse,kOff,-87.0,1.77,-35.43,0.03149414,-0.9855957,0.04437256,33.15,0.0,-2.0,-7.500473,-2.9816132,
998.915943,true,true,true,0.0,-0.0078125,0.0,-0.0078125,false,false,false,false,0.0,-0.0078125,0.0,-0.0078125,false,false,false,false,0.125,12.65,0.0,-11298,0,0,0.125,12.65,0.0,0,0,0,0.125,12.65,0.0,-14357,0,0,0.125,12.700000000000001,0.0,0,0,0,0.0,12.65,0.0,-6,0,0,0.0,12.65,0.0,0,0,0,0.125,12.75,0.0,0,0,0,kReverse,kOff,-87.0,1.78,-35.39,0.030822754,-0.98132324,0.04119873,33.15,0.0,0.0,-7.500473,-2.9816132,
998.937732,true,true,true,0.0,-0.0078125,0.0,-0.0078125,false,false,false,false,0.0,-0.0078125,0.0,-0.0078125,false,false,false,false,0.125,12.65,0.0,-11298,0,0,0.125,12.65,0.0,0,0,0,0.125,12.65,0.0,-14357,0,0,0.125,12.700000000000001,0.0,0,0,0,0.0,12.65,0.0,-6,0,0,0.0,12.65,0.0,0,0,0,0.125,12.75,0.0,0,0,0,kReverse,kOff,-87.0,1.77,-35.43,0.028930664,-0.9815674,0.039978027,33.15,0.0,1.0,-7.500473,-2.9816132,
998.9609499999999,true,true,true,0.0,-0.0078125,0.0,-0.0078125,false,false,false,false,0.0,-0.0078125,0.0,-0.0078125,false,false,false,false,0.125,12.65,0.0,-11298,0,0,0.125,12.65,0.0,0,0,0,0.125,12.65,0.0,-14357,0,0,0.125,12.700000000000001,0.0,0,0,0,0.125,12.65,0.0,-6,0,0,0.0,12.65,0.0,0,0,0,0.0,12.75,0.0,0,0,0,kReverse,kOff,-87.0,1.78,-35.39,0.030151367,-0.98010254,0.0435791,33.15,0.0,-2.0,-7.500473,-2.9816132,
998.983797,true,true,true,0.0,-0.0078125,0.0,-0.0078125,false,false,false,false,0.0,-0.0078125,0.0,-0.0078125,false,false,false,false,0.125,12.65,0.0,-11298,0,0,0.125,12.65,0.0,0,0,0,0.125,12.65,0.0,-14357,0,0,0.125,12.700000000000001,0.0,0,0,0,0.0,12.65,0.0,-6,0,0,0.0,12.65,0.0,0,0,0,0.0,12.75,0.0,0,0,0,kReverse,kOff,-87.0,1.78,-35.39,0.030944824,-0.9836426,0.044067383,33.15,0.0,-2.0,-7.500473,-2.9816132,
999.006572,true,true,true,0.0,-0.0078125,0.0,-0.0078125,false,false,false,false,0.0,-0.0078125,0.0,-0.0078125,false,false,false,false,0.125,12.65,0.0,-11298,0,0,0.125,12.65,0.0,0,0,0,0.125,12.65,0.0,-14357,0,0,0.125,12.700000000000001,0.0,0,0,0,0.0,12.65,0.0,-6,0,0,0.0,12.65,0.0,0,0,0,0.0,12.75,0.0,0,0,0,kReverse,kOff,-87.0,1.78,-35.35,0.029968262,-0.9840088,0.042114258,33.15,0.0,0.0,-7.500473,-2.9816132,
999.0315509999999,true,true,true,0.0,-0.0078125,0.0,-0.0078125,false,false,false,false,0.0,-0.0078125,0.0,-0.0078125,false,false,false,false,0.125,12.65,0.0,-11298,0,0,0.125,12.65,0.0,0,0,0,0.125,12.65,0.0,-14357,0,0,0.125,12.700000000000001,0.0,0,0,0,0.0,12.65,0.0,-6,0,0,0.0,12.65,0.0,0,0,0,0.125,12.75,0.0,0,0,0,kReverse,kOff,-87.0,1.78,-35.35,0.029541016,-0.9796753,0.042663574,33.15,0.0,-1.0,-7.500473,-2.9816132,
999.051827,true,true,true,0.0,-0.0078125,0.0,-0.0078125,false,false,false,false,0.0,-0.0078125,0.0,-0.0078125,false,false,false,false,0.125,12.65,0.0,-11298,0,0,0.125,12.65,0.0,0,0,0,0.125,12.65,0.0,-14357,0,0,0.125,12.700000000000001,0.0,0,0,0,0.0,12.65,0.0,-6,0,0,0.0,12.65,0.0,0,0,0,0.125,12.75,0.0,0,0,0,kReverse,kOff,-87.0,1.78,-35.39,0.027893066,-0.98413086,0.03656006,33.15,0.0,4.0,-7.500473,-2.9816132,
999.075308,true,true,true,0.0,-0.0078125,0.0,-0.0078125,false,false,false,false,0.0,-0.0078125,0.0,-0.0078125,false,false,false,false,0.125,12.65,0.0,-11298,0,0,0.125,12.65,0.0,0,0,0,0.125,12.65,0.0,-14357,0,0,0.125,12.700000000000001,0.0,0,0,0,0.0,12.65,0.0,-6,0,0,0.0,12.65,0.0,0,0,0,0.125,12.75,0.0,0,0,0,kReverse,kOff,-87.0,1.78,-35.39,0.030761719,-0.98394775,0.041992188,33.15,0.0,0.0,-7.500473,-2.9816132,
999.099485,true,true,true,0.0,-0.0078125,0.0,-0.0078125,false,false,false,false,0.0,-0.0078125,0.0,-0.0078125,false,false,false,false,0.125,12.65,0.0,-11298,0,0,0.125,12.65,0.0,0,0,0,0.125,12.65,0.0,-14357,0,0,0.125,12.700000000000001,0.0,0,0,0,0.0,12.65,0.0,-6,0,0,0.0,12.65,0.0,0,0,0,0.125,12.75,0.0,0,0,0,kReverse,kOff,-87.0,1.78,-35.35,0.030700684,-0.9830322,0.04437256,33.15,0.0,-2.0,-7.500473,-2.9816132,
999.118912,true,true,true,0.0,-0.0078125,0.0,-0.0078125,false,false,false,false,0.0,-0.0078125,0.0,-0.0078125,false,false,false,false,0.125,12.65,0.0,-11298,0,0,0.125,12.65,0.0,0,0,0,0.125,12.65,0.0,-14357,0,0,0.125,12.700000000000001,0.0,0,0,0,0.0,12.65,0.0,-6,0,0,0.0,12.65,0.0,0,0,0,0.125,12.75,0.0,0,0,0,kReverse,kOff,-87.0,1.78,-35.39,0.031311035,-0.9842529,0.040649414,33.15,0.0,0.0,-7.500473,-2.9816132,
