timer,lineLeft,lineCenter,lineRight,driverLeftX,driverLeftY,driverRightX,driverRightY,driverA,driverB,driverX,driverY,operatorLeftX,operatorLeftY,operatorRightX,operatorRightY,operatorA,operatorB,operatorX,operatorY,LeftFrontCurrent,LeftFrontVoltage,LeftFrontValue,LeftFrontPosition,LeftFrontVelocity,LeftFrontFaults,LeftRearCurrent,LeftRearVoltage,LeftRearValue,LeftRearPosition,LeftRearVelocity,LeftRearFaults,RightFrontCurrent,RightFrontVoltage,RightFrontValue,RightFrontPosition,RightFrontVelocity,RightFrontFaults,RightRearCurrent,RightRearVoltage,RightRearValue,RightRearPosition,RightRearVelocity,RightRearFaults,LiftCurrent,LiftVoltage,LiftValue,LiftPosition,LiftVelocity,LiftFaults,WristCurrent,WristVoltage,WristValue,WristPosition,WristVelocity,WristFaults,RollerCurrent,RollerVoltage,RollerValue,RollerPosition,RollerVelocity,RollerFaults,PushersState,PivotsState,navx_Pitch,navx_Roll,navx_Yaw,navx_XAcc,navx_YAcc,navx_ZAcc,navx_Temp,navx_Bar,navx_Alt,navx_XDis,navx_YDis,
389.621787,true,true,true,0.0,-0.0078125,0.0,-0.0078125,false,false,false,false,0.0,-0.0078125,0.0,-0.0078125,false,false,false,false,0.125,12.65,0.0,-11295,0,0,0.125,12.700000000000001,0.0,0,0,0,0.125,12.65,0.0,-14354,0,0,0.125,12.700000000000001,0.0,0,0,0,0.0,12.700000000000001,0.0,0,0,0,0.0,12.700000000000001,0.0,0,0,0,0.0,12.75,0.0,0,0,0,kReverse,kOff,-88.4,1.56,31.09,0.02532959,-0.9796753,-0.0045166016,32.0,0.0,0.0,-7.0210724,-3.2844543,
389.653707,true,true,true,0.0,-0.0078125,0.0,-0.0078125,false,false,false,false,0.0,-0.0078125,0.0,-0.0078125,false,false,false,false,0.125,12.65,0.0,-11295,0,0,0.125,12.700000000000001,0.0,0,0,0,0.125,12.65,0.0,-14354,0,0,0.125,12.700000000000001,0.0,0,0,0,0.0,12.700000000000001,0.0,0,0,0,0.0,12.700000000000001,0.0,0,0,0,0.0,12.75,0.0,0,0,0,kReverse,kOff,-88.4,1.56,31.05,0.027282715,-0.9837036,-0.007873535,31.99,0.0,2.0,-7.0210724,-3.2844543,
389.682778,true,true,true,0.0,-0.0078125,0.0,-0.0078125,false,false,false,false,0.0,-0.0078125,0.0,-0.0078125,false,false,false,false,0.125,12.65,0.0,-11295,0,0,0.125,12.700000000000001,0.0,0,0,0,0.125,12.65,0.0,-14354,0,0,0.125,12.700000000000001,0.0,0,0,0,0.0,12.700000000000001,0.0,0,0,0,0.0,12.700000000000001,0.0,0,0,0,0.0,12.75,0.0,0,0,0,kReverse,kOff,-88.4,1.56,31.05,0.028747559,-0.984375,-0.0072021484,31.99,0.0,1.0,-7.0210724,-3.2844543,
389.700662,true,true,true,0.0,-0.0078125,0.0,-0.0078125,false,false,false,false,0.0,-0.0078125,0.0,-0.0078125,false,false,false,false,0.125,12.700000000000001,0.0,-11295,0,0,0.125,12.700000000000001,0.0,0,0,0,0.125,12.65,0.0,-14354,0,0,0.125,12.700000000000001,0.0,0,0,0,0.0,12.700000000000001,0.0,0,0,0,0.0,12.700000000000001,0.0,0,0,0,0.0,12.75,0.0,0,0,0,kReverse,kOff,-88.4,1.55,31.65,0.027770996,-0.9868164,-0.0056762695,31.99,0.0,0.0,-7.0210724,-3.2844543,
389.729044,true,true,true,0.0,-0.0078125,0.0,-0.0078125,false,false,false,false,0.0,-0.0078125,0.0,-0.0078125,false,false,false,false,0.125,12.700000000000001,0.0,-11295,0,0,0.125,12.700000000000001,0.0,0,0,0,0.125,12.65,0.0,-14354,0,0,0.125,12.700000000000001,0.0,0,0,0,0.0,12.700000000000001,0.0,0,0,0,0.0,12.700000000000001,0.0,0,0,0,0.0,12.75,0.0,0,0,0,kReverse,kOff,-88.4,1.56,31.05,0.028503418,-0.9824829,-0.0075683594,31.99,0.0,2.0,-7.0210724,-3.2844543,
389.749153,true,true,true,0.0,-0.0078125,0.0,-0.0078125,false,false,false,false,0.0,-0.0078125,0.0,-0.0078125,false,false,false,false,0.125,12.700000000000001,0.0,-11295,0,0,0.125,12.700000000000001,0.0,0,0,0,0.125,12.65,0.0,-14354,0,0,0.125,12.700000000000001,0.0,0,0,0,0.0,12.700000000000001,0.0,0,0,0,0.0,12.700000000000001,0.0,0,0,0,0.0,12.75,0.0,0,0,0,kReverse,kOff,-88.4,1.56,31.05,0.02734375,-0.9819336,-0.0061035156,31.99,0.0,0.0,-7.0210724,-3.2844543,
389.771197,true,true,true,0.0,-0.0078125,0.0,-0.0078125,false,false,false,false,0.0,-0.0078125,0.0,-0.0078125,false,false,false,false,0.125,12.700000000000001,0.0,-11295,0,0,0.125,12.700000000000001,0.0,0,0,0,0.125,12.65,0.0,-14354,0,0,0.125,12.700000000000001,0.0,0,0,0,0.0,12.700000000000001,0.0,0,0,0,0.0,12.700000000000001,0.0,0,0,0,0.0,12.75,0.0,0,0,0,kReverse,kOff,-88.4,1.56,31.05,0.026245117,-0.9833374,-0.010498047,31.99,0.0,5.0,-7.0210724,-3.2844543,
389.792553,true,true,true,0.0,-0.0078125,0.0,-0.0078125,false,false,false,false,0.0,-0.0078125,0.0,-0.0078125,false,false,false,false,0.125,12.700000000000001,0.0,-11295,0,0,0.125,12.700000000000001,0.0,0,0,0,0.125,12.65,0.0,-14354,0,0,0.125,12.700000000000001,0.0,0,0,0,0.0,12.700000000000001,0.0,0,0,0,0.0,12.700000000000001,0.0,0,0,0,0.0,12.75,0.0,0,0,0,kReverse,kOff,-88.4,1.56,31.05,0.026977539,-0.98480225,-0.0030517578,31.99,0.0,-2.0,-7.0210724,-3.2844543,
389.813626,true,true,true,0.0,-0.0078125,0.0,-0.0078125,false,false,false,false,0.0,-0.0078125,0.0,-0.0078125,false,false,false,false,0.125,12.700000000000001,0.0,-11295,0,0,0.125,12.700000000000001,0.0,0,0,0,0.125,12.65,0.0,-14354,0,0,0.125,12.700000000000001,0.0,0,0,0,0.0,12.700000000000001,0.0,0,0,0,0.0,12.700000000000001,0.0,0,0,0,0.0,12.75,0.0,0,0,0,kReverse,kOff,-88.4,1.56,31.05,0.027526855,-0.9847412,-0.0036010742,31.99,0.0,-1.0,-7.0210724,-3.2844543,
389.834506,true,true,true,0.0,-0.0078125,0.0,-0.0078125,false,false,false,false,0.0,-0.0078125,0.0,-0.0078125,false,false,false,false,0.125,12.700000000000001,0.0,-11295,0,0,0.125,12.700000000000001,0.0,0,0,0,0.125,12.65,0.0,-14354,0,0,0.125,12.700000000000001,0.0,0,0,0,0.0,12.700000000000001,0.0,0,0,0,0.0,12.700000000000001,0.0,0,0,0,0.0,12.75,0.0,0,0,0,kReverse,kOff,-88.4,1.56,31.05,0.028137207,-0.98358154,-3.0517578E-4,31.99,0.0,-5.0,-7.0210724,-3.2844543,
389.855875,true,true,true,0.0,-0.0078125,0.0,-0.0078125,false,false,false,false,0.0,-0.0078125,0.0,-0.0078125,false,false,false,false,0.125,12.700000000000001,0.0,-11295,0,0,0.125,12.700000000000001,0.0,0,0,0,0.125,12.65,0.0,-14354,0,0,0.125,12.700000000000001,0.0,0,0,0,0.0,12.700000000000001,0.0,0,0,0,0.0,12.65,0.0,0,0,0,0.0,12.75,0.0,0,0,0,kReverse,kOff,-88.4,1.56,31.31,0.026611328,-0.9846802,-0.0037841797,31.99,0.0,-1.0,-7.0210724,-3.2844543,
389.876078,true,true,true,0.0,-0.0078125,0.0,-0.0078125,false,false,false,false,0.0,-0.0078125,0.0,-0.0078125,false,false,false,false,0.125,12.700000000000001,0.0,-11295,0,0,0.125,12.700000000000001,0.0,0,0,0,0.125,12.65,0.0,-14354,0,0,0.125,12.700000000000001,0.0,0,0,0,0.0,12.700000000000001,0.0,0,0,0,0.0,12.65,0.0,0,0,0,0.0,12.75,0.0,0,0,0,kReverse,kOff,-88.4,1.56,31.31,0.025390625,-0.98291016,-0.006713867,31.99,0.0,1.0,-7.0210724,-3.2844543,
389.89625,true,true,true,0.0,-0.0078125,0.0,-0.0078125,false,false,false,false,0.0,-0.0078125,0.0,-0.0078125,false,false,false,false,0.125,12.700000000000001,0.0,-11295,0,0,0.125,12.700000000000001,0.0,0,0,0,0.125,12.65,0.0,-14354,0,0,0.125,12.700000000000001,0.0,0,0,0,0.0,12.700000000000001,0.0,0,0,0,0.0,12.65,0.0,0,0,0,0.0,12.75,0.0,0,0,0,kReverse,kOff,-88.4,1.56,31.31,0.027832031,-0.9827881,-0.0026245117,31.99,0.0,-2.0,-7.0210724,-3.2844543,
389.92022,true,true,true,0.0,-0.0078125,0.0,-0.0078125,false,false,false,false,0.0,-0.0078125,0.0,-0.0078125,false,false,false,false,0.125,12.700000000000001,0.0,-11295,0,0,0.125,12.700000000000001,0.0,0,0,0,0.125,12.65,0.0,-14354,0,0,0.125,12.700000000000001,0.0,0,0,0,0.0,12.700000000000001,0.0,0,0,0,0.0,12.65,0.0,0,0,0,0.0,12.75,0.0,0,0,0,kReverse,kOff,-88.4,1.56,31.31,0.026611328,-0.98516846,-0.0032348633,31.99,0.0,-2.0,-7.0210724,-3.2844543,
389.939169,true,true,true,0.0,-0.0078125,0.0,-0.0078125,false,false,false,false,0.0,-0.0078125,0.0,-0.0078125,false,false,false,false,0.125,12.700000000000001,0.0,-11295,0,0,0.125,12.700000000000001,0.0,0,0,0,0.125,12.65,0.0,-14354,0,0,0.125,12.700000000000001,0.0,0,0,0,0.0,12.700000000000001,0.0,0,0,0,0.0,12.65,0.0,0,0,0,0.0,12.75,0.0,0,0,0,kReverse,kOff,-88.4,1.56,31.31,0.022033691,-0.9818115,-0.012512207,31.99,0.0,7.0,-7.0210724,-3.2844543,
389.961337,true,true,true,0.0,-0.0078125,0.0,-0.0078125,false,false,false,false,0.0,-0.0078125,0.0,-0.0078125,false,false,false,false,0.125,12.700000000000001,0.0,-11295,0,0,0.125,12.700000000000001,0.0,0,0,0,0.125,12.65,0.0,-14354,0,0,0.125,12.700000000000001,0.0,0,0,0,0.0,12.700000000000001,0.0,0,0,0,0.0,12.65,0.0,0,0,0,0.0,12.75,0.0,0,0,0,kReverse,kOff,-88.4,1.56,31.31,0.026428223,-0.9833374,-0.003112793,31.99,0.0,-2.0,-7.0210724,-3.2844543,
389.985036,true,true,true,0.0,-0.0078125,0.0,-0.0078125,false,false,false,false,0.0,-0.0078125,0.0,-0.0078125,false,false,false,false,0.125,12.700000000000001,0.0,-11295,0,0,0.125,12.700000000000001,0.0,0,0,0,0.125,12.65,0.0,-14354,0,0,0.125,12.700000000000001,0.0,0,0,0,0.0,12.700000000000001,0.0,0,0,0,0.0,12.65,0.0,0,0,0,0.125,12.75,0.0,0,0,0,kReverse,kOff,-88.4,1.56,31.31,0.028137207,-0.98553467,-0.0025634766,31.99,0.0,-2.0,-7.0210724,-3.2844543,
390.008368,true,true,true,0.0,-0.0078125,0.0,-0.0078125,false,false,false,false,0.0,-0.0078125,0.0,-0.0078125,false,false,false,false,0.125,12.700000000000001,0.0,-11295,0,0,0.125,12.700000000000001,0.0,0,0,0,0.125,12.65,0.0,-14354,0,0,0.125,12.700000000000001,0.0,0,0,0,0.0,12.700000000000001,0.0,0,0,0,0.0,12.65,0.0,0,0,0,0.125,12.75,0.0,0,0,0,kReverse,kOff,-88.4,1.56,31.31,0.02557373,-0.98547363,-0.005065918,31.99,0.0,0.0,-7.0210724,-3.2844543,
390.029745,true,true,true,0.0,-0.0078125,0.0,-0.0078125,false,false,false,false,0.0,-0.0078125,0.0,-0.0078125,false,false,false,false,0.125,12.700000000000001,0.0,-11295,0,0,0.125,12.700000000000001,0.0,0,0,0,0.125,12.65,0.0,-14354,0,0,0.125,12.700000000000001,0.0,0,0,0,0.0,12.700000000000001,0.0,0,0,0,0.0,12.700000000000001,0.0,0,0,0,0.0,12.75,0.0,0,0,0,kReverse,kOff,-88.4,1.56,31.31,0.02911377,-0.9842529,-0.0078125,31.99,0.0,2.0,-7.0210724,-3.2844543,
390.052467,true,true,true,0.0,-0.0078125,0.0,-0.0078125,false,false,false,false,0.0,-0.0078125,0.0,-0.0078125,false,false,false,false,0.125,12.700000000000001,0.0,-11295,0,0,0.125,12.700000000000001,0.0,0,0,0,0.125,12.65,0.0,-14354,0,0,0.125,12.700000000000001,0.0,0,0,0,0.0,12.700000000000001,0.0,0,0,0,0.0,12.700000000000001,0.0,0,0,0,0.0,12.75,0.0,0,0,0,kReverse,kOff,-88.4,1.56,31.31,0.02532959,-0.9840698,-0.0053100586,31.99,0.0,0.0,-7.0210724,-3.2844543,
390.072371,true,true,true,0.0,-0.0078125,0.0,-0.0078125,false,false,false,false,0.0,-0.0078125,0.0,-0.0078125,false,false,false,false,0.125,12.700000000000001,0.0,-11295,0,0,0.125,12.700000000000001,0.0,0,0,0,0.125,12.65,0.0,-14354,0,0,0.125,12.700000000000001,0.0,0,0,0,0.0,12.700000000000001,0.0,0,0,0,0.0,12.700000000000001,0.0,0,0,0,0.125,12.75,0.0,0,0,0,kReverse,kOff,-88.4,1.56,31.31,0.024902344,-0.9833374,-0.0064086914,31.99,0.0,0.0,-7.0210724,-3.2844543,
390.093271,true,true,true,0.0,-0.0078125,0.0,-0.0078125,false,false,false,false,0.0,-0.0078125,0.0,-0.0078125,false,false,false,false,0.125,12.700000000000001,0.0,-11295,0,0,0.125,12.700000000000001,0.0,0,0,0,0.125,12.65,0.0,-14354,0,0,0.125,12.700000000000001,0.0,0,0,0,0.0,12.700000000000001,0.0,0,0,0,0.0,12.700000000000001,0.0,0,0,0,0.0,12.75,0.0,0,0,0,kReverse,kOff,-88.4,1.56,31.31,0.024902344,-0.98168945,-0.004760742,31.99,0.0,0.0,-7.0210724,-3.2844543,
390.11402000000004,true,true,true,0.0,-0.0078125,0.0,-0.0078125,false,false,false,false,0.0,-0.0078125,0.0,-0.0078125,false,false,false,false,0.125,12.700000000000001,0.0,-11295,0,0,0.125,12.700000000000001,0.0,0,0,0,0.125,12.65,0.0,-14354,0,0,0.125,12.700000000000001,0.0,0,0,0,0.0,12.700000000000001,0.0,0,0,0,0.0,12.700000000000001,0.0,0,0,0,0.0,12.75,0.0,0,0,0,kReverse,kOff,-88.4,1.56,31.31,0.029541016,-0.9828491,-0.0061035156,31.99,0.0,0.0,-7.0210724,-3.2844543,
390.135744,true,true,true,0.0,-0.0078125,0.0,-0.0078125,false,false,false,false,0.0,-0.0078125,0.0,-0.0078125,false,false,false,false,0.125,12.700000000000001,0.0,-11295,0,0,0.125,12.700000000000001,0.0,0,0,0,0.125,12.65,0.0,-14354,0,0,0.125,12.700000000000001,0.0,0,0,0,0.0,12.700000000000001,0.0,0,0,0,0.0,12.700000000000001,0.0,0,0,0,0.0,12.75,0.0,0,0,0,kReverse,kOff,-88.4,1.56,31.31,0.028564453,-0.98272705,-0.0030517578,31.99,0.0,-2.0,-7.0210724,-3.2844543,
390.156603,true,true,true,0.0,-0.0078125,0.0,-0.0078125,false,false,false,false,0.0,-0.0078125,0.0,-0.0078125,false,false,false,false,0.125,12.700000000000001,0.0,-11295,0,0,0.125,12.700000000000001,0.0,0,0,0,0.125,12.65,0.0,-14354,0,0,0.125,12.700000000000001,0.0,0,0,0,0.0,12.700000000000001,0.0,0,0,0,0.0,12.700000000000001,0.0,0,0,0,0.0,12.75,0.0,0,0,0,kReverse,kOff,-88.4,1.56,31.31,0.027526855,-0.98358154,-0.0045776367,31.97,0.0,0.0,-7.0210724,-3.2844543,
390.180304,true,true,true,0.0,-0.0078125,0.0,-0.0078125,false,false,false,false,0.0,-0.0078125,0.0,-0.0078125,false,false,false,false,0.125,12.700000000000001,0.0,-11295,0,0,0.125,12.700000000000001,0.0,0,0,0,0.125,12.65,0.0,-14354,0,0,0.125,12.700000000000001,0.0,0,0,0,0.0,12.700000000000001,0.0,0,0,0,0.0,12.700000000000001,0.0,0,0,0,0.0,12.75,0.0,0,0,0,kReverse,kOff,-88.4,1.56,31.31,0.024414062,-0.9829712,-0.0053710938,31.97,0.0,0.0,-7.0210724,-3.2844543,
390.20311499999997,true,true,true,0.0,-0.0078125,0.0,-0.0078125,false,false,false,false,0.0,-0.0078125,0.0,-0.0078125,false,false,false,false,0.125,12.700000000000001,0.0,-11295,0,0,0.125,12.700000000000001,0.0,0,0,0,0.125,12.65,0.0,-14354,0,0,0.125,12.700000000000001,0.0,0,0,0,0.0,12.700000000000001,0.0,0,0,0,0.0,12.700000000000001,0.0,0,0,0,0.0,12.75,0.0,0,0,0,kReverse,kOff,-88.4,1.56,31.26,0.02911377,-0.98065186,-0.007385254,31.97,0.0,1.0,-7.0210724,-3.2844543,
390.224335,true,true,true,0.0,-0.0078125,0.0,-0.0078125,false,false,false,false,0.0,-0.0078125,0.0,-0.0078125,false,false,false,false,0.125,12.700000000000001,0.0,-11295,0,0,0.125,12.700000000000001,0.0,0,0,0,0.125,12.65,0.0,-14354,0,0,0.125,12.700000000000001,0.0,0,0,0,0.0,12.700000000000001,0.0,0,0,0,0.0,12.700000000000001,0.0,0,0,0,0.0,12.75,0.0,0,0,0,kReverse,kOff,-88.4,1.56,31.26,0.027832031,-0.98376465,-0.004638672,31.97,0.0,0.0,-7.0210724,-3.2844543,
390.24701,true,true,true,0.0,-0.0078125,0.0,-0.0078125,false,false,false,false,0.0,-0.0078125,0.0,-0.0078125,false,false,false,false,0.125,12.700000000000001,0.0,-11295,0,0,0.125,12.700000000000001,0.0,0,0,0,0.125,12.65,0.0,-14354,0,0,0.125,12.700000000000001,0.0,0,0,0,0.0,12.700000000000001,0.0,0,0,0,0.0,12.700000000000001,0.0,0,0,0,0.0,12.75,0.0,0,0,0,kReverse,kOff,-88.4,1.55,31.0,0.025268555,-0.98309326,-0.0067749023,31.97,0.0,1.0,-7.0210724,-3.2844543,
390.26856,true,true,true,0.0,-0.0078125,0.0,-0.0078125,false,false,false,false,0.0,-0.0078125,0.0,-0.0078125,false,false,false,false,0.125,12.700000000000001,0.0,-11295,0,0,0.125,12.700000000000001,0.0,0,0,0,0.125,12.65,0.0,-14354,0,0,0.125,12.700000000000001,0.0,0,0,0,0.0,12.700000000000001,0.0,0,0,0,0.0,12.700000000000001,0.0,0,0,0,0.125,12.75,0.0,0,0,0,kReverse,kOff,-88.4,1.55,31.0,0.026428223,-0.98254395,-0.0020751953,31.97,0.0,-3.0,-7.0210724,-3.2844543,
390.288817,true,true,true,0.0,-0.0078125,0.0,-0.0078125,false,false,false,false,0.0,-0.0078125,0.0,-0.0078125,false,false,false,false,0.125,12.700000000000001,0.0,-11295,0,0,0.125,12.700000000000001,0.0,0,0,0,0.125,12.65,0.0,-14354,0,0,0.125,12.700000000000001,0.0,0,0,0,0.0,12.700000000000001,0.0,0,0,0,0.0,12.700000000000001,0.0,0,0,0,0.125,12.75,0.0,0,0,0,kReverse,kOff,-88.4,1.56,31.31,0.028625488,-0.98187256,-0.009277344,31.97,0.0,3.0,-7.0210724,-3.2844543,
390.30888500000003,true,true,true,0.0,-0.0078125,0.0,-0.0078125,false,false,false,false,0.0,-0.0078125,0.0,-0.0078125,false,false,false,false,0.125,12.700000000000001,0.0,-11295,0,0,0.125,12.700000000000001,0.0,0,0,0,0.125,12.65,0.0,-14354,0,0,0.125,12.700000000000001,0.0,0,0,0,0.0,12.700000000000001,0.0,0,0,0,0.0,12.700000000000001,0.0,0,0,0,0.0,12.75,0.0,0,0,0,kReverse,kOff,-88.4,1.56,31.31,0.027709961,-0.98413086,-0.007446289,31.97,0.0,1.0,-7.0210724,-3.2844543,
390.329402,true,true,true,0.0,-0.0078125,0.0,-0.0078125,false,false,false,false,0.0,-0.0078125,0.0,-0.0078125,false,false,false,false,0.125,12.700000000000001,0.0,-11295,0,0,0.125,12.700000000000001,0.0,0,0,0,0.125,12.65,0.0,-14354,0,0,0.125,12.700000000000001,0.0,0,0,0,0.0,12.700000000000001,0.0,0,0,0,0.0,12.700000000000001,0.0,0,0,0,0.0,12.75,0.0,0,0,0,kReverse,kOff,-88.4,1.56,31.31,0.028442383,-0.98205566,-0.007873535,31.97,0.0,2.0,-7.0210724,-3.2844543,
390.351458,true,true,true,0.0,-0.0078125,0.0,-0.0078125,false,false,false,false,0.0,-0.0078125,0.0,-0.0078125,false,false,false,false,0.125,12.700000000000001,0.0,-11295,0,0,0.125,12.700000000000001,0.0,0,0,0,0.125,12.65,0.0,-14354,0,0,0.125,12.700000000000001,0.0,0,0,0,0.0,12.700000000000001,0.0,0,0,0,0.0,12.65,0.0,0,0,0,0.0,12.75,0.0,0,0,0,kReverse,kOff,-88.4,1.56,31.31,0.025817871,-0.98291016,-0.007507324,31.97,0.0,2.0,-7.0210724,-3.2844543,
390.371973,true,true,true,0.0,-0.0078125,0.0,-0.0078125,false,false,false,false,0.0,-0.0078125,0.0,-0.0078125,false,false,false,false,0.125,12.700000000000001,0.0,-11295,0,0,0.125,12.700000000000001,0.0,0,0,0,0.125,12.65,0.0,-14354,0,0,0.125,12.700000000000001,0.0,0,0,0,0.0,12.700000000000001,0.0,0,0,0,0.0,12.65,0.0,0,0,0,0.0,12.75,0.0,0,0,0,kReverse,kOff,-88.4,1.56,31.31,0.025817871,-0.98291016,-0.007507324,31.97,0.0,2.0,-7.0210724,-3.2844543,
390.39199699999995,true,true,true,0.0,-0.0078125,0.0,-0.0078125,false,false,false,false,0.0,-0.0078125,0.0,-0.0078125,false,false,false,false,0.125,12.700000000000001,0.0,-11295,0,0,0.125,12.700000000000001,0.0,0,0,0,0.125,12.65,0.0,-14354,0,0,0.125,12.700000000000001,0.0,0,0,0,0.0,12.700000000000001,0.0,0,0,0,0.0,12.65,0.0,0,0,0,0.0,12.75,0.0,0,0,0,kReverse,kOff,-88.4,1.56,31.31,0.02734375,-0.9817505,-0.0068969727,31.97,0.0,1.0,-7.0210724,-3.2844543,
390.412126,true,true,true,0.0,-0.0078125,0.0,-0.0078125,false,false,false,false,0.0,-0.0078125,0.0,-0.0078125,false,false,false,false,0.125,12.700000000000001,0.0,-11295,0,0,0.125,12.700000000000001,0.0,0,0,0,0.125,12.65,0.0,-14354,0,0,0.125,12.700000000000001,0.0,0,0,0,0.0,12.700000000000001,0.0,0,0,0,0.0,12.65,0.0,0,0,0,0.0,12.75,0.0,0,0,0,kReverse,kOff,-88.4,1.56,31.31,0.026000977,-0.98321533,-0.0072631836,31.97,0.0,1.0,-7.0210724,-3.2844543,
390.433577,true,true,true,0.0,-0.0078125,0.0,-0.0078125,false,false,false,false,0.0,-0.0078125,0.0,-0.0078125,false,false,false,false,0.125,12.700000000000001,0.0,-11295,0,0,0.125,12.700000000000001,0.0,0,0,0,0.125,12.65,0.0,-14354,0,0,0.125,12.700000000000001,0.0,0,0,0,0.0,12.700000000000001,0.0,0,0,0,0.0,12.65,0.0,0,0,0,0.0,12.75,0.0,0,0,0,kReverse,kOff,-88.4,1.56,31.31,0.027648926,-0.9838257,-0.008850098,31.97,0.0,3.0,-7.0210724,-3.2844543,
390.455424,true,true,true,0.0,-0.0078125,0.0,-0.0078125,false,false,false,false,0.0,-0.0078125,0.0,-0.0078125,false,false,false,false,0.125,12.700000000000001,0.0,-11295,0,0,0.125,12.700000000000001,0.0,0,0,0,0.125,12.65,0.0,-14354,0,0,0.125,12.700000000000001,0.0,0,0,0,0.0,12.700000000000001,0.0,0,0,0,0.0,12.65,0.0,0,0,0,0.0,12.75,0.0,0,0,0,kReverse,kOff,-88.39,1.56,31.52,0.025268555,-0.9798584,-0.005004883,31.97,0.0,0.0,-7.0210724,-3.2844543,
390.480206,true,true,true,0.0,-0.0078125,0.0,-0.0078125,false,false,false,false,0.0,-0.0078125,0.0,-0.0078125,false,false,false,false,0.125,12.700000000000001,0.0,-11295,0,0,0.125,12.700000000000001,0.0,0,0,0,0.125,12.65,0.0,-14354,0,0,0.125,12.700000000000001,0.0,0,0,0,0.0,12.700000000000001,0.0,0,0,0,0.0,12.65,0.0,0,0,0,0.0,12.75,0.0,0,0,0,kReverse,kOff,-88.39,1.57,31.57,0.026306152,-0.9819336,-0.005065918,31.97,0.0,0.0,-7.0210724,-3.2844543,
390.50341599999996,true,true,true,0.0,-0.0078125,0.0,-0.0078125,false,false,false,false,0.0,-0.0078125,0.0,-0.0078125,false,false,false,false,0.125,12.700000000000001,0.0,-11295,0,0,0.125,12.700000000000001,0.0,0,0,0,0.125,12.65,0.0,-14354,0,0,0.125,12.700000000000001,0.0,0,0,0,0.0,12.700000000000001,0.0,0,0,0,0.0,12.700000000000001,0.0,0,0,0,0.125,12.75,0.0,0,0,0,kReverse,kOff,-88.39,1.57,31.57,0.027526855,-0.98431396,-0.0079956055,31.97,0.0,2.0,-7.0210724,-3.2844543,
390.524321,true,true,true,0.0,-0.0078125,0.0,-0.0078125,false,false,false,false,0.0,-0.0078125,0.0,-0.0078125,false,false,false,false,0.125,12.700000000000001,0.0,-11295,0,0,0.125,12.700000000000001,0.0,0,0,0,0.125,12.65,0.0,-14354,0,0,0.125,12.700000000000001,0.0,0,0,0,0.0,12.700000000000001,0.0,0,0,0,0.0,12.700000000000001,0.0,0,0,0,0.0,12.75,0.0,0,0,0,kReverse,kOff,-88.39,1.57,31.57,0.029418945,-0.98687744,-0.00793457,31.97,0.0,2.0,-7.0210724,-3.2844543,
390.54615499999994,true,true,true,0.0,-0.0078125,0.0,-0.0078125,false,false,false,false,0.0,-0.0078125,0.0,-0.0078125,false,false,false,false,0.125,12.700000000000001,0.0,-11295,0,0,0.125,12.700000000000001,0.0,0,0,0,0.125,12.65,0.0,-14354,0,0,0.125,12.700000000000001,0.0,0,0,0,0.0,12.700000000000001,0.0,0,0,0,0.0,12.700000000000001,0.0,0,0,0,0.0,12.75,0.0,0,0,0,kReverse,kOff,-88.39,1.57,31.57,0.026184082,-0.9845581,-0.004760742,31.97,0.0,0.0,-7.0210724,-3.2844543,
390.567931,true,true,true,0.0,-0.0078125,0.0,-0.0078125,false,false,false,false,0.0,-0.0078125,0.0,-0.0078125,false,false,false,false,0.125,12.700000000000001,0.0,-11295,0,0,0.125,12.700000000000001,0.0,0,0,0,0.125,12.65,0.0,-14354,0,0,0.125,12.700000000000001,0.0,0,0,0,0.0,12.700000000000001,0.0,0,0,0,0.0,12.700000000000001,0.0,0,0,0,0.0,12.75,0.0,0,0,0,kReverse,kOff,-88.39,1.57,31.57,0.028320312,-0.9819336,-0.005065918,31.97,0.0,0.0,-7.0210724,-3.2844543,
390.589474,true,true,true,0.0,-0.0078125,0.0,-0.0078125,false,false,false,false,0.0,-0.0078125,0.0,-0.0078125,false,false,false,false,0.125,12.700000000000001,0.0,-11295,0,0,0.125,12.700000000000001,0.0,0,0,0,0.125,12.65,0.0,-14354,0,0,0.125,12.700000000000001,0.0,0,0,0,0.0,12.700000000000001,0.0,0,0,0,0.0,12.700000000000001,0.0,0,0,0,0.0,12.75,0.0,0,0,0,kReverse,kOff,-88.39,1.57,31.57,0.027160645,-0.9867554,-0.0038452148,31.97,0.0,-1.0,-7.0210724,-3.2844543,
390.60800900000004,true,true,true,0.0,-0.0078125,0.0,-0.0078125,false,false,false,false,0.0,-0.0078125,0.0,-0.0078125,false,false,false,false,0.125,12.700000000000001,0.0,-11295,0,0,0.125,12.700000000000001,0.0,0,0,0,0.125,12.65,0.0,-14354,0,0,0.125,12.700000000000001,0.0,0,0,0,0.0,12.700000000000001,0.0,0,0,0,0.0,12.700000000000001,0.0,0,0,0,0.0,12.75,0.0,0,0,0,kReverse,kOff,-88.39,1.57,30.98,0.026123047,-0.9813843,-0.005126953,31.97,0.0,0.0,-7.0210724,-3.2844543,
390.630137,true,true,true,0.0,-0.0078125,0.0,-0.0078125,false,false,false,false,0.0,-0.0078125,0.0,-0.0078125,false,false,false,false,0.125,12.700000000000001,0.0,-11295,0,0,0.125,12.700000000000001,0.0,0,0,0,0.125,12.65,0.0,-14354,0,0,0.125,12.700000000000001,0.0,0,0,0,0.0,12.700000000000001,0.0,0,0,0,0.0,12.700000000000001,0.0,0,0,0,0.0,12.75,0.0,0,0,0,kReverse,kOff,-88.39,1.57,30.98,0.027526855,-0.98309326,-0.0032958984,31.97,0.0,-2.0,-7.0210724,-3.2844543,
390.650185,true,true,true,0.0,-0.0078125,0.0,-0.0078125,false,false,false,false,0.0,-0.0078125,0.0,-0.0078125,false,false,false,false,0.125,12.700000000000001,0.0,-11295,0,0,0.125,12.700000000000001,0.0,0,0,0,0.125,12.65,0.0,-14354,0,0,0.125,12.700000000000001,0.0,0,0,0,0.0,12.700000000000001,0.0,0,0,0,0.0,12.700000000000001,0.0,0,0,0,0.0,12.75,0.0,0,0,0,kReverse,kOff,-88.39,1.57,30.98,0.023620605,-0.98413086,-0.004272461,31.97,0.0,-1.0,-7.0210724,-3.2844543,
390.671037,true,true,true,0.0,-0.0078125,0.0,-0.0078125,false,false,false,false,0.0,-0.0078125,0.0,-0.0078125,false,false,false,false,0.125,12.700000000000001,0.0,-11295,0,0,0.125,12.700000000000001,0.0,0,0,0,0.125,12.65,0.0,-14354,0,0,0.125,12.700000000000001,0.0,0,0,0,0.0,12.700000000000001,0.0,0,0,0,0.0,12.700000000000001,0.0,0,0,0,0.0,12.75,0.0,0,0,0,kReverse,kOff,-88.4,1.56,31.31,0.026123047,-0.98339844,-0.006591797,31.97,0.0,1.0,-7.0210724,-3.2844543,
390.690321,true,true,true,0.0,-0.0078125,0.0,-0.0078125,false,false,false,false,0.0,-0.0078125,0.0,-0.0078125,false,false,false,false,0.125,12.700000000000001,0.0,-11295,0,0,0.125,12.700000000000001,0.0,0,0,0,0.125,12.65,0.0,-14354,0,0,0.125,12.700000000000001,0.0,0,0,0,0.0,12.700000000000001,0.0,0,0,0,0.0,12.700000000000001,0.0,0,0,0,0.0,12.75,0.0,0,0,0,kReverse,kOff,-88.39,1.57,31.57,0.028076172,-0.98291016,-0.002380371,31.98,0.0,-3.0,-7.0210724,-3.2844543,
390.70885200000004,true,true,true,0.0,-0.0078125,0.0,-0.0078125,false,false,false,false,0.0,-0.0078125,0.0,-0.0078125,false,false,false,false,0.125,12.700000000000001,0.0,-11295,0,0,0.125,12.700000000000001,0.0,0,0,0,0.125,12.65,0.0,-14354,0,0,0.125,12.700000000000001,0.0,0,0,0,0.0,12.700000000000001,0.0,0,0,0,0.0,12.700000000000001,0.0,0,0,0,0.0,12.75,0.0,0,0,0,kReverse,kOff,-88.39,1.57,31.57,0.026000977,-0.98150635,-0.0068359375,31.98,0.0,1.0,-7.0210724,-3.2844543,
390.72882899999996,true,true,true,0.0,-0.0078125,0.0,-0.0078125,false,false,false,false,0.0,-0.0078125,0.0,-0.0078125,false,false,false,false,0.125,12.700000000000001,0.0,-11295,0,0,0.125,12.700000000000001,0.0,0,0,0,0.125,12.65,0.0,-14354,0,0,0.125,12.700000000000001,0.0,0,0,0,0.0,12.700000000000001,0.0,0,0,0,0.0,12.700000000000001,0.0,0,0,0,0.0,12.75,0.0,0,0,0,kReverse,kOff,-88.39,1.56,31.52,0.025390625,-0.9821167,0.0,31.98,0.0,-5.0,-7.0210724,-3.2844543,
390.749687,true,true,true,0.0,-0.0078125,0.0,-0.0078125,false,false,false,false,0.0,-0.0078125,0.0,-0.0078125,false,false,false,false,0.125,12.700000000000001,0.0,-11295,0,0,0.125,12.700000000000001,0.0,0,0,0,0.125,12.65,0.0,-14354,0,0,0.125,12.700000000000001,0.0,0,0,0,0.0,12.700000000000001,0.0,0,0,0,0.0,12.700000000000001,0.0,0,0,0,0.0,12.75,0.0,0,0,0,kReverse,kOff,-88.39,1.56,31.52,0.025512695,-0.98413086,-0.0036010742,31.98,0.0,-1.0,-7.0210724,-3.2844543,
390.768571,true,true,true,0.0,-0.0078125,0.0,-0.0078125,false,false,false,false,0.0,-0.0078125,0.0,-0.0078125,false,false,false,false,0.125,12.700000000000001,0.0,-11295,0,0,0.125,12.700000000000001,0.0,0,0,0,0.125,12.65,0.0,-14354,0,0,0.125,12.700000000000001,0.0,0,0,0,0.0,12.700000000000001,0.0,0,0,0,0.0,12.700000000000001,0.0,0,0,0,0.0,12.75,0.0,0,0,0,kReverse,kOff,-88.39,1.56,31.52,0.0256958,-0.98168945,-0.006652832,31.98,0.0,1.0,-7.0210724,-3.2844543,
390.789335,true,true,true,0.0,-0.0078125,0.0,-0.0078125,false,false,false,false,0.0,-0.0078125,0.0,-0.0078125,false,false,false,false,0.125,12.700000000000001,0.0,-11295,0,0,0.125,12.700000000000001,0.0,0,0,0,0.125,12.65,0.0,-14354,0,0,0.125,12.700000000000001,0.0,0,0,0,0.0,12.700000000000001,0.0,0,0,0,0.0,12.700000000000001,0.0,0,0,0,0.0,12.75,0.0,0,0,0,kReverse,kOff,-88.4,1.56,31.26,0.026306152,-0.9830322,-0.0043945312,31.98,0.0,-1.0,-7.0210724,-3.2844543,
390.81083,true,true,true,0.0,-0.0078125,0.0,-0.0078125,false,false,false,false,0.0,-0.0078125,0.0,-0.0078125,false,false,false,false,0.125,12.700000000000001,0.0,-11295,0,0,0.125,12.700000000000001,0.0,0,0,0,0.125,12.65,0.0,-14354,0,0,0.125,12.700000000000001,0.0,0,0,0,0.0,12.700000000000001,0.0,0,0,0,0.0,12.700000000000001,0.0,0,0,0,0.0,12.75,0.0,0,0,0,kReverse,kOff,-88.4,1.55,31.0,0.025817871,-0.9841919,-0.009521484,31.98,0.0,4.0,-7.0210724,-3.2844543,
390.829684,true,true,true,0.0,-0.0078125,0.0,-0.0078125,false,false,false,false,0.0,-0.0078125,0.0,-0.0078125,false,false,false,false,0.125,12.700000000000001,0.0,-11295,0,0,0.125,12.700000000000001,0.0,0,0,0,0.125,12.65,0.0,-14354,0,0,0.125,12.700000000000001,0.0,0,0,0,0.0,12.700000000000001,0.0,0,0,0,0.0,12.700000000000001,0.0,0,0,0,0.0,12.75,0.0,0,0,0,kReverse,kOff,-88.4,1.55,31.0,0.025390625,-0.98010254,-0.0021362305,31.98,0.0,-3.0,-7.0210724,-3.2844543,
390.850795,true,true,true,0.0,-0.0078125,0.0,-0.0078125,false,false,false,false,0.0,-0.0078125,0.0,-0.0078125,false,false,false,false,0.125,12.700000000000001,0.0,-11295,0,0,0.125,12.700000000000001,0.0,0,0,0,0.125,12.65,0.0,-14354,0,0,0.125,12.700000000000001,0.0,0,0,0,0.0,12.700000000000001,0.0,0,0,0,0.0,12.700000000000001,0.0,0,0,0,0.0,12.75,0.0,0,0,0,kReverse,kOff,-88.4,1.56,30.45,0.02734375,-0.9828491,-0.0071411133,31.98,0.0,1.0,-7.0210724,-3.2844543,
390.883339,true,true,true,0.0,-0.0078125,0.0,-0.0078125,false,false,false,false,0.0,-0.0078125,0.0,-0.0078125,false,false,false,false,0.125,12.700000000000001,0.0,-11295,0,0,0.125,12.700000000000001,0.0,0,0,0,0.125,12.65,0.0,-14354,0,0,0.125,12.700000000000001,0.0,0,0,0,0.0,12.700000000000001,0.0,0,0,0,0.0,12.700000000000001,0.0,0,0,0,0.0,12.75,0.0,0,0,0,kReverse,kOff,-88.4,1.56,30.41,0.02935791,-0.9821167,-0.0020751953,31.98,0.0,-3.0,-7.0210724,-3.2844543,
390.902275,true,true,true,0.0,-0.0078125,0.0,-0.0078125,false,false,false,false,0.0,-0.0078125,0.0,-0.0078125,false,false,false,false,0.125,12.700000000000001,0.0,-11295,0,0,0.125,12.700000000000001,0.0,0,0,0,0.125,12.65,0.0,-14354,0,0,0.125,12.700000000000001,0.0,0,0,0,0.0,12.700000000000001,0.0,0,0,0,0.0,12.700000000000001,0.0,0,0,0,0.0,12.75,0.0,0,0,0,kReverse,kOff,-88.4,1.56,30.41,0.025817871,-0.9847412,-0.010681152,31.98,0.0,5.0,-7.0210724,-3.2844543,
390.921476,true,true,true,0.0,-0.0078125,0.0,-0.0078125,false,false,false,false,0.0,-0.0078125,0.0,-0.0078125,false,false,false,false,0.125,12.700000000000001,0.0,-11295,0,0,0.125,12.700000000000001,0.0,0,0,0,0.125,12.65,0.0,-14354,0,0,0.125,12.700000000000001,0.0,0,0,0,0.0,12.700000000000001,0.0,0,0,0,0.0,12.700000000000001,0.0,0,0,0,0.0,12.75,0.0,0,0,0,kReverse,kOff,-88.4,1.56,31.26,0.026306152,-0.982605,-0.0057373047,31.98,0.0,0.0,-7.0210724,-3.2844543,
390.938087,true,true,true,0.0,-0.0078125,0.0,-0.0078125,false,false,false,false,0.0,-0.0078125,0.0,-0.0078125,false,false,false,false,0.125,12.700000000000001,0.0,-11295,0,0,0.125,12.700000000000001,0.0,0,0,0,0.125,12.65,0.0,-14354,0,0,0.125,12.700000000000001,0.0,0,0,0,0.0,12.700000000000001,0.0,0,0,0,0.0,12.700000000000001,0.0,0,0,0,0.0,12.75,0.0,0,0,0,kReverse,kOff,-88.39,1.56,31.52,0.028198242,-0.9859619,-0.0045166016,31.98,0.0,-1.0,-7.0210724,-3.2844543,
390.96103899999997,true,true,true,0.0,-0.0078125,0.0,-0.0078125,false,false,false,false,0.0,-0.0078125,0.0,-0.0078125,false,false,false,false,0.125,12.700000000000001,0.0,-11295,0,0,0.125,12.700000000000001,0.0,0,0,0,0.125,12.65,0.0,-14354,0,0,0.125,12.700000000000001,0.0,0,0,0,0.0,12.700000000000001,0.0,0,0,0,0.0,12.700000000000001,0.0,0,0,0,0.0,12.75,0.0,0,0,0,kReverse,kOff,-88.39,1.56,31.52,0.027893066,-0.98223877,-0.0071411133,31.98,0.0,1.0,-7.0210724,-3.2844543,
390.983,true,true,true,0.0,-0.0078125,0.0,-0.0078125,false,false,false,false,0.0,-0.0078125,0.0,-0.0078125,false,false,false,false,0.125,12.700000000000001,0.0,-11295,0,0,0.125,12.700000000000001,0.0,0,0,0,0.125,12.65,0.0,-14354,0,0,0.125,12.700000000000001,0.0,0,0,0,0.0,12.700000000000001,0.0,0,0,0,0.0,12.700000000000001,0.0,0,0,0,0.0,12.75,0.0,0,0,0,kReverse,kOff,-88.39,1.57,30.98,0.027038574,-0.9837036,-0.0048828125,31.98,0.0,0.0,-7.0210724,-3.2844543,
391.0078,true,true,true,0.0,-0.0078125,0.0,-0.0078125,false,false,false,false,0.0,-0.0078125,0.0,-0.0078125,false,false,false,false,0.125,12.700000000000001,0.0,-11295,0,0,0.125,12.700000000000001,0.0,0,0,0,0.125,12.65,0.0,-14354,0,0,0.125,12.700000000000001,0.0,0,0,0,0.0,12.700000000000001,0.0,0,0,0,0.0,12.700000000000001,0.0,0,0,0,0.0,12.75,0.0,0,0,0,kReverse,kOff,-88.39,1.57,30.98,0.026306152,-0.984375,-0.0063476562,31.98,0.0,0.0,-7.0210724,-3.2844543,
391.02837,true,true,true,0.0,-0.0078125,0.0,-0.0078125,false,false,false,false,0.0,-0.0078125,0.0,-0.0078125,false,false,false,false,0.125,12.700000000000001,0.0,-11295,0,0,0.125,12.700000000000001,0.0,0,0,0,0.125,12.65,0.0,-14354,0,0,0.125,12.700000000000001,0.0,0,0,0,0.0,12.700000000000001,0.0,0,0,0,0.0,12.700000000000001,0.0,0,0,0,0.0,12.75,0.0,0,0,0,kReverse,kOff,-88.39,1.57,30.98,0.030334473,-0.98602295,-0.0017700195,31.98,0.0,-3.0,-7.0210724,-3.2844543,
391.050706,true,true,true,0.0,-0.0078125,0.0,-0.0078125,false,false,false,false,0.0,-0.0078125,0.0,-0.0078125,false,false,false,false,0.125,12.700000000000001,0.0,-11295,0,0,0.125,12.700000000000001,0.0,0,0,0,0.125,12.65,0.0,-14354,0,0,0.125,12.700000000000001,0.0,0,0,0,0.0,12.700000000000001,0.0,0,0,0,0.0,12.700000000000001,0.0,0,0,0,0.0,12.75,0.0,0,0,0,kReverse,kOff,-88.39,1.57,30.98,0.030517578,-0.98413086,-0.005432129,31.98,0.0,0.0,-7.0210724,-3.2844543,
391.071955,true,true,true,0.0,-0.0078125,0.0,-0.0078125,false,false,false,false,0.0,-0.0078125,0.0,-0.0078125,false,false,false,false,0.125,12.700000000000001,0.0,-11295,0,0,0.125,12.700000000000001,0.0,0,0,0,0.125,12.65,0.0,-14354,0,0,0.125,12.700000000000001,0.0,0,0,0,0.0,12.700000000000001,0.0,0,0,0,0.0,12.700000000000001,0.0,0,0,0,0.0,12.75,0.0,0,0,0,kReverse,kOff,-88.39,1.57,30.98,0.028625488,-0.982605,-0.0012207031,31.98,0.0,-4.0,-7.0210724,-3.2844543,
391.092088,true,true,true,0.0,-0.0078125,0.0,-0.0078125,false,false,false,false,0.0,-0.0078125,0.0,-0.0078125,false,false,false,false,0.125,12.700000000000001,0.0,-11295,0,0,0.125,12.700000000000001,0.0,0,0,0,0.125,12.65,0.0,-14354,0,0,0.125,12.700000000000001,0.0,0,0,0,0.0,12.700000000000001,0.0,0,0,0,0.0,12.700000000000001,0.0,0,0,0,0.125,12.75,0.0,0,0,0,kReverse,kOff,-88.39,1.57,30.98,0.029052734,-0.9844971,-0.0048828125,31.98,0.0,0.0,-7.0210724,-3.2844543,
391.11274,true,true,true,0.0,-0.0078125,0.0,-0.0078125,false,false,false,false,0.0,-0.0078125,0.0,-0.0078125,false,false,false,false,0.125,12.700000000000001,0.0,-11295,0,0,0.125,12.700000000000001,0.0,0,0,0,0.125,12.65,0.0,-14354,0,0,0.125,12.700000000000001,0.0,0,0,0,0.0,12.700000000000001,0.0,0,0,0,0.0,12.700000000000001,0.0,0,0,0,0.125,12.75,0.0,0,0,0,kReverse,kOff,-88.39,1.57,31.02,0.026062012,-0.98547363,0.0026245117,31.98,0.0,-8.0,-7.0210724,-3.2844543,
391.134077,true,true,true,0.0,-0.0078125,0.0,-0.0078125,false,false,false,false,0.0,-0.0078125,0.0,-0.0078125,false,false,false,false,0.125,12.700000000000001,0.0,-11295,0,0,0.125,12.700000000000001,0.0,0,0,0,0.125,12.65,0.0,-14354,0,0,0.125,12.700000000000001,0.0,0,0,0,0.0,12.700000000000001,0.0,0,0,0,0.0,12.65,0.0,0,0,0,0.0,12.75,0.0,0,0,0,kReverse,kOff,-88.38,1.58,30.43,0.025146484,-0.98291016,-0.0063476562,31.98,0.0,0.0,-7.0210724,-3.2844543,
391.155084,true,true,true,0.0,-0.0078125,0.0,-0.0078125,false,false,false,false,0.0,-0.0078125,0.0,-0.0078125,false,false,false,false,0.125,12.700000000000001,0.0,-11295,0,0,0.125,12.700000000000001,0.0,0,0,0,0.125,12.65,0.0,-14354,0,0,0.125,12.700000000000001,0.0,0,0,0,0.0,12.700000000000001,0.0,0,0,0,0.0,12.65,0.0,0,0,0,0.0,12.75,0.0,0,0,0,kReverse,kOff,-88.39,1.57,30.98,0.027893066,-0.98168945,-0.006286621,31.98,0.0,0.0,-7.0210724,-3.2844543,
391.17519400000003,true,true,true,0.0,-0.0078125,0.0,-0.0078125,false,false,false,false,0.0,-0.0078125,0.0,-0.0078125,false,false,false,false,0.125,12.700000000000001,0.0,-11295,0,0,0.125,12.700000000000001,0.0,0,0,0,0.125,12.65,0.0,-14354,0,0,0.125,12.700000000000001,0.0,0,0,0,0.0,12.700000000000001,0.0,0,0,0,0.0,12.65,0.0,0,0,0,0.0,12.75,0.0,0,0,0,kReverse,kOff,-88.4,1.56,30.45,0.022827148,-0.98724365,-0.005065918,31.95,0.0,0.0,-7.0210724,-3.2844543,
391.197614,true,true,true,0.0,-0.0078125,0.0,-0.0078125,false,false,false,false,0.0,-0.0078125,0.0,-0.0078125,false,false,false,false,0.125,12.700000000000001,0.0,-11295,0,0,0.125,12.700000000000001,0.0,0,0,0,0.125,12.65,0.0,-14354,0,0,0.125,12.700000000000001,0.0,0,0,0,0.0,12.700000000000001,0.0,0,0,0,0.0,12.65,0.0,0,0,0,0.0,12.75,0.0,0,0,0,kReverse,kOff,-88.39,1.57,30.98,0.025146484,-0.9844971,-0.0056152344,31.95,0.0,0.0,-7.0210724,-3.2844543,
391.221311,true,true,true,0.0,-0.0078125,0.0,-0.0078125,false,false,false,false,0.0,-0.0078125,0.0,-0.0078125,false,false,false,false,0.125,12.700000000000001,0.0,-11295,0,0,0.125,12.700000000000001,0.0,0,0,0,0.125,12.65,0.0,-14354,0,0,0.125,12.700000000000001,0.0,0,0,0,0.0,12.700000000000001,0.0,0,0,0,0.0,12.65,0.0,0,0,0,0.0,12.75,0.0,0,0,0,kReverse,kOff,-88.39,1.57,30.98,0.028076172,-0.9842529,-0.0068359375,31.95,0.0,1.0,-7.0210724,-3.2844543,
391.24170399999997,true,true,true,0.0,-0.0078125,0.0,-0.0078125,false,false,false,false,0.0,-0.0078125,0.0,-0.0078125,false,false,false,false,0.125,12.700000000000001,0.0,-11295,0,0,0.125,12.700000000000001,0.0,0,0,0,0.125,12.65,0.0,-14354,0,0,0.125,12.700000000000001,0.0,0,0,0,0.0,12.700000000000001,0.0,0,0,0,0.0,12.65,0.0,0,0,0,0.0,12.75,0.0,0,0,0,kReverse,kOff,-88.39,1.57,30.98,0.028503418,-0.98413086,-0.003967285,31.95,0.0,-1.0,-7.0210724,-3.2844543,
391.265003,true,true,true,0.0,-0.0078125,0.0,-0.0078125,false,false,false,false,0.0,-0.0078125,0.0,-0.0078125,false,false,false,false,0.125,12.700000000000001,0.0,-11295,0,0,0.125,12.700000000000001,0.0,0,0,0,0.125,12.65,0.0,-14354,0,0,0.125,12.700000000000001,0.0,0,0,0,0.0,12.700000000000001,0.0,0,0,0,0.0,12.65,0.0,0,0,0,0.0,12.75,0.0,0,0,0,kReverse,kOff,-88.4,1.56,30.45,0.02923584,-0.98132324,-0.0037231445,31.95,0.0,-1.0,-7.0210724,-3.2844543,
391.288413,true,true,true,0.0,-0.0078125,0.0,-0.0078125,false,false,false,false,0.0,-0.0078125,0.0,-0.0078125,false,false,false,false,0.125,12.700000000000001,0.0,-11295,0,0,0.125,12.700000000000001,0.0,0,0,0,0.125,12.65,0.0,-14354,0,0,0.125,12.75,0.0,0,0,0,0.0,12.700000000000001,0.0,0,0,0,0.0,12.65,0.0,0,0,0,0.0,12.75,0.0,0,0,0,kReverse,kOff,-88.4,1.56,30.45,0.0234375,-0.98010254,-0.002319336,31.95,0.0,-3.0,-7.0210724,-3.2844543,
391.31120500000003,true,true,true,0.0,-0.0078125,0.0,-0.0078125,false,false,false,false,0.0,-0.0078125,0.0,-0.0078125,false,false,false,false,0.125,12.700000000000001,0.0,-11295,0,0,0.125,12.700000000000001,0.0,0,0,0,0.125,12.65,0.0,-14354,0,0,0.125,12.75,0.0,0,0,0,0.0,12.700000000000001,0.0,0,0,0,0.0,12.700000000000001,0.0,0,0,0,0.0,12.75,0.0,0,0,0,kReverse,kOff,-88.4,1.56,30.45,0.028320312,-0.98205566,-0.0057373047,31.95,0.0,0.0,-7.0210724,-3.2844543,
391.332629,true,true,true,0.0,-0.0078125,0.0,-0.0078125,false,false,false,false,0.0,-0.0078125,0.0,-0.0078125,false,false,false,false,0.125,12.700000000000001,0.0,-11295,0,0,0.125,12.700000000000001,0.0,0,0,0,0.125,12.65,0.0,-14354,0,0,0.125,12.75,0.0,0,0,0,0.0,12.700000000000001,0.0,0,0,0,0.0,12.700000000000001,0.0,0,0,0,0.0,12.75,0.0,0,0,0,kReverse,kOff,-88.4,1.56,30.45,0.026550293,-0.9864502,-0.005004883,31.95,0.0,0.0,-7.0210724,-3.2844543,
391.35404,true,true,true,0.0,-0.0078125,0.0,-0.0078125,false,false,false,false,0.0,-0.0078125,0.0,-0.0078125,false,false,false,false,0.125,12.700000000000001,0.0,-11295,0,0,0.125,12.700000000000001,0.0,0,0,0,0.125,12.65,0.0,-14354,0,0,0.125,12.75,0.0,0,0,0,0.0,12.700000000000001,0.0,0,0,0,0.0,12.700000000000001,0.0,0,0,0,0.0,12.75,0.0,0,0,0,kReverse,kOff,-88.39,1.56,30.72,0.028259277,-0.98291016,-0.007507324,31.95,0.0,2.0,-7.0210724,-3.2844543,
391.373461,true,true,true,0.0,-0.0078125,0.0,-0.0078125,false,false,false,false,0.0,-0.0078125,0.0,-0.0078125,false,false,false,false,0.125,12.700000000000001,0.0,-11295,0,0,0.125,12.700000000000001,0.0,0,0,0,0.125,12.65,0.0,-14354,0,0,0.125,12.75,0.0,0,0,0,0.0,12.700000000000001,0.0,0,0,0,0.0,12.700000000000001,0.0,0,0,0,0.0,12.75,0.0,0,0,0,kReverse,kOff,-88.39,1.56,30.72,0.027893066,-0.98339844,-0.014587402,31.95,0.0,9.0,-7.0210724,-3.2844543,
391.395218,true,true,true,0.0,-0.0078125,0.0,-0.0078125,false,false,false,false,0.0,-0.0078125,0.0,-0.0078125,false,false,false,false,0.125,12.700000000000001,0.0,-11295,0,0,0.125,12.700000000000001,0.0,0,0,0,0.125,12.65,0.0,-14354,0,0,0.125,12.75,0.0,0,0,0,0.0,12.700000000000001,0.0,0,0,0,0.0,12.700000000000001,0.0,0,0,0,0.0,12.75,0.0,0,0,0,kReverse,kOff,-88.39,1.56,30.72,0.027832031,-0.986145,-0.0059814453,31.95,0.0,0.0,-7.0210724,-3.2844543,
391.415415,true,true,true,0.0,-0.0078125,0.0,-0.0078125,false,false,false,false,0.0,-0.0078125,0.0,-0.0078125,false,false,false,false,0.125,12.700000000000001,0.0,-11295,0,0,0.125,12.700000000000001,0.0,0,0,0,0.125,12.65,0.0,-14354,0,0,0.125,12.75,0.0,0,0,0,0.0,12.700000000000001,0.0,0,0,0,0.0,12.700000000000001,0.0,0,0,0,0.0,12.75,0.0,0,0,0,kReverse,kOff,-88.39,1.57,30.98,0.02557373,-0.9840088,-0.009094238,31.95,0.0,3.0,-7.0210724,-3.2844543,
391.439105,true,true,true,0.0,-0.0078125,0.0,-0.0078125,false,false,false,false,0.0,-0.0078125,0.0,-0.0078125,false,false,false,false,0.125,12.700000000000001,0.0,-11295,0,0,0.125,12.700000000000001,0.0,0,0,0,0.125,12.65,0.0,-14354,0,0,0.125,12.75,0.0,0,0,0,0.0,12.700000000000001,0.0,0,0,0,0.0,12.700000000000001,0.0,0,0,0,0.0,12.75,0.0,0,0,0,kReverse,kOff,-88.39,1.57,30.98,0.024658203,-0.98254395,-0.0015869141,31.95,0.0,-3.0,-7.0210724,-3.2844543,
391.465077,true,true,true,0.0,-0.0078125,0.0,-0.0078125,false,false,false,false,0.0,-0.0078125,0.0,-0.0078125,false,false,false,false,0.125,12.700000000000001,0.0,-11295,0,0,0.125,12.700000000000001,0.0,0,0,0,0.125,12.65,0.0,-14354,0,0,0.125,12.700000000000001,0.0,0,0,0,0.0,12.700000000000001,0.0,0,0,0,0.0,12.700000000000001,0.0,0,0,0,0.0,12.75,0.0,0,0,0,kReverse,kOff,-88.39,1.57,30.98,0.026794434,-0.9845581,-0.0010375977,31.95,0.0,-4.0,-7.0210724,-3.2844543,
391.489484,true,true,true,0.0,-0.0078125,0.0,-0.0078125,false,false,false,false,0.0,-0.0078125,0.0,-0.0078125,false,false,false,false,0.125,12.700000000000001,0.0,-11295,0,0,0.125,12.700000000000001,0.0,0,0,0,0.125,12.65,0.0,-14354,0,0,0.125,12.700000000000001,0.0,0,0,0,0.0,12.700000000000001,0.0,0,0,0,0.0,12.700000000000001,0.0,0,0,0,0.0,12.75,0.0,0,0,0,kReverse,kOff,-88.39,1.57,30.94,0.026123047,-0.9814453,-0.0043945312,31.95,0.0,-1.0,-7.0210724,-3.2844543,
391.507858,true,true,true,0.0,-0.0078125,0.0,-0.0078125,false,false,false,false,0.0,-0.0078125,0.0,-0.0078125,false,false,false,false,0.125,12.700000000000001,0.0,-11295,0,0,0.125,12.700000000000001,0.0,0,0,0,0.125,12.65,0.0,-14354,0,0,0.125,12.700000000000001,0.0,0,0,0,0.0,12.700000000000001,0.0,0,0,0,0.0,12.700000000000001,0.0,0,0,0,0.0,12.75,0.0,0,0,0,kReverse,kOff,-88.39,1.56,30.71,0.026245117,-0.98083496,-0.0061035156,31.95,0.0,0.0,-7.0210724,-3.2844543,
391.531195,true,true,true,0.0,-0.0078125,0.0,-0.0078125,false,false,false,false,0.0,-0.0078125,0.0,-0.0078125,false,false,false,false,0.125,12.700000000000001,0.0,-11295,0,0,0.125,12.700000000000001,0.0,0,0,0,0.125,12.65,0.0,-14354,0,0,0.125,12.700000000000001,0.0,0,0,0,0.0,12.700000000000001,0.0,0,0,0,0.0,12.700000000000001,0.0,0,0,0,0.0,12.75,0.0,0,0,0,kReverse,kOff,-88.39,1.56,30.71,0.02935791,-0.9869995,-0.0068359375,31.95,0.0,1.0,-7.0210724,-3.2844543,
391.553205,true,true,true,0.0,-0.0078125,0.0,-0.0078125,false,false,false,false,0.0,-0.0078125,0.0,-0.0078125,false,false,false,false,0.125,12.700000000000001,0.0,-11295,0,0,0.125,12.700000000000001,0.0,0,0,0,0.125,12.65,0.0,-14354,0,0,0.125,12.700000000000001,0.0,0,0,0,0.0,12.700000000000001,0.0,0,0,0,0.0,12.700000000000001,0.0,0,0,0,0.0,12.75,0.0,0,0,0,kReverse,kOff,-88.39,1.56,30.71,0.02935791,-0.9869995,-0.0068359375,31.95,0.0,1.0,-7.0210724,-3.2844543,
391.574272,true,true,true,0.0,-0.0078125,0.0,-0.0078125,false,false,false,false,0.0,-0.0078125,0.0,-0.0078125,false,false,false,false,0.125,12.700000000000001,0.0,-11295,0,0,0.125,12.700000000000001,0.0,0,0,0,0.125,12.65,0.0,-14354,0,0,0.125,12.700000000000001,0.0,0,0,0,0.0,12.700000000000001,0.0,0,0,0,0.0,12.700000000000001,0.0,0,0,0,0.0,12.75,0.0,0,0,0,kReverse,kOff,-88.39,1.56,30.71,0.025817871,-0.9840088,-0.008605957,31.95,0.0,3.0,-7.0210724,-3.2844543,
391.59410099999997,true,true,true,0.0,-0.0078125,0.0,-0.0078125,false,false,false,false,0.0,-0.0078125,0.0,-0.0078125,false,false,false,false,0.125,12.700000000000001,0.0,-11295,0,0,0.125,12.700000000000001,0.0,0,0,0,0.125,12.65,0.0,-14354,0,0,0.125,12.700000000000001,0.0,0,0,0,0.0,12.700000000000001,0.0,0,0,0,0.0,12.700000000000001,0.0,0,0,0,0.0,12.75,0.0,0,0,0,kReverse,kOff,-88.39,1.56,30.71,0.025817871,-0.9840088,-0.008605957,31.95,0.0,3.0,-7.0210724,-3.2844543,
391.61558,true,true,true,0.0,-0.0078125,0.0,-0.0078125,false,false,false,false,0.0,-0.0078125,0.0,-0.0078125,false,false,false,false,0.125,12.700000000000001,0.0,-11295,0,0,0.125,12.700000000000001,0.0,0,0,0,0.125,12.65,0.0,-14354,0,0,0.125,12.700000000000001,0.0,0,0,0,0.0,12.700000000000001,0.0,0,0,0,0.0,12.700000000000001,0.0,0,0,0,0.0,12.75,0.0,0,0,0,kReverse,kOff,-88.4,1.56,30.67,0.028076172,-0.9855957,-0.007751465,31.95,0.0,2.0,-7.0210724,-3.2844543,
391.643015,true,true,true,0.0,-0.0078125,0.0,-0.0078125,false,false,false,false,0.0,-0.0078125,0.0,-0.0078125,false,false,false,false,0.125,12.700000000000001,0.0,-11295,0,0,0.125,12.700000000000001,0.0,0,0,0,0.125,12.65,0.0,-14354,0,0,0.125,12.700000000000001,0.0,0,0,0,0.0,12.700000000000001,0.0,0,0,0,0.0,12.700000000000001,0.0,0,0,0,0.0,12.75,0.0,0,0,0,kReverse,kOff,-88.39,1.57,30.94,0.02746582,-0.9836426,-0.007446289,31.95,0.0,1.0,-7.0210724,-3.2844543,
391.665042,true,true,true,0.0,-0.0078125,0.0,-0.0078125,false,false,false,false,0.0,-0.0078125,0.0,-0.0078125,false,false,false,false,0.125,12.700000000000001,0.0,-11295,0,0,0.125,12.700000000000001,0.0,0,0,0,0.125,12.65,0.0,-14354,0,0,0.125,12.700000000000001,0.0,0,0,0,0.0,12.700000000000001,0.0,0,0,0,0.0,12.700000000000001,0.0,0,0,0,0.0,12.75,0.0,0,0,0,kReverse,kOff,-88.4,1.56,30.67,0.027404785,-0.9851074,-0.008422852,31.95,0.0,2.0,-7.0210724,-3.2844543,
391.682985,true,true,true,0.0,-0.0078125,0.0,-0.0078125,false,false,false,false,0.0,-0.0078125,0.0,-0.0078125,false,false,false,false,0.125,12.700000000000001,0.0,-11295,0,0,0.125,12.700000000000001,0.0,0,0,0,0.125,12.65,0.0,-14354,0,0,0.125,12.700000000000001,0.0,0,0,0,0.0,12.700000000000001,0.0,0,0,0,0.0,12.700000000000001,0.0,0,0,0,0.0,12.75,0.0,0,0,0,kReverse,kOff,-88.4,1.56,30.67,0.026550293,-0.9824219,-0.0059814453,31.95,0.0,0.0,-7.0210724,-3.2844543,
391.70498699999996,true,true,true,0.0,-0.0078125,0.0,-0.0078125,false,false,false,false,0.0,-0.0078125,0.0,-0.0078125,false,false,false,false,0.125,12.700000000000001,0.0,-11295,0,0,0.125,12.700000000000001,0.0,0,0,0,0.125,12.65,0.0,-14354,0,0,0.125,12.700000000000001,0.0,0,0,0,0.0,12.700000000000001,0.0,0,0,0,0.0,12.700000000000001,0.0,0,0,0,0.0,12.75,0.0,0,0,0,kReverse,kOff,-88.4,1.56,30.67,0.028137207,-0.98168945,-0.0052490234,31.96,0.0,0.0,-7.0210724,-3.2844543,
391.72209399999997,true,true,true,0.0,-0.0078125,0.0,-0.0078125,false,false,false,false,0.0,-0.0078125,0.0,-0.0078125,false,false,false,false,0.125,12.700000000000001,0.0,-11295,0,0,0.125,12.700000000000001,0.0,0,0,0,0.125,12.65,0.0,-14354,0,0,0.125,12.700000000000001,0.0,0,0,0,0.0,12.700000000000001,0.0,0,0,0,0.0,12.700000000000001,0.0,0,0,0,0.0,12.75,0.0,0,0,0,kReverse,kOff,-88.4,1.56,30.67,0.028137207,-0.9827881,-0.0061035156,31.96,0.0,0.0,-7.0210724,-3.2844543,
391.743125,true,true,true,0.0,-0.0078125,0.0,-0.0078125,false,false,false,false,0.0,-0.0078125,0.0,-0.0078125,false,false,false,false,0.125,12.700000000000001,0.0,-11295,0,0,0.125,12.700000000000001,0.0,0,0,0,0.125,12.65,0.0,-14354,0,0,0.125,12.700000000000001,0.0,0,0,0,0.0,12.700000000000001,0.0,0,0,0,0.0,12.700000000000001,0.0,0,0,0,0.0,12.75,0.0,0,0,0,kReverse,kOff,-88.4,1.56,30.67,0.025878906,-0.98223877,-0.004211426,31.96,0.0,-1.0,-7.0210724,-3.2844543,
391.76721899999995,true,true,true,0.0,-0.0078125,0.0,-0.0078125,false,false,false,false,0.0,-0.0078125,0.0,-0.0078125,false,false,false,false,0.125,12.700000000000001,0.0,-11295,0,0,0.125,12.700000000000001,0.0,0,0,0,0.125,12.65,0.0,-14354,0,0,0.125,12.700000000000001,0.0,0,0,0,0.0,12.700000000000001,0.0,0,0,0,0.0,12.700000000000001,0.0,0,0,0,0.0,12.75,0.0,0,0,0,kReverse,kOff,-88.4,1.56,30.67,0.026367188,-0.9829712,-0.0045166016,31.96,0.0,0.0,-7.0210724,-3.2844543,
391.786507,true,true,true,0.0,-0.0078125,0.0,-0.0078125,false,false,false,false,0.0,-0.0078125,0.0,-0.0078125,false,false,false,false,0.125,12.700000000000001,0.0,-11295,0,0,0.125,12.700000000000001,0.0,0,0,0,0.125,12.65,0.0,-14354,0,0,0.125,12.700000000000001,0.0,0,0,0,0.0,12.700000000000001,0.0,0,0,0,0.0,12.700000000000001,0.0,0,0,0,0.0,12.75,0.0,0,0,0,kReverse,kOff,-88.4,1.56,30.67,0.026916504,-0.98376465,-0.005493164,31.96,0.0,0.0,-7.0210724,-3.2844543,
391.80561199999994,true,true,true,0.0,-0.0078125,0.0,-0.0078125,false,false,false,false,0.0,-0.0078125,0.0,-0.0078125,false,false,false,false,0.125,12.700000000000001,0.0,-11295,0,0,0.125,12.700000000000001,0.0,0,0,0,0.125,12.65,0.0,-14354,0,0,0.125,12.700000000000001,0.0,0,0,0,0.0,12.700000000000001,0.0,0,0,0,0.0,12.700000000000001,0.0,0,0,0,0.0,12.75,0.0,0,0,0,kReverse,kOff,-88.4,1.56,30.67,0.026367188,-0.9845581,-0.0053710938,31.96,0.0,0.0,-7.0210724,-3.2844543,
391.824152,true,true,true,0.0,-0.0078125,0.0,-0.0078125,false,false,false,false,0.0,-0.0078125,0.0,-0.0078125,false,false,false,false,0.125,12.700000000000001,0.0,-11295,0,0,0.125,12.700000000000001,0.0,0,0,0,0.125,12.65,0.0,-14354,0,0,0.125,12.700000000000001,0.0,0,0,0,0.0,12.700000000000001,0.0,0,0,0,0.0,12.700000000000001,0.0,0,0,0,0.125,12.75,0.0,0,0,0,kReverse,kOff,-88.4,1.56,30.67,0.027648926,-0.98339844,-0.004760742,31.96,0.0,0.0,-7.0210724,-3.2844543,
391.846545,true,true,true,0.0,-0.0078125,0.0,-0.0078125,false,false,false,false,0.0,-0.0078125,0.0,-0.0078125,false,false,false,false,0.125,12.700000000000001,0.0,-11295,0,0,0.125,12.700000000000001,0.0,0,0,0,0.125,12.65,0.0,-14354,0,0,0.125,12.700000000000001,0.0,0,0,0,0.0,12.700000000000001,0.0,0,0,0,0.0,12.700000000000001,0.0,0,0,0,0.0,12.75,0.0,0,0,0,kReverse,kOff,-88.4,1.56,30.67,0.02545166,-0.98223877,-0.0028076172,31.96,0.0,-2.0,-7.0210724,-3.2844543,
391.870144,true,true,true,0.0,-0.0078125,0.0,-0.0078125,false,false,false,false,0.0,-0.0078125,0.0,-0.0078125,false,false,false,false,0.125,12.700000000000001,0.0,-11295,0,0,0.125,12.700000000000001,0.0,0,0,0,0.125,12.65,0.0,-14354,0,0,0.125,12.700000000000001,0.0,0,0,0,0.0,12.700000000000001,0.0,0,0,0,0.0,12.700000000000001,0.0,0,0,0,0.0,12.75,0.0,0,0,0,kReverse,kOff,-88.4,1.56,30.67,0.025817871,-0.982605,0.0012207031,31.96,0.0,-6.0,-7.0210724,-3.2844543,
391.890402,true,true,true,0.0,-0.0078125,0.0,-0.0078125,false,false,false,false,0.0,-0.0078125,0.0,-0.0078125,false,false,false,false,0.125,12.700000000000001,0.0,-11295,0,0,0.125,12.700000000000001,0.0,0,0,0,0.125,12.65,0.0,-14354,0,0,0.125,12.700000000000001,0.0,0,0,0,0.0,12.700000000000001,0.0,0,0,0,0.0,12.700000000000001,0.0,0,0,0,0.0,12.75,0.0,0,0,0,kReverse,kOff,-88.4,1.56,30.67,0.028747559,-0.9846802,-0.008361816,31.96,0.0,2.0,-7.0210724,-3.2844543,
391.91058000000004,true,true,true,0.0,-0.0078125,0.0,-0.0078125,false,false,false,false,0.0,-0.0078125,0.0,-0.0078125,false,false,false,false,0.125,12.700000000000001,0.0,-11295,0,0,0.125,12.700000000000001,0.0,0,0,0,0.125,12.65,0.0,-14354,0,0,0.125,12.700000000000001,0.0,0,0,0,0.0,12.700000000000001,0.0,0,0,0,0.0,12.700000000000001,0.0,0,0,0,0.0,12.75,0.0,0,0,0,kReverse,kOff,-88.4,1.56,30.67,0.029052734,-0.9844971,-0.0032958984,31.96,0.0,-2.0,-7.0210724,-3.2844543,
391.930905,true,true,true,0.0,-0.0078125,0.0,-0.0078125,false,false,false,false,0.0,-0.0078125,0.0,-0.0078125,false,false,false,false,0.125,12.700000000000001,0.0,-11295,0,0,0.125,12.700000000000001,0.0,0,0,0,0.125,12.65,0.0,-14354,0,0,0.125,12.700000000000001,0.0,0,0,0,0.0,12.700000000000001,0.0,0,0,0,0.0,12.700000000000001,0.0,0,0,0,0.0,12.75,0.0,0,0,0,kReverse,kOff,-88.4,1.56,30.67,0.026306152,-0.98376465,-0.0087890625,31.96,0.0,3.0,-7.0210724,-3.2844543,
391.951029,true,true,true,0.0,-0.0078125,0.0,-0.0078125,false,false,false,false,0.0,-0.0078125,0.0,-0.0078125,false,false,false,false,0.125,12.700000000000001,0.0,-11295,0,0,0.125,12.700000000000001,0.0,0,0,0,0.125,12.65,0.0,-14354,0,0,0.125,12.700000000000001,0.0,0,0,0,0.0,12.700000000000001,0.0,0,0,0,0.0,12.700000000000001,0.0,0,0,0,0.0,12.75,0.0,0,0,0,kReverse,kOff,-88.4,1.56,30.67,0.027038574,-0.9807739,-0.0036621094,31.96,0.0,-1.0,-7.0210724,-3.2844543,
391.97078100000004,true,true,true,0.0,-0.0078125,0.0,-0.0078125,false,false,false,false,0.0,-0.0078125,0.0,-0.0078125,false,false,false,false,0.125,12.700000000000001,0.0,-11295,0,0,0.125,12.700000000000001,0.0,0,0,0,0.125,12.65,0.0,-14354,0,0,0.125,12.700000000000001,0.0,0,0,0,0.0,12.700000000000001,0.0,0,0,0,0.0,12.700000000000001,0.0,0,0,0,0.0,12.75,0.0,0,0,0,kReverse,kOff,-88.4,1.56,30.63,0.027526855,-0.9849243,-0.0037231445,31.96,0.0,-1.0,-7.0210724,-3.2844543,
391.98954499999996,true,true,true,0.0,-0.0078125,0.0,-0.0078125,false,false,false,false,0.0,-0.0078125,0.0,-0.0078125,false,false,false,false,0.125,12.700000000000001,0.0,-11295,0,0,0.125,12.700000000000001,0.0,0,0,0,0.125,12.65,0.0,-14354,0,0,0.125,12.700000000000001,0.0,0,0,0,0.0,12.700000000000001,0.0,0,0,0,0.0,12.700000000000001,0.0,0,0,0,0.0,12.75,0.0,0,0,0,kReverse,kOff,-88.4,1.56,30.67,0.026428223,-0.9866333,-0.009765625,31.96,0.0,4.0,-7.0210724,-3.2844543,
392.00966800000003,true,true,true,0.0,-0.0078125,0.0,-0.0078125,false,false,false,false,0.0,-0.0078125,0.0,-0.0078125,false,false,false,false,0.125,12.700000000000001,0.0,-11295,0,0,0.125,12.700000000000001,0.0,0,0,0,0.125,12.65,0.0,-14354,0,0,0.125,12.700000000000001,0.0,0,0,0,0.0,12.700000000000001,0.0,0,0,0,0.0,12.700000000000001,0.0,0,0,0,0.0,12.75,0.0,0,0,0,kReverse,kOff,-88.4,1.56,30.67,0.026062012,-0.9851074,-0.01159668,31.96,0.0,6.0,-7.0210724,-3.2844543,
392.030732,true,true,true,0.0,-0.0078125,0.0,-0.0078125,false,false,false,false,0.0,-0.0078125,0.0,-0.0078125,false,false,false,false,0.125,12.700000000000001,0.0,-11295,0,0,0.125,12.700000000000001,0.0,0,0,0,0.125,12.65,0.0,-14354,0,0,0.125,12.700000000000001,0.0,0,0,0,0.0,12.700000000000001,0.0,0,0,0,0.0,12.700000000000001,0.0,0,0,0,0.0,12.75,0.0,0,0,0,kReverse,kOff,-88.4,1.56,30.67,0.027648926,-0.9847412,-0.006958008,31.96,0.0,1.0,-7.0210724,-3.2844543,
392.052132,true,true,true,0.0,-0.0078125,0.0,-0.0078125,false,false,false,false,0.0,-0.0078125,0.0,-0.0078125,false,false,false,false,0.125,12.700000000000001,0.0,-11295,0,0,0.125,12.700000000000001,0.0,0,0,0,0.125,12.65,0.0,-14354,0,0,0.125,12.700000000000001,0.0,0,0,0,0.0,12.700000000000001,0.0,0,0,0,0.0,12.700000000000001,0.0,0,0,0,0.0,12.75,0.0,0,0,0,kReverse,kOff,-88.4,1.55,31.21,0.023620605,-0.98327637,-0.0045166016,31.96,0.0,-1.0,-7.0210724,-3.2844543,
392.072973,true,true,true,0.0,-0.0078125,0.0,-0.0078125,false,false,false,false,0.0,-0.0078125,0.0,-0.0078125,false,false,false,false,0.125,12.700000000000001,0.0,-11295,0,0,0.125,12.700000000000001,0.0,0,0,0,0.125,12.65,0.0,-14354,0,0,0.125,12.700000000000001,0.0,0,0,0,0.0,12.700000000000001,0.0,0,0,0,0.0,12.700000000000001,0.0,0,0,0,0.0,12.75,0.0,0,0,0,kReverse,kOff,-88.4,1.56,31.26,0.026855469,-0.9835205,-0.0025634766,31.96,0.0,-2.0,-7.0210724,-3.2844543,
392.095755,true,true,true,0.0,-0.0078125,0.0,-0.0078125,false,false,false,false,0.0,-0.0078125,0.0,-0.0078125,false,false,false,false,0.125,12.700000000000001,0.0,-11295,0,0,0.125,12.700000000000001,0.0,0,0,0,0.125,12.65,0.0,-14354,0,0,0.125,12.700000000000001,0.0,0,0,0,0.0,12.700000000000001,0.0,0,0,0,0.0,12.700000000000001,0.0,0,0,0,0.0,12.75,0.0,0,0,0,kReverse,kOff,-88.4,1.56,30.67,0.027404785,-0.9836426,-0.0053100586,31.96,0.0,0.0,-7.0210724,-3.2844543,
392.11999699999996,true,true,true,0.0,-0.0078125,0.0,-0.0078125,false,false,false,false,0.0,-0.0078125,0.0,-0.0078125,false,false,false,false,0.125,12.700000000000001,0.0,-11295,0,0,0.125,12.700000000000001,0.0,0,0,0,0.125,12.65,0.0,-14354,0,0,0.125,12.700000000000001,0.0,0,0,0,0.0,12.700000000000001,0.0,0,0,0,0.0,12.700000000000001,0.0,0,0,0,0.125,12.75,0.0,0,0,0,kReverse,kOff,-88.4,1.56,30.67,0.027832031,-0.9852905,-0.005004883,31.96,0.0,0.0,-7.0210724,-3.2844543,
392.14144799999997,true,true,true,0.0,-0.0078125,0.0,-0.0078125,false,false,false,false,0.0,-0.0078125,0.0,-0.0078125,false,false,false,false,0.125,12.700000000000001,0.0,-11295,0,0,0.125,12.700000000000001,0.0,0,0,0,0.125,12.65,0.0,-14354,0,0,0.125,12.700000000000001,0.0,0,0,0,0.0,12.700000000000001,0.0,0,0,0,0.0,12.700000000000001,0.0,0,0,0,0.125,12.75,0.0,0,0,0,kReverse,kOff,-88.4,1.56,30.67,0.031982422,-0.9846802,-0.0033569336,31.96,0.0,-2.0,-7.0210724,-3.2844543,
392.16065399999997,true,true,true,0.0,-0.0078125,0.0,-0.0078125,false,false,false,false,0.0,-0.0078125,0.0,-0.0078125,false,false,false,false,0.125,12.700000000000001,0.0,-11295,0,0,0.125,12.700000000000001,0.0,0,0,0,0.125,12.65,0.0,-14354,0,0,0.125,12.700000000000001,0.0,0,0,0,0.0,12.700000000000001,0.0,0,0,0,0.0,12.700000000000001,0.0,0,0,0,0.0,12.75,0.0,0,0,0,kReverse,kOff,-88.39,1.56,30.89,0.028137207,-0.98461914,-0.008911133,31.96,0.0,3.0,-7.0210724,-3.2844543,
392.18927,true,true,true,0.0,-0.0078125,0.0,-0.0078125,false,false,false,false,0.0,-0.0078125,0.0,-0.0078125,false,false,false,false,0.125,12.700000000000001,0.0,-11295,0,0,0.125,12.700000000000001,0.0,0,0,0,0.125,12.65,0.0,-14354,0,0,0.125,12.700000000000001,0.0,0,0,0,0.0,12.700000000000001,0.0,0,0,0,0.0,12.700000000000001,0.0,0,0,0,0.0,12.75,0.0,0,0,0,kReverse,kOff,-88.4,1.56,31.47,0.028137207,-0.9840088,-0.0057373047,31.96,0.0,0.0,-7.0210724,-3.2844543,
392.21117,true,true,true,0.0,-0.0078125,0.0,-0.0078125,false,false,false,false,0.0,-0.0078125,0.0,-0.0078125,false,false,false,false,0.125,12.700000000000001,0.0,-11295,0,0,0.125,12.700000000000001,0.0,0,0,0,0.125,12.65,0.0,-14354,0,0,0.125,12.700000000000001,0.0,0,0,0,0.0,12.700000000000001,0.0,0,0,0,0.0,12.700000000000001,0.0,0,0,0,0.0,12.75,0.0,0,0,0,kReverse,kOff,-88.39,1.56,30.89,0.02734375,-0.9830322,-0.008666992,31.97,0.0,3.0,-7.0210724,-3.2844543,
392.23204499999997,true,true,true,0.0,-0.0078125,0.0,-0.0078125,false,false,false,false,0.0,-0.0078125,0.0,-0.0078125,false,false,false,false,0.125,12.700000000000001,0.0,-11295,0,0,0.125,12.700000000000001,0.0,0,0,0,0.125,12.65,0.0,-14354,0,0,0.125,12.700000000000001,0.0,0,0,0,0.0,12.700000000000001,0.0,0,0,0,0.0,12.700000000000001,0.0,0,0,0,0.0,12.75,0.0,0,0,0,kReverse,kOff,-88.4,1.56,31.47,0.025146484,-0.9852905,-0.006286621,31.97,0.0,0.0,-7.0210724,-3.2844543,
392.252082,true,true,true,0.0,-0.0078125,0.0,-0.0078125,false,false,false,false,0.0,-0.0078125,0.0,-0.0078125,false,false,false,false,0.125,12.700000000000001,0.0,-11295,0,0,0.125,12.700000000000001,0.0,0,0,0,0.125,12.65,0.0,-14354,0,0,0.125,12.700000000000001,0.0,0,0,0,0.0,12.700000000000001,0.0,0,0,0,0.0,12.700000000000001,0.0,0,0,0,0.0,12.75,0.0,0,0,0,kReverse,kOff,-88.4,1.56,31.47,0.027282715,-0.98272705,-0.0017089844,31.97,0.0,-3.0,-7.0210724,-3.2844543,
392.274566,true,true,true,0.0,-0.0078125,0.0,-0.0078125,false,false,false,false,0.0,-0.0078125,0.0,-0.0078125,false,false,false,false,0.125,12.700000000000001,0.0,-11295,0,0,0.125,12.700000000000001,0.0,0,0,0,0.125,12.65,0.0,-14354,0,0,0.125,12.700000000000001,0.0,0,0,0,0.0,12.700000000000001,0.0,0,0,0,0.0,12.65,0.0,0,0,0,0.0,12.75,0.0,0,0,0,kReverse,kOff,-88.4,1.56,31.47,0.02758789,-0.98394775,-0.009338379,31.97,0.0,3.0,-7.0210724,-3.2844543,
392.293561,true,true,true,0.0,-0.0078125,0.0,-0.0078125,false,false,false,false,0.0,-0.0078125,0.0,-0.0078125,false,false,false,false,0.125,12.700000000000001,0.0,-11295,0,0,0.125,12.700000000000001,0.0,0,0,0,0.125,12.65,0.0,-14354,0,0,0.125,12.700000000000001,0.0,0,0,0,0.0,12.700000000000001,0.0,0,0,0,0.0,12.65,0.0,0,0,0,0.0,12.75,0.0,0,0,0,kReverse,kOff,-88.4,1.56,31.47,0.029052734,-0.9836426,-0.006713867,31.97,0.0,1.0,-7.0210724,-3.2844543,
392.3123,true,true,true,0.0,-0.0078125,0.0,-0.0078125,false,false,false,false,0.0,-0.0078125,0.0,-0.0078125,false,false,false,false,0.125,12.700000000000001,0.0,-11295,0,0,0.125,12.700000000000001,0.0,0,0,0,0.125,12.65,0.0,-14354,0,0,0.125,12.700000000000001,0.0,0,0,0,0.0,12.700000000000001,0.0,0,0,0,0.0,12.65,0.0,0,0,0,0.0,12.75,0.0,0,0,0,kReverse,kOff,-88.39,1.56,30.89,0.027038574,-0.98358154,-0.003479004,31.97,0.0,-2.0,-7.0210724,-3.2844543,
392.333082,true,true,true,0.0,-0.0078125,0.0,-0.0078125,false,false,false,false,0.0,-0.0078125,0.0,-0.0078125,false,false,false,false,0.125,12.700000000000001,0.0,-11295,0,0,0.125,12.700000000000001,0.0,0,0,0,0.125,12.65,0.0,-14354,0,0,0.125,12.700000000000001,0.0,0,0,0,0.0,12.700000000000001,0.0,0,0,0,0.0,12.65,0.0,0,0,0,0.125,12.75,0.0,0,0,0,kReverse,kOff,-88.39,1.56,30.89,0.026672363,-0.98461914,-0.011657715,31.97,0.0,6.0,-7.0210724,-3.2844543,
392.353287,true,true,true,0.0,-0.0078125,0.0,-0.0078125,false,false,false,false,0.0,-0.0078125,0.0,-0.0078125,false,false,false,false,0.125,12.700000000000001,0.0,-11295,0,0,0.125,12.700000000000001,0.0,0,0,0,0.125,12.65,0.0,-14354,0,0,0.125,12.700000000000001,0.0,0,0,0,0.0,12.700000000000001,0.0,0,0,0,0.0,12.65,0.0,0,0,0,0.0,12.75,0.0,0,0,0,kReverse,kOff,-88.4,1.56,31.47,0.027832031,-0.9854126,-0.0038452148,31.97,0.0,-1.0,-7.0210724,-3.2844543,
