timer,lineLeft,lineCenter,lineRight,driverLeftX,driverLeftY,driverRightX,driverRightY,driverA,driverB,driverX,driverY,operatorLeftX,operatorLeftY,operatorRightX,operatorRightY,operatorA,operatorB,operatorX,operatorY,LeftFrontCurrent,LeftFrontVoltage,LeftFrontValue,LeftFrontPosition,LeftFrontVelocity,LeftFrontFaults,LeftRearCurrent,LeftRearVoltage,LeftRearValue,LeftRearPosition,LeftRearVelocity,LeftRearFaults,RightFrontCurrent,RightFrontVoltage,RightFrontValue,RightFrontPosition,RightFrontVelocity,RightFrontFaults,RightRearCurrent,RightRearVoltage,RightRearValue,RightRearPosition,RightRearVelocity,RightRearFaults,LiftCurrent,LiftVoltage,LiftValue,LiftPosition,LiftVelocity,LiftFaults,WristCurrent,WristVoltage,WristValue,WristPosition,WristVelocity,WristFaults,RollerCurrent,RollerVoltage,RollerValue,RollerPosition,RollerVelocity,RollerFaults,PushersState,PivotsState,navx_Pitch,navx_Roll,navx_Yaw,navx_XAcc,navx_YAcc,navx_ZAcc,navx_Temp,navx_Bar,navx_Alt,navx_XDis,navx_YDis,
704.141824,true,true,true,0.0,-0.0078125,0.0,-0.0078125,false,false,false,false,0.0,-0.0546875,0.0,-0.0078125,false,false,false,false,0.125,12.65,0.0,-11298,0,0,0.125,12.65,0.0,0,0,0,0.125,12.65,0.0,-14355,0,0,0.125,12.700000000000001,0.0,0,0,0,0.0,12.65,0.0,-8,0,0,0.0,12.65,0.0,0,0,0,0.125,12.75,0.0,0,0,0,kReverse,kOff,-88.41,1.55,9.72,0.02947998,-0.9842529,-0.006591797,32.88,0.0,1.0,-7.012436,-3.2816467,
704.1697360000001,true,true,true,0.0,-0.0078125,0.0,-0.0078125,false,false,false,false,0.0,-0.0546875,0.0,-0.0078125,false,false,false,false,0.125,12.65,0.0,-11298,0,0,0.125,12.65,0.0,0,0,0,0.125,12.65,0.0,-14355,0,0,0.125,12.700000000000001,0.0,0,0,0,0.0,12.65,0.0,-8,0,0,0.0,12.65,0.0,0,0,0,0.0,12.75,0.0,0,0,0,kReverse,kOff,-88.41,1.55,9.48,0.07739258,-0.97735596,0.043395996,32.88,0.0,-46.0,-7.0125275,-3.281662,
704.197696,true,true,true,0.0,-0.0078125,0.0,-0.0078125,false,false,false,false,0.0,-0.0546875,0.0,-0.0078125,false,false,false,false,0.125,12.65,0.0,-11298,0,0,0.125,12.65,0.0,0,0,0,0.125,12.65,0.0,-14355,0,0,0.125,12.700000000000001,0.0,0,0,0,0.0,12.65,0.0,-8,0,0,0.0,12.65,0.0,0,0,0,0.0,12.75,0.0,0,0,0,kReverse,kOff,-88.39,1.57,9.97,-0.0048217773,-0.30334473,-6.713867E-4,32.88,0.0,-1.0,-7.012802,-3.2814636,
704.216381,true,true,true,0.0,-0.0078125,0.0,-0.0078125,false,false,false,false,0.0,-0.0546875,0.0,-0.0078125,false,false,false,false,0.125,12.65,0.0,-11298,0,0,0.125,12.65,0.0,0,0,0,0.125,12.65,0.0,-14355,0,0,0.125,12.700000000000001,0.0,0,0,0,0.0,12.65,0.0,-8,0,0,0.0,12.65,0.0,0,0,0,0.0,12.75,0.0,0,0,0,kReverse,kOff,-88.42,1.54,9.23,0.055114746,-0.99993896,0.043884277,32.88,0.0,-47.0,-7.0130005,-3.2813416,
704.240629,true,true,true,0.0,-0.0078125,0.0,-0.0078125,false,false,false,false,0.0,-0.0546875,0.0,-0.0078125,false,false,false,false,0.125,12.65,0.0,-11298,0,0,0.125,12.3,0.0,0,0,0,0.125,12.65,0.0,-14355,0,0,0.125,12.700000000000001,0.0,0,0,0,0.0,12.3,0.0,-8,0,0,0.0,12.65,0.0,0,0,0,0.0,12.75,0.0,0,0,0,kReverse,kOff,-88.47,1.49,10.03,0.04345703,-0.8175659,0.73986816,32.88,0.0,-743.0,-7.0137177,-3.2814178,
704.2624030000001,true,true,true,0.0,-0.0078125,0.0,-0.0078125,false,false,false,false,0.0,-0.0546875,0.0,-0.0078125,false,false,false,false,0.125,12.3,0.0,-11298,0,0,0.125,12.3,0.0,0,0,0,0.125,12.3,0.0,-14355,0,0,0.125,12.35,0.0,0,0,0,0.0,12.3,0.0,-8,0,0,0.0,12.3,0.0,0,0,0,0.0,12.35,0.0,0,0,0,kReverse,kOff,-88.46,1.52,6.25,-0.029296875,-1.15625,0.005126953,32.88,0.0,-10.0,-7.014801,-3.2815247,
704.283939,true,true,true,0.0,-0.0078125,0.0,-0.0078125,false,false,false,false,0.0,-0.0546875,0.0,-0.0078125,false,false,false,false,0.125,12.3,0.0,-11298,0,0,0.125,12.3,0.0,0,0,0,0.125,12.3,0.0,-14355,0,0,0.125,12.35,0.0,0,0,0,0.0,12.3,0.0,-8,0,0,0.0,12.3,0.0,0,0,0,0.0,12.35,0.0,0,0,0,kReverse,kOff,-88.4,1.58,7.96,-0.0018310547,-1.251648,-0.21087646,32.88,0.0,204.0,-7.0157623,-3.2816925,
704.305761,true,true,true,0.0,-0.0078125,0.0,-0.0078125,false,false,false,false,0.0,-0.0546875,0.0,-0.0078125,false,false,false,false,0.125,12.3,0.0,-11298,0,0,0.125,12.3,0.0,0,0,0,0.125,12.3,0.0,-14355,0,0,0.125,12.35,0.0,0,0,0,0.0,12.3,0.0,-8,0,0,0.0,12.3,0.0,0,0,0,0.0,12.35,0.0,0,0,0,kReverse,kOff,-88.36,1.61,9.15,-0.049560547,-0.9385376,0.02520752,32.88,0.0,-32.0,-7.0166016,-3.281952,
704.3287750000001,true,true,true,0.0,-0.0078125,0.0,-0.0078125,false,false,false,false,0.0,-0.0546875,0.0,-0.0078125,false,false,false,false,0.125,12.3,0.0,-11298,0,0,0.125,12.3,0.0,0,0,0,0.125,12.3,0.0,-14355,0,0,0.125,12.35,0.0,0,0,0,0.0,12.3,0.0,-8,0,0,0.0,12.3,0.0,0,0,0,0.0,12.35,0.0,0,0,0,kReverse,kOff,-88.39,1.58,9.88,0.0793457,-1.2751465,0.3729248,32.88,0.0,-377.0,-7.0177307,-3.2822113,
704.3482419999999,true,true,true,0.0,-0.0078125,0.0,-0.0078125,false,false,false,false,0.0,-0.0546875,0.0,-0.0078125,false,false,false,false,0.125,12.3,0.0,-11298,0,0,0.125,12.3,0.0,0,0,0,0.125,12.3,0.0,-14355,0,0,0.125,12.35,0.0,0,0,0,0.0,12.3,0.0,-8,0,0,0.0,12.3,0.0,0,0,0,0.125,12.35,0.0,0,0,0,kReverse,kOff,-88.44,1.54,6.46,0.124572754,-1.116272,0.06213379,32.88,0.0,-62.0,-7.0210724,-3.282547,
704.370328,true,true,true,0.0,-0.0078125,0.0,-0.0078125,false,false,false,false,0.0,-0.0546875,0.0,-0.0078125,false,false,false,false,0.125,12.3,0.0,-11298,0,0,0.125,12.3,0.0,0,0,0,0.125,12.3,0.0,-14355,0,0,0.125,12.35,0.0,0,0,0,0.0,12.3,0.0,-8,0,0,0.0,12.3,0.0,0,0,0,0.125,12.35,0.0,0,0,0,kReverse,kOff,-88.45,1.53,5.27,0.21154785,-0.734375,-0.2321167,32.88,0.0,237.0,-7.022751,-3.282486,
704.3897169999999,true,true,true,0.0,-0.0078125,0.0,-0.0078125,false,false,false,false,0.0,-0.0546875,0.0,-0.0078125,false,false,false,false,0.125,12.3,0.0,-11298,0,0,0.125,12.3,0.0,0,0,0,0.125,12.3,0.0,-14355,0,0,0.125,12.35,0.0,0,0,0,0.0,12.3,0.0,-8,0,0,0.0,12.3,0.0,0,0,0,0.125,12.35,0.0,0,0,0,kReverse,kOff,-88.41,1.58,6.23,0.12261963,-0.8925171,-0.2571411,32.88,0.0,257.0,-7.0252533,-3.2818756,
704.4106999999999,true,true,true,0.0,-0.0078125,0.0,-0.0078125,false,false,false,false,0.0,-0.0546875,0.0,-0.0078125,false,false,false,false,0.125,12.3,0.0,-11298,0,0,0.125,12.3,0.0,0,0,0,0.125,12.3,0.0,-14355,0,0,0.125,12.35,0.0,0,0,0,0.0,12.3,0.0,-8,0,0,0.0,12.3,0.0,0,0,0,0.125,12.35,0.0,0,0,0,kReverse,kOff,-88.39,1.6,6.01,-0.0068359375,-0.85272217,-0.06213379,32.88,0.0,58.0,-7.0261536,-3.281479,
704.4319499999999,true,true,true,0.0,-0.0078125,0.0,-0.0078125,false,false,false,false,0.0,-0.0546875,0.0,-0.0078125,false,false,false,false,0.125,12.3,0.0,-11298,0,0,0.125,12.3,0.0,0,0,0,0.125,12.3,0.0,-14355,0,0,0.125,12.35,0.0,0,0,0,0.0,12.3,0.0,-8,0,0,0.0,12.3,0.0,0,0,0,0.125,12.35,0.0,0,0,0,kReverse,kOff,-88.44,1.55,4.3,-0.10498047,-0.8399048,0.3725586,32.88,0.0,-378.0,-7.028061,-3.2811584,
704.451903,true,true,true,0.0,-0.0078125,0.0,-0.0078125,false,false,false,false,0.0,-0.0546875,0.0,-0.0078125,false,false,false,false,0.125,12.3,0.0,-11298,0,0,0.125,12.3,0.0,0,0,0,0.125,12.3,0.0,-14355,0,0,0.125,12.35,0.0,0,0,0,0.0,12.3,0.0,-8,0,0,0.0,12.3,0.0,0,0,0,0.125,12.35,0.0,0,0,0,kReverse,kOff,-88.42,1.56,2.98,-0.12371826,-1.1399536,-0.026184082,32.88,0.0,19.0,-7.0293884,-3.2812958,
704.473221,true,true,true,0.0,-0.0078125,0.0,-0.0078125,false,false,false,false,0.0,-0.0546875,0.0,-0.0078125,false,false,false,false,0.125,12.3,0.0,-11298,0,0,0.125,12.3,0.0,0,0,0,0.125,12.3,0.0,-14355,0,0,0.125,12.35,0.0,0,0,0,0.0,12.3,0.0,-8,0,0,0.0,12.3,0.0,0,0,0,0.125,12.35,0.0,0,0,0,kReverse,kOff,-88.42,1.57,5.28,-0.085876465,-1.1652832,0.056518555,32.88,0.0,-63.0,-7.031845,-3.2822113,
704.4943930000001,true,true,true,0.0,-0.0078125,0.0,-0.0078125,false,false,false,false,0.0,-0.0546875,0.0,-0.0078125,false,false,false,false,0.125,12.3,0.0,-11298,0,0,0.125,12.3,0.0,0,0,0,0.125,12.3,0.0,-14355,0,0,0.125,12.35,0.0,0,0,0,0.0,12.3,0.0,-8,0,0,0.0,12.3,0.0,0,0,0,0.125,12.35,0.0,0,0,0,kReverse,kOff,-88.44,1.55,5.68,0.038208008,-0.98223877,0.017211914,32.88,0.0,-19.0,-7.033127,-3.282837,
704.5179009999999,true,true,true,0.0,-0.0078125,0.0,-0.0078125,false,false,false,false,0.0,-0.0546875,0.0,-0.0078125,false,false,false,false,0.125,12.3,0.0,-11298,0,0,0.125,12.3,0.0,0,0,0,0.125,12.3,0.0,-14355,0,0,0.125,12.35,0.0,0,0,0,0.0,12.3,0.0,-8,0,0,0.0,12.3,0.0,0,0,0,0.125,12.35,0.0,0,0,0,kReverse,kOff,-88.44,1.54,6.35,0.068847656,-1.2891846,0.04650879,32.88,0.0,-49.0,-7.034439,-3.283432,
704.538281,true,true,true,0.0,-0.0078125,0.0,-0.0078125,false,false,false,false,0.0,-0.0546875,0.0,-0.0078125,false,false,false,false,0.125,12.3,0.0,-11298,0,0,0.125,12.3,0.0,0,0,0,0.125,12.3,0.0,-14355,0,0,0.125,12.35,0.0,0,0,0,0.0,12.3,0.0,-8,0,0,0.0,12.3,0.0,0,0,0,0.125,12.35,0.0,0,0,0,kReverse,kOff,-88.45,1.53,5.3,0.15228271,-0.73223877,-0.19158936,32.88,0.0,194.0,-7.0371246,-3.2841797,
704.558058,true,true,true,0.0,-0.0078125,0.0,-0.0078125,false,false,false,false,0.0,-0.0546875,0.0,-0.0078125,false,false,false,false,0.125,12.3,0.0,-11298,0,0,0.125,12.3,0.0,0,0,0,0.125,12.3,0.0,-14355,0,0,0.125,12.35,0.0,0,0,0,0.0,12.3,0.0,-8,0,0,0.0,12.3,0.0,0,0,0,0.125,12.35,0.0,0,0,0,kReverse,kOff,-88.47,1.52,4.88,0.14318848,-0.75323486,-0.32855225,32.88,0.0,331.0,-7.0380554,-3.284317,
704.581623,true,true,true,0.0,-0.0078125,0.0,-0.0078125,false,false,false,false,0.0,-0.0546875,0.0,-0.0078125,false,false,false,false,0.125,12.25,0.0,-11298,0,0,0.125,12.25,0.0,0,0,0,0.125,12.25,0.0,-14355,0,0,0.125,12.3,0.0,0,0,0,0.0,12.25,0.0,-8,0,0,0.0,12.25,0.0,0,0,0,0.125,12.35,0.0,0,0,0,kReverse,kOff,-88.43,1.55,6.38,-0.03729248,-0.88061523,-0.07348633,32.88,0.0,68.0,-7.038742,-3.2844238,
704.603578,true,true,true,0.0,-0.0078125,0.0,-0.0078125,false,false,false,false,0.0,-0.0546875,0.0,-0.0078125,false,false,false,false,0.125,12.25,0.0,-11298,0,0,0.125,12.25,0.0,0,0,0,0.125,12.25,0.0,-14355,0,0,0.125,12.3,0.0,0,0,0,0.0,12.25,0.0,-8,0,0,0.0,12.25,0.0,0,0,0,0.0,12.35,0.0,0,0,0,kReverse,kOff,-88.44,1.53,6.78,-0.047729492,-0.8562622,0.25250244,32.88,0.0,-257.0,-7.0390778,-3.2845917,
704.624257,true,true,true,0.0,-0.0078125,0.0,-0.0078125,false,false,false,false,0.0,-0.0546875,0.0,-0.0078125,false,false,false,false,0.125,12.25,0.0,-11298,0,0,0.125,12.25,0.0,0,0,0,0.125,12.25,0.0,-14355,0,0,0.125,12.3,0.0,0,0,0,0.0,12.25,0.0,-8,0,0,0.0,12.25,0.0,0,0,0,0.0,12.35,0.0,0,0,0,kReverse,kOff,-88.44,1.54,6.67,-0.08300781,-0.91967773,0.22839355,32.88,0.0,-235.0,-7.039749,-3.284851,
704.643509,true,true,true,0.0,-0.0078125,0.0,-0.0078125,false,false,false,false,0.0,-0.0546875,0.0,-0.0078125,false,false,false,false,0.125,12.25,0.0,-11298,0,0,0.125,12.25,0.0,0,0,0,0.125,12.25,0.0,-14355,0,0,0.125,12.3,0.0,0,0,0,0.0,12.25,0.0,-8,0,0,0.0,12.25,0.0,0,0,0,0.0,12.35,0.0,0,0,0,kReverse,kOff,-88.4,1.58,6.01,-0.11218262,-1.317688,-0.089538574,32.88,0.0,80.0,-7.0414276,-3.285797,
704.666373,true,true,true,0.0,-0.0078125,0.0,-0.0078125,false,false,false,false,0.0,-0.0546875,0.0,-0.0078125,false,false,false,false,0.125,12.25,0.0,-11298,0,0,0.125,12.25,0.0,0,0,0,0.125,12.25,0.0,-14355,0,0,0.125,12.3,0.0,0,0,0,0.0,12.25,0.0,-8,0,0,0.0,12.25,0.0,0,0,0,0.0,12.35,0.0,0,0,0,kReverse,kOff,-88.41,1.57,6.52,-0.09588623,-0.67871094,0.14257812,32.88,0.0,-148.0,-7.0422974,-3.2865143,
704.685698,true,true,true,0.0,-0.0078125,0.0,-0.0078125,false,false,false,false,0.0,-0.0546875,0.0,-0.0078125,false,false,false,false,0.125,12.25,0.0,-11298,0,0,0.125,12.25,0.0,0,0,0,0.125,12.25,0.0,-14355,0,0,0.125,12.3,0.0,0,0,0,0.0,12.25,0.0,-8,0,0,0.0,12.25,0.0,0,0,0,0.125,12.35,0.0,0,0,0,kReverse,kOff,-88.46,1.51,7.01,0.14624023,-1.1931152,0.25317383,32.88,0.0,-253.0,-7.0446167,-3.2879791,
704.7071990000001,true,true,true,0.0,-0.0078125,0.0,-0.0078125,false,false,false,false,0.0,-0.0546875,0.0,-0.0078125,false,false,false,false,0.125,12.25,0.0,-11298,0,0,0.125,12.25,0.0,0,0,0,0.125,12.25,0.0,-14355,0,0,0.125,12.3,0.0,0,0,0,0.0,12.25,0.0,-8,0,0,0.0,12.25,0.0,0,0,0,0.0,12.35,0.0,0,0,0,kReverse,kOff,-88.47,1.51,5.37,0.25006104,-0.87042236,-0.19537354,32.88,0.0,201.0,-7.045929,-3.2884064,
704.728164,true,true,true,0.0,-0.0078125,0.0,-0.0078125,false,false,false,false,0.0,-0.0546875,0.0,-0.0078125,false,false,false,false,0.125,12.25,0.0,-11298,0,0,0.125,12.25,0.0,0,0,0,0.125,12.25,0.0,-14355,0,0,0.125,12.3,0.0,0,0,0,0.0,12.25,0.0,-8,0,0,0.0,12.25,0.0,0,0,0,0.0,12.35,0.0,0,0,0,kReverse,kOff,-88.52,1.45,7.08,0.06652832,-0.70318604,-0.32104492,32.88,0.0,320.0,-7.0470734,-3.2888184,
704.749207,true,true,true,0.0,-0.0078125,0.0,-0.0078125,false,false,false,false,0.0,-0.0546875,0.0,-0.0078125,false,false,false,false,0.125,12.25,0.0,-11298,0,0,0.125,12.25,0.0,0,0,0,0.125,12.25,0.0,-14355,0,0,0.125,12.3,0.0,0,0,0,0.0,12.25,0.0,-8,0,0,0.0,12.25,0.0,0,0,0,0.0,12.35,0.0,0,0,0,kReverse,kOff,-88.52,1.45,8.19,0.032592773,-0.95269775,-0.0107421875,32.88,0.0,6.0,-7.0471497,-3.2889557,
704.768789,true,true,true,0.0,-0.0078125,0.0,-0.0078125,false,false,false,false,0.0,-0.0546875,0.0,-0.0078125,false,false,false,false,0.125,12.25,0.0,-11298,0,0,0.125,12.25,0.0,0,0,0,0.125,12.25,0.0,-14355,0,0,0.125,12.3,0.0,0,0,0,0.0,12.25,0.0,-8,0,0,0.0,12.25,0.0,0,0,0,0.0,12.35,0.0,0,0,0,kReverse,kOff,-88.5,1.47,8.0,-0.04296875,-0.8166504,0.17279053,32.88,0.0,-178.0,-7.047333,-3.2891235,
704.79255,true,true,true,0.0,-0.0078125,0.0,-0.0078125,false,false,false,false,0.0,-0.0546875,0.0,-0.0078125,false,false,false,false,0.125,12.25,0.0,-11298,0,0,0.125,12.25,0.0,0,0,0,0.125,12.25,0.0,-14355,0,0,0.125,12.3,0.0,0,0,0,0.0,12.25,0.0,-8,0,0,0.0,12.25,0.0,0,0,0,0.0,12.35,0.0,0,0,0,kReverse,kOff,-88.46,1.51,7.96,0.01751709,-1.5424805,0.08331299,32.88,0.0,-90.0,-7.048523,-3.2897491,
704.814211,true,true,true,0.0,-0.0078125,0.0,-0.0078125,false,false,false,false,0.0,-0.0546875,0.0,-0.0078125,false,false,false,false,0.125,12.25,0.0,-11298,0,0,0.125,12.25,0.0,0,0,0,0.125,12.25,0.0,-14355,0,0,0.125,12.3,0.0,0,0,0,0.0,12.25,0.0,-8,0,0,0.0,12.25,0.0,0,0,0,0.0,12.35,0.0,0,0,0,kReverse,kOff,-88.42,1.56,7.89,-0.080200195,-1.3936157,0.09313965,32.88,0.0,-103.0,-7.049362,-3.2901917,
704.835972,true,true,true,0.0,-0.0078125,0.0,-0.0078125,false,false,false,false,0.0,-0.0546875,0.0,-0.0078125,false,false,false,false,0.125,12.25,0.0,-11298,0,0,0.125,12.25,0.0,0,0,0,0.125,12.25,0.0,-14355,0,0,0.125,12.3,0.0,0,0,0,0.0,12.25,0.0,-8,0,0,0.0,12.25,0.0,0,0,0,0.0,12.35,0.0,0,0,0,kReverse,kOff,-88.43,1.54,7.77,0.10308838,-1.4603882,0.3050537,32.88,0.0,-308.0,-7.051468,-3.2913666,
704.854724,true,true,true,0.0,-0.0078125,0.0,-0.0078125,false,false,false,false,0.0,-0.0546875,0.0,-0.0078125,false,false,false,false,0.125,12.25,0.0,-11298,0,0,0.125,12.25,0.0,0,0,0,0.125,12.25,0.0,-14355,0,0,0.125,12.3,0.0,0,0,0,0.0,12.25,0.0,-8,0,0,0.0,12.25,0.0,0,0,0,0.0,12.35,0.0,0,0,0,kReverse,kOff,-88.42,1.56,7.23,0.17053223,-1.3954468,0.28637695,32.88,0.0,-286.0,-7.053055,-3.2918243,
704.878686,true,true,true,0.0,-0.0078125,0.0,-0.0078125,false,false,false,false,0.0,-0.0546875,0.0,-0.0078125,false,false,false,false,0.125,12.25,0.0,-11298,0,0,0.125,12.25,0.0,0,0,0,0.125,12.25,0.0,-14355,0,0,0.125,12.3,0.0,0,0,0,0.0,12.25,0.0,-8,0,0,0.0,12.25,0.0,0,0,0,0.125,12.35,0.0,0,0,0,kReverse,kOff,-88.44,1.55,3.94,0.08392334,-0.59295654,-0.48345947,32.88,0.0,484.0,-7.056061,-3.2921295,
704.901351,true,true,true,0.0,-0.0078125,0.0,-0.0078125,false,false,false,false,0.0,-0.0546875,0.0,-0.0078125,false,false,false,false,0.125,12.25,0.0,-11298,0,0,0.125,12.25,0.0,0,0,0,0.125,12.25,0.0,-14355,0,0,0.125,12.25,0.0,0,0,0,0.0,12.25,0.0,-8,0,0,0.0,12.25,0.0,0,0,0,0.125,12.3,0.0,0,0,0,kReverse,kOff,-88.45,1.53,5.65,0.1303711,-0.77563477,-0.28149414,32.88,0.0,283.0,-7.056839,-3.292099,
704.922427,true,true,true,0.0,-0.0078125,0.0,-0.0078125,false,false,false,false,0.0,-0.0546875,0.0,-0.0078125,false,false,false,false,0.125,12.25,0.0,-11298,0,0,0.125,12.25,0.0,0,0,0,0.125,12.25,0.0,-14355,0,0,0.125,12.25,0.0,0,0,0,0.0,12.25,0.0,-8,0,0,0.0,12.25,0.0,0,0,0,0.125,12.3,0.0,0,0,0,kReverse,kOff,-88.44,1.54,6.38,0.070129395,-0.98095703,-0.051574707,32.88,0.0,50.0,-7.0573883,-3.2919617,
704.944754,true,true,true,0.0,-0.0078125,0.0,-0.0078125,false,false,false,false,0.0,-0.0546875,0.0,-0.0078125,false,false,false,false,0.125,12.25,0.0,-11298,0,0,0.125,12.25,0.0,0,0,0,0.125,12.25,0.0,-14355,0,0,0.125,12.25,0.0,0,0,0,0.0,12.25,0.0,-8,0,0,0.0,12.25,0.0,0,0,0,0.125,12.3,0.0,0,0,0,kReverse,kOff,-88.41,1.56,7.49,-0.06921387,-0.79577637,0.24572754,32.88,0.0,-251.0,-7.0590057,-3.2918243,
704.963157,true,true,true,0.0,-0.0078125,0.0,-0.0078125,false,false,false,false,0.0,-0.0546875,0.0,-0.0078125,false,false,false,false,0.125,12.25,0.0,-11298,0,0,0.125,12.25,0.0,0,0,0,0.125,12.25,0.0,-14355,0,0,0.125,12.25,0.0,0,0,0,0.0,12.25,0.0,-8,0,0,0.0,12.25,0.0,0,0,0,0.125,12.3,0.0,0,0,0,kReverse,kOff,-88.39,1.58,6.93,-0.06060791,-1.1106567,-0.04272461,32.88,0.0,35.0,-7.060135,-3.2919006,
704.982352,true,true,true,0.0,-0.0078125,0.0,-0.0078125,false,false,false,false,0.0,-0.0546875,0.0,-0.0078125,false,false,false,false,0.125,12.25,0.0,-11298,0,0,0.125,12.25,0.0,0,0,0,0.125,12.25,0.0,-14355,0,0,0.125,12.25,0.0,0,0,0,0.0,12.25,0.0,-8,0,0,0.0,12.25,0.0,0,0,0,0.125,12.3,0.0,0,0,0,kReverse,kOff,-88.36,1.62,7.12,-0.085876465,-1.2446289,-0.013244629,32.85,0.0,4.0,-7.0612183,-3.2921448,
705.0017190000001,true,true,true,0.0,-0.0078125,0.0,-0.0078125,false,false,false,false,0.0,-0.0546875,0.0,-0.0078125,false,false,false,false,0.125,12.25,0.0,-11298,0,0,0.125,12.25,0.0,0,0,0,0.125,12.25,0.0,-14355,0,0,0.125,12.25,0.0,0,0,0,0.0,12.25,0.0,-8,0,0,0.0,12.25,0.0,0,0,0,0.125,12.3,0.0,0,0,0,kReverse,kOff,-88.38,1.6,8.22,0.06530762,-1.1534424,0.14257812,32.85,0.0,-146.0,-7.06369,-3.2930298,
705.02424,true,true,true,0.0,-0.0078125,0.0,-0.0078125,false,false,false,false,0.0,-0.0546875,0.0,-0.0078125,false,false,false,false,0.125,12.25,0.0,-11298,0,0,0.125,12.25,0.0,0,0,0,0.125,12.25,0.0,-14355,0,0,0.125,12.25,0.0,0,0,0,0.0,12.25,0.0,-8,0,0,0.0,12.25,0.0,0,0,0,0.125,12.3,0.0,0,0,0,kReverse,kOff,-88.38,1.59,9.5,0.1418457,-1.3973999,0.24890137,32.85,0.0,-252.0,-7.0652924,-3.293396,
705.047081,true,true,true,0.0,-0.0078125,0.0,-0.0078125,false,false,false,false,0.0,-0.0546875,0.0,-0.0078125,false,false,false,false,0.125,12.25,0.0,-11298,0,0,0.125,12.25,0.0,0,0,0,0.125,12.25,0.0,-14355,0,0,0.125,12.25,0.0,0,0,0,0.0,12.25,0.0,-8,0,0,0.0,12.25,0.0,0,0,0,0.125,12.3,0.0,0,0,0,kReverse,kOff,-88.42,1.56,6.95,0.13769531,-0.55584717,-0.38897705,32.85,0.0,391.0,-7.068222,-3.2934723,
705.0650840000001,true,true,true,0.0,-0.0078125,0.0,-0.0078125,false,false,false,false,0.0,-0.0546875,0.0,-0.0078125,false,false,false,false,0.125,12.25,0.0,-11298,0,0,0.125,12.25,0.0,0,0,0,0.125,12.25,0.0,-14355,0,0,0.125,12.25,0.0,0,0,0,0.0,12.25,0.0,-8,0,0,0.0,12.25,0.0,0,0,0,0.125,12.3,0.0,0,0,0,kReverse,kOff,-88.42,1.55,8.08,0.13165283,-0.78948975,-0.29003906,32.85,0.0,290.0,-7.069031,-3.2932587,
705.087178,true,true,true,0.0,-0.0078125,0.0,-0.0078125,false,false,false,false,0.0,-0.0546875,0.0,-0.0078125,false,false,false,false,0.125,12.25,0.0,-11298,0,0,0.125,12.25,0.0,0,0,0,0.125,12.25,0.0,-14355,0,0,0.125,12.25,0.0,0,0,0,0.0,12.25,0.0,-8,0,0,0.0,12.25,0.0,0,0,0,0.125,12.3,0.0,0,0,0,kReverse,kOff,-88.39,1.57,8.52,-0.15966797,-0.6196289,0.2020874,32.85,0.0,-211.0,-7.070465,-3.2928162,
705.109204,true,true,true,0.0,-0.0078125,0.0,-0.0078125,false,false,false,false,0.0,-0.0546875,0.0,-0.0078125,false,false,false,false,0.125,12.25,0.0,-11298,0,0,0.125,12.25,0.0,0,0,0,0.125,12.25,0.0,-14355,0,0,0.125,12.25,0.0,0,0,0,0.0,12.25,0.0,-8,0,0,0.0,12.25,0.0,0,0,0,0.0,12.3,0.0,0,0,0,kReverse,kOff,-88.41,1.57,7.96,-0.075683594,-0.7615967,0.18670654,32.85,0.0,-193.0,-7.071533,-3.2928314,
705.128664,true,true,true,0.0,-0.0078125,0.0,-0.0078125,false,false,false,false,0.0,-0.0546875,0.0,-0.0078125,false,false,false,false,0.125,12.25,0.0,-11298,0,0,0.125,12.25,0.0,0,0,0,0.125,12.25,0.0,-14355,0,0,0.125,12.25,0.0,0,0,0,0.0,12.25,0.0,-8,0,0,0.0,12.25,0.0,0,0,0,0.0,12.3,0.0,0,0,0,kReverse,kOff,-88.38,1.59,7.45,-0.111572266,-1.2024536,-0.009094238,32.85,0.0,0.0,-7.0727386,-3.2929993,
705.149109,true,true,true,0.0,-0.0078125,0.0,-0.0078125,false,false,false,false,0.0,-0.0546875,0.0,-0.0078125,false,false,false,false,0.125,12.25,0.0,-11298,0,0,0.125,12.25,0.0,0,0,0,0.125,12.25,0.0,-14355,0,0,0.125,12.25,0.0,0,0,0,0.0,12.25,0.0,-8,0,0,0.0,12.25,0.0,0,0,0,0.0,12.3,0.0,0,0,0,kReverse,kOff,-88.38,1.6,7.52,-0.14154053,-0.6729126,0.119262695,32.85,0.0,-127.0,-7.0751343,-3.2939606,
705.168456,true,true,true,0.0,-0.0078125,0.0,-0.0078125,false,false,false,false,0.0,-0.0546875,0.0,-0.0078125,false,false,false,false,0.125,12.25,0.0,-11298,0,0,0.125,12.25,0.0,0,0,0,0.125,12.25,0.0,-14355,0,0,0.125,12.25,0.0,0,0,0,0.0,12.25,0.0,-8,0,0,0.0,12.25,0.0,0,0,0,0.0,12.3,0.0,0,0,0,kReverse,kOff,-88.43,1.55,7.82,0.06866455,-1.1679688,0.22436523,32.85,0.0,-227.0,-7.076599,-3.2946167,
705.188153,true,true,true,0.0,-0.0078125,0.0,-0.0078125,false,false,false,false,0.0,-0.0546875,0.0,-0.0078125,false,false,false,false,0.125,12.25,0.0,-11298,0,0,0.125,12.25,0.0,0,0,0,0.125,12.25,0.0,-14355,0,0,0.125,12.25,0.0,0,0,0,0.0,12.25,0.0,-8,0,0,0.0,12.25,0.0,0,0,0,0.125,12.3,0.0,0,0,0,kReverse,kOff,-88.43,1.55,8.03,0.18603516,-1.2828369,0.21551514,32.85,0.0,311.0,-7.0800476,-3.2953796,
705.21075,true,true,true,0.0,-0.0078125,0.0,-0.0078125,false,false,false,false,0.0,-0.0546875,0.0,-0.0078125,false,false,false,false,0.125,12.25,0.0,-11298,0,0,0.125,12.25,0.0,0,0,0,0.125,12.25,0.0,-14355,0,0,0.125,12.25,0.0,0,0,0,0.0,12.25,0.0,-8,0,0,0.0,12.25,0.0,0,0,0,0.125,12.3,0.0,0,0,0,kReverse,kOff,-88.45,1.53,5.52,0.12927246,-0.55444336,-0.4897461,32.85,0.0,492.0,-7.0812073,-3.295395,
705.231971,true,true,true,0.0,-0.0078125,0.0,-0.0078125,false,false,false,false,0.0,-0.0546875,0.0,-0.0078125,false,false,false,false,0.125,12.25,0.0,-11298,0,0,0.125,12.25,0.0,0,0,0,0.125,12.25,0.0,-14355,0,0,0.125,12.25,0.0,0,0,0,0.0,12.25,0.0,-8,0,0,0.0,12.25,0.0,0,0,0,0.125,12.3,0.0,0,0,0,kReverse,kOff,-88.43,1.54,7.51,0.12432861,-0.99035645,-0.21862793,32.85,0.0,218.0,-7.0818787,-3.2952728,
705.25126,true,true,true,0.0,-0.0078125,0.0,-0.0078125,false,false,false,false,0.0,-0.0546875,0.0,-0.0078125,false,false,false,false,0.125,12.25,0.0,-11298,0,0,0.125,12.25,0.0,0,0,0,0.125,12.25,0.0,-14355,0,0,0.125,12.25,0.0,0,0,0,0.0,12.25,0.0,-8,0,0,0.0,12.25,0.0,0,0,0,0.125,12.3,0.0,0,0,0,kReverse,kOff,-88.39,1.58,8.05,-0.07293701,-0.75183105,0.22467041,32.85,0.0,-231.0,-7.083267,-3.2949219,
705.27172,true,true,true,0.0,-0.0078125,0.0,-0.0078125,false,false,false,false,0.0,-0.0546875,0.0,-0.0078125,false,false,false,false,0.125,12.25,0.0,-11298,0,0,0.125,12.25,0.0,0,0,0,0.125,12.25,0.0,-14355,0,0,0.125,12.25,0.0,0,0,0,0.0,12.25,0.0,-8,0,0,0.0,12.25,0.0,0,0,0,0.125,12.3,0.0,0,0,0,kReverse,kOff,-88.37,1.6,7.84,-0.07611084,-0.9935913,0.097961426,32.85,0.0,-105.0,-7.08432,-3.2949066,
705.2922020000001,true,true,true,0.0,-0.0078125,0.0,-0.0078125,false,false,false,false,0.0,-0.0546875,0.0,-0.0078125,false,false,false,false,0.125,12.25,0.0,-11298,0,0,0.125,12.25,0.0,0,0,0,0.125,12.25,0.0,-14355,0,0,0.125,12.25,0.0,0,0,0,0.0,12.25,0.0,-8,0,0,0.0,12.25,0.0,0,0,0,0.125,12.3,0.0,0,0,0,kReverse,kOff,-88.33,1.65,7.66,-0.18756104,-1.2211914,-0.12872314,32.85,0.0,115.0,-7.0864563,-3.2953186,
705.314,true,true,true,0.0,-0.0078125,0.0,-0.0078125,false,false,false,false,0.0,-0.0546875,0.0,-0.0078125,false,false,false,false,0.125,12.25,0.0,-11298,0,0,0.125,12.25,0.0,0,0,0,0.125,12.25,0.0,-14355,0,0,0.125,12.25,0.0,0,0,0,0.0,12.25,0.0,-8,0,0,0.0,12.25,0.0,0,0,0,0.125,12.3,0.0,0,0,0,kReverse,kOff,-88.36,1.61,9.04,0.017456055,-1.0745239,0.0413208,32.85,0.0,-46.0,-7.087433,-3.2957916,
705.3352,true,true,true,0.0,-0.0078125,0.0,-0.0078125,false,false,false,false,0.0,-0.0546875,0.0,-0.0078125,false,false,false,false,0.125,12.25,0.0,-11298,0,0,0.125,12.25,0.0,0,0,0,0.125,12.25,0.0,-14355,0,0,0.125,12.25,0.0,0,0,0,0.0,12.25,0.0,-8,0,0,0.0,12.25,0.0,0,0,0,0.125,12.3,0.0,0,0,0,kReverse,kOff,-88.38,1.59,8.41,0.24963379,-1.1697388,0.022216797,32.85,0.0,-19.0,-7.0900726,-3.296341,
705.356088,true,true,true,0.0,-0.0078125,0.0,-0.0078125,false,false,false,false,0.0,-0.0546875,0.0,-0.0078125,false,false,false,false,0.125,12.25,0.0,-11298,0,0,0.125,12.25,0.0,0,0,0,0.125,12.25,0.0,-14355,0,0,0.125,12.25,0.0,0,0,0,0.0,12.25,0.0,-8,0,0,0.0,12.25,0.0,0,0,0,0.125,12.3,0.0,0,0,0,kReverse,kOff,-88.42,1.56,7.51,0.12670898,-0.5703125,-0.36901855,32.85,0.0,370.0,-7.091263,-3.2962952,
705.382385,true,true,true,0.0,-0.0078125,0.0,-0.0078125,false,false,false,false,0.0,-0.0546875,0.0,-0.0078125,false,false,false,false,0.125,12.25,0.0,-11298,0,0,0.125,12.25,0.0,0,0,0,0.125,12.200000000000001,0.0,-14355,0,0,0.125,12.25,0.0,0,0,0,0.0,12.25,0.0,-8,0,0,0.0,12.25,0.0,0,0,0,0.125,12.25,0.0,0,0,0,kReverse,kOff,-88.43,1.54,7.3,0.07513428,-0.62927246,-0.43310547,32.85,0.0,432.0,-7.0919037,-3.2961426,
705.399234,true,true,true,0.0,-0.0078125,0.0,-0.0078125,false,false,false,false,0.0,-0.0546875,0.0,-0.0078125,false,false,false,false,0.125,12.25,0.0,-11298,0,0,0.125,12.25,0.0,0,0,0,0.125,12.200000000000001,0.0,-14355,0,0,0.125,12.25,0.0,0,0,0,0.0,12.25,0.0,-8,0,0,0.0,12.25,0.0,0,0,0,0.125,12.25,0.0,0,0,0,kReverse,kOff,-88.4,1.56,8.98,-0.019836426,-0.8833618,0.30169678,32.85,0.0,-307.0,-7.092575,-3.2956848,
705.434306,true,true,true,0.0,-0.0078125,0.0,-0.0078125,false,false,false,false,0.0,-0.0546875,0.0,-0.0078125,false,false,false,false,0.125,12.25,0.0,-11298,0,0,0.125,12.25,0.0,0,0,0,0.125,12.200000000000001,0.0,-14355,0,0,0.125,12.25,0.0,0,0,0,0.0,12.25,0.0,-8,0,0,0.0,12.25,0.0,0,0,0,0.125,12.25,0.0,0,0,0,kReverse,kOff,-88.39,1.59,6.61,-0.042114258,-1.3369751,0.026855469,32.85,0.0,-34.0,-7.0943756,-3.2954712,
705.456733,true,true,true,0.0,-0.0078125,0.0,-0.0078125,false,false,false,false,0.0,-0.0546875,0.0,-0.0078125,false,false,false,false,0.125,12.25,0.0,-11298,0,0,0.125,12.25,0.0,0,0,0,0.125,12.200000000000001,0.0,-14355,0,0,0.125,12.25,0.0,0,0,0,0.0,12.25,0.0,-8,0,0,0.0,12.25,0.0,0,0,0,0.125,12.25,0.0,0,0,0,kReverse,kOff,-88.35,1.63,6.65,-0.047729492,-0.9714966,0.114868164,32.85,0.0,-120.0,-7.096527,-3.2957916,
705.480416,true,true,true,0.0,-0.0078125,0.0,-0.0078125,false,false,false,false,0.0,-0.0546875,0.0,-0.0078125,false,false,false,false,0.125,12.25,0.0,-11298,0,0,0.125,12.25,0.0,0,0,0,0.125,12.200000000000001,0.0,-14355,0,0,0.125,12.25,0.0,0,0,0,0.0,12.25,0.0,-8,0,0,0.0,12.25,0.0,0,0,0,0.125,12.25,0.0,0,0,0,kReverse,kOff,-88.37,1.61,7.18,0.09094238,-1.1942749,0.35327148,32.87,0.0,-355.0,-7.0979614,-3.2960205,
705.501137,true,true,true,0.0,-0.0078125,0.0,-0.0078125,false,false,false,false,0.0,-0.0546875,0.0,-0.0078125,false,false,false,false,0.125,12.25,0.0,-11298,0,0,0.125,12.25,0.0,0,0,0,0.125,12.200000000000001,0.0,-14355,0,0,0.125,12.25,0.0,0,0,0,0.0,12.25,0.0,-8,0,0,0.0,12.25,0.0,0,0,0,0.125,12.25,0.0,0,0,0,kReverse,kOff,-88.35,1.64,3.74,0.16320801,-0.78027344,-0.23205566,32.87,0.0,236.0,-7.101425,-3.2959595,
705.524061,true,true,true,0.0,-0.0078125,0.0,-0.0078125,false,false,false,false,0.0,-0.0546875,0.0,-0.0078125,false,false,false,false,0.125,12.25,0.0,-11298,0,0,0.125,12.25,0.0,0,0,0,0.125,12.200000000000001,0.0,-14355,0,0,0.125,12.25,0.0,0,0,0,0.0,12.200000000000001,0.0,-8,0,0,0.0,12.25,0.0,0,0,0,0.125,12.25,0.0,0,0,0,kReverse,kOff,-88.36,1.62,3.26,0.122558594,-0.57928467,-0.49401855,32.87,0.0,496.0,-7.1026154,-3.2956848,
705.54743,true,true,true,0.0,-0.0078125,0.0,-0.0078125,false,false,false,false,0.0,-0.0546875,0.0,-0.0078125,false,false,false,false,0.125,12.200000000000001,0.0,-11298,0,0,0.125,12.25,0.0,0,0,0,0.125,12.200000000000001,0.0,-14355,0,0,0.125,12.25,0.0,0,0,0,0.0,12.200000000000001,0.0,-8,0,0,0.0,12.200000000000001,0.0,0,0,0,0.125,12.25,0.0,0,0,0,kReverse,kOff,-88.34,1.65,4.67,0.0579834,-1.017395,0.2541504,32.87,0.0,-254.0,-7.1045074,-3.294693,
705.569205,true,true,true,0.0,-0.0078125,0.0,-0.0078125,false,false,false,false,0.0,-0.0546875,0.0,-0.0078125,false,false,false,false,0.125,12.200000000000001,0.0,-11298,0,0,0.125,12.25,0.0,0,0,0,0.125,12.200000000000001,0.0,-14355,0,0,0.125,12.25,0.0,0,0,0,0.0,12.200000000000001,0.0,-8,0,0,0.0,12.200000000000001,0.0,0,0,0,0.125,12.25,0.0,0,0,0,kReverse,kOff,-88.34,1.65,4.67,0.0579834,-1.017395,0.2541504,32.87,0.0,-254.0,-7.1045074,-3.294693,
705.589884,true,true,true,0.0,-0.0078125,0.0,-0.0078125,false,false,false,false,0.0,-0.0546875,0.0,-0.0078125,false,false,false,false,0.125,12.200000000000001,0.0,-11298,0,0,0.125,12.25,0.0,0,0,0,0.125,12.200000000000001,0.0,-14355,0,0,0.125,12.25,0.0,0,0,0,0.0,12.200000000000001,0.0,-8,0,0,0.0,12.200000000000001,0.0,0,0,0,0.125,12.25,0.0,0,0,0,kReverse,kOff,-88.32,1.67,2.87,-0.09509277,-0.8833618,-0.05609131,32.87,0.0,50.0,-7.1074066,-3.2938232,
705.609738,true,true,true,0.0,-0.0078125,0.0,-0.0078125,false,false,false,false,0.0,-0.0546875,0.0,-0.0078125,false,false,false,false,0.125,12.200000000000001,0.0,-11298,0,0,0.125,12.25,0.0,0,0,0,0.125,12.200000000000001,0.0,-14355,0,0,0.125,12.25,0.0,0,0,0,0.0,12.200000000000001,0.0,-8,0,0,0.0,12.200000000000001,0.0,0,0,0,0.125,12.25,0.0,0,0,0,kReverse,kOff,-88.3,1.69,2.3,-0.121276855,-1.4376221,-0.16540527,32.87,0.0,158.0,-7.10878,-3.2936554,
705.630586,true,true,true,0.0,-0.0078125,0.0,-0.0078125,false,false,false,false,0.0,-0.0546875,0.0,-0.0078125,false,false,false,false,0.125,12.200000000000001,0.0,-11298,0,0,0.125,12.25,0.0,0,0,0,0.125,12.200000000000001,0.0,-14355,0,0,0.125,12.25,0.0,0,0,0,0.0,12.200000000000001,0.0,-8,0,0,0.0,12.200000000000001,0.0,0,0,0,0.125,12.25,0.0,0,0,0,kReverse,kOff,-88.29,1.7,3.53,-0.11791992,-1.0475464,-0.036315918,32.87,0.0,29.0,-7.110031,-3.2937012,
705.652179,true,true,true,0.0,-0.0078125,0.0,-0.0078125,false,false,false,false,0.0,-0.0546875,0.0,-0.0078125,false,false,false,false,0.125,12.200000000000001,0.0,-11298,0,0,0.125,12.25,0.0,0,0,0,0.125,12.200000000000001,0.0,-14355,0,0,0.125,12.25,0.0,0,0,0,0.0,12.200000000000001,0.0,-8,0,0,0.0,12.200000000000001,0.0,0,0,0,0.125,12.25,0.0,0,0,0,kReverse,kOff,-88.35,1.64,5.67,0.14776611,-1.3224487,0.24188232,32.87,0.0,-241.0,-7.1131287,-3.293869,
705.6760459999999,true,true,true,0.0,-0.0078125,0.0,-0.0078125,false,false,false,false,0.0,-0.0546875,0.0,-0.0078125,false,false,false,false,0.125,12.200000000000001,0.0,-11298,0,0,0.125,12.25,0.0,0,0,0,0.125,12.200000000000001,0.0,-14355,0,0,0.125,12.25,0.0,0,0,0,0.0,12.200000000000001,0.0,-8,0,0,0.0,12.200000000000001,0.0,0,0,0,0.125,12.25,0.0,0,0,0,kReverse,kOff,-88.4,1.59,2.79,0.093811035,-0.49005127,-0.39337158,32.87,0.0,395.0,-7.116455,-3.2933807,
705.696915,true,true,true,0.0,-0.0078125,0.0,-0.0078125,false,false,false,false,0.0,-0.0546875,0.0,-0.0078125,false,false,false,false,0.125,12.200000000000001,0.0,-11298,0,0,0.125,12.200000000000001,0.0,0,0,0,0.125,12.200000000000001,0.0,-14355,0,0,0.125,12.25,0.0,0,0,0,0.0,12.200000000000001,0.0,-8,0,0,0.0,12.200000000000001,0.0,0,0,0,0.125,12.25,0.0,0,0,0,kReverse,kOff,-88.43,1.56,3.72,0.13012695,-0.77056885,-0.2142334,32.87,0.0,217.0,-7.117523,-3.2929535,
705.7168369999999,true,true,true,0.0,-0.0078125,0.0,-0.0078125,false,false,false,false,0.0,-0.0546875,0.0,-0.0078125,false,false,false,false,0.125,12.200000000000001,0.0,-11298,0,0,0.125,12.200000000000001,0.0,0,0,0,0.125,12.200000000000001,0.0,-14355,0,0,0.125,12.25,0.0,0,0,0,0.0,12.200000000000001,0.0,-8,0,0,0.0,12.200000000000001,0.0,0,0,0,0.0,12.25,0.0,0,0,0,kReverse,kOff,-88.43,1.56,4.01,0.10900879,-0.9498291,0.14630127,32.87,0.0,-144.0,-7.1185455,-3.292389,
705.7339440000001,true,true,true,0.0,-0.0078125,0.0,-0.0078125,false,false,false,false,0.0,-0.0546875,0.0,-0.0078125,false,false,false,false,0.125,12.200000000000001,0.0,-11298,0,0,0.125,12.200000000000001,0.0,0,0,0,0.125,12.200000000000001,0.0,-14355,0,0,0.125,12.25,0.0,0,0,0,0.0,12.200000000000001,0.0,-8,0,0,0.0,12.200000000000001,0.0,0,0,0,0.0,12.25,0.0,0,0,0,kReverse,kOff,-88.41,1.57,4.08,-0.16107178,-0.9210205,0.111572266,32.87,0.0,-119.0,-7.12146,-3.2914429,
705.7564279999999,true,true,true,0.0,-0.0078125,0.0,-0.0078125,false,false,false,false,0.0,-0.0546875,0.0,-0.0078125,false,false,false,false,0.125,12.200000000000001,0.0,-11298,0,0,0.125,12.200000000000001,0.0,0,0,0,0.125,12.200000000000001,0.0,-14355,0,0,0.125,12.25,0.0,0,0,0,0.0,12.200000000000001,0.0,-8,0,0,0.0,12.200000000000001,0.0,0,0,0,0.0,12.25,0.0,0,0,0,kReverse,kOff,-88.4,1.59,3.71,-0.075683594,-1.3276367,-0.02746582,32.87,0.0,21.0,-7.123123,-3.291275,
705.7784760000001,true,true,true,0.0,-0.0078125,0.0,-0.0078125,false,false,false,false,0.0,-0.0546875,0.0,-0.0078125,false,false,false,false,0.125,12.200000000000001,0.0,-11298,0,0,0.125,12.200000000000001,0.0,0,0,0,0.125,12.200000000000001,0.0,-14355,0,0,0.125,12.25,0.0,0,0,0,0.0,12.200000000000001,0.0,-8,0,0,0.0,12.200000000000001,0.0,0,0,0,0.0,12.25,0.0,0,0,0,kReverse,kOff,-88.41,1.57,4.97,0.09240723,-1.0700073,0.13928223,32.87,0.0,-139.0,-7.126602,-3.2914276,
705.805837,true,true,true,0.0,-0.0078125,0.0,-0.0078125,false,false,false,false,0.0,-0.0546875,0.0,-0.0078125,false,false,false,false,0.125,12.200000000000001,0.0,-11298,0,0,0.125,12.200000000000001,0.0,0,0,0,0.125,12.200000000000001,0.0,-14355,0,0,0.125,12.25,0.0,0,0,0,0.0,12.200000000000001,0.0,-8,0,0,0.0,12.200000000000001,0.0,0,0,0,0.125,12.25,0.0,0,0,0,kReverse,kOff,-88.41,1.57,5.76,0.08239746,-1.355835,0.21429443,32.87,0.0,-216.0,-7.128647,-3.2914581,
705.8261650000001,true,true,true,0.0,-0.0078125,0.0,-0.0078125,false,false,false,false,0.0,-0.0546875,0.0,-0.0078125,false,false,false,false,0.125,12.200000000000001,0.0,-11298,0,0,0.125,12.200000000000001,0.0,0,0,0,0.125,12.200000000000001,0.0,-14355,0,0,0.125,12.25,0.0,0,0,0,0.0,12.200000000000001,0.0,-8,0,0,0.0,12.200000000000001,0.0,0,0,0,0.125,12.25,0.0,0,0,0,kReverse,kOff,-88.43,1.56,4.01,0.088256836,-0.5941162,-0.46221924,32.87,0.0,463.0,-7.1325836,-3.2911072,
705.8494079999999,true,true,true,0.0,-0.0078125,0.0,-0.0078125,false,false,false,false,0.0,-0.0546875,0.0,-0.0078125,false,false,false,false,0.125,12.200000000000001,0.0,-11298,0,0,0.125,12.200000000000001,0.0,0,0,0,0.125,12.200000000000001,0.0,-14355,0,0,0.125,12.25,0.0,0,0,0,0.0,12.200000000000001,0.0,-8,0,0,0.0,12.200000000000001,0.0,0,0,0,0.125,12.25,0.0,0,0,0,kReverse,kOff,-88.44,1.55,4.86,0.10656738,-0.7044678,-0.32269287,32.87,0.0,324.0,-7.133835,-3.2907562,
705.871134,true,true,true,0.0,-0.0078125,0.0,-0.0078125,false,false,false,false,0.0,-0.0546875,0.0,-0.0078125,false,false,false,false,0.125,12.200000000000001,0.0,-11298,0,0,0.125,12.200000000000001,0.0,0,0,0,0.125,12.200000000000001,0.0,-14355,0,0,0.125,12.25,0.0,0,0,0,0.0,12.200000000000001,0.0,-8,0,0,0.0,12.200000000000001,0.0,0,0,0,0.0,12.25,0.0,0,0,0,kReverse,kOff,-88.41,1.57,6.65,-0.0107421875,-0.8626709,0.25183105,32.87,0.0,-255.0,-7.1359406,-3.2898865,
705.891208,true,true,true,0.0,-0.0078125,0.0,-0.0078125,false,false,false,false,0.0,-0.0546875,0.0,-0.0078125,false,false,false,false,0.125,12.200000000000001,0.0,-11298,0,0,0.125,12.200000000000001,0.0,0,0,0,0.125,12.200000000000001,0.0,-14355,0,0,0.125,12.25,0.0,0,0,0,0.0,12.200000000000001,0.0,-8,0,0,0.0,12.200000000000001,0.0,0,0,0,0.0,12.25,0.0,0,0,0,kReverse,kOff,-88.4,1.58,6.63,-0.11779785,-0.7393799,0.14788818,32.87,0.0,-155.0,-7.1373444,-3.2895355,
705.911474,true,true,true,0.0,-0.0078125,0.0,-0.0078125,false,false,false,false,0.0,-0.0546875,0.0,-0.0078125,false,false,false,false,0.125,12.200000000000001,0.0,-11298,0,0,0.125,12.200000000000001,0.0,0,0,0,0.125,12.200000000000001,0.0,-14355,0,0,0.125,12.25,0.0,0,0,0,0.0,12.200000000000001,0.0,-8,0,0,0.0,12.200000000000001,0.0,0,0,0,0.0,12.25,0.0,0,0,0,kReverse,kOff,-88.35,1.63,5.51,-0.07849121,-1.270874,0.012817383,32.87,0.0,-20.0,-7.1404114,-3.2893066,
705.9322900000001,true,true,true,0.0,-0.0078125,0.0,-0.0078125,false,false,false,false,0.0,-0.0546875,0.0,-0.0078125,false,false,false,false,0.125,12.200000000000001,0.0,-11298,0,0,0.125,12.200000000000001,0.0,0,0,0,0.125,12.200000000000001,0.0,-14355,0,0,0.125,12.25,0.0,0,0,0,0.0,12.200000000000001,0.0,-8,0,0,0.0,12.200000000000001,0.0,0,0,0,0.0,12.25,0.0,0,0,0,kReverse,kOff,-88.36,1.62,6.2,-0.028869629,-0.92419434,0.1428833,32.87,0.0,-147.0,-7.1420746,-3.2893677,
705.952194,true,true,true,0.0,-0.0078125,0.0,-0.0078125,false,false,false,false,0.0,-0.0546875,0.0,-0.0078125,false,false,false,false,0.125,12.200000000000001,0.0,-11298,0,0,0.125,12.200000000000001,0.0,0,0,0,0.125,12.200000000000001,0.0,-14355,0,0,0.125,12.25,0.0,0,0,0,0.0,12.200000000000001,0.0,-8,0,0,0.0,12.200000000000001,0.0,0,0,0,0.0,12.25,0.0,0,0,0,kReverse,kOff,-88.37,1.61,6.43,0.11975098,-1.2458496,0.24456787,32.87,0.0,-245.0,-7.143997,-3.2893982,
705.9725080000001,true,true,true,0.0,-0.0078125,0.0,-0.0078125,false,false,false,false,0.0,-0.0546875,0.0,-0.0078125,false,false,false,false,0.125,12.200000000000001,0.0,-11298,0,0,0.125,12.200000000000001,0.0,0,0,0,0.125,12.200000000000001,0.0,-14355,0,0,0.125,12.25,0.0,0,0,0,0.0,12.200000000000001,0.0,-8,0,0,0.0,12.200000000000001,0.0,0,0,0,0.0,12.25,0.0,0,0,0,kReverse,kOff,-88.4,1.59,4.31,0.13348389,-0.5604248,-0.29516602,32.87,0.0,298.0,-7.1480255,-3.2888947,
705.99343,true,true,true,0.0,-0.0078125,0.0,-0.0078125,false,false,false,false,0.0,-0.0546875,0.0,-0.0078125,false,false,false,false,0.125,12.200000000000001,0.0,-11298,0,0,0.125,12.200000000000001,0.0,0,0,0,0.125,12.200000000000001,0.0,-14355,0,0,0.125,12.25,0.0,0,0,0,0.0,12.200000000000001,0.0,-8,0,0,0.0,12.200000000000001,0.0,0,0,0,0.125,12.25,0.0,0,0,0,kReverse,kOff,-88.43,1.56,3.82,0.0982666,-0.6397095,-0.38269043,32.88,0.0,384.0,-7.149475,-3.288437,
706.015809,true,true,true,0.0,-0.0078125,0.0,-0.0078125,false,false,false,false,0.0,-0.0546875,0.0,-0.0078125,false,false,false,false,0.125,12.200000000000001,0.0,-11298,0,0,0.125,12.200000000000001,0.0,0,0,0,0.125,12.200000000000001,0.0,-14355,0,0,0.125,12.200000000000001,0.0,0,0,0,0.0,12.200000000000001,0.0,-8,0,0,0.0,12.200000000000001,0.0,0,0,0,0.125,12.25,0.0,0,0,0,kReverse,kOff,-88.41,1.57,5.24,-0.09851074,-0.5439453,0.25476074,32.88,0.0,-260.0,-7.1520386,-3.2872314,
706.040255,true,true,true,0.0,-0.0078125,0.0,-0.0078125,false,false,false,false,0.0,-0.0546875,0.0,-0.0078125,false,false,false,false,0.125,12.200000000000001,0.0,-11298,0,0,0.125,12.200000000000001,0.0,0,0,0,0.125,12.200000000000001,0.0,-14355,0,0,0.125,12.200000000000001,0.0,0,0,0,0.0,12.200000000000001,0.0,-8,0,0,0.0,12.200000000000001,0.0,0,0,0,0.125,12.25,0.0,0,0,0,kReverse,kOff,-88.4,1.58,4.85,-0.119506836,-0.68200684,0.17468262,32.88,0.0,-181.0,-7.153717,-3.2867737,
706.056476,true,true,true,0.0,-0.0078125,0.0,-0.0078125,false,false,false,false,0.0,-0.0546875,0.0,-0.0078125,false,false,false,false,0.125,12.200000000000001,0.0,-11298,0,0,0.125,12.200000000000001,0.0,0,0,0,0.125,12.200000000000001,0.0,-14355,0,0,0.125,12.200000000000001,0.0,0,0,0,0.0,12.200000000000001,0.0,-8,0,0,0.0,12.200000000000001,0.0,0,0,0,0.125,12.25,0.0,0,0,0,kReverse,kOff,-88.4,1.59,3.88,-0.13928223,-1.2220459,-0.0546875,32.88,0.0,46.0,-7.155487,-3.2865295,
706.080396,true,true,true,0.0,-0.0078125,0.0,-0.0078125,false,false,false,false,0.0,-0.0546875,0.0,-0.0078125,false,false,false,false,0.125,12.200000000000001,0.0,-11298,0,0,0.125,12.200000000000001,0.0,0,0,0,0.125,12.200000000000001,0.0,-14355,0,0,0.125,12.200000000000001,0.0,0,0,0,0.0,12.200000000000001,0.0,-8,0,0,0.0,12.200000000000001,0.0,0,0,0,0.125,12.25,0.0,0,0,0,kReverse,kOff,-88.42,1.56,4.78,-0.061157227,-0.875,0.119140625,32.88,0.0,-123.0,-7.1589355,-3.2868347,
706.102431,true,true,true,0.0,-0.0078125,0.0,-0.0078125,false,false,false,false,0.0,-0.0546875,0.0,-0.0078125,false,false,false,false,0.125,12.200000000000001,0.0,-11298,0,0,0.125,12.200000000000001,0.0,0,0,0,0.125,12.200000000000001,0.0,-14355,0,0,0.125,12.200000000000001,0.0,0,0,0,0.0,12.200000000000001,0.0,-8,0,0,0.0,12.200000000000001,0.0,0,0,0,0.125,12.25,0.0,0,0,0,kReverse,kOff,-88.46,1.52,4.98,0.11401367,-1.2658691,0.24627686,32.88,0.0,-245.0,-7.1609497,-3.2870789,
706.1219279999999,true,true,true,0.0,-0.0078125,0.0,-0.0078125,false,false,false,false,0.0,-0.0546875,0.0,-0.0078125,false,false,false,false,0.125,12.200000000000001,0.0,-11298,0,0,0.125,12.200000000000001,0.0,0,0,0,0.125,12.200000000000001,0.0,-14355,0,0,0.125,12.200000000000001,0.0,0,0,0,0.0,12.200000000000001,0.0,-8,0,0,0.0,12.200000000000001,0.0,0,0,0,0.125,12.25,0.0,0,0,0,kReverse,kOff,-88.48,1.51,2.87,0.14202881,-0.5848999,-0.33581543,32.88,0.0,339.0,-7.165085,-3.287033,
706.146352,true,true,true,0.0,-0.0078125,0.0,-0.0078125,false,false,false,false,0.0,-0.0546875,0.0,-0.0078125,false,false,false,false,0.125,12.200000000000001,0.0,-11298,0,0,0.125,12.200000000000001,0.0,0,0,0,0.125,12.200000000000001,0.0,-14355,0,0,0.125,12.200000000000001,0.0,0,0,0,0.0,12.200000000000001,0.0,-8,0,0,0.0,12.200000000000001,0.0,0,0,0,0.125,12.25,0.0,0,0,0,kReverse,kOff,-88.49,1.5,3.34,0.11584473,-0.7264404,-0.28808594,32.88,0.0,290.0,-7.1666107,-3.2867737,
706.168034,true,true,true,0.0,-0.0078125,0.0,-0.0078125,false,false,false,false,0.0,-0.0546875,0.0,-0.0078125,false,false,false,false,0.125,12.200000000000001,0.0,-11298,0,0,0.125,12.200000000000001,0.0,0,0,0,0.125,12.200000000000001,0.0,-14355,0,0,0.125,12.200000000000001,0.0,0,0,0,0.0,12.200000000000001,0.0,-8,0,0,0.0,12.200000000000001,0.0,0,0,0,0.125,12.25,0.0,0,0,0,kReverse,kOff,-88.44,1.55,3.34,-0.055358887,-0.8568115,0.21179199,32.88,0.0,-215.0,-7.1694183,-3.2859802,
706.188615,true,true,true,0.0,-0.0078125,0.0,-0.0078125,false,false,false,false,0.0,-0.0546875,0.0,-0.0078125,false,false,false,false,0.125,12.200000000000001,0.0,-11298,0,0,0.125,12.200000000000001,0.0,0,0,0,0.125,12.200000000000001,0.0,-14355,0,0,0.125,12.200000000000001,0.0,0,0,0,0.0,12.200000000000001,0.0,-8,0,0,0.0,12.200000000000001,0.0,0,0,0,0.0,12.25,0.0,0,0,0,kReverse,kOff,-88.44,1.54,4.08,-0.13946533,-0.7798462,0.19091797,32.88,0.0,-198.0,-7.171173,-3.2857056,
706.2104429999999,true,true,true,0.0,-0.0078125,0.0,-0.0078125,false,false,false,false,0.0,-0.0546875,0.0,-0.0078125,false,false,false,false,0.125,12.200000000000001,0.0,-11298,0,0,0.125,12.200000000000001,0.0,0,0,0,0.125,12.200000000000001,0.0,-14355,0,0,0.125,12.200000000000001,0.0,0,0,0,0.0,12.200000000000001,0.0,-8,0,0,0.0,12.200000000000001,0.0,0,0,0,0.0,12.25,0.0,0,0,0,kReverse,kOff,-88.43,1.56,3.97,-0.037353516,-1.3319092,0.049316406,32.88,0.0,-54.0,-7.173111,-3.2855988,
706.230554,true,true,true,0.0,-0.0078125,0.0,-0.0078125,false,false,false,false,0.0,-0.0546875,0.0,-0.0078125,false,false,false,false,0.125,12.200000000000001,0.0,-11298,0,0,0.125,12.200000000000001,0.0,0,0,0,0.125,12.200000000000001,0.0,-14355,0,0,0.125,12.200000000000001,0.0,0,0,0,0.0,12.200000000000001,0.0,-8,0,0,0.0,12.200000000000001,0.0,0,0,0,0.0,12.25,0.0,0,0,0,kReverse,kOff,-88.42,1.56,5.61,0.004211426,-0.97442627,0.008850098,32.88,0.0,-12.0,-7.176819,-3.2859344,
706.25132,true,true,true,0.0,-0.0078125,0.0,-0.0078125,false,false,false,false,0.0,-0.0546875,0.0,-0.0078125,false,false,false,false,0.125,12.200000000000001,0.0,-11298,0,0,0.125,12.200000000000001,0.0,0,0,0,0.125,12.200000000000001,0.0,-14355,0,0,0.125,12.200000000000001,0.0,0,0,0,0.0,12.200000000000001,0.0,-8,0,0,0.0,12.200000000000001,0.0,0,0,0,0.0,12.25,0.0,0,0,0,kReverse,kOff,-88.44,1.54,5.84,0.08282471,-1.2712402,0.21502686,32.88,0.0,-216.0,-7.1788025,-3.286148,
706.272642,true,true,true,0.0,-0.0078125,0.0,-0.0078125,false,false,false,false,0.0,-0.0546875,0.0,-0.0078125,false,false,false,false,0.125,12.200000000000001,0.0,-11298,0,0,0.125,12.200000000000001,0.0,0,0,0,0.125,12.200000000000001,0.0,-14355,0,0,0.125,12.200000000000001,0.0,0,0,0,0.0,12.200000000000001,0.0,-8,0,0,0.0,12.200000000000001,0.0,0,0,0,0.0,12.25,0.0,0,0,0,kReverse,kOff,-88.46,1.53,3.92,0.12982178,-0.56677246,-0.37646484,32.88,0.0,379.0,-7.18277,-3.2859955,
706.293214,true,true,true,0.0,-0.0078125,0.0,-0.0078125,false,false,false,false,0.0,-0.0546875,0.0,-0.0078125,false,false,false,false,0.125,12.200000000000001,0.0,-11298,0,0,0.125,12.200000000000001,0.0,0,0,0,0.125,12.200000000000001,0.0,-14355,0,0,0.125,12.200000000000001,0.0,0,0,0,0.0,12.200000000000001,0.0,-8,0,0,0.0,12.200000000000001,0.0,0,0,0,0.0,12.25,0.0,0,0,0,kReverse,kOff,-88.46,1.52,5.33,0.1274414,-0.8718262,-0.20941162,32.88,0.0,210.0,-7.1842194,-3.2856598,
706.314466,true,true,true,0.0,-0.0078125,0.0,-0.0078125,false,false,false,false,0.0,-0.0546875,0.0,-0.0078125,false,false,false,false,0.125,12.200000000000001,0.0,-11298,0,0,0.125,12.200000000000001,0.0,0,0,0,0.125,12.200000000000001,0.0,-14355,0,0,0.125,12.200000000000001,0.0,0,0,0,0.0,12.200000000000001,0.0,-8,0,0,0.0,12.200000000000001,0.0,0,0,0,0.0,12.25,0.0,0,0,0,kReverse,kOff,-88.4,1.59,5.03,-0.088256836,-0.72003174,0.23474121,32.88,0.0,-240.0,-7.1871033,-3.2847595,
706.335849,true,true,true,0.0,-0.0078125,0.0,-0.0078125,false,false,false,false,0.0,-0.0546875,0.0,-0.0078125,false,false,false,false,0.125,12.200000000000001,0.0,-11298,0,0,0.125,12.200000000000001,0.0,0,0,0,0.125,12.200000000000001,0.0,-14355,0,0,0.125,12.200000000000001,0.0,0,0,0,0.0,12.200000000000001,0.0,-8,0,0,0.0,12.200000000000001,0.0,0,0,0,0.0,12.25,0.0,0,0,0,kReverse,kOff,-88.39,1.59,5.13,-0.0960083,-0.78674316,0.0993042,32.88,0.0,-105.0,-7.1888733,-3.2844543,
706.362124,true,true,true,0.0,-0.0078125,0.0,-0.0078125,false,false,false,false,0.0,-0.0546875,0.0,-0.0078125,false,false,false,false,0.125,12.200000000000001,0.0,-11298,0,0,0.125,12.200000000000001,0.0,0,0,0,0.125,12.200000000000001,0.0,-14355,0,0,0.125,12.200000000000001,0.0,0,0,0,0.0,12.200000000000001,0.0,-8,0,0,0.0,12.200000000000001,0.0,0,0,0,0.125,12.25,0.0,0,0,0,kReverse,kOff,-88.32,1.66,4.85,-0.10394287,-1.093689,-0.033935547,32.88,0.0,26.0,-7.192795,-3.2842102,
706.38119,true,true,true,0.0,-0.0078125,0.0,-0.0078125,false,false,false,false,0.0,-0.0546875,0.0,-0.0078125,false,false,false,false,0.125,12.200000000000001,0.0,-11298,0,0,0.125,12.200000000000001,0.0,0,0,0,0.125,12.200000000000001,0.0,-14355,0,0,0.125,12.200000000000001,0.0,0,0,0,0.0,12.200000000000001,0.0,-8,0,0,0.0,12.200000000000001,0.0,0,0,0,0.125,12.25,0.0,0,0,0,kReverse,kOff,-88.34,1.64,5.82,-0.007873535,-0.95495605,0.09289551,32.88,0.0,-96.0,-7.194824,-3.2842712,
706.401062,true,true,true,0.0,-0.0078125,0.0,-0.0078125,false,false,false,false,0.0,-0.0546875,0.0,-0.0078125,false,false,false,false,0.125,12.200000000000001,0.0,-11298,0,0,0.125,12.200000000000001,0.0,0,0,0,0.125,12.200000000000001,0.0,-14355,0,0,0.125,12.200000000000001,0.0,0,0,0,0.0,12.200000000000001,0.0,-8,0,0,0.0,12.200000000000001,0.0,0,0,0,0.0,12.25,0.0,0,0,0,kReverse,kOff,-88.37,1.61,6.25,0.13409424,-1.0177612,0.23223877,32.88,0.0,-231.0,-7.1970825,-3.2842865,
706.420292,true,true,true,0.0,-0.0078125,0.0,-0.0078125,false,false,false,false,0.0,-0.0546875,0.0,-0.0078125,false,false,false,false,0.125,12.200000000000001,0.0,-11298,0,0,0.125,12.200000000000001,0.0,0,0,0,0.125,12.200000000000001,0.0,-14355,0,0,0.125,12.200000000000001,0.0,0,0,0,0.0,12.200000000000001,0.0,-8,0,0,0.0,12.200000000000001,0.0,0,0,0,0.0,12.25,0.0,0,0,0,kReverse,kOff,-88.41,1.58,4.67,0.07531738,-0.38806152,-0.5054321,32.88,0.0,506.0,-7.20105,-3.2837524,
706.453536,true,true,true,0.0,-0.0078125,0.0,-0.0078125,false,false,false,false,0.0,-0.0546875,0.0,-0.0078125,false,false,false,false,0.125,12.200000000000001,0.0,-11298,0,0,0.125,12.200000000000001,0.0,0,0,0,0.125,12.200000000000001,0.0,-14355,0,0,0.125,12.200000000000001,0.0,0,0,0,0.0,12.200000000000001,0.0,-8,0,0,0.0,12.200000000000001,0.0,0,0,0,0.0,12.25,0.0,0,0,0,kReverse,kOff,-88.39,1.58,7.68,0.031555176,-0.9730835,0.13439941,32.88,0.0,-137.0,-7.203415,-3.2828674,
706.478702,true,true,true,0.0,-0.0078125,0.0,-0.0078125,false,false,false,false,0.0,-0.0546875,0.0,-0.0078125,false,false,false,false,0.125,12.200000000000001,0.0,-11298,0,0,0.125,12.200000000000001,0.0,0,0,0,0.125,12.200000000000001,0.0,-14355,0,0,0.125,12.200000000000001,0.0,0,0,0,0.0,12.200000000000001,0.0,-8,0,0,0.0,12.200000000000001,0.0,0,0,0,0.125,12.25,0.0,0,0,0,kReverse,kOff,-88.39,1.59,7.07,-0.09094238,-1.0767822,0.09692383,32.88,0.0,-105.0,-7.2066803,-3.2821808,
706.5064619999999,true,true,true,0.0,-0.0078125,0.0,-0.0078125,false,false,false,false,0.0,-0.0546875,0.0,-0.0078125,false,false,false,false,0.125,12.200000000000001,0.0,-11298,0,0,0.125,12.200000000000001,0.0,0,0,0,0.125,12.200000000000001,0.0,-14355,0,0,0.125,12.200000000000001,0.0,0,0,0,0.0,12.200000000000001,0.0,-8,0,0,0.0,12.200000000000001,0.0,0,0,0,0.0,12.25,0.0,0,0,0,kReverse,kOff,-88.36,1.61,7.84,-0.06829834,-0.99749756,-0.020446777,32.88,0.0,12.0,-7.21019,-3.2822113,
706.529139,true,true,true,0.0,-0.0078125,0.0,-0.0078125,false,false,false,false,0.0,-0.0546875,0.0,-0.0078125,false,false,false,false,0.125,12.200000000000001,0.0,-11298,0,0,0.125,12.200000000000001,0.0,0,0,0,0.125,12.200000000000001,0.0,-14355,0,0,0.125,12.200000000000001,0.0,0,0,0,0.0,12.200000000000001,0.0,-8,0,0,0.0,12.200000000000001,0.0,0,0,0,0.0,12.25,0.0,0,0,0,kReverse,kOff,-88.38,1.59,8.29,0.03778076,-1.0593872,0.14941406,32.88,0.0,-153.0,-7.2120056,-3.2823792,
706.548679,true,true,true,0.0,-0.0078125,0.0,-0.0078125,false,false,false,false,0.0,-0.0546875,0.0,-0.0078125,false,false,false,false,0.125,12.200000000000001,0.0,-11298,0,0,0.125,12.200000000000001,0.0,0,0,0,0.125,12.200000000000001,0.0,-14355,0,0,0.125,12.200000000000001,0.0,0,0,0,0.0,12.200000000000001,0.0,-8,0,0,0.0,12.200000000000001,0.0,0,0,0,0.125,12.25,0.0,0,0,0,kReverse,kOff,-88.39,1.58,8.32,0.23797607,-1.3693848,0.07562256,32.88,0.0,-74.0,-7.213974,-3.2823944,
706.56873,true,true,true,0.0,-0.0078125,0.0,-0.0078125,false,false,false,false,0.0,-0.0546875,0.0,-0.0078125,false,false,false,false,0.125,12.200000000000001,0.0,-11298,0,0,0.125,12.200000000000001,0.0,0,0,0,0.125,12.200000000000001,0.0,-14355,0,0,0.125,12.200000000000001,0.0,0,0,0,0.0,12.200000000000001,0.0,-8,0,0,0.0,12.200000000000001,0.0,0,0,0,0.125,12.25,0.0,0,0,0,kReverse,kOff,-88.41,1.57,6.84,0.08068848,-0.59350586,-0.3704834,32.88,0.0,370.0,-7.2173767,-3.2817688,
706.589103,true,true,true,0.0,-0.0078125,0.0,-0.0078125,false,false,false,false,0.0,-0.0546875,0.0,-0.0078125,false,false,false,false,0.125,12.200000000000001,0.0,-11298,0,0,0.125,12.200000000000001,0.0,0,0,0,0.125,12.200000000000001,0.0,-14355,0,0,0.125,12.200000000000001,0.0,0,0,0,0.0,12.200000000000001,0.0,-8,0,0,0.0,12.200000000000001,0.0,0,0,0,0.0,12.25,0.0,0,0,0,kReverse,kOff,-88.41,1.57,7.3,0.10949707,-1.098877,-0.07763672,32.88,0.0,76.0,-7.218582,-3.2812958,
706.608711,true,true,true,0.0,-0.0078125,0.0,-0.0078125,false,false,false,false,0.0,-0.0546875,0.0,-0.0078125,false,false,false,false,0.125,12.200000000000001,0.0,-11298,0,0,0.125,12.200000000000001,0.0,0,0,0,0.125,12.200000000000001,0.0,-14355,0,0,0.125,12.200000000000001,0.0,0,0,0,0.0,12.200000000000001,0.0,-8,0,0,0.0,12.200000000000001,0.0,0,0,0,0.0,12.25,0.0,0,0,0,kReverse,kOff,-88.37,1.6,8.68,-0.08758545,-0.69659424,0.21704102,32.88,0.0,-224.0,-7.2214355,-3.280365,
706.630929,true,true,true,0.0,-0.0078125,0.0,-0.0078125,false,false,false,false,0.0,-0.0546875,0.0,-0.0078125,false,false,false,false,0.125,12.200000000000001,0.0,-11298,0,0,0.125,12.200000000000001,0.0,0,0,0,0.125,12.200000000000001,0.0,-14355,0,0,0.125,12.200000000000001,0.0,0,0,0,0.0,12.200000000000001,0.0,-8,0,0,0.0,12.200000000000001,0.0,0,0,0,0.0,12.25,0.0,0,0,0,kReverse,kOff,-88.35,1.62,7.91,-0.010864258,-1.4713135,0.14276123,32.88,0.0,-150.0,-7.2232513,-3.2800446,
706.653326,true,true,true,0.0,-0.0078125,0.0,-0.0078125,false,false,false,false,0.0,-0.0546875,0.0,-0.0078125,false,false,false,false,0.125,12.200000000000001,0.0,-11298,0,0,0.125,12.200000000000001,0.0,0,0,0,0.125,12.200000000000001,0.0,-14355,0,0,0.125,12.200000000000001,0.0,0,0,0,0.0,12.200000000000001,0.0,-8,0,0,0.0,12.200000000000001,0.0,0,0,0,0.0,12.25,0.0,0,0,0,kReverse,kOff,-88.33,1.64,8.55,-0.06732178,-0.8651123,0.0031738281,32.88,0.0,-10.0,-7.227173,-3.279831,
706.675196,true,true,true,0.0,-0.0078125,0.0,-0.0078125,false,false,false,false,0.0,-0.0546875,0.0,-0.0078125,false,false,false,false,0.125,12.200000000000001,0.0,-11298,0,0,0.125,12.200000000000001,0.0,0,0,0,0.125,12.200000000000001,0.0,-14355,0,0,0.125,12.200000000000001,0.0,0,0,0,0.0,12.200000000000001,0.0,-8,0,0,0.0,12.200000000000001,0.0,0,0,0,0.125,12.25,0.0,0,0,0,kReverse,kOff,-88.35,1.61,9.6,0.11529541,-1.3399048,0.1987915,32.88,0.0,-202.0,-7.229294,-3.2798157,
706.693795,true,true,true,0.0,-0.0078125,0.0,-0.0078125,false,false,false,false,0.0,-0.0546875,0.0,-0.0078125,false,false,false,false,0.125,12.200000000000001,0.0,-11298,0,0,0.125,12.200000000000001,0.0,0,0,0,0.125,12.200000000000001,0.0,-14355,0,0,0.125,12.200000000000001,0.0,0,0,0,0.0,12.200000000000001,0.0,-8,0,0,0.0,12.200000000000001,0.0,0,0,0,0.125,12.25,0.0,0,0,0,kReverse,kOff,-88.35,1.61,9.6,0.11529541,-1.3399048,0.1987915,32.88,0.0,-202.0,-7.229294,-3.2798157,
706.716317,true,true,true,0.0,-0.0078125,0.0,-0.0078125,false,false,false,false,0.0,-0.0546875,0.0,-0.0078125,false,false,false,false,0.125,12.200000000000001,0.0,-11298,0,0,0.125,12.200000000000001,0.0,0,0,0,0.125,12.200000000000001,0.0,-14355,0,0,0.125,12.200000000000001,0.0,0,0,0,0.0,12.200000000000001,0.0,-8,0,0,0.0,12.200000000000001,0.0,0,0,0,0.125,12.25,0.0,0,0,0,kReverse,kOff,-88.37,1.61,6.93,0.112976074,-0.4718628,-0.40808105,32.88,0.0,409.0,-7.233551,-3.2790833,
706.7320030000001,true,true,true,0.0,-0.0078125,0.0,-0.0078125,false,false,false,false,0.0,-0.0546875,0.0,-0.0078125,false,false,false,false,0.125,12.200000000000001,0.0,-11298,0,0,0.125,12.200000000000001,0.0,0,0,0,0.125,12.200000000000001,0.0,-14355,0,0,0.125,12.200000000000001,0.0,0,0,0,0.0,12.200000000000001,0.0,-8,0,0,0.0,12.200000000000001,0.0,0,0,0,0.125,12.25,0.0,0,0,0,kReverse,kOff,-88.38,1.59,7.59,0.11859131,-0.79681396,-0.39471436,32.88,0.0,394.0,-7.2350006,-3.2784882,
706.7531829999999,true,true,true,0.0,-0.0078125,0.0,-0.0078125,false,false,false,false,0.0,-0.0546875,0.0,-0.0078125,false,false,false,false,0.125,12.200000000000001,0.0,-11298,0,0,0.125,12.200000000000001,0.0,0,0,0,0.125,12.200000000000001,0.0,-14355,0,0,0.125,12.200000000000001,0.0,0,0,0,0.0,12.200000000000001,0.0,-8,0,0,0.0,12.200000000000001,0.0,0,0,0,0.125,12.25,0.0,0,0,0,kReverse,kOff,-88.36,1.61,9.14,-7.324219E-4,-1.0774536,0.0061035156,32.88,0.0,-12.0,-7.236191,-3.2778625,
706.7726779999999,true,true,true,0.0,-0.0078125,0.0,-0.0078125,false,false,false,false,0.0,-0.0546875,0.0,-0.0078125,false,false,false,false,0.125,12.200000000000001,0.0,-11298,0,0,0.125,12.200000000000001,0.0,0,0,0,0.125,12.200000000000001,0.0,-14355,0,0,0.125,12.200000000000001,0.0,0,0,0,0.0,12.200000000000001,0.0,-8,0,0,0.0,12.200000000000001,0.0,0,0,0,0.125,12.25,0.0,0,0,0,kReverse,kOff,-88.37,1.6,9.11,-0.034606934,-0.8555908,0.13970947,32.88,0.0,-145.0,-7.2393494,-3.276825,
706.7930729999999,true,true,true,0.0,-0.0078125,0.0,-0.0078125,false,false,false,false,0.0,-0.0546875,0.0,-0.0078125,false,false,false,false,0.125,12.200000000000001,0.0,-11298,0,0,0.125,12.200000000000001,0.0,0,0,0,0.125,12.200000000000001,0.0,-14355,0,0,0.125,12.200000000000001,0.0,0,0,0,0.0,12.200000000000001,0.0,-8,0,0,0.0,12.200000000000001,0.0,0,0,0,0.125,12.25,0.0,0,0,0,kReverse,kOff,-88.31,1.66,9.12,-0.14282227,-1.4016113,-0.08843994,32.88,0.0,74.0,-7.2411346,-3.2765198,
706.813402,true,true,true,0.0,-0.0078125,0.0,-0.0078125,false,false,false,false,0.0,-0.0546875,0.0,-0.0078125,false,false,false,false,0.125,12.200000000000001,0.0,-11298,0,0,0.125,12.200000000000001,0.0,0,0,0,0.125,12.15,0.0,-14355,0,0,0.125,12.200000000000001,0.0,0,0,0,0.0,12.15,0.0,-8,0,0,0.0,12.200000000000001,0.0,0,0,0,0.125,12.25,0.0,0,0,0,kReverse,kOff,-88.34,1.62,9.57,-0.014038086,-0.9779053,0.06744385,32.88,0.0,-73.0,-7.2444916,-3.2764587,
706.836911,true,true,true,0.0,-0.0078125,0.0,-0.0078125,false,false,false,false,0.0,-0.0546875,0.0,-0.0078125,false,false,false,false,0.125,12.200000000000001,0.0,-11298,0,0,0.125,12.200000000000001,0.0,0,0,0,0.125,12.15,0.0,-14355,0,0,0.125,12.200000000000001,0.0,0,0,0,0.0,12.15,0.0,-8,0,0,0.0,12.200000000000001,0.0,0,0,0,0.125,12.25,0.0,0,0,0,kReverse,kOff,-88.35,1.61,10.38,0.26013184,-1.4143066,0.2109375,32.88,0.0,-210.0,-7.2463684,-3.2763672,
706.856511,true,true,true,0.0,-0.0078125,0.0,-0.0078125,false,false,false,false,0.0,-0.0546875,0.0,-0.0078125,false,false,false,false,0.125,12.200000000000001,0.0,-11298,0,0,0.125,12.200000000000001,0.0,0,0,0,0.125,12.15,0.0,-14355,0,0,0.125,12.200000000000001,0.0,0,0,0,0.0,12.15,0.0,-8,0,0,0.0,12.200000000000001,0.0,0,0,0,0.125,12.25,0.0,0,0,0,kReverse,kOff,-88.36,1.61,8.45,0.17907715,-0.7894287,-0.19915771,32.88,0.0,201.0,-7.2482605,-3.276001,
706.883507,true,true,true,0.0,-0.0078125,0.0,-0.0078125,false,false,false,false,0.0,-0.0546875,0.0,-0.0078125,false,false,false,false,0.125,12.200000000000001,0.0,-11298,0,0,0.125,12.200000000000001,0.0,0,0,0,0.125,12.15,0.0,-14355,0,0,0.125,12.200000000000001,0.0,0,0,0,0.0,12.15,0.0,-8,0,0,0.0,12.200000000000001,0.0,0,0,0,0.125,12.25,0.0,0,0,0,kReverse,kOff,-88.34,1.62,10.65,0.07324219,-1.1022949,-0.14019775,32.88,0.0,135.0,-7.2510223,-3.2749329,
706.903109,true,true,true,0.0,-0.0078125,0.0,-0.0078125,false,false,false,false,0.0,-0.0546875,0.0,-0.0078125,false,false,false,false,0.125,12.200000000000001,0.0,-11298,0,0,0.125,12.200000000000001,0.0,0,0,0,0.125,12.15,0.0,-14355,0,0,0.125,12.200000000000001,0.0,0,0,0,0.0,12.15,0.0,-8,0,0,0.0,12.200000000000001,0.0,0,0,0,0.125,12.25,0.0,0,0,0,kReverse,kOff,-88.34,1.62,10.8,0.018310547,-0.94195557,0.15826416,32.88,0.0,-164.0,-7.2522736,-3.274353,
706.923061,true,true,true,0.0,-0.0078125,0.0,-0.0078125,false,false,false,false,0.0,-0.0546875,0.0,-0.0078125,false,false,false,false,0.125,12.200000000000001,0.0,-11298,0,0,0.125,12.200000000000001,0.0,0,0,0,0.125,12.15,0.0,-14355,0,0,0.125,12.200000000000001,0.0,0,0,0,0.0,12.15,0.0,-8,0,0,0.0,12.200000000000001,0.0,0,0,0,0.125,12.25,0.0,0,0,0,kReverse,kOff,-88.34,1.62,10.58,-0.05316162,-1.3261108,0.10809326,32.88,0.0,-119.0,-7.255478,-3.2734833,
706.945169,true,true,true,0.0,-0.0078125,0.0,-0.0078125,false,false,false,false,0.0,-0.0546875,0.0,-0.0078125,false,false,false,false,0.125,12.200000000000001,0.0,-11298,0,0,0.125,12.200000000000001,0.0,0,0,0,0.125,12.15,0.0,-14355,0,0,0.125,12.200000000000001,0.0,0,0,0,0.0,12.15,0.0,-8,0,0,0.0,12.200000000000001,0.0,0,0,0,0.125,12.25,0.0,0,0,0,kReverse,kOff,-88.3,1.66,9.94,-0.10699463,-1.3535767,-0.041992188,32.88,0.0,29.0,-7.257248,-3.273285,
706.9667,true,true,true,0.0,-0.0078125,0.0,-0.0078125,false,false,false,false,0.0,-0.0546875,0.0,-0.0078125,false,false,false,false,0.125,12.200000000000001,0.0,-11298,0,0,0.125,12.200000000000001,0.0,0,0,0,0.125,12.15,0.0,-14355,0,0,0.125,12.200000000000001,0.0,0,0,0,0.0,12.15,0.0,-8,0,0,0.0,12.200000000000001,0.0,0,0,0,0.0,12.25,0.0,0,0,0,kReverse,kOff,-88.32,1.63,11.02,0.013061523,-0.9973755,-0.059814453,32.88,0.0,53.0,-7.258957,-3.2731934,
706.9866920000001,true,true,true,0.0,-0.0078125,0.0,-0.0078125,false,false,false,false,0.0,-0.2578125,0.0,-0.0078125,false,false,false,false,0.125,12.200000000000001,0.0,-11298,0,0,0.125,12.200000000000001,0.0,0,0,0,0.125,12.15,0.0,-14355,0,0,0.125,12.200000000000001,0.0,0,0,0,0.0,12.200000000000001,0.0,-8,0,0,0.0,12.15,0.0,0,0,0,0.0,12.25,0.0,0,0,0,kReverse,kOff,-88.33,1.63,10.4,0.22149658,-1.2102051,-0.0075683594,32.88,0.0,7.0,-7.262665,-3.2727203,
707.0085359999999,true,true,true,0.0,-0.0078125,0.0,-0.0078125,false,false,false,false,0.0,-0.2578125,0.0,-0.0078125,false,false,false,false,0.125,12.200000000000001,0.0,-11298,0,0,0.125,12.200000000000001,0.0,0,0,0,0.125,12.15,0.0,-14355,0,0,0.125,12.200000000000001,0.0,0,0,0,0.0,12.200000000000001,0.0,-8,0,0,0.0,12.15,0.0,0,0,0,0.0,12.25,0.0,0,0,0,kReverse,kOff,-88.34,1.62,9.14,0.09307861,-0.53845215,-0.34124756,32.88,0.0,341.0,-7.2643433,-3.2722015,
707.030025,true,true,true,0.0,-0.0078125,0.0,-0.0078125,false,false,false,false,0.0,-0.9609375,0.0,-0.0078125,false,false,false,false,0.125,12.200000000000001,0.0,-11298,0,0,0.125,12.200000000000001,0.0,0,0,0,0.125,12.15,0.0,-14355,0,0,0.125,12.200000000000001,0.0,0,0,0,0.0,12.200000000000001,0.0,-8,0,0,0.0,12.15,0.0,0,0,0,0.0,12.25,0.0,0,0,0,kReverse,kOff,-88.33,1.63,9.97,0.11981201,-0.89331055,-0.2960205,32.88,0.0,294.0,-7.265579,-3.2715912,
