timer,lineLeft,lineCenter,lineRight,LeftFrontCurrent,LeftFrontVoltage,LeftFrontValue,LeftFrontPosition,LeftFrontVelocity,LeftFrontFaults,LeftRearCurrent,LeftRearVoltage,LeftRearValue,LeftRearPosition,LeftRearVelocity,LeftRearFaults,RightFrontCurrent,RightFrontVoltage,RightFrontValue,RightFrontPosition,RightFrontVelocity,RightFrontFaults,RightRearCurrent,RightRearVoltage,RightRearValue,RightRearPosition,RightRearVelocity,RightRearFaults,LiftCurrent,LiftVoltage,LiftValue,LiftPosition,LiftVelocity,LiftFaults,WristCurrent,WristVoltage,WristValue,WristPosition,WristVelocity,WristFaults,RollerCurrent,RollerVoltage,RollerValue,RollerPosition,RollerVelocity,RollerFaults,PushersState,PivotsState,navx_Pitch,navx_Roll,navx_Yaw,navx_XAcc,navx_YAcc,navx_ZAcc,navx_Temp,navx_Bar,navx_Alt,navx_XDis,navx_YDis,
305.804027,true,true,true,0.0,12.700000000000001,0.0,-1,0,0,0.0,12.700000000000001,0.0,0,0,0,0.125,12.700000000000001,0.0,0,0,0,0.0,12.75,0.0,0,0,0,0.0,12.700000000000001,0.0,0,0,0,0.0,12.700000000000001,0.0,0,0,0,0.0,12.75,0.0,0,0,0,kReverse,kOff,-87.62,1.98,1.99,0.036132812,-0.9845581,-0.021362305,26.59,0.0,2.0,0.17973328,-0.68551636,
305.821601,true,true,true,0.0,12.700000000000001,0.0,-1,0,0,0.0,12.700000000000001,0.0,0,0,0,0.125,12.700000000000001,0.0,0,0,0,0.0,12.75,0.0,0,0,0,0.0,12.700000000000001,0.0,0,0,0,0.0,12.700000000000001,0.0,0,0,0,0.0,12.75,0.0,0,0,0,kReverse,kOff,-87.62,1.98,1.99,0.03338623,-0.9838867,-0.020446777,26.59,0.0,0.0,0.17973328,-0.68551636,
305.840445,true,true,true,0.0,12.700000000000001,0.0,-1,0,0,0.0,12.700000000000001,0.0,0,0,0,0.125,12.700000000000001,0.0,0,0,0,0.0,12.75,0.0,0,0,0,0.0,12.700000000000001,0.0,0,0,0,0.0,12.700000000000001,0.0,0,0,0,0.0,12.75,0.0,0,0,0,kReverse,kOff,-87.62,1.98,1.99,0.040527344,-0.98913574,-0.030700684,26.59,0.0,6.0,0.17973328,-0.68551636,
305.86053,true,true,true,0.0,12.700000000000001,0.0,-1,0,0,0.0,12.700000000000001,0.0,0,0,0,0.125,12.700000000000001,0.0,0,0,0,0.0,12.75,0.0,0,0,0,0.0,12.700000000000001,0.0,0,0,0,0.0,12.700000000000001,0.0,0,0,0,0.0,12.75,0.0,0,0,0,kReverse,kOff,-87.62,1.97,1.98,0.04559326,-1.0310059,-0.05316162,26.59,0.0,10.0,0.17973328,-0.6855316,
305.88050599999997,true,true,true,0.0,12.700000000000001,0.0,-1,0,0,0.0,12.700000000000001,0.0,0,0,0,0.125,12.700000000000001,0.0,0,0,0,0.0,12.75,0.0,0,0,0,0.0,12.700000000000001,0.0,0,0,0,0.0,12.700000000000001,0.0,0,0,0,0.0,12.75,0.0,0,0,0,kReverse,kOff,-87.6,2.01,2.02,0.032104492,-0.6117554,-0.10900879,26.59,0.0,11.0,0.17973328,-0.6856384,
305.90039399999995,true,true,true,0.0,12.700000000000001,0.0,-1,0,0,0.125,12.700000000000001,0.0,0,0,0,0.125,12.700000000000001,0.0,0,0,0,0.0,12.75,0.0,0,0,0,0.0,12.700000000000001,0.0,0,0,0,0.0,12.700000000000001,0.0,0,0,0,0.0,12.75,0.0,0,0,0,kReverse,kOff,-87.58,2.02,2.03,-0.123046875,-1.2758179,0.045959473,26.59,0.0,-168.0,0.17962646,-0.6854553,
305.920522,true,true,true,0.0,12.4,0.0,-1,0,0,0.125,12.4,0.0,0,0,0,0.125,12.4,0.0,0,0,0,0.0,12.4,0.0,0,0,0,0.0,12.4,0.0,0,0,0,0.0,12.4,0.0,0,0,0,0.0,12.450000000000001,0.0,0,0,0,kReverse,kOff,-87.62,1.99,2.0,0.008117676,-0.861084,-0.051696777,26.59,0.0,-21.0,0.17939758,-0.6852417,
305.94034700000003,true,true,true,0.0,12.4,0.0,-1,0,0,0.125,12.4,0.0,0,0,0,0.125,12.4,0.0,0,0,0,0.0,12.4,0.0,0,0,0,0.0,12.4,0.0,0,0,0,0.0,12.4,0.0,0,0,0,0.0,12.450000000000001,0.0,0,0,0,kReverse,kOff,-87.63,1.97,1.99,0.23364258,-1.2262573,-0.014282227,26.59,0.0,191.0,0.17927551,-0.6850281,
305.96034299999997,true,true,true,0.0,12.4,0.0,-1,0,0,0.125,12.4,0.0,0,0,0,0.125,12.4,0.0,0,0,0,0.0,12.4,0.0,0,0,0,0.0,12.4,0.0,0,0,0,0.0,12.4,0.0,0,0,0,0.0,12.450000000000001,0.0,0,0,0,kReverse,kOff,-87.58,2.0,2.02,0.13720703,-1.1011963,-0.28631592,26.59,0.0,101.0,0.17956543,-0.6850586,
305.980512,true,true,true,0.0,12.4,0.0,-1,0,0,0.125,12.4,0.0,0,0,0,0.125,12.4,0.0,0,0,0,0.0,12.4,0.0,0,0,0,0.0,12.4,0.0,0,0,0,0.0,12.4,0.0,0,0,0,0.0,12.450000000000001,0.0,0,0,0,kReverse,kOff,-87.56,2.02,2.03,0.07336426,-0.8581543,-0.23651123,26.59,0.0,45.0,0.1798706,-0.6855469,
306.00046100000003,true,true,true,0.0,12.4,0.0,-1,0,0,0.125,12.4,0.0,0,0,0,0.125,12.4,0.0,0,0,0,0.0,12.4,0.0,0,0,0,0.0,12.4,0.0,0,0,0,0.0,12.4,0.0,0,0,0,0.0,12.450000000000001,0.0,0,0,0,kReverse,kOff,-87.57,2.0,2.01,0.1906128,-1.1364136,-0.13122559,26.59,0.0,151.0,0.18031311,-0.6862335,
306.020337,true,true,true,0.0,12.4,0.0,-1,0,0,0.0,12.4,0.0,0,0,0,0.125,12.4,0.0,0,0,0,0.0,12.4,0.0,0,0,0,0.0,12.4,0.0,0,0,0,0.0,12.4,0.0,0,0,0,0.0,12.450000000000001,0.0,0,0,0,kReverse,kOff,-87.67,1.94,1.95,0.27770996,-0.81658936,0.03466797,26.59,0.0,249.0,0.18188477,-0.6881256,
306.040131,true,true,true,0.125,12.4,0.0,-1,0,0,0.0,12.4,0.0,0,0,0,0.125,12.4,0.0,0,0,0,0.0,12.4,0.0,0,0,0,0.0,12.4,0.0,0,0,0,0.0,12.4,0.0,0,0,0,0.0,12.450000000000001,0.0,0,0,0,kReverse,kOff,-87.71,1.9,1.91,0.29852295,-0.9753418,-0.004760742,26.59,0.0,265.0,0.1831665,-0.6890564,
306.061154,true,true,true,0.125,12.4,0.0,-1,0,0,0.0,12.4,0.0,0,0,0,0.125,12.4,0.0,0,0,0,0.0,12.4,0.0,0,0,0,0.0,12.4,0.0,0,0,0,0.0,12.4,0.0,0,0,0,0.0,12.450000000000001,0.0,0,0,0,kReverse,kOff,-87.69,1.93,1.94,0.25445557,-0.9685669,-0.15838623,26.59,0.0,223.0,0.18476868,-0.69007874,
306.08016200000003,true,true,true,0.125,12.4,0.0,-1,0,0,0.0,12.4,0.0,0,0,0,0.125,12.4,0.0,0,0,0,0.0,12.450000000000001,0.0,0,0,0,0.0,12.4,0.0,0,0,0,0.0,12.4,0.0,0,0,0,0.0,12.450000000000001,0.0,0,0,0,kReverse,kOff,-87.63,2.0,2.01,0.02758789,-0.5720215,-0.25402832,26.58,0.0,10.0,0.18840027,-0.69306946,
306.100469,true,true,true,0.125,12.4,0.0,-1,0,0,0.0,12.4,0.0,0,0,0,0.125,12.4,0.0,0,0,0,0.0,12.450000000000001,0.0,0,0,0,0.0,12.4,0.0,0,0,0,0.0,12.4,0.0,0,0,0,0.0,12.450000000000001,0.0,0,0,0,kReverse,kOff,-87.63,1.99,2.0,0.037109375,-0.5998535,0.029724121,26.58,0.0,15.0,0.18840027,-0.69488525,
306.120463,true,true,true,0.125,12.4,0.0,-1,0,0,0.0,12.4,0.0,0,0,0,0.125,12.4,0.0,0,0,0,0.0,12.450000000000001,0.0,0,0,0,0.0,12.4,0.0,0,0,0,0.0,12.4,0.0,0,0,0,0.0,12.450000000000001,0.0,0,0,0,kReverse,kOff,-87.63,1.98,2.0,-0.011047363,-0.55670166,-0.0048217773,26.58,0.0,-30.0,0.18838501,-0.6966553,
306.14042099999995,true,true,true,0.125,12.4,0.0,-1,0,0,0.0,12.4,0.0,0,0,0,0.125,12.4,0.0,0,0,0,0.0,12.450000000000001,0.0,0,0,0,0.0,12.4,0.0,0,0,0,0.0,12.4,0.0,0,0,0,0.0,12.450000000000001,0.0,0,0,0,kReverse,kOff,-87.65,1.98,1.99,-0.17492676,-0.8366089,-0.25274658,26.58,0.0,-201.0,0.18772888,-0.7006073,
306.160885,true,true,true,0.125,12.4,0.0,-1,0,0,0.0,12.4,0.0,0,0,0,0.125,12.4,0.0,0,0,0,0.0,12.450000000000001,0.0,0,0,0,0.0,12.4,0.0,0,0,0,0.0,12.4,0.0,0,0,0,0.0,12.450000000000001,0.0,0,0,0,kReverse,kOff,-87.6,2.01,2.02,-0.14758301,-0.7046509,-0.049804688,26.58,0.0,-171.0,0.18701172,-0.7028961,
306.180373,true,true,true,0.125,12.4,0.0,-1,0,0,0.0,12.4,0.0,0,0,0,0.125,12.4,0.0,0,0,0,0.0,12.450000000000001,0.0,0,0,0,0.0,12.4,0.0,0,0,0,0.0,12.4,0.0,0,0,0,0.0,12.450000000000001,0.0,0,0,0,kReverse,kOff,-87.59,2.01,2.03,-0.16912842,-0.71520996,0.04547119,26.58,0.0,-194.0,0.18603516,-0.7051697,
306.20012299999996,true,true,true,0.125,12.4,0.0,-1,0,0,0.0,12.4,0.0,0,0,0,0.125,12.4,0.0,0,0,0,0.0,12.450000000000001,0.0,0,0,0,0.0,12.4,0.0,0,0,0,0.0,12.4,0.0,0,0,0,0.0,12.450000000000001,0.0,0,0,0,kReverse,kOff,-87.63,1.99,2.0,-0.24511719,-0.9998779,-0.18164062,26.58,0.0,-278.0,0.1831665,-0.70991516,
306.22088199999996,true,true,true,0.125,12.4,0.0,-1,0,0,0.0,12.4,0.0,0,0,0,0.125,12.4,0.0,0,0,0,0.0,12.450000000000001,0.0,0,0,0,0.0,12.4,0.0,0,0,0,0.0,12.4,0.0,0,0,0,0.0,12.450000000000001,0.0,0,0,0,kReverse,kOff,-87.64,1.99,2.0,-0.19647217,-0.9447632,-0.40478516,26.58,0.0,-225.0,0.18121338,-0.7127533,
306.240567,true,true,true,0.0,12.4,0.0,-1,0,0,0.0,12.4,0.0,0,0,0,0.125,12.4,0.0,0,0,0,0.0,12.450000000000001,0.0,0,0,0,0.0,12.4,0.0,0,0,0,0.0,12.4,0.0,0,0,0,0.0,12.450000000000001,0.0,0,0,0,kReverse,kOff,-87.59,1.98,2.0,-0.038208008,-1.071167,-0.046142578,26.58,0.0,-75.0,0.176651,-0.7192383,
306.26119,true,true,true,0.0,12.4,0.0,-1,0,0,0.0,12.4,0.0,0,0,0,0.125,12.4,0.0,0,0,0,0.0,12.450000000000001,0.0,0,0,0,0.0,12.4,0.0,0,0,0,0.0,12.4,0.0,0,0,0,0.0,12.450000000000001,0.0,0,0,0,kReverse,kOff,-87.56,1.99,2.01,-0.041137695,-1.2138062,0.12591553,26.58,0.0,-85.0,0.17417908,-0.7224579,
306.280201,true,true,true,0.0,12.4,0.0,-1,0,0,0.0,12.4,0.0,0,0,0,0.125,12.4,0.0,0,0,0,0.0,12.450000000000001,0.0,0,0,0,0.0,12.4,0.0,0,0,0,0.0,12.4,0.0,0,0,0,0.0,12.450000000000001,0.0,0,0,0,kReverse,kOff,-87.57,1.99,2.01,-0.052124023,-1.3522339,0.21643066,26.58,0.0,-101.0,0.17158508,-0.7253876,
306.300036,true,true,true,0.0,12.4,0.0,-1,0,0,0.0,12.4,0.0,0,0,0,0.125,12.4,0.0,0,0,0,0.0,12.450000000000001,0.0,0,0,0,0.0,12.4,0.0,0,0,0,0.0,12.4,0.0,0,0,0,0.0,12.450000000000001,0.0,0,0,0,kReverse,kOff,-87.63,1.93,1.94,0.059692383,-1.1866455,0.38287354,26.58,0.0,15.0,0.16619873,-0.7303009,
306.320655,true,true,true,0.0,12.4,0.0,-1,0,0,0.125,12.4,0.0,0,0,0,0.125,12.4,0.0,0,0,0,0.0,12.450000000000001,0.0,0,0,0,0.0,12.4,0.0,0,0,0,0.0,12.4,0.0,0,0,0,0.0,12.450000000000001,0.0,0,0,0,kReverse,kOff,-87.65,1.91,1.92,0.15808105,-1.2907715,0.3076172,26.58,0.0,111.0,0.16358948,-0.73205566,
306.340577,true,true,true,0.125,12.4,0.0,-1,0,0,0.0,12.4,0.0,0,0,0,0.125,12.4,0.0,0,0,0,0.0,12.450000000000001,0.0,0,0,0,0.0,12.4,0.0,0,0,0,0.0,12.4,0.0,0,0,0,0.0,12.450000000000001,0.0,0,0,0,kReverse,kOff,-87.64,1.9,1.92,0.22198486,-1.3023682,0.3480835,26.58,0.0,174.0,0.16117859,-0.73332214,
306.362042,true,true,true,0.0,12.4,0.0,-1,0,0,0.0,12.4,0.0,0,0,0,0.125,12.4,0.0,0,0,0,0.0,12.450000000000001,0.0,0,0,0,0.0,12.4,0.0,0,0,0,0.0,12.4,0.0,0,0,0,0.0,12.450000000000001,0.0,0,0,0,kReverse,kOff,-87.65,1.93,1.95,0.29333496,-1.2310791,0.0010986328,26.58,0.0,251.0,0.1572876,-0.734787,
306.381822,true,true,true,0.0,12.4,0.0,-1,0,0,0.0,12.4,0.0,0,0,0,0.125,12.4,0.0,0,0,0,0.0,12.450000000000001,0.0,0,0,0,0.0,12.4,0.0,0,0,0,0.0,12.4,0.0,0,0,0,0.0,12.450000000000001,0.0,0,0,0,kReverse,kOff,-87.68,1.92,1.94,0.22998047,-1.1203613,-0.061950684,26.58,0.0,192.0,0.1558075,-0.73542786,
306.40174799999994,true,true,true,0.0,12.4,0.0,-1,0,0,0.0,12.4,0.0,0,0,0,0.125,12.4,0.0,0,0,0,0.0,12.4,0.0,0,0,0,0.0,12.4,0.0,0,0,0,0.0,12.4,0.0,0,0,0,0.0,12.450000000000001,0.0,0,0,0,kReverse,kOff,-87.73,1.89,1.91,0.17791748,-0.85980225,-0.3265381,26.58,0.0,152.0,0.15359497,-0.7374878,
306.42144899999994,true,true,true,0.0,12.4,0.0,-1,0,0,0.125,12.4,0.0,0,0,0,0.125,12.4,0.0,0,0,0,0.0,12.4,0.0,0,0,0,0.0,12.4,0.0,0,0,0,0.0,12.4,0.0,0,0,0,0.0,12.450000000000001,0.0,0,0,0,kReverse,kOff,-87.73,1.89,1.9,0.22943115,-0.8510132,-0.3291626,26.58,0.0,204.0,0.15284729,-0.7391205,
306.44064299999997,true,true,true,0.125,12.4,0.0,-1,0,0,0.125,12.4,0.0,0,0,0,0.125,12.4,0.0,0,0,0,0.0,12.4,0.0,0,0,0,0.0,12.4,0.0,0,0,0,0.0,12.4,0.0,0,0,0,0.0,12.450000000000001,0.0,0,0,0,kReverse,kOff,-87.71,1.89,1.91,0.11456299,-0.65112305,-0.25476074,26.58,0.0,95.0,0.15229797,-0.74113464,
306.46010099999995,true,true,true,0.125,12.4,0.0,-1,0,0,0.0,12.4,0.0,0,0,0,0.125,12.4,0.0,0,0,0,0.0,12.4,0.0,0,0,0,0.0,12.4,0.0,0,0,0,0.0,12.4,0.0,0,0,0,0.0,12.450000000000001,0.0,0,0,0,kReverse,kOff,-87.71,1.89,1.91,0.118652344,-0.6989136,-0.0703125,26.58,0.0,96.0,0.15187073,-0.74334717,
306.480207,true,true,true,0.0,12.4,0.0,-1,0,0,0.0,12.4,0.0,0,0,0,0.125,12.4,0.0,0,0,0,0.0,12.4,0.0,0,0,0,0.0,12.4,0.0,0,0,0,0.0,12.4,0.0,0,0,0,0.0,12.450000000000001,0.0,0,0,0,kReverse,kOff,-87.67,1.91,1.92,-0.07434082,-0.6672363,-0.030090332,26.58,0.0,-96.0,0.1512146,-0.74806213,
306.50079199999993,true,true,true,0.0,12.4,0.0,-1,0,0,0.0,12.4,0.0,0,0,0,0.125,12.4,0.0,0,0,0,0.0,12.4,0.0,0,0,0,0.0,12.4,0.0,0,0,0,0.0,12.4,0.0,0,0,0,0.0,12.450000000000001,0.0,0,0,0,kReverse,kOff,-87.67,1.9,1.91,-0.039611816,-0.6984863,0.030761719,26.58,0.0,-63.0,0.15075684,-0.7504425,
306.520087,true,true,true,0.0,12.4,0.0,-1,0,0,0.0,12.4,0.0,0,0,0,0.125,12.4,0.0,0,0,0,0.0,12.4,0.0,0,0,0,0.0,12.4,0.0,0,0,0,0.0,12.4,0.0,0,0,0,0.0,12.450000000000001,0.0,0,0,0,kReverse,kOff,-87.67,1.89,1.91,-0.10021973,-0.8649292,0.12225342,26.58,0.0,-130.0,0.15016174,-0.7527008,
306.540341,true,true,true,0.0,12.4,0.0,-1,0,0,0.0,12.4,0.0,0,0,0,0.125,12.4,0.0,0,0,0,0.0,12.4,0.0,0,0,0,0.0,12.4,0.0,0,0,0,0.0,12.4,0.0,0,0,0,0.0,12.450000000000001,0.0,0,0,0,kReverse,kOff,-87.66,1.91,1.93,-0.15356445,-0.8308716,-0.044921875,26.58,0.0,-181.0,0.1483612,-0.7568207,
306.560864,true,true,true,0.0,12.4,0.0,-1,0,0,0.0,12.4,0.0,0,0,0,0.125,12.4,0.0,0,0,0,0.0,12.4,0.0,0,0,0,0.0,12.4,0.0,0,0,0,0.0,12.4,0.0,0,0,0,0.0,12.450000000000001,0.0,0,0,0,kReverse,kOff,-87.66,1.91,1.93,-0.15356445,-0.8308716,-0.044921875,26.58,0.0,-181.0,0.1483612,-0.7568207,
306.58043599999996,true,true,true,0.0,12.4,0.0,-1,0,0,0.125,12.4,0.0,0,0,0,0.125,12.4,0.0,0,0,0,0.0,12.4,0.0,0,0,0,0.0,12.4,0.0,0,0,0,0.0,12.4,0.0,0,0,0,0.0,12.450000000000001,0.0,0,0,0,kReverse,kOff,-87.66,1.91,1.93,-0.18365479,-0.72998047,-0.30047607,26.58,0.0,-185.0,0.14553833,-0.761734,
306.60006400000003,true,true,true,0.0,12.4,0.0,-1,0,0,0.125,12.4,0.0,0,0,0,0.125,12.4,0.0,0,0,0,0.0,12.4,0.0,0,0,0,0.0,12.4,0.0,0,0,0,0.0,12.4,0.0,0,0,0,0.0,12.450000000000001,0.0,0,0,0,kReverse,kOff,-87.63,1.92,1.93,-0.20666504,-0.9873047,-0.23834229,26.57,0.0,-237.0,0.14370728,-0.7647705,
306.62051,true,true,true,0.0,12.4,0.0,-1,0,0,0.125,12.4,0.0,0,0,0,0.125,12.4,0.0,0,0,0,0.0,12.4,0.0,0,0,0,0.0,12.4,0.0,0,0,0,0.0,12.4,0.0,0,0,0,0.0,12.450000000000001,0.0,0,0,0,kReverse,kOff,-87.61,1.93,1.95,-0.13208008,-1.177063,-0.21252441,26.57,0.0,-169.0,0.1415863,-0.7680969,
306.640112,true,true,true,0.0,12.4,0.0,-1,0,0,0.125,12.4,0.0,0,0,0,0.125,12.4,0.0,0,0,0,0.0,12.4,0.0,0,0,0,0.0,12.4,0.0,0,0,0,0.0,12.4,0.0,0,0,0,0.0,12.450000000000001,0.0,0,0,0,kReverse,kOff,-87.61,1.92,1.93,-0.030761719,-1.2598267,0.070251465,26.57,0.0,-74.0,0.13673401,-0.77482605,
306.660415,true,true,true,0.0,12.4,0.0,-1,0,0,0.125,12.4,0.0,0,0,0,0.125,12.4,0.0,0,0,0,0.0,12.4,0.0,0,0,0,0.0,12.4,0.0,0,0,0,0.0,12.4,0.0,0,0,0,0.0,12.450000000000001,0.0,0,0,0,kReverse,kOff,-87.61,1.91,1.93,0.022705078,-1.2965088,0.2539673,26.57,0.0,-23.0,0.13415527,-0.7778778,
306.680131,true,true,true,0.0,12.4,0.0,-1,0,0,0.125,12.4,0.0,0,0,0,0.125,12.4,0.0,0,0,0,0.0,12.4,0.0,0,0,0,0.0,12.4,0.0,0,0,0,0.0,12.4,0.0,0,0,0,0.0,12.450000000000001,0.0,0,0,0,kReverse,kOff,-87.63,1.9,1.91,0.068237305,-1.2523804,0.39624023,26.57,0.0,21.0,0.13157654,-0.7804413,
306.70012299999996,true,true,true,0.0,12.4,0.0,-1,0,0,0.125,12.4,0.0,0,0,0,0.125,12.4,0.0,0,0,0,0.0,12.4,0.0,0,0,0,0.0,12.4,0.0,0,0,0,0.0,12.4,0.0,0,0,0,0.0,12.450000000000001,0.0,0,0,0,kReverse,kOff,-87.65,1.9,1.92,0.15118408,-1.2645874,0.34814453,26.57,0.0,104.0,0.12666321,-0.7838745,
306.720309,true,true,true,0.0,12.4,0.0,-1,0,0,0.125,12.4,0.0,0,0,0,0.125,12.35,0.0,0,0,0,0.0,12.4,0.0,0,0,0,0.0,12.4,0.0,0,0,0,0.0,12.4,0.0,0,0,0,0.0,12.450000000000001,0.0,0,0,0,kReverse,kOff,-87.67,1.9,1.92,0.3092041,-1.3528442,0.24664307,26.57,0.0,260.0,0.12451172,-0.78486633,
306.74048,true,true,true,0.0,12.4,0.0,-1,0,0,0.125,12.4,0.0,0,0,0,0.125,12.35,0.0,0,0,0,0.0,12.4,0.0,0,0,0,0.0,12.4,0.0,0,0,0,0.0,12.4,0.0,0,0,0,0.0,12.450000000000001,0.0,0,0,0,kReverse,kOff,-87.69,1.91,1.92,0.24499512,-1.2712402,0.023010254,26.57,0.0,201.0,0.122680664,-0.78564453,
306.76062199999996,true,true,true,0.0,12.4,0.0,-1,0,0,0.125,12.4,0.0,0,0,0,0.125,12.35,0.0,0,0,0,0.0,12.4,0.0,0,0,0,0.0,12.4,0.0,0,0,0,0.0,12.4,0.0,0,0,0,0.0,12.450000000000001,0.0,0,0,0,kReverse,kOff,-87.69,1.93,1.94,0.20117188,-0.9418335,-0.28363037,26.57,0.0,172.0,0.11987305,-0.7874756,
306.78061699999995,true,true,true,0.0,12.4,0.0,-1,0,0,0.0,12.4,0.0,0,0,0,0.125,12.35,0.0,0,0,0,0.0,12.4,0.0,0,0,0,0.0,12.4,0.0,0,0,0,0.0,12.4,0.0,0,0,0,0.0,12.450000000000001,0.0,0,0,0,kReverse,kOff,-87.7,1.91,1.93,0.2052002,-0.8984375,-0.37298584,26.57,0.0,178.0,0.11885071,-0.7889252,
306.80038199999996,true,true,true,0.0,12.4,0.0,-1,0,0,0.0,12.4,0.0,0,0,0,0.125,12.35,0.0,0,0,0,0.0,12.4,0.0,0,0,0,0.0,12.4,0.0,0,0,0,0.0,12.4,0.0,0,0,0,0.0,12.450000000000001,0.0,0,0,0,kReverse,kOff,-87.7,1.91,1.92,0.18847656,-0.7113037,-0.29614258,26.57,0.0,167.0,0.11805725,-0.790802,
306.820432,true,true,true,0.125,12.4,0.0,-1,0,0,0.0,12.4,0.0,0,0,0,0.125,12.35,0.0,0,0,0,0.0,12.4,0.0,0,0,0,0.0,12.4,0.0,0,0,0,0.0,12.4,0.0,0,0,0,0.0,12.450000000000001,0.0,0,0,0,kReverse,kOff,-87.67,1.91,1.93,0.08203125,-0.6095581,-0.078186035,26.57,0.0,62.0,0.11697388,-0.7953186,
306.840385,true,true,true,0.125,12.4,0.0,-1,0,0,0.0,12.4,0.0,0,0,0,0.125,12.35,0.0,0,0,0,0.0,12.4,0.0,0,0,0,0.0,12.4,0.0,0,0,0,0.0,12.4,0.0,0,0,0,0.0,12.450000000000001,0.0,0,0,0,kReverse,kOff,-87.64,1.93,1.95,0.004333496,-0.6107178,-0.024108887,26.57,0.0,-16.0,0.11653137,-0.7976837,
306.86011099999996,true,true,true,0.0,12.4,0.0,-1,0,0,0.125,12.4,0.0,0,0,0,0.125,12.35,0.0,0,0,0,0.0,12.4,0.0,0,0,0,0.0,12.4,0.0,0,0,0,0.0,12.4,0.0,0,0,0,0.0,12.450000000000001,0.0,0,0,0,kReverse,kOff,-87.63,1.93,1.94,-0.028442383,-0.66955566,-0.007019043,26.57,0.0,-51.0,0.11604309,-0.8000641,
306.880143,true,true,true,0.0,12.4,0.0,-1,0,0,0.125,12.4,0.0,0,0,0,0.125,12.35,0.0,0,0,0,0.0,12.4,0.0,0,0,0,0.0,12.4,0.0,0,0,0,0.0,12.4,0.0,0,0,0,0.0,12.450000000000001,0.0,0,0,0,kReverse,kOff,-87.63,1.94,1.95,-0.1763916,-0.8967285,0.021240234,26.57,0.0,-207.0,0.11463928,-0.8046417,
306.900462,true,true,true,0.0,12.4,0.0,-1,0,0,0.0,12.4,0.0,0,0,0,0.125,12.35,0.0,0,0,0,0.0,12.4,0.0,0,0,0,0.0,12.4,0.0,0,0,0,0.0,12.4,0.0,0,0,0,0.0,12.450000000000001,0.0,0,0,0,kReverse,kOff,-87.62,1.93,1.95,-0.18066406,-0.7579346,0.014038086,26.57,0.0,-206.0,0.11355591,-0.80685425,
306.920314,true,true,true,0.0,12.4,0.0,-1,0,0,0.0,12.4,0.0,0,0,0,0.125,12.35,0.0,0,0,0,0.0,12.4,0.0,0,0,0,0.0,12.4,0.0,0,0,0,0.0,12.4,0.0,0,0,0,0.0,12.450000000000001,0.0,0,0,0,kReverse,kOff,-87.64,1.92,1.93,-0.16925049,-0.81274414,-0.14703369,26.57,0.0,-195.0,0.112197876,-0.8091278,
306.94057799999996,true,true,true,0.0,12.4,0.0,-1,0,0,0.0,12.4,0.0,0,0,0,0.125,12.35,0.0,0,0,0,0.0,12.4,0.0,0,0,0,0.0,12.4,0.0,0,0,0,0.0,12.4,0.0,0,0,0,0.0,12.450000000000001,0.0,0,0,0,kReverse,kOff,-87.61,1.93,1.95,-0.15393066,-0.9267578,-0.28778076,26.57,0.0,-182.0,0.10876465,-0.81474304,
306.960483,true,true,true,0.0,12.4,0.0,-1,0,0,0.0,12.4,0.0,0,0,0,0.125,12.35,0.0,0,0,0,0.0,12.4,0.0,0,0,0,0.0,12.4,0.0,0,0,0,0.0,12.4,0.0,0,0,0,0.0,12.450000000000001,0.0,0,0,0,kReverse,kOff,-87.59,1.94,1.95,-0.12994385,-1.0796509,-0.24456787,26.57,0.0,-164.0,0.10670471,-0.8181,
306.98011199999996,true,true,true,0.0,12.4,0.0,-1,0,0,0.0,12.4,0.0,0,0,0,0.125,12.35,0.0,0,0,0,0.0,12.4,0.0,0,0,0,0.0,12.4,0.0,0,0,0,0.0,12.4,0.0,0,0,0,0.0,12.450000000000001,0.0,0,0,0,kReverse,kOff,-87.54,1.95,1.97,-0.12915039,-1.1997681,0.026306152,26.57,0.0,-170.0,0.10441589,-0.8215637,
307.000522,true,true,true,0.0,12.4,0.0,-1,0,0,0.0,12.4,0.0,0,0,0,0.125,12.35,0.0,0,0,0,0.0,12.4,0.0,0,0,0,0.0,12.4,0.0,0,0,0,0.0,12.4,0.0,0,0,0,0.0,12.450000000000001,0.0,0,0,0,kReverse,kOff,-87.58,1.89,1.91,0.02911377,-1.3217163,0.16052246,26.57,0.0,-16.0,0.09933472,-0.827713,
307.020342,true,true,true,0.0,12.4,0.0,-1,0,0,0.0,12.4,0.0,0,0,0,0.125,12.35,0.0,0,0,0,0.0,12.4,0.0,0,0,0,0.0,12.4,0.0,0,0,0,0.0,12.4,0.0,0,0,0,0.0,12.450000000000001,0.0,0,0,0,kReverse,kOff,-87.59,1.87,1.89,0.04486084,-1.1484985,0.24591064,26.57,0.0,4.0,0.096725464,-0.83029175,
307.040515,true,true,true,0.0,12.35,0.0,-1,0,0,0.125,12.4,0.0,0,0,0,0.125,12.35,0.0,0,0,0,0.0,12.4,0.0,0,0,0,0.0,12.35,0.0,0,0,0,0.0,12.35,0.0,0,0,0,0.0,12.4,0.0,0,0,0,kReverse,kOff,-87.6,1.85,1.87,0.18023682,-1.229187,0.27087402,26.57,0.0,136.0,0.0917511,-0.83421326,
307.060583,true,true,true,0.0,12.35,0.0,-1,0,0,0.0,12.4,0.0,0,0,0,0.125,12.35,0.0,0,0,0,0.0,12.4,0.0,0,0,0,0.0,12.35,0.0,0,0,0,0.0,12.35,0.0,0,0,0,0.0,12.4,0.0,0,0,0,kReverse,kOff,-87.61,1.84,1.86,0.2824707,-1.3789673,0.14880371,26.57,0.0,235.0,0.08956909,-0.83561707,
307.08193900000003,true,true,true,0.0,12.35,0.0,-1,0,0,0.0,12.4,0.0,0,0,0,0.125,12.35,0.0,0,0,0,0.0,12.4,0.0,0,0,0,0.0,12.35,0.0,0,0,0,0.0,12.35,0.0,0,0,0,0.0,12.4,0.0,0,0,0,kReverse,kOff,-87.62,1.84,1.86,0.26794434,-1.2019653,-0.1408081,26.57,0.0,230.0,0.08772278,-0.83695984,
307.100115,true,true,true,0.0,12.35,0.0,-1,0,0,0.0,12.4,0.0,0,0,0,0.125,12.35,0.0,0,0,0,0.0,12.4,0.0,0,0,0,0.0,12.35,0.0,0,0,0,0.0,12.35,0.0,0,0,0,0.0,12.4,0.0,0,0,0,kReverse,kOff,-87.63,1.86,1.88,0.21582031,-0.8550415,-0.3116455,26.6,0.0,191.0,0.08496094,-0.84039307,
307.120381,true,true,true,0.125,12.35,0.0,-1,0,0,0.0,12.4,0.0,0,0,0,0.125,12.35,0.0,0,0,0,0.0,12.4,0.0,0,0,0,0.0,12.35,0.0,0,0,0,0.0,12.35,0.0,0,0,0,0.0,12.4,0.0,0,0,0,kReverse,kOff,-87.63,1.85,1.87,0.14868164,-0.86486816,-0.25915527,26.6,0.0,123.0,0.0839386,-0.8426361,
307.14014999999995,true,true,true,0.125,12.35,0.0,-1,0,0,0.0,12.4,0.0,0,0,0,0.125,12.35,0.0,0,0,0,0.0,12.4,0.0,0,0,0,0.0,12.35,0.0,0,0,0,0.0,12.35,0.0,0,0,0,0.0,12.4,0.0,0,0,0,kReverse,kOff,-87.62,1.84,1.86,0.16723633,-0.67211914,-0.13128662,26.6,0.0,146.0,0.083099365,-0.8451233,
307.160154,true,true,true,0.125,12.35,0.0,-1,0,0,0.0,12.4,0.0,0,0,0,0.125,12.35,0.0,0,0,0,0.0,12.4,0.0,0,0,0,0.0,12.35,0.0,0,0,0,0.0,12.35,0.0,0,0,0,0.0,12.4,0.0,0,0,0,kReverse,kOff,-87.6,1.85,1.87,0.08660889,-0.7404785,-0.08581543,26.6,0.0,63.0,0.0818634,-0.8504944,
307.182207,true,true,true,0.125,12.35,0.0,-1,0,0,0.0,12.4,0.0,0,0,0,0.125,12.35,0.0,0,0,0,0.0,12.4,0.0,0,0,0,0.0,12.35,0.0,0,0,0,0.0,12.35,0.0,0,0,0,0.0,12.4,0.0,0,0,0,kReverse,kOff,-87.58,1.88,1.9,-0.011352539,-0.73095703,-0.030151367,26.6,0.0,-35.0,0.08131409,-0.85328674,
307.200949,true,true,true,0.0,12.35,0.0,-1,0,0,0.0,12.35,0.0,0,0,0,0.125,12.35,0.0,0,0,0,0.0,12.4,0.0,0,0,0,0.0,12.35,0.0,0,0,0,0.0,12.35,0.0,0,0,0,0.0,12.4,0.0,0,0,0,kReverse,kOff,-87.56,1.9,1.92,-0.1005249,-0.8088379,0.06072998,26.6,0.0,-128.0,0.08065796,-0.8560333,
307.220576,true,true,true,0.0,12.35,0.0,-1,0,0,0.0,12.35,0.0,0,0,0,0.125,12.35,0.0,0,0,0,0.0,12.4,0.0,0,0,0,0.0,12.35,0.0,0,0,0,0.0,12.35,0.0,0,0,0,0.0,12.4,0.0,0,0,0,kReverse,kOff,-87.56,1.93,1.94,-0.19396973,-0.80914307,-0.025024414,26.6,0.0,-221.0,0.07878113,-0.86120605,
307.24091699999997,true,true,true,0.0,12.35,0.0,-1,0,0,0.0,12.35,0.0,0,0,0,0.125,12.35,0.0,0,0,0,0.0,12.4,0.0,0,0,0,0.0,12.35,0.0,0,0,0,0.0,12.35,0.0,0,0,0,0.0,12.4,0.0,0,0,0,kReverse,kOff,-87.58,1.91,1.93,-0.17089844,-0.7671509,-0.25073242,26.6,0.0,-194.0,0.077438354,-0.8639221,
307.26079699999997,true,true,true,0.0,12.35,0.0,-1,0,0,0.0,12.35,0.0,0,0,0,0.125,12.35,0.0,0,0,0,0.0,12.4,0.0,0,0,0,0.0,12.35,0.0,0,0,0,0.0,12.35,0.0,0,0,0,0.0,12.4,0.0,0,0,0,kReverse,kOff,-87.58,1.92,1.94,-0.19244385,-1.0059814,-0.2333374,26.6,0.0,-223.0,0.07394409,-0.87023926,
307.280847,true,true,true,0.125,12.35,0.0,-1,0,0,0.125,12.35,0.0,0,0,0,0.125,12.35,0.0,0,0,0,0.0,12.4,0.0,0,0,0,0.0,12.35,0.0,0,0,0,0.0,12.35,0.0,0,0,0,0.0,12.4,0.0,0,0,0,kReverse,kOff,-87.54,1.91,1.93,-0.105529785,-1.1912231,-0.11138916,26.6,0.0,-144.0,0.0717926,-0.8737335,
307.300065,true,true,true,0.125,12.35,0.0,-1,0,0,0.0,12.35,0.0,0,0,0,0.125,12.35,0.0,0,0,0,0.0,12.4,0.0,0,0,0,0.0,12.35,0.0,0,0,0,0.0,12.35,0.0,0,0,0,0.0,12.4,0.0,0,0,0,kReverse,kOff,-87.52,1.92,1.94,-0.07574463,-1.272522,0.159729,26.6,0.0,-120.0,0.06947327,-0.8771515,
307.320143,true,true,true,0.0,12.35,0.0,-1,0,0,0.0,12.35,0.0,0,0,0,0.125,12.35,0.0,0,0,0,0.0,12.4,0.0,0,0,0,0.0,12.35,0.0,0,0,0,0.0,12.35,0.0,0,0,0,0.0,12.4,0.0,0,0,0,kReverse,kOff,-87.55,1.88,1.9,0.00592041,-1.1661987,0.2647705,26.6,0.0,-35.0,0.064590454,-0.8830719,
307.34014999999994,true,true,true,0.0,12.35,0.0,-1,0,0,0.0,12.35,0.0,0,0,0,0.125,12.35,0.0,0,0,0,0.0,12.4,0.0,0,0,0,0.0,12.35,0.0,0,0,0,0.0,12.35,0.0,0,0,0,0.0,12.4,0.0,0,0,0,kReverse,kOff,-87.6,1.84,1.86,0.06732178,-1.2324829,0.28271484,26.6,0.0,24.0,0.06211853,-0.885437,
307.360337,true,true,true,0.0,12.35,0.0,-1,0,0,0.0,12.35,0.0,0,0,0,0.125,12.35,0.0,0,0,0,0.0,12.4,0.0,0,0,0,0.0,12.35,0.0,0,0,0,0.0,12.35,0.0,0,0,0,0.0,12.4,0.0,0,0,0,kReverse,kOff,-87.6,1.84,1.86,0.1572876,-1.1937866,0.26837158,26.6,0.0,115.0,0.05973816,-0.8873749,
307.380947,true,true,true,0.125,12.35,0.0,-1,0,0,0.0,12.35,0.0,0,0,0,0.125,12.35,0.0,0,0,0,0.0,12.4,0.0,0,0,0,0.0,12.35,0.0,0,0,0,0.0,12.35,0.0,0,0,0,0.0,12.4,0.0,0,0,0,kReverse,kOff,-87.64,1.84,1.86,0.25634766,-1.2231445,-0.081970215,26.6,0.0,217.0,0.055725098,-0.8904877,
307.40009200000003,true,true,true,0.125,12.35,0.0,-1,0,0,0.0,12.35,0.0,0,0,0,0.125,12.35,0.0,0,0,0,0.0,12.4,0.0,0,0,0,0.0,12.35,0.0,0,0,0,0.0,12.35,0.0,0,0,0,0.0,12.4,0.0,0,0,0,kReverse,kOff,-87.65,1.84,1.86,0.29382324,-1.1252441,-0.21203613,26.6,0.0,259.0,0.05418396,-0.8921509,
307.420419,true,true,true,0.125,12.35,0.0,-1,0,0,0.0,12.35,0.0,0,0,0,0.125,12.35,0.0,0,0,0,0.0,12.4,0.0,0,0,0,0.0,12.35,0.0,0,0,0,0.0,12.35,0.0,0,0,0,0.0,12.4,0.0,0,0,0,kReverse,kOff,-87.66,1.86,1.87,0.22729492,-0.8185425,-0.2559204,26.6,0.0,203.0,0.052947998,-0.89408875,
307.44049099999995,true,true,true,0.125,12.35,0.0,-1,0,0,0.0,12.35,0.0,0,0,0,0.125,12.35,0.0,0,0,0,0.0,12.4,0.0,0,0,0,0.0,12.35,0.0,0,0,0,0.0,12.35,0.0,0,0,0,0.0,12.4,0.0,0,0,0,kReverse,kOff,-87.68,1.83,1.85,0.15472412,-0.64056396,-0.099487305,26.6,0.0,134.0,0.051116943,-0.89881897,
307.46054499999997,true,true,true,0.0,12.35,0.0,-1,0,0,0.0,12.35,0.0,0,0,0,0.125,12.35,0.0,0,0,0,0.0,12.4,0.0,0,0,0,0.0,12.35,0.0,0,0,0,0.0,12.35,0.0,0,0,0,0.0,12.4,0.0,0,0,0,kReverse,kOff,-87.69,1.84,1.85,0.15344238,-0.7180786,-0.045288086,26.6,0.0,130.0,0.050460815,-0.9013672,
307.480648,true,true,true,0.0,12.35,0.0,-1,0,0,0.0,12.35,0.0,0,0,0,0.125,12.35,0.0,0,0,0,0.0,12.4,0.0,0,0,0,0.0,12.35,0.0,0,0,0,0.0,12.35,0.0,0,0,0,0.0,12.4,0.0,0,0,0,kReverse,kOff,-87.67,1.86,1.87,0.069885254,-0.7040405,-0.026733398,26.6,0.0,47.0,0.049942017,-0.9039459,
307.50057899999996,true,true,true,0.0,12.35,0.0,-1,0,0,0.125,12.35,0.0,0,0,0,0.125,12.35,0.0,0,0,0,0.0,12.4,0.0,0,0,0,0.0,12.35,0.0,0,0,0,0.0,12.35,0.0,0,0,0,0.0,12.4,0.0,0,0,0,kReverse,kOff,-87.61,1.92,1.94,-0.15026855,-0.7420044,0.059326172,26.6,0.0,-175.0,0.048797607,-0.90896606,
307.52056899999997,true,true,true,0.0,12.35,0.0,-1,0,0,0.125,12.35,0.0,0,0,0,0.125,12.35,0.0,0,0,0,0.0,12.35,0.0,0,0,0,0.0,12.35,0.0,0,0,0,0.0,12.35,0.0,0,0,0,0.0,12.4,0.0,0,0,0,kReverse,kOff,-87.62,1.91,1.93,-0.19055176,-0.7529297,-0.02166748,26.6,0.0,-215.0,0.04789734,-0.91137695,
307.540513,true,true,true,0.0,12.35,0.0,-1,0,0,0.125,12.35,0.0,0,0,0,0.125,12.35,0.0,0,0,0,0.0,12.35,0.0,0,0,0,0.0,12.35,0.0,0,0,0,0.0,12.35,0.0,0,0,0,0.0,12.4,0.0,0,0,0,kReverse,kOff,-87.64,1.89,1.9,-0.1730957,-0.76312256,-0.070495605,26.6,0.0,-197.0,0.046722412,-0.9138489,
307.560548,true,true,true,0.0,12.35,0.0,-1,0,0,0.0,12.35,0.0,0,0,0,0.125,12.35,0.0,0,0,0,0.0,12.35,0.0,0,0,0,0.0,12.35,0.0,0,0,0,0.375,12.35,0.0,0,0,0,0.0,12.4,0.0,0,0,0,kReverse,kOff,-87.66,1.88,1.89,-0.20080566,-1.0092163,-0.17510986,26.6,0.0,-232.0,0.043518066,-0.9192352,
307.580588,true,true,true,0.0,12.35,0.0,-1,0,0,0.0,12.35,0.0,0,0,0,0.125,12.35,0.0,0,0,0,0.0,12.35,0.0,0,0,0,0.0,12.35,0.0,0,0,0,1.25,12.35,0.0,0,0,0,0.0,12.4,0.0,0,0,0,kReverse,kOff,-87.65,1.88,1.9,-0.08770752,-1.1793213,-0.09539795,26.6,0.0,-125.0,0.041503906,-0.92219543,
307.60087400000003,true,true,true,0.0,12.35,0.0,-1,0,0,0.0,12.35,0.0,0,0,0,0.125,12.35,0.0,0,0,0,0.0,12.35,0.0,0,0,0,0.0,12.35,0.0,0,0,0,2.75,12.35,0.0,0,0,0,0.0,12.4,0.0,0,0,0,kReverse,kOff,-87.63,1.89,1.91,-0.066101074,-1.2389526,0.17321777,26.6,0.0,-109.0,0.039352417,-0.9250488,
307.62039799999997,true,true,true,0.0,12.35,0.0,-1,0,0,0.0,12.35,0.0,0,0,0,0.125,12.35,0.0,0,0,0,0.0,12.35,0.0,0,0,0,0.0,12.35,0.0,0,0,0,4.125,12.35,0.0,0,0,0,0.0,12.4,0.0,0,0,0,kReverse,kOff,-87.64,1.85,1.87,0.020263672,-1.1098022,0.22436523,26.57,0.0,-18.0,0.034851074,-0.92993164,
307.64070000000004,true,true,true,0.0,12.35,0.0,-1,0,0,0.0,12.35,0.0,0,0,0,0.125,12.35,0.0,0,0,0,0.0,12.35,0.0,0,0,0,0.0,12.35,0.0,0,0,0,4.5,12.35,0.0,0,0,0,0.0,12.4,0.0,0,0,0,kReverse,kOff,-87.67,1.83,1.85,0.08532715,-1.1861572,0.10089111,26.57,0.0,45.0,0.032608032,-0.93196106,
307.66049599999997,true,true,true,0.125,12.35,0.0,-1,0,0,0.0,12.35,0.0,0,0,0,0.125,12.35,0.0,0,0,0,0.0,12.35,0.0,0,0,0,0.0,12.35,0.0,0,0,0,4.75,12.35,0.0,0,0,0,0.0,12.4,0.0,0,0,0,kReverse,kOff,-87.66,1.82,1.84,0.13659668,-1.3325195,-0.0725708,26.57,0.0,94.0,0.030456543,-0.93392944,
307.680545,true,true,true,0.125,12.25,0.0,-1,0,0,0.0,12.25,0.0,0,0,0,0.125,12.200000000000001,0.0,0,0,0,0.0,12.25,0.0,0,0,0,0.0,12.25,0.0,0,0,0,4.125,12.200000000000001,0.0,0,0,0,0.0,12.3,0.0,0,0,0,kReverse,kOff,-87.64,1.83,1.85,0.18774414,-0.97125244,-0.17523193,26.57,0.0,158.0,0.026794434,-0.9382019,
307.70062,true,true,true,0.125,12.25,0.0,-1,0,0,0.0,12.25,0.0,0,0,0,0.125,12.200000000000001,0.0,0,0,0,0.0,12.25,0.0,0,0,0,0.0,12.25,0.0,0,0,0,3.0,12.200000000000001,0.0,0,0,0,0.0,12.3,0.0,0,0,0,kReverse,kOff,-87.66,1.83,1.85,0.14630127,-0.68634033,-0.24176025,26.57,0.0,126.0,0.025283813,-0.9406738,
307.72101999999995,true,true,true,0.125,12.25,0.0,-1,0,0,0.0,12.25,0.0,0,0,0,0.125,12.200000000000001,0.0,0,0,0,0.0,12.25,0.0,0,0,0,0.0,12.25,0.0,0,0,0,1.75,12.200000000000001,0.0,0,0,0,0.0,12.3,0.0,0,0,0,kReverse,kOff,-87.67,1.83,1.85,0.13775635,-0.6533203,-0.19403076,26.57,0.0,118.0,0.02394104,-0.9434204,
307.740568,true,true,true,0.0,12.25,0.0,-1,0,0,0.0,12.25,0.0,0,0,0,0.125,12.200000000000001,0.0,0,0,0,0.0,12.25,0.0,0,0,0,0.0,12.25,0.0,0,0,0,0.625,12.200000000000001,0.0,0,0,0,0.0,12.3,0.0,0,0,0,kReverse,kOff,-87.61,1.86,1.88,0.06982422,-0.9133911,-0.010864258,26.57,0.0,39.0,0.021743774,-0.9492645,
307.760547,true,true,true,0.0,12.25,0.0,-1,0,0,0.0,12.25,0.0,0,0,0,0.125,12.200000000000001,0.0,0,0,0,0.0,12.25,0.0,0,0,0,0.0,12.25,0.0,0,0,0,0.125,12.200000000000001,0.0,0,0,0,0.0,12.3,0.0,0,0,0,kReverse,kOff,-87.6,1.89,1.9,-0.0126953125,-0.79571533,-0.02557373,26.57,0.0,-38.0,0.020706177,-0.9521942,
307.780271,true,true,true,0.0,12.25,0.0,-1,0,0,0.0,12.25,0.0,0,0,0,0.125,12.200000000000001,0.0,0,0,0,0.0,12.25,0.0,0,0,0,0.0,12.25,0.0,0,0,0,0.0,12.200000000000001,0.0,0,0,0,0.0,12.3,0.0,0,0,0,kReverse,kOff,-87.59,1.91,1.93,-0.073913574,-0.734375,0.020629883,26.57,0.0,-98.0,0.019561768,-0.95510864,
307.800125,true,true,true,0.0,12.25,0.0,-1,0,0,0.125,12.25,0.0,0,0,0,0.125,12.200000000000001,0.0,0,0,0,0.0,12.25,0.0,0,0,0,0.0,12.25,0.0,0,0,0,0.0,12.200000000000001,0.0,0,0,0,0.0,12.3,0.0,0,0,0,kReverse,kOff,-87.59,1.9,1.92,-0.051940918,-0.8430786,0.04498291,26.57,0.0,-80.0,0.016860962,-0.9607239,
307.821016,true,true,true,0.0,12.25,0.0,-1,0,0,0.125,12.25,0.0,0,0,0,0.125,12.200000000000001,0.0,0,0,0,0.0,12.25,0.0,0,0,0,0.0,12.25,0.0,0,0,0,0.0,12.200000000000001,0.0,0,0,0,0.0,12.3,0.0,0,0,0,kReverse,kOff,-87.59,1.9,1.92,-0.051940918,-0.8430786,0.04498291,26.57,0.0,-80.0,0.016860962,-0.9607239,
307.840125,true,true,true,0.125,12.35,0.0,-1,0,0,0.125,12.35,0.0,0,0,0,0.125,12.35,0.0,0,0,0,0.0,12.35,0.0,0,0,0,0.0,12.35,0.0,0,0,0,0.0,12.35,0.0,0,0,0,0.0,12.4,0.0,0,0,0,kReverse,kOff,-87.58,1.92,1.94,-0.09564209,-0.96765137,-0.18347168,26.57,0.0,-126.0,0.015289307,-0.96354675,
307.860189,true,true,true,0.125,12.35,0.0,-1,0,0,0.125,12.35,0.0,0,0,0,0.125,12.35,0.0,0,0,0,0.0,12.35,0.0,0,0,0,0.0,12.35,0.0,0,0,0,0.0,12.35,0.0,0,0,0,0.0,12.4,0.0,0,0,0,kReverse,kOff,-87.53,1.92,1.94,-0.16186523,-1.211731,0.011352539,26.57,0.0,-202.0,0.011428833,-0.96977234,
307.881803,true,true,true,0.125,12.35,0.0,-1,0,0,0.125,12.35,0.0,0,0,0,0.125,12.35,0.0,0,0,0,0.0,12.35,0.0,0,0,0,0.0,12.35,0.0,0,0,0,0.0,12.35,0.0,0,0,0,0.0,12.4,0.0,0,0,0,kReverse,kOff,-87.54,1.88,1.9,-0.004699707,-1.2255249,0.14056396,26.57,0.0,-46.0,0.009185791,-0.9727783,
307.901305,true,true,true,0.125,12.35,0.0,-1,0,0,0.125,12.35,0.0,0,0,0,0.125,12.35,0.0,0,0,0,0.0,12.35,0.0,0,0,0,0.0,12.35,0.0,0,0,0,0.0,12.35,0.0,0,0,0,0.0,12.4,0.0,0,0,0,kReverse,kOff,-87.52,1.86,1.88,0.0791626,-1.2331543,0.21618652,26.57,0.0,36.0,0.004547119,-0.97776794,
307.92214399999995,true,true,true,0.0,12.35,0.0,-1,0,0,0.0,12.35,0.0,0,0,0,0.125,12.35,0.0,0,0,0,0.0,12.35,0.0,0,0,0,0.0,12.35,0.0,0,0,0,0.0,12.35,0.0,0,0,0,0.0,12.4,0.0,0,0,0,kReverse,kOff,-87.52,1.86,1.88,0.14093018,-1.3745728,0.2255249,26.57,0.0,93.0,0.002319336,-0.97972107,
307.943173,true,true,true,0.0,12.35,0.0,-1,0,0,0.0,12.35,0.0,0,0,0,0.125,12.35,0.0,0,0,0,0.0,12.35,0.0,0,0,0,0.0,12.35,0.0,0,0,0,0.0,12.35,0.0,0,0,0,0.0,12.4,0.0,0,0,0,kReverse,kOff,-87.51,1.84,1.85,0.17559814,-1.137146,-0.13452148,26.57,0.0,140.0,-0.0015563965,-0.9829712,
307.96638299999995,true,true,true,0.0,12.35,0.0,-1,0,0,0.0,12.35,0.0,0,0,0,0.125,12.35,0.0,0,0,0,0.0,12.35,0.0,0,0,0,0.0,12.35,0.0,0,0,0,0.0,12.35,0.0,0,0,0,0.0,12.4,0.0,0,0,0,kReverse,kOff,-87.53,1.84,1.85,0.1885376,-0.84698486,-0.35040283,26.57,0.0,164.0,-0.003189087,-0.98487854,
307.987147,true,true,true,0.0,12.35,0.0,-1,0,0,0.0,12.35,0.0,0,0,0,0.125,12.35,0.0,0,0,0,0.0,12.35,0.0,0,0,0,0.0,12.35,0.0,0,0,0,0.0,12.35,0.0,0,0,0,0.0,12.4,0.0,0,0,0,kReverse,kOff,-87.52,1.85,1.86,0.12884521,-0.7262573,-0.3098755,26.57,0.0,108.0,-0.0057678223,-0.9900665,
308.007336,true,true,true,0.0,12.35,0.0,-1,0,0,0.0,12.35,0.0,0,0,0,0.125,12.35,0.0,0,0,0,0.0,12.35,0.0,0,0,0,0.0,12.35,0.0,0,0,0,0.0,12.35,0.0,0,0,0,0.0,12.4,0.0,0,0,0,kReverse,kOff,-87.49,1.85,1.87,0.1348877,-0.7305908,-0.1237793,26.57,0.0,112.0,-0.00680542,-0.9931488,
308.02603999999997,true,true,true,0.0,12.35,0.0,-1,0,0,0.0,12.35,0.0,0,0,0,0.125,12.35,0.0,0,0,0,0.0,12.35,0.0,0,0,0,0.0,12.35,0.0,0,0,0,0.0,12.35,0.0,0,0,0,0.0,12.4,0.0,0,0,0,kReverse,kOff,-87.48,1.87,1.89,0.043640137,-0.72528076,-0.1105957,26.57,0.0,20.0,-0.007736206,-0.9963684,
308.046951,true,true,true,0.0,12.35,0.0,-1,0,0,0.0,12.35,0.0,0,0,0,0.125,12.35,0.0,0,0,0,0.0,12.35,0.0,0,0,0,0.0,12.35,0.0,0,0,0,0.0,12.35,0.0,0,0,0,0.0,12.4,0.0,0,0,0,kReverse,kOff,-87.44,1.91,1.93,-0.053466797,-0.6563721,0.06591797,26.57,0.0,-76.0,-0.009735107,-1.0028687,
308.067505,true,true,true,0.0,12.35,0.0,-1,0,0,0.0,12.35,0.0,0,0,0,0.125,12.35,0.0,0,0,0,0.0,12.35,0.0,0,0,0,0.0,12.35,0.0,0,0,0,0.0,12.35,0.0,0,0,0,0.0,12.4,0.0,0,0,0,kReverse,kOff,-87.45,1.92,1.94,-0.07574463,-0.7307739,0.08050537,26.57,0.0,-101.0,-0.010879517,-1.0059662,
308.088521,true,true,true,0.0,12.35,0.0,-1,0,0,0.0,12.35,0.0,0,0,0,0.125,12.35,0.0,0,0,0,0.0,12.35,0.0,0,0,0,0.0,12.35,0.0,0,0,0,0.0,12.35,0.0,0,0,0,0.0,12.4,0.0,0,0,0,kReverse,kOff,-87.46,1.94,1.95,-0.15802002,-0.9633789,-0.16497803,26.57,0.0,-189.0,-0.0137786865,-1.0121002,
308.108375,true,true,true,0.0,12.35,0.0,-1,0,0,0.0,12.35,0.0,0,0,0,0.125,12.35,0.0,0,0,0,0.0,12.35,0.0,0,0,0,0.0,12.35,0.0,0,0,0,0.0,12.35,0.0,0,0,0,0.0,12.4,0.0,0,0,0,kReverse,kOff,-87.43,1.96,1.98,-0.13366699,-1.1984253,-0.11553955,26.57,0.0,-173.0,-0.015609741,-1.0153656,
308.130342,true,true,true,0.0,12.35,0.0,-1,0,0,0.0,12.35,0.0,0,0,0,0.125,12.35,0.0,0,0,0,0.0,12.35,0.0,0,0,0,0.0,12.35,0.0,0,0,0,0.0,12.35,0.0,0,0,0,0.0,12.4,0.0,0,0,0,kReverse,kOff,-87.39,1.98,2.0,-0.03540039,-1.2661743,0.1116333,26.61,0.0,-80.0,-0.019729614,-1.0218658,
308.14962099999997,true,true,true,0.0,12.35,0.0,-1,0,0,0.0,12.35,0.0,0,0,0,0.125,12.3,0.0,0,0,0,0.0,12.35,0.0,0,0,0,0.0,12.35,0.0,0,0,0,0.0,12.35,0.0,0,0,0,0.0,12.4,0.0,0,0,0,kReverse,kOff,-87.41,1.95,1.97,-0.019470215,-1.0947266,0.20159912,26.61,0.0,-59.0,-0.021942139,-1.0247955,
308.170483,true,true,true,0.0,12.35,0.0,-1,0,0,0.0,12.35,0.0,0,0,0,0.125,12.3,0.0,0,0,0,0.0,12.35,0.0,0,0,0,0.0,12.35,0.0,0,0,0,0.0,12.35,0.0,0,0,0,0.0,12.4,0.0,0,0,0,kReverse,kOff,-87.44,1.93,1.95,0.04144287,-1.2484741,0.25976562,26.61,0.0,-3.0,-0.02418518,-1.0273743,
308.190498,true,true,true,0.0,12.35,0.0,-1,0,0,0.0,12.35,0.0,0,0,0,0.125,12.3,0.0,0,0,0,0.0,12.35,0.0,0,0,0,0.0,12.35,0.0,0,0,0,0.0,12.35,0.0,0,0,0,0.0,12.4,0.0,0,0,0,kReverse,kOff,-87.45,1.93,1.95,0.25219727,-1.4436646,0.11425781,26.61,0.0,201.0,-0.028320312,-1.0314789,
308.212671,true,true,true,0.125,12.35,0.0,-1,0,0,0.0,12.35,0.0,0,0,0,0.125,12.3,0.0,0,0,0,0.0,12.35,0.0,0,0,0,0.0,12.35,0.0,0,0,0,0.0,12.35,0.0,0,0,0,0.0,12.4,0.0,0,0,0,kReverse,kOff,-87.45,1.94,1.96,0.2748413,-1.2907104,-0.07104492,26.61,0.0,231.0,-0.029968262,-1.0332947,
308.235369,true,true,true,0.0,12.35,0.0,-1,0,0,0.0,12.35,0.0,0,0,0,0.125,12.3,0.0,0,0,0,0.0,12.35,0.0,0,0,0,0.0,12.35,0.0,0,0,0,0.0,12.35,0.0,0,0,0,0.0,12.4,0.0,0,0,0,kReverse,kOff,-87.48,1.93,1.95,0.1307373,-0.6535034,-0.31341553,26.61,0.0,111.0,-0.03250122,-1.0377197,
308.26666,true,true,true,0.0,12.35,0.0,-1,0,0,0.125,12.35,0.0,0,0,0,0.125,12.3,0.0,0,0,0,0.0,12.35,0.0,0,0,0,0.0,12.35,0.0,0,0,0,0.0,12.35,0.0,0,0,0,0.0,12.4,0.0,0,0,0,kReverse,kOff,-87.47,1.91,1.92,0.103515625,-0.72094727,-0.13989258,26.61,0.0,80.0,-0.034423828,-1.043396,
308.2911,true,true,true,0.125,12.35,0.0,-1,0,0,0.125,12.35,0.0,0,0,0,0.125,12.3,0.0,0,0,0,0.0,12.35,0.0,0,0,0,0.0,12.35,0.0,0,0,0,0.0,12.35,0.0,0,0,0,0.0,12.4,0.0,0,0,0,kReverse,kOff,-87.4,1.96,1.97,-0.022888184,-0.62615967,-0.048217773,26.61,0.0,-43.0,-0.036087036,-1.0497284,
308.313791,true,true,true,0.125,12.35,0.0,-1,0,0,0.0,12.35,0.0,0,0,0,0.125,12.3,0.0,0,0,0,0.0,12.35,0.0,0,0,0,0.0,12.35,0.0,0,0,0,0.0,12.35,0.0,0,0,0,0.0,12.4,0.0,0,0,0,kReverse,kOff,-87.4,1.96,1.98,-0.08514404,-0.6525879,0.076171875,26.61,0.0,-108.0,-0.03703308,-1.0529022,
308.336215,true,true,true,0.125,12.35,0.0,-1,0,0,0.0,12.35,0.0,0,0,0,0.125,12.3,0.0,0,0,0,0.0,12.35,0.0,0,0,0,0.0,12.35,0.0,0,0,0,0.0,12.35,0.0,0,0,0,0.0,12.4,0.0,0,0,0,kReverse,kOff,-87.42,1.95,1.97,-0.159729,-0.69262695,0.0859375,26.61,0.0,-184.0,-0.03816223,-1.0559387,
308.358473,true,true,true,0.125,12.35,0.0,-1,0,0,0.0,12.35,0.0,0,0,0,0.125,12.3,0.0,0,0,0,0.0,12.35,0.0,0,0,0,0.0,12.35,0.0,0,0,0,0.0,12.35,0.0,0,0,0,0.0,12.4,0.0,0,0,0,kReverse,kOff,-87.47,1.96,1.98,-0.12817383,-1.0873413,-0.12957764,26.61,0.0,-164.0,-0.041107178,-1.0618896,
308.38233399999996,true,true,true,0.125,12.35,0.0,-1,0,0,0.0,12.35,0.0,0,0,0,0.125,12.3,0.0,0,0,0,0.0,12.35,0.0,0,0,0,0.0,12.35,0.0,0,0,0,0.0,12.35,0.0,0,0,0,0.0,12.4,0.0,0,0,0,kReverse,kOff,-87.42,2.01,2.03,-0.0033569336,-1.2546387,0.031677246,26.61,0.0,-48.0,-0.044830322,-1.0680542,
308.405473,true,true,true,0.0,12.35,0.0,-1,0,0,0.0,12.35,0.0,0,0,0,0.125,12.3,0.0,0,0,0,0.0,12.35,0.0,0,0,0,0.0,12.35,0.0,0,0,0,0.0,12.35,0.0,0,0,0,0.0,12.4,0.0,0,0,0,kReverse,kOff,-87.42,2.0,2.02,-0.03100586,-1.1797485,0.18762207,26.61,0.0,-74.0,-0.046844482,-1.0709381,
308.424743,true,true,true,0.0,12.35,0.0,-1,0,0,0.0,12.35,0.0,0,0,0,0.125,12.3,0.0,0,0,0,0.0,12.35,0.0,0,0,0,0.0,12.35,0.0,0,0,0,0.0,12.35,0.0,0,0,0,0.0,12.4,0.0,0,0,0,kReverse,kOff,-87.45,1.97,1.99,-0.015930176,-1.1705322,0.25854492,26.61,0.0,-59.0,-0.048934937,-1.0734711,
308.442697,true,true,true,0.0,12.35,0.0,-1,0,0,0.0,12.35,0.0,0,0,0,0.125,12.3,0.0,0,0,0,0.0,12.35,0.0,0,0,0,0.0,12.35,0.0,0,0,0,0.0,12.35,0.0,0,0,0,0.0,12.4,0.0,0,0,0,kReverse,kOff,-87.48,1.94,1.96,0.22973633,-1.4252319,0.20550537,26.61,0.0,178.0,-0.053085327,-1.077301,
308.46542800000003,true,true,true,0.0,12.35,0.0,-1,0,0,0.0,12.35,0.0,0,0,0,0.125,12.3,0.0,0,0,0,0.0,12.35,0.0,0,0,0,0.0,12.3,0.0,0,0,0,0.0,12.3,0.0,0,0,0,0.0,12.35,0.0,0,0,0,kReverse,kOff,-87.52,1.94,1.96,0.2711792,-1.3195801,0.008300781,26.61,0.0,225.0,-0.05480957,-1.0788116,
308.487218,true,true,true,0.0,12.3,0.0,-1,0,0,0.0,12.35,0.0,0,0,0,0.125,12.3,0.0,0,0,0,0.0,12.35,0.0,0,0,0,0.0,12.3,0.0,0,0,0,0.0,12.3,0.0,0,0,0,0.0,12.35,0.0,0,0,0,kReverse,kOff,-87.54,1.95,1.96,0.13922119,-0.7015381,-0.33917236,26.61,0.0,118.0,-0.057510376,-1.0824585,
308.50773399999997,true,true,true,0.125,12.3,0.0,-1,0,0,0.0,12.35,0.0,0,0,0,0.125,12.3,0.0,0,0,0,0.0,12.35,0.0,0,0,0,0.0,12.3,0.0,0,0,0,0.0,12.3,0.0,0,0,0,0.0,12.35,0.0,0,0,0,kReverse,kOff,-87.57,1.92,1.94,0.11743164,-0.69989014,-0.26068115,26.61,0.0,96.0,-0.058624268,-1.0848541,
308.525844,true,true,true,0.0,12.3,0.0,-1,0,0,0.0,12.35,0.0,0,0,0,0.125,12.3,0.0,0,0,0,0.0,12.35,0.0,0,0,0,0.0,12.3,0.0,0,0,0,0.0,12.3,0.0,0,0,0,0.0,12.35,0.0,0,0,0,kReverse,kOff,-87.56,1.91,1.93,0.11590576,-0.72509766,-0.110961914,26.61,0.0,92.0,-0.05958557,-1.0874634,
308.546501,true,true,true,0.0,12.3,0.0,-1,0,0,0.0,12.35,0.0,0,0,0,0.125,12.3,0.0,0,0,0,0.0,12.35,0.0,0,0,0,0.0,12.3,0.0,0,0,0,0.0,12.3,0.0,0,0,0,0.0,12.35,0.0,0,0,0,kReverse,kOff,-87.54,1.91,1.93,0.04449463,-0.7611084,-0.15209961,26.61,0.0,20.0,-0.06048584,-1.0902252,
308.566442,true,true,true,0.0,12.3,0.0,-1,0,0,0.0,12.35,0.0,0,0,0,0.125,12.3,0.0,0,0,0,0.0,12.35,0.0,0,0,0,0.0,12.3,0.0,0,0,0,0.0,12.3,0.0,0,0,0,0.0,12.35,0.0,0,0,0,kReverse,kOff,-87.49,1.96,1.98,-0.053466797,-0.7102661,0.09197998,26.61,0.0,-79.0,-0.062423706,-1.0958405,
308.58593299999995,true,true,true,0.0,12.3,0.0,-1,0,0,0.0,12.35,0.0,0,0,0,0.125,12.3,0.0,0,0,0,0.0,12.35,0.0,0,0,0,0.0,12.3,0.0,0,0,0,0.0,12.3,0.0,0,0,0,0.0,12.35,0.0,0,0,0,kReverse,kOff,-87.49,1.98,2.0,-0.16925049,-0.67297363,0.10479736,26.61,0.0,-193.0,-0.06362915,-1.0984497,
308.605393,true,true,true,0.125,12.3,0.0,-1,0,0,0.0,12.35,0.0,0,0,0,0.125,12.3,0.0,0,0,0,0.0,12.35,0.0,0,0,0,0.0,12.3,0.0,0,0,0,0.0,12.3,0.0,0,0,0,0.0,12.35,0.0,0,0,0,kReverse,kOff,-87.54,1.97,1.99,-0.12402344,-1.0431519,-0.123046875,26.61,0.0,-158.0,-0.0667572,-1.1034241,
308.628247,true,true,true,0.125,12.3,0.0,-1,0,0,0.0,12.3,0.0,0,0,0,0.125,12.3,0.0,0,0,0,0.0,12.35,0.0,0,0,0,0.0,12.3,0.0,0,0,0,0.0,12.3,0.0,0,0,0,0.0,12.35,0.0,0,0,0,kReverse,kOff,-87.51,2.0,2.01,-0.09173584,-1.2241211,-0.12359619,26.58,0.0,-133.0,-0.068618774,-1.1060486,
308.649996,true,true,true,0.0,12.3,0.0,-1,0,0,0.125,12.3,0.0,0,0,0,0.125,12.3,0.0,0,0,0,0.0,12.35,0.0,0,0,0,0.0,12.3,0.0,0,0,0,0.0,12.3,0.0,0,0,0,0.0,12.35,0.0,0,0,0,kReverse,kOff,-87.45,2.02,2.04,-0.014892578,-1.2330933,0.12036133,26.58,0.0,-60.0,-0.07270813,-1.1112976,
308.66970000000003,true,true,true,0.0,12.3,0.0,-1,0,0,0.125,12.3,0.0,0,0,0,0.125,12.3,0.0,0,0,0,0.0,12.35,0.0,0,0,0,0.0,12.3,0.0,0,0,0,0.0,12.3,0.0,0,0,0,0.0,12.35,0.0,0,0,0,kReverse,kOff,-87.47,1.99,2.01,0.0119018555,-1.1289673,0.16894531,26.58,0.0,-29.0,-0.07484436,-1.1136322,
308.690941,true,true,true,0.0,12.3,0.0,-1,0,0,0.125,12.3,0.0,0,0,0,0.125,12.3,0.0,0,0,0,0.0,12.35,0.0,0,0,0,0.0,12.3,0.0,0,0,0,0.0,12.3,0.0,0,0,0,0.0,12.35,0.0,0,0,0,kReverse,kOff,-87.52,1.94,1.96,0.21783447,-1.4171753,0.15228271,26.58,0.0,167.0,-0.079071045,-1.1174469,
308.712631,true,true,true,0.125,12.3,0.0,-1,0,0,0.125,12.3,0.0,0,0,0,0.125,12.3,0.0,0,0,0,0.0,12.35,0.0,0,0,0,0.0,12.3,0.0,0,0,0,0.0,12.3,0.0,0,0,0,0.0,12.35,0.0,0,0,0,kReverse,kOff,-87.53,1.94,1.96,0.2565918,-1.2962036,-0.020263672,26.58,0.0,212.0,-0.08085632,-1.1190643,
308.733437,true,true,true,0.125,12.3,0.0,-1,0,0,0.125,12.3,0.0,0,0,0,0.125,12.3,0.0,0,0,0,0.0,12.35,0.0,0,0,0,0.0,12.3,0.0,0,0,0,0.0,12.3,0.0,0,0,0,0.0,12.35,0.0,0,0,0,kReverse,kOff,-87.53,1.95,1.97,0.2487793,-0.9736328,-0.24334717,26.58,0.0,217.0,-0.08236694,-1.1208344,
308.75803099999996,true,true,true,0.125,12.3,0.0,-1,0,0,0.125,12.3,0.0,0,0,0,0.125,12.3,0.0,0,0,0,0.0,12.35,0.0,0,0,0,0.0,12.3,0.0,0,0,0,0.0,12.3,0.0,0,0,0,0.0,12.35,0.0,0,0,0,kReverse,kOff,-87.54,1.94,1.96,0.13464355,-0.66290283,-0.28881836,26.58,0.0,114.0,-0.08467102,-1.125534,
308.779748,true,true,true,0.125,12.3,0.0,-1,0,0,0.125,12.3,0.0,0,0,0,0.125,12.3,0.0,0,0,0,0.0,12.35,0.0,0,0,0,0.0,12.3,0.0,0,0,0,0.0,12.3,0.0,0,0,0,0.0,12.35,0.0,0,0,0,kReverse,kOff,-87.53,1.93,1.95,0.092041016,-0.7896118,-0.10076904,26.58,0.0,66.0,-0.08560181,-1.1283417,
308.800416,true,true,true,0.125,12.3,0.0,-1,0,0,0.0,12.3,0.0,0,0,0,0.125,12.3,0.0,0,0,0,0.0,12.35,0.0,0,0,0,0.0,12.3,0.0,0,0,0,0.0,12.3,0.0,0,0,0,0.0,12.35,0.0,0,0,0,kReverse,kOff,-87.5,1.98,2.0,-0.034057617,-0.64886475,0.04827881,26.58,0.0,-57.0,-0.087387085,-1.1341705,
308.82360800000004,true,true,true,0.125,12.3,0.0,-1,0,0,0.0,12.3,0.0,0,0,0,0.125,12.3,0.0,0,0,0,0.0,12.35,0.0,0,0,0,0.0,12.3,0.0,0,0,0,0.0,12.3,0.0,0,0,0,0.0,12.35,0.0,0,0,0,kReverse,kOff,-87.5,1.99,2.0,-0.14001465,-0.6539917,0.05670166,26.58,0.0,-163.0,-0.08843994,-1.1369934,
308.84628,true,true,true,0.125,12.3,0.0,-1,0,0,0.125,12.3,0.0,0,0,0,0.125,12.3,0.0,0,0,0,0.0,12.35,0.0,0,0,0,0.0,12.3,0.0,0,0,0,0.0,12.3,0.0,0,0,0,0.0,12.35,0.0,0,0,0,kReverse,kOff,-87.56,1.95,1.96,-0.12860107,-0.8815918,0.030883789,26.58,0.0,-159.0,-0.09124756,-1.142395,
308.87195499999996,true,true,true,0.125,12.3,0.0,-1,0,0,0.0,12.3,0.0,0,0,0,0.125,12.3,0.0,0,0,0,0.0,12.35,0.0,0,0,0,0.0,12.3,0.0,0,0,0,0.0,12.3,0.0,0,0,0,0.0,12.35,0.0,0,0,0,kReverse,kOff,-87.53,2.01,2.03,-0.11444092,-1.2581787,-0.012451172,26.58,0.0,-158.0,-0.094955444,-1.1478119,
308.893197,true,true,true,0.125,12.3,0.0,-1,0,0,0.0,12.3,0.0,0,0,0,0.125,12.3,0.0,0,0,0,0.0,12.35,0.0,0,0,0,0.0,12.3,0.0,0,0,0,0.0,12.3,0.0,0,0,0,0.0,12.35,0.0,0,0,0,kReverse,kOff,-87.53,2.0,2.01,0.016540527,-1.2887573,0.10638428,26.58,0.0,-29.0,-0.0970459,-1.1504517,
308.913701,true,true,true,0.0,12.3,0.0,-1,0,0,0.0,12.3,0.0,0,0,0,0.125,12.3,0.0,0,0,0,0.0,12.35,0.0,0,0,0,0.0,12.3,0.0,0,0,0,0.0,12.3,0.0,0,0,0,0.0,12.35,0.0,0,0,0,kReverse,kOff,-87.56,1.96,1.98,-0.00970459,-1.1939697,0.24377441,26.58,0.0,-53.0,-0.10144043,-1.1548004,
308.939215,true,true,true,0.0,12.3,0.0,-1,0,0,0.0,12.3,0.0,0,0,0,0.125,12.3,0.0,0,0,0,0.0,12.35,0.0,0,0,0,0.0,12.3,0.0,0,0,0,0.0,12.3,0.0,0,0,0,0.0,12.35,0.0,0,0,0,kReverse,kOff,-87.59,1.94,1.96,0.14459229,-1.3337402,0.1763916,26.58,0.0,96.0,-0.103637695,-1.1564789,
308.96551,true,true,true,0.0,12.3,0.0,-1,0,0,0.0,12.3,0.0,0,0,0,0.125,12.25,0.0,0,0,0,0.0,12.35,0.0,0,0,0,0.0,12.3,0.0,0,0,0,0.0,12.3,0.0,0,0,0,0.0,12.35,0.0,0,0,0,kReverse,kOff,-87.6,1.94,1.95,0.27416992,-1.2034302,-0.12585449,26.58,0.0,234.0,-0.107406616,-1.1594086,
308.98485800000003,true,true,true,0.0,12.3,0.0,-1,0,0,0.0,12.3,0.0,0,0,0,0.125,12.25,0.0,0,0,0,0.0,12.35,0.0,0,0,0,0.0,12.3,0.0,0,0,0,0.0,12.3,0.0,0,0,0,0.0,12.35,0.0,0,0,0,kReverse,kOff,-87.61,1.94,1.95,0.16522217,-0.81121826,-0.31298828,26.58,0.0,140.0,-0.10890198,-1.1611328,
309.005587,true,true,true,0.0,12.3,0.0,-1,0,0,0.0,12.3,0.0,0,0,0,0.125,12.25,0.0,0,0,0,0.0,12.35,0.0,0,0,0,0.0,12.3,0.0,0,0,0,0.0,12.3,0.0,0,0,0,0.0,12.35,0.0,0,0,0,kReverse,kOff,-87.63,1.89,1.91,0.13549805,-0.67333984,-0.10498047,26.58,0.0,114.0,-0.11141968,-1.1654968,
309.02858499999996,true,true,true,0.0,12.3,0.0,-1,0,0,0.0,12.3,0.0,0,0,0,0.125,12.25,0.0,0,0,0,0.0,12.35,0.0,0,0,0,0.0,12.3,0.0,0,0,0,0.0,12.3,0.0,0,0,0,0.0,12.35,0.0,0,0,0,kReverse,kOff,-87.63,1.89,1.9,0.09454346,-0.84368896,-0.124816895,26.58,0.0,67.0,-0.11248779,-1.1679077,
309.04944,true,true,true,0.0,12.3,0.0,-1,0,0,0.0,12.3,0.0,0,0,0,0.125,12.25,0.0,0,0,0,0.0,12.35,0.0,0,0,0,0.0,12.3,0.0,0,0,0,0.0,12.3,0.0,0,0,0,0.0,12.35,0.0,0,0,0,kReverse,kOff,-87.6,1.92,1.93,0.024597168,-0.68170166,0.082458496,26.58,0.0,-90.0,-0.11457825,-1.1729431,
309.070658,true,true,true,0.125,12.3,0.0,-1,0,0,0.0,12.3,0.0,0,0,0,0.125,12.25,0.0,0,0,0,0.0,12.35,0.0,0,0,0,0.0,12.3,0.0,0,0,0,0.0,12.3,0.0,0,0,0,0.0,12.35,0.0,0,0,0,kReverse,kOff,-87.56,1.95,1.97,-0.066345215,-0.68170166,0.082458496,26.58,0.0,-90.0,-0.11457825,-1.1729431,
309.090179,true,true,true,0.125,12.3,0.0,-1,0,0,0.0,12.3,0.0,0,0,0,0.125,12.25,0.0,0,0,0,0.0,12.35,0.0,0,0,0,0.0,12.3,0.0,0,0,0,0.0,12.3,0.0,0,0,0,0.0,12.35,0.0,0,0,0,kReverse,kOff,-87.56,1.96,1.97,-0.17041016,-0.6813965,0.05596924,26.58,0.0,-194.0,-0.115859985,-1.1753387,
309.112458,true,true,true,0.0,12.3,0.0,-1,0,0,0.0,12.3,0.0,0,0,0,0.125,12.25,0.0,0,0,0,0.0,12.35,0.0,0,0,0,0.0,12.3,0.0,0,0,0,0.0,12.3,0.0,0,0,0,0.0,12.35,0.0,0,0,0,kReverse,kOff,-87.62,1.92,1.94,-0.1616211,-1.0056152,-0.10272217,26.58,0.0,-194.0,-0.119140625,-1.1800232,
309.131729,true,true,true,0.0,12.3,0.0,-1,0,0,0.0,12.3,0.0,0,0,0,0.125,12.25,0.0,0,0,0,0.0,12.35,0.0,0,0,0,0.0,12.3,0.0,0,0,0,0.0,12.3,0.0,0,0,0,0.0,12.35,0.0,0,0,0,kReverse,kOff,-87.61,1.92,1.94,-0.089538574,-1.2121582,-0.13433838,26.58,0.0,-129.0,-0.12112427,-1.1824951,
309.150065,true,true,true,0.0,12.3,0.0,-1,0,0,0.125,12.3,0.0,0,0,0,0.125,12.25,0.0,0,0,0,0.0,12.35,0.0,0,0,0,0.0,12.3,0.0,0,0,0,0.0,12.3,0.0,0,0,0,0.0,12.35,0.0,0,0,0,kReverse,kOff,-87.56,1.95,1.96,-0.0075683594,-1.2984009,0.016723633,26.6,0.0,-52.0,-0.12322998,-1.1850281,
309.17052499999994,true,true,true,0.0,12.3,0.0,-1,0,0,0.0,12.3,0.0,0,0,0,0.125,12.25,0.0,0,0,0,0.0,12.35,0.0,0,0,0,0.0,12.3,0.0,0,0,0,0.0,12.3,0.0,0,0,0,0.0,12.35,0.0,0,0,0,kReverse,kOff,-87.56,1.91,1.93,-0.016906738,-1.1026611,0.2390747,26.6,0.0,-56.0,-0.12768555,-1.1895142,
309.189727,true,true,true,0.0,12.3,0.0,-1,0,0,0.0,12.3,0.0,0,0,0,0.125,12.25,0.0,0,0,0,0.0,12.35,0.0,0,0,0,0.0,12.3,0.0,0,0,0,0.0,12.3,0.0,0,0,0,0.0,12.35,0.0,0,0,0,kReverse,kOff,-87.61,1.88,1.9,0.1116333,-1.2676392,0.20776367,26.6,0.0,67.0,-0.12994385,-1.1912689,
309.20998099999997,true,true,true,0.0,12.3,0.0,-1,0,0,0.0,12.3,0.0,0,0,0,0.125,12.25,0.0,0,0,0,0.0,12.35,0.0,0,0,0,0.0,12.3,0.0,0,0,0,0.0,12.3,0.0,0,0,0,0.0,12.35,0.0,0,0,0,kReverse,kOff,-87.62,1.9,1.91,0.26159668,-1.3226929,-0.038757324,26.6,0.0,217.0,-0.13392639,-1.1940918,
309.232894,true,true,true,0.0,12.3,0.0,-1,0,0,0.0,12.3,0.0,0,0,0,0.125,12.25,0.0,0,0,0,0.0,12.35,0.0,0,0,0,0.0,12.3,0.0,0,0,0,0.0,12.3,0.0,0,0,0,0.0,12.35,0.0,0,0,0,kReverse,kOff,-87.63,1.9,1.92,0.16442871,-0.91308594,-0.23718262,26.6,0.0,136.0,-0.13555908,-1.1955872,
309.25568799999996,true,true,true,0.0,12.3,0.0,-1,0,0,0.125,12.3,0.0,0,0,0,0.125,12.25,0.0,0,0,0,0.0,12.35,0.0,0,0,0,0.0,12.3,0.0,0,0,0,0.0,12.3,0.0,0,0,0,0.0,12.35,0.0,0,0,0,kReverse,kOff,-87.65,1.88,1.9,0.13989258,-0.6939087,-0.28033447,26.6,0.0,119.0,-0.13700867,-1.1974182,
309.278012,true,true,true,0.0,12.3,0.0,-1,0,0,0.0,12.3,0.0,0,0,0,0.125,12.25,0.0,0,0,0,0.0,12.35,0.0,0,0,0,0.0,12.3,0.0,0,0,0,0.0,12.3,0.0,0,0,0,0.0,12.35,0.0,0,0,0,kReverse,kOff,-87.67,1.86,1.87,0.10827637,-0.72351074,-0.10925293,26.6,0.0,85.0,-0.13951111,-1.2019348,
309.302373,true,true,true,0.0,12.3,0.0,-1,0,0,0.0,12.3,0.0,0,0,0,0.125,12.25,0.0,0,0,0,0.0,12.35,0.0,0,0,0,0.0,12.3,0.0,0,0,0,0.0,12.3,0.0,0,0,0,0.0,12.35,0.0,0,0,0,kReverse,kOff,-87.65,1.87,1.89,0.08770752,-0.8378296,-0.08514404,26.6,0.0,60.0,-0.14057922,-1.2044067,
309.31879,true,true,true,0.0,12.3,0.0,-1,0,0,0.0,12.3,0.0,0,0,0,0.125,12.25,0.0,0,0,0,0.0,12.35,0.0,0,0,0,0.0,12.3,0.0,0,0,0,0.0,12.3,0.0,0,0,0,0.0,12.35,0.0,0,0,0,kReverse,kOff,-87.58,1.93,1.95,-0.1651001,-0.62060547,0.034179688,26.6,0.0,-186.0,-0.14292908,-1.2094116,
309.340958,true,true,true,0.0,12.3,0.0,-1,0,0,0.0,12.3,0.0,0,0,0,0.125,12.25,0.0,0,0,0,0.0,12.35,0.0,0,0,0,0.0,12.3,0.0,0,0,0,0.0,12.3,0.0,0,0,0,0.0,12.35,0.0,0,0,0,kReverse,kOff,-87.61,1.9,1.92,-0.16448975,-0.74005127,0.064086914,26.6,0.0,-189.0,-0.1444397,-1.211792,
309.360977,true,true,true,0.0,12.3,0.0,-1,0,0,0.0,12.3,0.0,0,0,0,0.125,12.25,0.0,0,0,0,0.0,12.35,0.0,0,0,0,0.0,12.3,0.0,0,0,0,0.0,12.3,0.0,0,0,0,0.0,12.35,0.0,0,0,0,kReverse,kOff,-87.64,1.9,1.92,-0.08300781,-1.204773,-0.12567139,26.6,0.0,-122.0,-0.14820862,-1.2165833,
309.391777,true,true,true,0.0,12.3,0.0,-1,0,0,0.125,12.3,0.0,0,0,0,0.125,12.25,0.0,0,0,0,0.0,12.35,0.0,0,0,0,0.0,12.3,0.0,0,0,0,0.0,12.3,0.0,0,0,0,0.0,12.35,0.0,0,0,0,kReverse,kOff,-87.56,1.96,1.97,0.011657715,-1.2241211,0.13238525,26.6,0.0,-32.0,-0.1524353,-1.2214661,
309.41197099999994,true,true,true,0.0,12.3,0.0,-1,0,0,0.125,12.3,0.0,0,0,0,0.125,12.25,0.0,0,0,0,0.0,12.35,0.0,0,0,0,0.0,12.3,0.0,0,0,0,0.0,12.3,0.0,0,0,0,0.0,12.35,0.0,0,0,0,kReverse,kOff,-87.58,1.93,1.94,-0.012329102,-1.1240845,0.23620605,26.6,0.0,-53.0,-0.15463257,-1.2235718,
309.437231,true,true,true,0.0,12.3,0.0,-1,0,0,0.0,12.3,0.0,0,0,0,0.125,12.25,0.0,0,0,0,0.0,12.3,0.0,0,0,0,0.0,12.3,0.0,0,0,0,0.0,12.3,0.0,0,0,0,0.0,12.35,0.0,0,0,0,kReverse,kOff,-87.68,1.88,1.89,0.17004395,-1.4006958,0.1159668,26.6,0.0,122.0,-0.1589508,-1.2268372,
309.45962199999997,true,true,true,0.125,12.3,0.0,-1,0,0,0.0,12.3,0.0,0,0,0,0.125,12.25,0.0,0,0,0,0.0,12.3,0.0,0,0,0,0.0,12.3,0.0,0,0,0,0.0,12.3,0.0,0,0,0,0.0,12.35,0.0,0,0,0,kReverse,kOff,-87.66,1.89,1.91,0.26037598,-1.3375854,-0.0690918,26.6,0.0,216.0,-0.16082764,-1.2282562,
309.480666,true,true,true,0.0,12.3,0.0,-1,0,0,0.0,12.3,0.0,0,0,0,0.125,12.25,0.0,0,0,0,0.0,12.3,0.0,0,0,0,0.0,12.3,0.0,0,0,0,0.0,12.3,0.0,0,0,0,0.0,12.35,0.0,0,0,0,kReverse,kOff,-87.65,1.91,1.93,0.25653076,-0.9819946,-0.24383545,26.6,0.0,225.0,-0.16239929,-1.2298431,
309.49938399999996,true,true,true,0.0,12.3,0.0,-1,0,0,0.0,12.3,0.0,0,0,0,0.125,12.25,0.0,0,0,0,0.0,12.3,0.0,0,0,0,0.0,12.3,0.0,0,0,0,0.0,12.3,0.0,0,0,0,0.0,12.35,0.0,0,0,0,kReverse,kOff,-87.69,1.87,1.89,0.125,-0.6288452,-0.22381592,26.6,0.0,106.0,-0.16500854,-1.2340698,
309.524587,true,true,true,0.0,12.3,0.0,-1,0,0,0.0,12.3,0.0,0,0,0,0.125,12.25,0.0,0,0,0,0.0,12.3,0.0,0,0,0,0.0,12.3,0.0,0,0,0,0.0,12.3,0.0,0,0,0,0.0,12.35,0.0,0,0,0,kReverse,kOff,-87.67,1.88,1.9,0.122924805,-0.8778076,-0.058410645,26.6,0.0,94.0,-0.16708374,-1.2391357,
309.547108,true,true,true,0.0,12.3,0.0,-1,0,0,0.0,12.3,0.0,0,0,0,0.125,12.25,0.0,0,0,0,0.0,12.3,0.0,0,0,0,0.0,12.3,0.0,0,0,0,0.0,12.3,0.0,0,0,0,0.0,12.35,0.0,0,0,0,kReverse,kOff,-87.62,1.93,1.94,-0.039245605,-0.73236084,0.028320312,26.6,0.0,-64.0,-0.16804504,-1.2417145,
309.569192,true,true,true,0.0,12.3,0.0,-1,0,0,0.0,12.3,0.0,0,0,0,0.125,12.25,0.0,0,0,0,0.0,12.3,0.0,0,0,0,0.0,12.3,0.0,0,0,0,0.0,12.3,0.0,0,0,0,0.0,12.35,0.0,0,0,0,kReverse,kOff,-87.61,1.93,1.94,-0.17480469,-0.73187256,0.0032348633,26.6,0.0,-199.0,-0.17054749,-1.2467041,
309.59054,true,true,true,0.0,12.3,0.0,-1,0,0,0.0,12.3,0.0,0,0,0,0.125,12.25,0.0,0,0,0,0.0,12.3,0.0,0,0,0,0.0,12.3,0.0,0,0,0,0.0,12.25,0.0,0,0,0,0.0,12.35,0.0,0,0,0,kReverse,kOff,-87.64,1.91,1.93,-0.18920898,-0.9842529,-0.031433105,26.6,0.0,-221.0,-0.17222595,-1.2491608,
309.611196,true,true,true,0.0,12.3,0.0,-1,0,0,0.0,12.3,0.0,0,0,0,0.125,12.25,0.0,0,0,0,0.0,12.3,0.0,0,0,0,0.0,12.3,0.0,0,0,0,0.0,12.25,0.0,0,0,0,0.0,12.35,0.0,0,0,0,kReverse,kOff,-87.61,1.95,1.97,0.013549805,-1.2930298,0.022888184,26.6,0.0,-31.0,-0.17611694,-1.2541656,
309.63118199999997,true,true,true,0.125,12.3,0.0,-1,0,0,0.125,12.3,0.0,0,0,0,0.125,12.25,0.0,0,0,0,0.0,12.3,0.0,0,0,0,0.0,12.3,0.0,0,0,0,0.0,12.25,0.0,0,0,0,0.0,12.35,0.0,0,0,0,kReverse,kOff,-87.58,1.97,1.98,0.0138549805,-1.2124634,0.18029785,26.6,0.0,-30.0,-0.17816162,-1.2564697,
309.65254,true,true,true,0.125,12.3,0.0,-1,0,0,0.125,12.3,0.0,0,0,0,0.125,12.25,0.0,0,0,0,0.0,12.3,0.0,0,0,0,0.0,12.3,0.0,0,0,0,0.0,12.25,0.0,0,0,0,0.0,12.35,0.0,0,0,0,kReverse,kOff,-87.6,1.93,1.95,-0.010559082,-1.1037598,0.20031738,26.57,0.0,-50.0,-0.18025208,-1.2584839,
309.673843,true,true,true,0.125,12.3,0.0,-1,0,0,0.125,12.3,0.0,0,0,0,0.125,12.25,0.0,0,0,0,0.0,12.3,0.0,0,0,0,0.0,12.3,0.0,0,0,0,0.0,12.25,0.0,0,0,0,0.0,12.35,0.0,0,0,0,kReverse,kOff,-87.67,1.9,1.91,0.17883301,-1.4086304,0.05090332,26.57,0.0,131.0,-0.18431091,-1.261734,
309.699009,true,true,true,0.125,12.3,0.0,-1,0,0,0.125,12.3,0.0,0,0,0,0.125,12.25,0.0,0,0,0,0.0,12.3,0.0,0,0,0,0.0,12.3,0.0,0,0,0,0.0,12.25,0.0,0,0,0,0.0,12.35,0.0,0,0,0,kReverse,kOff,-87.66,1.9,1.92,0.20092773,-1.3087158,-0.15924072,26.57,0.0,158.0,-0.18608093,-1.2632904,
309.721223,true,true,true,0.125,12.3,0.0,-1,0,0,0.125,12.3,0.0,0,0,0,0.125,12.25,0.0,0,0,0,0.0,12.3,0.0,0,0,0,0.0,12.3,0.0,0,0,0,0.0,12.25,0.0,0,0,0,0.0,12.35,0.0,0,0,0,kReverse,kOff,-87.65,1.9,1.92,0.12261963,-0.5938721,-0.2614746,26.57,0.0,105.0,-0.18891907,-1.267334,
309.739246,true,true,true,0.125,12.3,0.0,-1,0,0,0.125,12.3,0.0,0,0,0,0.125,12.25,0.0,0,0,0,0.0,12.3,0.0,0,0,0,0.0,12.25,0.0,0,0,0,0.0,12.25,0.0,0,0,0,0.0,12.35,0.0,0,0,0,kReverse,kOff,-87.67,1.87,1.89,0.12133789,-0.673584,-0.105773926,26.57,0.0,100.0,-0.19010925,-1.2697754,
309.76626799999997,true,true,true,0.125,12.25,0.0,-1,0,0,0.125,12.25,0.0,0,0,0,0.125,12.25,0.0,0,0,0,0.0,12.3,0.0,0,0,0,0.0,12.25,0.0,0,0,0,0.0,12.25,0.0,0,0,0,0.0,12.35,0.0,0,0,0,kReverse,kOff,-87.65,1.9,1.91,0.061035156,-0.83184814,0.003479004,26.57,0.0,33.0,-0.19206238,-1.2749023,
309.788657,true,true,true,0.125,12.25,0.0,-1,0,0,0.125,12.25,0.0,0,0,0,0.125,12.25,0.0,0,0,0,0.0,12.3,0.0,0,0,0,0.0,12.25,0.0,0,0,0,0.0,12.25,0.0,0,0,0,0.0,12.35,0.0,0,0,0,kReverse,kOff,-87.62,1.93,1.94,-0.06225586,-0.71209717,0.029052734,26.57,0.0,-86.0,-0.19418335,-1.279953,
309.808524,true,true,true,0.0,12.25,0.0,-1,0,0,0.125,12.25,0.0,0,0,0,0.125,12.25,0.0,0,0,0,0.0,12.3,0.0,0,0,0,0.0,12.25,0.0,0,0,0,0.0,12.25,0.0,0,0,0,0.0,12.35,0.0,0,0,0,kReverse,kOff,-87.64,1.92,1.94,-0.15588379,-0.7939453,-0.022583008,26.57,0.0,-182.0,-0.19560242,-1.2824554,
309.82797700000003,true,true,true,0.0,12.25,0.0,-1,0,0,0.0,12.25,0.0,0,0,0,0.125,12.25,0.0,0,0,0,0.0,12.3,0.0,0,0,0,0.0,12.25,0.0,0,0,0,0.0,12.25,0.0,0,0,0,0.0,12.35,0.0,0,0,0,kReverse,kOff,-87.65,1.92,1.94,-0.13891602,-1.0776367,-0.08843994,26.57,0.0,-174.0,-0.19726562,-1.2850189,
309.849583,true,true,true,0.0,12.25,0.0,-1,0,0,0.0,12.25,0.0,0,0,0,0.125,12.25,0.0,0,0,0,0.0,12.3,0.0,0,0,0,0.0,12.25,0.0,0,0,0,0.0,12.25,0.0,0,0,0,0.0,12.35,0.0,0,0,0,kReverse,kOff,-87.61,1.96,1.97,-0.10021973,-1.291626,0.009460449,26.57,0.0,-144.0,-0.20114136,-1.2900543,
309.867565,true,true,true,0.0,12.25,0.0,-1,0,0,0.0,12.25,0.0,0,0,0,0.125,12.25,0.0,0,0,0,0.0,12.3,0.0,0,0,0,0.0,12.25,0.0,0,0,0,0.0,12.25,0.0,0,0,0,0.0,12.35,0.0,0,0,0,kReverse,kOff,-87.6,1.93,1.95,0.023010254,-1.1220093,0.21984863,26.57,0.0,-17.0,-0.20318604,-1.2922516,
309.88769299999996,true,true,true,0.0,12.25,0.0,-1,0,0,0.0,12.25,0.0,0,0,0,0.125,12.25,0.0,0,0,0,0.0,12.3,0.0,0,0,0,0.0,12.25,0.0,0,0,0,0.0,12.25,0.0,0,0,0,0.0,12.35,0.0,0,0,0,kReverse,kOff,-87.63,1.91,1.92,-0.01159668,-1.0979004,0.21228027,26.57,0.0,-50.0,-0.20527649,-1.2941132,
309.908882,true,true,true,0.0,12.25,0.0,-1,0,0,0.0,12.25,0.0,0,0,0,0.125,12.25,0.0,0,0,0,0.0,12.3,0.0,0,0,0,0.0,12.25,0.0,0,0,0,0.0,12.25,0.0,0,0,0,0.0,12.35,0.0,0,0,0,kReverse,kOff,-87.67,1.89,1.91,0.15429688,-1.3101196,0.1515503,26.57,0.0,108.0,-0.20732117,-1.2956848,
309.929585,true,true,true,0.0,12.25,0.0,-1,0,0,0.0,12.25,0.0,0,0,0,0.125,12.25,0.0,0,0,0,0.0,12.3,0.0,0,0,0,0.0,12.25,0.0,0,0,0,0.0,12.25,0.0,0,0,0,0.0,12.35,0.0,0,0,0,kReverse,kOff,-87.69,1.89,1.9,0.2354126,-1.1779785,-0.22338867,26.57,0.0,198.0,-0.21081543,-1.2986908,
309.947682,true,true,true,0.0,12.25,0.0,-1,0,0,0.0,12.25,0.0,0,0,0,0.125,12.25,0.0,0,0,0,0.0,12.3,0.0,0,0,0,0.0,12.25,0.0,0,0,0,0.0,12.25,0.0,0,0,0,0.0,12.35,0.0,0,0,0,kReverse,kOff,-87.68,1.9,1.91,0.18029785,-0.7866821,-0.3262329,26.57,0.0,157.0,-0.21220398,-1.3005981,
309.9687,true,true,true,0.0,12.25,0.0,-1,0,0,0.0,12.25,0.0,0,0,0,0.125,12.25,0.0,0,0,0,0.0,12.3,0.0,0,0,0,0.0,12.25,0.0,0,0,0,0.0,12.25,0.0,0,0,0,0.0,12.35,0.0,0,0,0,kReverse,kOff,-87.68,1.89,1.9,0.1116333,-0.56463623,-0.27874756,26.57,0.0,95.0,-0.21340942,-1.302887,
309.989488,true,true,true,0.0,12.25,0.0,-1,0,0,0.0,12.25,0.0,0,0,0,0.125,12.25,0.0,0,0,0,0.0,12.3,0.0,0,0,0,0.0,12.25,0.0,0,0,0,0.0,12.25,0.0,0,0,0,0.0,12.35,0.0,0,0,0,kReverse,kOff,-87.68,1.87,1.89,0.14031982,-0.87994385,-0.028869629,26.57,0.0,111.0,-0.21537781,-1.3078766,
310.00964999999997,true,true,true,0.0,12.25,0.0,-1,0,0,0.0,12.25,0.0,0,0,0,0.125,12.25,0.0,0,0,0,0.0,12.3,0.0,0,0,0,0.0,12.25,0.0,0,0,0,0.0,12.25,0.0,0,0,0,0.0,12.35,0.0,0,0,0,kReverse,kOff,-87.61,1.94,1.96,-0.07824707,-0.6723633,0.021911621,26.57,0.0,-101.0,-0.21714783,-1.3128357,
310.031067,true,true,true,0.0,12.25,0.0,-1,0,0,0.0,12.25,0.0,0,0,0,0.125,12.25,0.0,0,0,0,0.0,12.3,0.0,0,0,0,0.0,12.25,0.0,0,0,0,0.0,12.25,0.0,0,0,0,0.0,12.35,0.0,0,0,0,kReverse,kOff,-87.61,1.95,1.96,-0.18597412,-0.6967163,0.013916016,26.57,0.0,-209.0,-0.21827698,-1.3152466,
310.051857,true,true,true,0.0,12.25,0.0,-1,0,0,0.125,12.25,0.0,0,0,0,0.125,12.25,0.0,0,0,0,0.0,12.3,0.0,0,0,0,0.0,12.25,0.0,0,0,0,0.0,12.25,0.0,0,0,0,0.0,12.35,0.0,0,0,0,kReverse,kOff,-87.64,1.93,1.95,-0.1605835,-0.88830566,-0.030090332,26.57,0.0,-190.0,-0.21969604,-1.3176422,
310.075662,true,true,true,0.0,12.25,0.0,-1,0,0,0.125,12.25,0.0,0,0,0,0.125,12.25,0.0,0,0,0,0.0,12.3,0.0,0,0,0,0.0,12.25,0.0,0,0,0,0.0,12.25,0.0,0,0,0,0.0,12.35,0.0,0,0,0,kReverse,kOff,-87.6,1.97,1.99,-0.027954102,-1.3039551,-0.0049438477,26.57,0.0,-73.0,-0.22312927,-1.3226318,
310.09704,true,true,true,0.0,12.25,0.0,-1,0,0,0.125,12.25,0.0,0,0,0,0.125,12.25,0.0,0,0,0,0.0,12.3,0.0,0,0,0,0.0,12.25,0.0,0,0,0,0.0,12.25,0.0,0,0,0,0.0,12.35,0.0,0,0,0,kReverse,kOff,-87.57,1.99,2.0,0.027282715,-1.2584229,0.17077637,26.57,0.0,-18.0,-0.22497559,-1.324997,
310.11861,true,true,true,0.0,12.25,0.0,-1,0,0,0.125,12.25,0.0,0,0,0,0.125,12.25,0.0,0,0,0,0.0,12.3,0.0,0,0,0,0.0,12.25,0.0,0,0,0,0.0,12.25,0.0,0,0,0,0.0,12.35,0.0,0,0,0,kReverse,kOff,-87.64,1.93,1.94,0.06640625,-1.1359863,0.17437744,26.57,0.0,25.0,-0.22875977,-1.3287964,
310.14149599999996,true,true,true,0.125,12.25,0.0,-1,0,0,0.125,12.25,0.0,0,0,0,0.125,12.25,0.0,0,0,0,0.0,12.3,0.0,0,0,0,0.0,12.25,0.0,0,0,0,0.0,12.25,0.0,0,0,0,0.0,12.35,0.0,0,0,0,kReverse,kOff,-87.67,1.92,1.93,0.16223145,-1.3773193,0.0446167,26.57,0.0,115.0,-0.23054504,-1.3303528,
