timer,lineLeft,lineCenter,lineRight,driverLeftX,driverLeftY,driverRightX,driverRightY,driverA,driverB,driverX,driverY,operatorLeftX,operatorLeftY,operatorRightX,operatorRightY,operatorA,operatorB,operatorX,operatorY,LeftFrontCurrent,LeftFrontVoltage,LeftFrontValue,LeftFrontPosition,LeftFrontVelocity,LeftFrontFaults,LeftRearCurrent,LeftRearVoltage,LeftRearValue,LeftRearPosition,LeftRearVelocity,LeftRearFaults,RightFrontCurrent,RightFrontVoltage,RightFrontValue,RightFrontPosition,RightFrontVelocity,RightFrontFaults,RightRearCurrent,RightRearVoltage,RightRearValue,RightRearPosition,RightRearVelocity,RightRearFaults,LiftCurrent,LiftVoltage,LiftValue,LiftPosition,LiftVelocity,LiftFaults,WristCurrent,WristVoltage,WristValue,WristPosition,WristVelocity,WristFaults,RollerCurrent,RollerVoltage,RollerValue,RollerPosition,RollerVelocity,RollerFaults,PushersState,PivotsState,navx_Pitch,navx_Roll,navx_Yaw,navx_XAcc,navx_YAcc,navx_ZAcc,navx_Temp,navx_Bar,navx_Alt,navx_XDis,navx_YDis,
213.953026,true,true,true,0.0,-0.0078125,0.0,-0.0078125,false,false,false,false,0.0,-0.0078125,0.0,-0.0078125,false,false,false,false,0.125,12.65,0.0,0,0,0,0.0,12.65,0.0,0,0,0,0.125,12.65,0.0,0,0,0,0.0,12.65,0.0,0,0,0,0.0,12.65,0.0,0,0,0,0.0,12.65,0.0,0,0,0,0.0,12.700000000000001,0.0,0,0,0,kOff,kOff,-88.19,1.77,1.77,0.027954102,-0.9844971,0.006591797,28.3,0.0,-2.0,-0.5463257,2.1213684,
213.9757,true,true,true,0.0,-0.0078125,0.0,-0.0078125,false,false,false,false,0.0,-0.0078125,0.0,-0.0078125,false,false,false,false,0.125,12.65,0.0,0,0,0,0.0,12.65,0.0,0,0,0,0.125,12.65,0.0,0,0,0,0.0,12.65,0.0,0,0,0,0.0,12.65,0.0,0,0,0,0.0,12.65,0.0,0,0,0,0.0,12.700000000000001,0.0,0,0,0,kReverse,kOff,-88.19,1.77,1.77,0.030029297,-0.98443604,0.0038452148,28.3,0.0,0.0,-0.5463257,2.1213684,
213.996982,true,true,true,0.0,-0.0078125,0.0,-0.0078125,false,false,false,false,0.0,-0.0078125,0.0,-0.0078125,false,false,false,false,0.125,12.65,0.0,0,0,0,0.0,12.65,0.0,0,0,0,0.125,12.65,0.0,0,0,0,0.0,12.65,0.0,0,0,0,0.0,12.65,0.0,0,0,0,0.0,12.65,0.0,0,0,0,0.0,12.700000000000001,0.0,0,0,0,kReverse,kOff,-88.19,1.78,1.78,0.032287598,-0.9871826,0.0068969727,28.3,0.0,1.0,-0.5463257,2.1213684,
214.024791,true,true,true,0.0,-0.0078125,0.0,-0.0078125,false,false,false,false,0.0,-0.0078125,0.0,-0.0078125,false,false,false,false,0.125,12.65,0.0,0,0,0,0.125,12.65,0.0,0,0,0,0.125,12.65,0.0,0,0,0,0.0,12.65,0.0,0,0,0,0.0,12.65,0.0,0,0,0,0.0,12.65,0.0,0,0,0,0.0,12.700000000000001,0.0,0,0,0,kReverse,kOff,-88.19,1.78,1.78,0.03125,-0.98547363,0.0065307617,28.3,0.0,0.0,-0.5463257,2.1213684,
214.046312,true,true,true,0.0,-0.0078125,0.0,-0.0078125,false,false,false,false,0.0,-0.0078125,0.0,-0.0078125,false,false,false,false,0.125,12.65,0.0,0,0,0,0.125,12.65,0.0,0,0,0,0.125,12.65,0.0,0,0,0,0.0,12.65,0.0,0,0,0,0.0,12.65,0.0,0,0,0,0.0,12.65,0.0,0,0,0,0.0,12.700000000000001,0.0,0,0,0,kReverse,kOff,-88.19,1.78,1.78,0.03100586,-0.982605,0.0051879883,28.3,0.0,0.0,-0.5463257,2.1213684,
214.068489,true,true,true,0.0,-0.0078125,0.0,-0.0078125,false,false,false,false,0.0,-0.0078125,0.0,-0.0078125,false,false,false,false,0.125,12.65,0.0,0,0,0,0.125,12.65,0.0,0,0,0,0.125,12.65,0.0,0,0,0,0.0,12.65,0.0,0,0,0,0.0,12.65,0.0,0,0,0,0.0,12.65,0.0,0,0,0,0.0,12.700000000000001,0.0,0,0,0,kReverse,kOff,-88.19,1.78,1.78,0.031921387,-0.9854126,0.002380371,28.3,0.0,1.0,-0.5463257,2.1213684,
214.096104,true,true,true,0.0,-0.0078125,0.0,-0.0078125,false,false,false,false,0.0,-0.0078125,0.0,-0.0078125,false,false,false,false,0.125,12.65,0.0,0,0,0,0.125,12.65,0.0,0,0,0,0.125,12.65,0.0,0,0,0,0.0,12.65,0.0,0,0,0,0.0,12.65,0.0,0,0,0,0.0,12.65,0.0,0,0,0,0.0,12.700000000000001,0.0,0,0,0,kReverse,kOff,-88.19,1.78,1.78,0.029846191,-0.9873047,0.004333496,28.3,0.0,0.0,-0.5463257,2.1213684,
214.114044,true,true,true,0.0,-0.0078125,0.0,-0.0078125,false,false,false,false,0.0,-0.0078125,0.0,-0.0078125,false,false,false,false,0.125,12.65,0.0,0,0,0,0.125,12.65,0.0,0,0,0,0.125,12.65,0.0,0,0,0,0.125,12.65,0.0,0,0,0,0.0,12.65,0.0,0,0,0,0.0,12.65,0.0,0,0,0,0.0,12.700000000000001,0.0,0,0,0,kReverse,kOff,-88.19,1.78,1.78,0.03289795,-0.98535156,0.0040283203,28.3,0.0,2.0,-0.5463257,2.1213684,
214.13712099999998,true,true,true,0.0,-0.0078125,0.0,-0.0078125,false,false,false,false,0.0,-0.0078125,0.0,-0.0078125,false,false,false,false,0.125,12.65,0.0,0,0,0,0.125,12.65,0.0,0,0,0,0.125,12.65,0.0,0,0,0,0.0,12.65,0.0,0,0,0,0.0,12.65,0.0,0,0,0,0.0,12.65,0.0,0,0,0,0.0,12.700000000000001,0.0,0,0,0,kReverse,kOff,-88.19,1.78,1.78,0.029663086,-0.98602295,0.0041503906,28.29,0.0,0.0,-0.5463257,2.1213684,
214.154596,true,true,true,0.0,-0.0078125,0.0,-0.0078125,false,false,false,false,0.0,-0.0078125,0.0,-0.0078125,false,false,false,false,0.125,12.65,0.0,0,0,0,0.125,12.65,0.0,0,0,0,0.125,12.65,0.0,0,0,0,0.0,12.65,0.0,0,0,0,0.0,12.65,0.0,0,0,0,0.0,12.65,0.0,0,0,0,0.0,12.700000000000001,0.0,0,0,0,kReverse,kOff,-88.19,1.78,1.78,0.032470703,-0.9835205,0.003112793,28.29,0.0,1.0,-0.5463257,2.1213684,
214.17404000000002,true,true,true,0.0,-0.0078125,0.0,-0.0078125,false,false,false,false,0.0,-0.0078125,0.0,-0.0078125,false,false,false,false,0.125,12.65,0.0,0,0,0,0.125,12.65,0.0,0,0,0,0.125,12.65,0.0,0,0,0,0.0,12.65,0.0,0,0,0,0.0,12.65,0.0,0,0,0,0.0,12.65,0.0,0,0,0,0.0,12.700000000000001,0.0,0,0,0,kReverse,kOff,-88.19,1.78,1.78,0.030029297,-0.9819336,0.0016479492,28.29,0.0,0.0,-0.5463257,2.1213684,
214.205121,true,true,true,0.0,-0.0078125,0.0,-0.0078125,false,false,false,false,0.0,-0.0078125,0.0,-0.0078125,false,false,false,false,0.125,12.65,0.0,0,0,0,0.125,12.65,0.0,0,0,0,0.125,12.65,0.0,0,0,0,0.0,12.65,0.0,0,0,0,0.0,12.65,0.0,0,0,0,0.0,12.65,0.0,0,0,0,0.0,12.700000000000001,0.0,0,0,0,kReverse,kOff,-88.19,1.78,1.78,0.030822754,-0.98376465,0.008850098,28.29,0.0,0.0,-0.5463257,2.1213684,
214.22611299999997,true,true,true,0.0,-0.0078125,0.0,-0.0078125,false,false,false,false,0.0,-0.0078125,0.0,-0.0078125,false,false,false,false,0.125,12.65,0.0,0,0,0,0.125,12.65,0.0,0,0,0,0.125,12.65,0.0,0,0,0,0.0,12.65,0.0,0,0,0,0.0,12.65,0.0,0,0,0,0.0,12.65,0.0,0,0,0,0.0,12.700000000000001,0.0,0,0,0,kReverse,kOff,-88.18,1.78,1.78,0.031433105,-0.9855957,0.0051879883,28.29,0.0,0.0,-0.5463257,2.1213684,
214.246497,true,true,true,0.0,-0.0078125,0.0,-0.0078125,false,false,false,false,0.0,-0.0078125,0.0,-0.0078125,false,false,false,false,0.125,12.65,0.0,0,0,0,0.125,12.65,0.0,0,0,0,0.125,12.65,0.0,0,0,0,0.0,12.65,0.0,0,0,0,0.0,12.65,0.0,0,0,0,0.0,12.65,0.0,0,0,0,0.0,12.700000000000001,0.0,0,0,0,kReverse,kOff,-88.18,1.78,1.78,0.032409668,-0.9840698,0.008117676,28.29,0.0,1.0,-0.5463257,2.1213684,
214.268894,true,true,true,0.0,-0.0078125,0.0,-0.0078125,false,false,false,false,0.0,-0.0078125,0.0,-0.0078125,false,false,false,false,0.125,12.65,0.0,0,0,0,0.125,12.65,0.0,0,0,0,0.125,12.65,0.0,0,0,0,0.0,12.65,0.0,0,0,0,0.0,12.65,0.0,0,0,0,0.0,12.65,0.0,0,0,0,0.0,12.700000000000001,0.0,0,0,0,kReverse,kOff,-88.18,1.78,1.78,0.03137207,-0.98217773,0.0067749023,28.29,0.0,0.0,-0.5463257,2.1213684,
214.289932,true,true,true,0.0,-0.0078125,0.0,-0.0078125,false,false,false,false,0.0,-0.0078125,0.0,-0.0078125,false,false,false,false,0.125,12.65,0.0,0,0,0,0.125,12.65,0.0,0,0,0,0.125,12.65,0.0,0,0,0,0.0,12.65,0.0,0,0,0,0.0,12.65,0.0,0,0,0,0.0,12.65,0.0,0,0,0,0.0,12.700000000000001,0.0,0,0,0,kReverse,kOff,-88.18,1.78,1.78,0.031799316,-0.98669434,0.0049438477,28.29,0.0,1.0,-0.5463257,2.1213684,
214.314329,true,true,true,0.0,-0.0078125,0.0,-0.0078125,false,false,false,false,0.0,-0.0078125,0.0,-0.0078125,false,false,false,false,0.125,12.65,0.0,0,0,0,0.125,12.65,0.0,0,0,0,0.125,12.65,0.0,0,0,0,0.0,12.65,0.0,0,0,0,0.0,12.65,0.0,0,0,0,0.0,12.65,0.0,0,0,0,0.0,12.700000000000001,0.0,0,0,0,kReverse,kOff,-88.19,1.78,1.77,0.033325195,-0.98480225,0.0076904297,28.29,0.0,2.0,-0.5463257,2.1213684,
214.341666,true,true,true,0.0,-0.0078125,0.0,-0.0078125,false,false,false,false,0.0,-0.0078125,0.0,-0.0078125,false,false,false,false,0.125,12.65,0.0,0,0,0,0.125,12.65,0.0,0,0,0,0.125,12.65,0.0,0,0,0,0.0,12.65,0.0,0,0,0,0.0,12.65,0.0,0,0,0,0.0,12.65,0.0,0,0,0,0.0,12.700000000000001,0.0,0,0,0,kReverse,kOff,-88.19,1.78,1.78,0.032836914,-0.9834595,0.006286621,28.29,0.0,2.0,-0.5463257,2.1213684,
214.367378,true,true,true,0.0,-0.0078125,0.0,-0.0078125,false,false,false,false,0.0,-0.0078125,0.0,-0.0078125,false,false,false,false,0.125,12.65,0.0,0,0,0,0.125,12.65,0.0,0,0,0,0.125,12.65,0.0,0,0,0,0.0,12.65,0.0,0,0,0,0.0,12.65,0.0,0,0,0,0.0,12.65,0.0,0,0,0,0.0,12.700000000000001,0.0,0,0,0,kReverse,kOff,-88.19,1.78,1.78,0.032592773,-0.98791504,0.0049438477,28.29,0.0,2.0,-0.5463257,2.1213684,
214.38924599999999,true,true,true,0.0,-0.0078125,0.0,-0.0078125,false,false,false,false,0.0,-0.0078125,0.0,-0.0078125,false,false,false,false,0.125,12.65,0.0,0,0,0,0.125,12.65,0.0,0,0,0,0.125,12.65,0.0,0,0,0,0.0,12.65,0.0,0,0,0,0.0,12.65,0.0,0,0,0,0.0,12.65,0.0,0,0,0,0.0,12.700000000000001,0.0,0,0,0,kReverse,kOff,-88.19,1.78,1.78,0.028869629,-0.9833374,0.0068969727,28.29,0.0,-1.0,-0.5463257,2.1213684,
214.40917,true,true,true,0.0,-0.0078125,0.0,-0.0078125,false,false,false,false,0.0,-0.0078125,0.0,-0.0078125,false,false,false,false,0.125,12.65,0.0,0,0,0,0.125,12.65,0.0,0,0,0,0.125,12.65,0.0,0,0,0,0.0,12.65,0.0,0,0,0,0.0,12.65,0.0,0,0,0,0.0,12.65,0.0,0,0,0,0.0,12.700000000000001,0.0,0,0,0,kReverse,kOff,-88.19,1.78,1.78,0.03149414,-0.98321533,0.004272461,28.29,0.0,0.0,-0.5463257,2.1213684,
214.434109,true,true,true,0.0,-0.0078125,0.0,-0.0078125,false,false,false,false,0.0,-0.0078125,0.0,-0.0078125,false,false,false,false,0.125,12.65,0.0,0,0,0,0.125,12.65,0.0,0,0,0,0.125,12.65,0.0,0,0,0,0.0,12.65,0.0,0,0,0,0.0,12.65,0.0,0,0,0,0.0,12.65,0.0,0,0,0,0.0,12.700000000000001,0.0,0,0,0,kReverse,kOff,-88.19,1.78,1.78,0.030212402,-0.9867554,0.0045776367,28.29,0.0,0.0,-0.5463257,2.1213684,
214.455941,true,true,true,0.0,-0.0078125,0.0,-0.0078125,false,false,false,false,0.0,-0.0078125,0.0,-0.0078125,false,false,false,false,0.125,12.65,0.0,0,0,0,0.125,12.65,0.0,0,0,0,0.125,12.65,0.0,0,0,0,0.0,12.65,0.0,0,0,0,0.0,12.65,0.0,0,0,0,0.0,12.65,0.0,0,0,0,0.0,12.700000000000001,0.0,0,0,0,kReverse,kOff,-88.19,1.78,1.78,0.03173828,-0.9862671,0.0036621094,28.29,0.0,1.0,-0.5463257,2.1213684,
214.484019,true,true,true,0.0,-0.0078125,0.0,-0.0078125,false,false,false,false,0.0,-0.0078125,0.0,-0.0078125,false,false,false,false,0.125,12.65,0.0,0,0,0,0.125,12.65,0.0,0,0,0,0.125,12.65,0.0,0,0,0,0.0,12.65,0.0,0,0,0,0.0,12.65,0.0,0,0,0,0.0,12.65,0.0,0,0,0,0.0,12.700000000000001,0.0,0,0,0,kReverse,kOff,-88.19,1.78,1.78,0.03137207,-0.9871826,0.0036010742,28.29,0.0,0.0,-0.5463257,2.1213684,
214.505846,true,true,true,0.0,-0.0078125,0.0,-0.0078125,false,false,false,false,0.0,-0.0078125,0.0,-0.0078125,false,false,false,false,0.125,12.65,0.0,0,0,0,0.125,12.65,0.0,0,0,0,0.125,12.65,0.0,0,0,0,0.0,12.65,0.0,0,0,0,0.0,12.65,0.0,0,0,0,0.0,12.65,0.0,0,0,0,0.0,12.700000000000001,0.0,0,0,0,kReverse,kOff,-88.19,1.78,1.78,0.03253174,-0.9824219,0.0049438477,28.29,0.0,1.0,-0.5463257,2.1213684,
214.52629499999998,true,true,true,0.0,-0.0078125,0.0,-0.0078125,false,false,false,false,0.0,-0.0078125,0.0,-0.0078125,false,false,false,false,0.125,12.65,0.0,0,0,0,0.125,12.65,0.0,0,0,0,0.125,12.65,0.0,0,0,0,0.0,12.65,0.0,0,0,0,0.0,12.65,0.0,0,0,0,0.0,12.65,0.0,0,0,0,0.0,12.700000000000001,0.0,0,0,0,kReverse,kOff,-88.19,1.78,1.78,0.030761719,-0.98583984,0.0053710938,28.29,0.0,0.0,-0.5463257,2.1213684,
214.552031,true,true,true,0.0,-0.0078125,0.0,-0.0078125,false,false,false,false,0.0,-0.0078125,0.0,-0.0078125,false,false,false,false,0.125,12.65,0.0,0,0,0,0.125,12.65,0.0,0,0,0,0.125,12.65,0.0,0,0,0,0.0,12.65,0.0,0,0,0,0.0,12.65,0.0,0,0,0,0.0,12.65,0.0,0,0,0,0.0,12.700000000000001,0.0,0,0,0,kReverse,kOff,-88.19,1.78,1.78,0.030273438,-0.9862671,0.002380371,28.29,0.0,0.0,-0.5463257,2.1213684,
214.576373,true,true,true,0.0,-0.0078125,0.0,-0.0078125,false,false,false,false,0.0,-0.0078125,0.0,-0.0078125,false,false,false,false,0.125,12.65,0.0,0,0,0,0.125,12.65,0.0,0,0,0,0.125,12.65,0.0,0,0,0,0.0,12.65,0.0,0,0,0,0.0,12.65,0.0,0,0,0,0.0,12.65,0.0,0,0,0,0.0,12.700000000000001,0.0,0,0,0,kReverse,kOff,-88.19,1.78,1.78,0.030456543,-0.98516846,0.005493164,28.29,0.0,0.0,-0.5463257,2.1213684,
214.59960199999998,true,true,true,0.0,-0.0078125,0.0,-0.0078125,false,false,false,false,0.0,-0.0078125,0.0,-0.0078125,false,false,false,false,0.125,12.65,0.0,0,0,0,0.125,12.65,0.0,0,0,0,0.125,12.65,0.0,0,0,0,0.0,12.65,0.0,0,0,0,0.0,12.65,0.0,0,0,0,0.0,12.65,0.0,0,0,0,0.0,12.700000000000001,0.0,0,0,0,kReverse,kOff,-88.19,1.77,1.77,0.02722168,-0.9847412,0.008850098,28.29,0.0,-3.0,-0.5463257,2.1213684,
214.620394,true,true,true,0.0,-0.0078125,0.0,-0.0078125,false,false,false,false,0.0,-0.0078125,0.0,-0.0078125,false,false,false,false,0.125,12.65,0.0,0,0,0,0.125,12.65,0.0,0,0,0,0.125,12.65,0.0,0,0,0,0.0,12.65,0.0,0,0,0,0.0,12.65,0.0,0,0,0,0.0,12.65,0.0,0,0,0,0.0,12.700000000000001,0.0,0,0,0,kReverse,kOff,-88.19,1.78,1.78,0.032165527,-0.9838867,-1.2207031E-4,28.29,0.0,1.0,-0.5463257,2.1213684,
214.64371400000002,true,true,true,0.0,-0.0078125,0.0,-0.0078125,false,false,false,false,0.0,-0.0078125,0.0,-0.0078125,false,false,false,false,0.125,12.65,0.0,0,0,0,0.125,12.65,0.0,0,0,0,0.125,12.65,0.0,0,0,0,0.0,12.65,0.0,0,0,0,0.0,12.65,0.0,0,0,0,0.0,12.65,0.0,0,0,0,0.0,12.700000000000001,0.0,0,0,0,kReverse,kOff,-88.19,1.78,1.78,0.029907227,-0.9866333,0.006286621,28.29,0.0,0.0,-0.5463257,2.1213684,
214.66474,true,true,true,0.0,-0.0078125,0.0,-0.0078125,false,false,false,false,0.0,-0.0078125,0.0,-0.0078125,false,false,false,false,0.125,12.65,0.0,0,0,0,0.125,12.65,0.0,0,0,0,0.125,12.65,0.0,0,0,0,0.0,12.65,0.0,0,0,0,0.0,12.65,0.0,0,0,0,0.0,12.65,0.0,0,0,0,0.0,12.700000000000001,0.0,0,0,0,kReverse,kOff,-88.19,1.78,1.78,0.031188965,-0.98687744,0.0056152344,28.29,0.0,0.0,-0.5463257,2.1213684,
214.687143,true,true,true,0.0,-0.0078125,0.0,-0.0078125,false,false,false,false,0.0,-0.0078125,0.0,-0.0078125,false,false,false,false,0.125,12.65,0.0,0,0,0,0.125,12.65,0.0,0,0,0,0.125,12.65,0.0,0,0,0,0.0,12.65,0.0,0,0,0,0.0,12.65,0.0,0,0,0,0.0,12.65,0.0,0,0,0,0.0,12.700000000000001,0.0,0,0,0,kReverse,kOff,-88.19,1.77,1.77,0.029907227,-0.9844971,0.005493164,28.29,0.0,0.0,-0.5463257,2.1213684,
214.706385,true,true,true,0.0,-0.0078125,0.0,-0.0078125,false,false,false,false,0.0,-0.0078125,0.0,-0.0078125,false,false,false,false,0.125,12.65,0.0,0,0,0,0.125,12.65,0.0,0,0,0,0.125,12.65,0.0,0,0,0,0.0,12.65,0.0,0,0,0,0.0,12.65,0.0,0,0,0,0.0,12.65,0.0,0,0,0,0.0,12.700000000000001,0.0,0,0,0,kReverse,kOff,-88.19,1.77,1.77,0.030761719,-0.9851074,0.004699707,28.29,0.0,0.0,-0.5463257,2.1213684,
214.72609500000002,true,true,true,0.0,-0.0078125,0.0,-0.0078125,false,false,false,false,0.0,-0.0078125,0.0,-0.0078125,false,false,false,false,0.125,12.65,0.0,0,0,0,0.125,12.65,0.0,0,0,0,0.125,12.65,0.0,0,0,0,0.0,12.65,0.0,0,0,0,0.0,12.65,0.0,0,0,0,0.0,12.65,0.0,0,0,0,0.0,12.700000000000001,0.0,0,0,0,kReverse,kOff,-88.19,1.77,1.77,0.028930664,-0.9851074,0.005004883,28.29,0.0,-1.0,-0.5463257,2.1213684,
214.746799,true,true,true,0.0,-0.0078125,0.0,-0.0078125,false,false,false,false,0.0,-0.0078125,0.0,-0.0078125,false,false,false,false,0.125,12.65,0.0,0,0,0,0.125,12.65,0.0,0,0,0,0.125,12.65,0.0,0,0,0,0.0,12.65,0.0,0,0,0,0.0,12.65,0.0,0,0,0,0.0,12.65,0.0,0,0,0,0.0,12.700000000000001,0.0,0,0,0,kReverse,kOff,-88.19,1.77,1.77,0.031982422,-0.986084,0.004760742,28.29,0.0,1.0,-0.5463257,2.1213684,
214.76686600000002,true,true,true,0.0,-0.0078125,0.0,-0.0078125,false,false,false,false,0.0,-0.0078125,0.0,-0.0078125,false,false,false,false,0.125,12.65,0.0,0,0,0,0.125,12.65,0.0,0,0,0,0.125,12.65,0.0,0,0,0,0.0,12.65,0.0,0,0,0,0.0,12.65,0.0,0,0,0,0.0,12.65,0.0,0,0,0,0.0,12.700000000000001,0.0,0,0,0,kReverse,kOff,-88.19,1.77,1.77,0.030944824,-0.9817505,0.0028076172,28.29,0.0,0.0,-0.5463257,2.1213684,
214.790222,true,true,true,0.0,-0.0078125,0.0,-0.0078125,false,false,false,false,0.0,-0.0078125,0.0,-0.0078125,false,false,false,false,0.125,12.65,0.0,0,0,0,0.125,12.65,0.0,0,0,0,0.125,12.65,0.0,0,0,0,0.0,12.65,0.0,0,0,0,0.0,12.65,0.0,0,0,0,0.0,12.65,0.0,0,0,0,0.0,12.700000000000001,0.0,0,0,0,kReverse,kOff,-88.19,1.77,1.77,0.03100586,-0.98358154,0.004699707,28.29,0.0,0.0,-0.5463257,2.1213684,
214.814342,true,true,true,0.0,-0.0078125,0.0,-0.0078125,false,false,false,false,0.0,-0.0078125,0.0,-0.0078125,false,false,false,false,0.125,12.65,0.0,0,0,0,0.125,12.65,0.0,0,0,0,0.125,12.65,0.0,0,0,0,0.125,12.65,0.0,0,0,0,0.0,12.65,0.0,0,0,0,0.0,12.65,0.0,0,0,0,0.0,12.700000000000001,0.0,0,0,0,kReverse,kOff,-88.19,1.77,1.77,0.030029297,-0.9824829,0.0056152344,28.29,0.0,0.0,-0.5463257,2.1213684,
214.837653,true,true,true,0.0,-0.0078125,0.0,-0.0078125,false,false,false,false,0.0,-0.0078125,0.0,-0.0078125,false,false,false,false,0.125,12.65,0.0,0,0,0,0.125,12.65,0.0,0,0,0,0.125,12.65,0.0,0,0,0,0.0,12.65,0.0,0,0,0,0.0,12.65,0.0,0,0,0,0.0,12.65,0.0,0,0,0,0.0,12.700000000000001,0.0,0,0,0,kReverse,kOff,-88.19,1.77,1.77,0.029541016,-0.9846802,0.0045776367,28.29,0.0,0.0,-0.5463257,2.1213684,
214.860922,true,true,true,0.0,-0.0078125,0.0,-0.0078125,false,false,false,false,0.0,-0.0078125,0.0,-0.0078125,false,false,false,false,0.125,12.65,0.0,0,0,0,0.125,12.65,0.0,0,0,0,0.125,12.65,0.0,0,0,0,0.0,12.65,0.0,0,0,0,0.0,12.65,0.0,0,0,0,0.0,12.65,0.0,0,0,0,0.0,12.700000000000001,0.0,0,0,0,kReverse,kOff,-88.19,1.78,1.78,0.029541016,-0.9850464,0.005859375,28.29,0.0,-1.0,-0.5463257,2.1213684,
214.88255900000001,true,true,true,0.0,-0.0078125,0.0,-0.0078125,false,false,false,false,0.0,-0.0078125,0.0,-0.0078125,false,false,false,false,0.125,12.65,0.0,0,0,0,0.125,12.65,0.0,0,0,0,0.125,12.65,0.0,0,0,0,0.0,12.65,0.0,0,0,0,0.0,12.65,0.0,0,0,0,0.0,12.65,0.0,0,0,0,0.0,12.700000000000001,0.0,0,0,0,kReverse,kOff,-88.19,1.78,1.78,0.030090332,-0.9857178,0.0072021484,28.29,0.0,0.0,-0.5463257,2.1213684,
214.90402,true,true,true,0.0,-0.0078125,0.0,-0.0078125,false,false,false,false,0.0,-0.0078125,0.0,-0.0078125,false,false,false,false,0.125,12.65,0.0,0,0,0,0.125,12.65,0.0,0,0,0,0.125,12.65,0.0,0,0,0,0.0,12.65,0.0,0,0,0,0.0,12.65,0.0,0,0,0,0.0,12.65,0.0,0,0,0,0.0,12.700000000000001,0.0,0,0,0,kReverse,kOff,-88.19,1.78,1.78,0.031188965,-0.98461914,0.0049438477,28.29,0.0,0.0,-0.5463257,2.1213684,
214.926572,true,true,true,0.0,-0.0078125,0.0,-0.0078125,false,false,false,false,0.0,-0.0078125,0.0,-0.0078125,false,false,false,false,0.125,12.65,0.0,0,0,0,0.125,12.65,0.0,0,0,0,0.125,12.65,0.0,0,0,0,0.125,12.65,0.0,0,0,0,0.0,12.65,0.0,0,0,0,0.0,12.65,0.0,0,0,0,0.0,12.700000000000001,0.0,0,0,0,kReverse,kOff,-88.19,1.78,1.78,0.03125,-0.9845581,0.0079956055,28.29,0.0,0.0,-0.5463257,2.1213684,
214.950764,true,true,true,0.0,-0.0078125,0.0,-0.0078125,false,false,false,false,0.0,-0.0078125,0.0,-0.0078125,false,false,false,false,0.125,12.65,0.0,0,0,0,0.125,12.65,0.0,0,0,0,0.125,12.65,0.0,0,0,0,0.0,12.65,0.0,0,0,0,0.0,12.65,0.0,0,0,0,0.0,12.65,0.0,0,0,0,0.0,12.700000000000001,0.0,0,0,0,kReverse,kOff,-88.19,1.77,1.77,0.030517578,-0.9822998,0.008972168,28.29,0.0,0.0,-0.5463257,2.1213684,
214.974495,true,true,true,0.0,-0.0078125,0.0,-0.0078125,false,false,false,false,0.0,-0.0078125,0.0,-0.0078125,false,false,false,false,0.125,12.65,0.0,0,0,0,0.125,12.65,0.0,0,0,0,0.125,12.65,0.0,0,0,0,0.0,12.65,0.0,0,0,0,0.0,12.65,0.0,0,0,0,0.0,12.65,0.0,0,0,0,0.0,12.700000000000001,0.0,0,0,0,kReverse,kOff,-88.19,1.77,1.77,0.034179688,-0.9841919,0.005065918,28.29,0.0,3.0,-0.5463257,2.1213684,
214.99718,true,true,true,0.0,-0.0078125,0.0,-0.0078125,false,false,false,false,0.0,-0.0078125,0.0,-0.0078125,false,false,false,false,0.125,12.65,0.0,0,0,0,0.125,12.65,0.0,0,0,0,0.125,12.65,0.0,0,0,0,0.0,12.65,0.0,0,0,0,0.0,12.65,0.0,0,0,0,0.0,12.65,0.0,0,0,0,0.0,12.700000000000001,0.0,0,0,0,kReverse,kOff,-88.19,1.77,1.77,0.029846191,-0.98291016,0.006652832,28.29,0.0,0.0,-0.5463257,2.1213684,
215.018914,true,true,true,0.0,-0.0078125,0.0,-0.0078125,false,false,false,false,0.0,-0.0078125,0.0,-0.0078125,false,false,false,false,0.125,12.65,0.0,0,0,0,0.125,12.65,0.0,0,0,0,0.125,12.65,0.0,0,0,0,0.0,12.65,0.0,0,0,0,0.0,12.65,0.0,0,0,0,0.0,12.65,0.0,0,0,0,0.0,12.700000000000001,0.0,0,0,0,kReverse,kOff,-88.19,1.77,1.77,0.03149414,-0.9836426,0.004760742,28.29,0.0,0.0,-0.5463257,2.1213684,
215.03555599999999,true,true,true,0.0,-0.0078125,0.0,-0.0078125,false,false,false,false,0.0,-0.0078125,0.0,-0.0078125,false,false,false,false,0.125,12.65,0.0,0,0,0,0.125,12.65,0.0,0,0,0,0.125,12.65,0.0,0,0,0,0.0,12.65,0.0,0,0,0,0.0,12.65,0.0,0,0,0,0.0,12.65,0.0,0,0,0,0.0,12.700000000000001,0.0,0,0,0,kReverse,kOff,-88.19,1.77,1.77,0.03149414,-0.9836426,0.004760742,28.29,0.0,0.0,-0.5463257,2.1213684,
215.05876999999998,true,true,true,0.0,-0.0078125,0.0,-0.0078125,false,false,false,false,0.0,-0.0078125,0.0,-0.0078125,false,false,false,false,0.125,12.65,0.0,0,0,0,0.125,12.65,0.0,0,0,0,0.125,12.65,0.0,0,0,0,0.0,12.65,0.0,0,0,0,0.0,12.65,0.0,0,0,0,0.0,12.65,0.0,0,0,0,0.0,12.700000000000001,0.0,0,0,0,kReverse,kOff,-88.19,1.77,1.77,0.034118652,-0.9836426,0.008911133,28.29,0.0,3.0,-0.5463257,2.1213684,
215.07998,true,true,true,0.0,-0.0078125,0.0,-0.0078125,false,false,false,false,0.0,-0.0078125,0.0,-0.0078125,false,false,false,false,0.125,12.65,0.0,0,0,0,0.125,12.65,0.0,0,0,0,0.125,12.65,0.0,0,0,0,0.0,12.65,0.0,0,0,0,0.0,12.65,0.0,0,0,0,0.0,12.65,0.0,0,0,0,0.0,12.700000000000001,0.0,0,0,0,kReverse,kOff,-88.19,1.77,1.77,0.034118652,-0.9836426,0.008911133,28.29,0.0,3.0,-0.5463257,2.1213684,
215.10446599999997,true,true,true,0.0,-0.0078125,0.0,-0.0078125,false,false,false,false,0.0,-0.0078125,0.0,-0.0078125,false,false,false,false,0.125,12.65,0.0,0,0,0,0.125,12.65,0.0,0,0,0,0.125,12.65,0.0,0,0,0,0.0,12.65,0.0,0,0,0,0.0,12.65,0.0,0,0,0,0.0,12.65,0.0,0,0,0,0.0,12.700000000000001,0.0,0,0,0,kReverse,kOff,-88.19,1.77,1.77,0.032348633,-0.9838867,0.006225586,28.29,0.0,1.0,-0.5463257,2.1213684,
215.139242,true,true,true,0.0,-0.0078125,0.0,-0.0078125,false,false,false,false,0.0,-0.0078125,0.0,-0.0078125,false,false,false,false,0.125,12.65,0.0,0,0,0,0.125,12.65,0.0,0,0,0,0.125,12.65,0.0,0,0,0,0.0,12.65,0.0,0,0,0,0.0,12.65,0.0,0,0,0,0.0,12.65,0.0,0,0,0,0.0,12.700000000000001,0.0,0,0,0,kReverse,kOff,-88.19,1.77,1.77,0.028808594,-0.9845581,0.004333496,28.29,0.0,-1.0,-0.5463257,2.1213684,
215.165011,true,true,true,0.0,-0.0078125,0.0,-0.0078125,false,false,false,false,0.0,-0.0078125,0.0,-0.0078125,false,false,false,false,0.125,12.65,0.0,0,0,0,0.125,12.65,0.0,0,0,0,0.125,12.65,0.0,0,0,0,0.0,12.65,0.0,0,0,0,0.0,12.65,0.0,0,0,0,0.0,12.65,0.0,0,0,0,0.0,12.700000000000001,0.0,0,0,0,kReverse,kOff,-88.19,1.77,1.77,0.031433105,-0.98272705,0.00793457,28.28,0.0,0.0,-0.5463257,2.1213684,
215.19072500000001,true,true,true,0.0,-0.0078125,0.0,-0.0078125,false,false,false,false,0.0,-0.0078125,0.0,-0.0078125,false,false,false,false,0.125,12.65,0.0,0,0,0,0.125,12.65,0.0,0,0,0,0.125,12.65,0.0,0,0,0,0.0,12.65,0.0,0,0,0,0.0,12.65,0.0,0,0,0,0.0,12.65,0.0,0,0,0,0.0,12.700000000000001,0.0,0,0,0,kReverse,kOff,-88.19,1.77,1.77,0.029846191,-0.98516846,0.0,28.28,0.0,0.0,-0.5463257,2.1213684,
215.214212,true,true,true,0.0,-0.0078125,0.0,-0.0078125,false,false,false,false,0.0,-0.0078125,0.0,-0.0078125,false,false,false,false,0.125,12.65,0.0,0,0,0,0.125,12.65,0.0,0,0,0,0.125,12.65,0.0,0,0,0,0.0,12.65,0.0,0,0,0,0.0,12.65,0.0,0,0,0,0.0,12.65,0.0,0,0,0,0.0,12.700000000000001,0.0,0,0,0,kReverse,kOff,-88.19,1.77,1.77,0.030578613,-0.9848633,0.009216309,28.28,0.0,0.0,-0.5463257,2.1213684,
215.23531,true,true,true,0.0,-0.0078125,0.0,-0.0078125,false,false,false,false,0.0,-0.0078125,0.0,-0.0078125,false,false,false,false,0.125,12.65,0.0,0,0,0,0.125,12.65,0.0,0,0,0,0.125,12.65,0.0,0,0,0,0.0,12.65,0.0,0,0,0,0.0,12.65,0.0,0,0,0,0.0,12.65,0.0,0,0,0,0.0,12.700000000000001,0.0,0,0,0,kReverse,kOff,-88.19,1.77,1.77,0.030883789,-0.9844971,0.0045166016,28.28,0.0,0.0,-0.5463257,2.1213684,
215.260999,true,true,true,0.0,-0.0078125,0.0,-0.0078125,false,false,false,false,0.0,-0.0078125,0.0,-0.0078125,false,false,false,false,0.125,12.65,0.0,0,0,0,0.125,12.65,0.0,0,0,0,0.125,12.65,0.0,0,0,0,0.0,12.65,0.0,0,0,0,0.0,12.65,0.0,0,0,0,0.0,12.65,0.0,0,0,0,0.0,12.700000000000001,0.0,0,0,0,kReverse,kOff,-88.19,1.77,1.77,0.030273438,-0.9875488,0.0036621094,28.28,0.0,0.0,-0.5463257,2.1213684,
215.282714,true,true,true,0.0,-0.0078125,0.0,-0.0078125,false,false,false,false,0.0,-0.0078125,0.0,-0.0078125,false,false,false,false,0.125,12.65,0.0,0,0,0,0.125,12.65,0.0,0,0,0,0.125,12.65,0.0,0,0,0,0.0,12.65,0.0,0,0,0,0.0,12.65,0.0,0,0,0,0.0,12.65,0.0,0,0,0,0.0,12.700000000000001,0.0,0,0,0,kReverse,kOff,-88.2,1.77,1.77,0.031311035,-0.98394775,0.003479004,28.28,0.0,0.0,-0.5463257,2.1213684,
215.305492,true,true,true,0.0,-0.0078125,0.0,-0.0078125,false,false,false,false,0.0,-0.0078125,0.0,-0.0078125,false,false,false,false,0.125,12.65,0.0,0,0,0,0.125,12.65,0.0,0,0,0,0.125,12.65,0.0,0,0,0,0.0,12.65,0.0,0,0,0,0.0,12.65,0.0,0,0,0,0.0,12.65,0.0,0,0,0,0.0,12.700000000000001,0.0,0,0,0,kReverse,kOff,-88.2,1.77,1.77,0.03491211,-0.98516846,0.0049438477,28.28,0.0,4.0,-0.5463257,2.1213684,
215.328596,true,true,true,0.0,-0.0078125,0.0,-0.0078125,false,false,false,false,0.0,-0.0078125,0.0,-0.0078125,false,false,false,false,0.125,12.65,0.0,0,0,0,0.125,12.65,0.0,0,0,0,0.125,12.65,0.0,0,0,0,0.0,12.65,0.0,0,0,0,0.0,12.65,0.0,0,0,0,0.0,12.65,0.0,0,0,0,0.0,12.700000000000001,0.0,0,0,0,kReverse,kOff,-88.2,1.77,1.77,0.031311035,-0.98461914,0.0010986328,28.28,0.0,0.0,-0.5463257,2.1213684,
215.35364299999998,true,true,true,0.0,-0.0078125,0.0,-0.0078125,false,false,false,false,0.0,-0.0078125,0.0,-0.0078125,false,false,false,false,0.0,12.65,0.0,0,0,0,0.125,12.65,0.0,0,0,0,0.125,12.65,0.0,0,0,0,0.0,12.65,0.0,0,0,0,0.0,12.65,0.0,0,0,0,0.0,12.65,0.0,0,0,0,0.0,12.700000000000001,0.0,0,0,0,kReverse,kOff,-88.2,1.76,1.76,0.030639648,-0.98760986,0.0076293945,28.28,0.0,0.0,-0.5463257,2.1213684,
215.37480499999998,true,true,true,0.0,-0.0078125,0.0,-0.0078125,false,false,false,false,0.0,-0.0078125,0.0,-0.0078125,false,false,false,false,0.0,12.65,0.0,0,0,0,0.125,12.65,0.0,0,0,0,0.125,12.65,0.0,0,0,0,0.0,12.65,0.0,0,0,0,0.0,12.65,0.0,0,0,0,0.0,12.65,0.0,0,0,0,0.0,12.700000000000001,0.0,0,0,0,kReverse,kOff,-88.2,1.76,1.76,0.028503418,-0.9866333,0.0051879883,28.28,0.0,-1.0,-0.5463257,2.1213684,
215.395105,true,true,true,0.0,-0.0078125,0.0,-0.0078125,false,false,false,false,0.0,-0.0078125,0.0,-0.0078125,false,false,false,false,0.0,12.65,0.0,0,0,0,0.125,12.65,0.0,0,0,0,0.125,12.65,0.0,0,0,0,0.0,12.65,0.0,0,0,0,0.0,12.65,0.0,0,0,0,0.0,12.65,0.0,0,0,0,0.0,12.700000000000001,0.0,0,0,0,kReverse,kOff,-88.2,1.76,1.76,0.030761719,-0.98547363,0.0043945312,28.28,0.0,0.0,-0.5463257,2.1213684,
215.415179,true,true,true,0.0,-0.0078125,0.0,-0.0078125,false,false,false,false,0.0,-0.0078125,0.0,-0.0078125,false,false,false,false,0.125,12.65,0.0,0,0,0,0.125,12.65,0.0,0,0,0,0.125,12.65,0.0,0,0,0,0.0,12.65,0.0,0,0,0,0.0,12.65,0.0,0,0,0,0.0,12.65,0.0,0,0,0,0.0,12.700000000000001,0.0,0,0,0,kReverse,kOff,-88.2,1.77,1.77,0.034118652,-0.9864502,0.008911133,28.28,0.0,3.0,-0.5463257,2.1213684,
215.439954,true,true,true,0.0,-0.0078125,0.0,-0.0078125,false,false,false,false,0.0,-0.0078125,0.0,-0.0078125,false,false,false,false,0.125,12.65,0.0,0,0,0,0.125,12.65,0.0,0,0,0,0.125,12.65,0.0,0,0,0,0.0,12.65,0.0,0,0,0,0.0,12.65,0.0,0,0,0,0.0,12.65,0.0,0,0,0,0.0,12.700000000000001,0.0,0,0,0,kReverse,kOff,-88.2,1.77,1.77,0.029174805,-0.9835205,0.0040283203,28.28,0.0,-1.0,-0.5463257,2.1213684,
215.465048,true,true,true,0.0,-0.0078125,0.0,-0.0078125,false,false,false,false,0.0,-0.0078125,0.0,-0.0078125,false,false,false,false,0.125,12.65,0.0,0,0,0,0.125,12.65,0.0,0,0,0,0.125,12.65,0.0,0,0,0,0.0,12.65,0.0,0,0,0,0.0,12.65,0.0,0,0,0,0.0,12.65,0.0,0,0,0,0.0,12.700000000000001,0.0,0,0,0,kReverse,kOff,-88.2,1.77,1.77,0.028808594,-0.9844971,0.0028686523,28.28,0.0,-1.0,-0.5463257,2.1213684,
215.487306,true,true,true,0.0,-0.0078125,0.0,-0.0078125,false,false,false,false,0.0,-0.0078125,0.0,-0.0078125,false,false,false,false,0.125,12.65,0.0,0,0,0,0.125,12.65,0.0,0,0,0,0.125,12.65,0.0,0,0,0,0.0,12.65,0.0,0,0,0,0.0,12.65,0.0,0,0,0,0.0,12.65,0.0,0,0,0,0.0,12.700000000000001,0.0,0,0,0,kReverse,kOff,-88.2,1.77,1.77,0.031982422,-0.98358154,0.0053100586,28.28,0.0,1.0,-0.5463257,2.1213684,
215.510976,true,true,true,0.0,-0.0078125,0.0,-0.0078125,false,false,false,false,0.0,-0.0078125,0.0,-0.0078125,false,false,false,false,0.125,12.65,0.0,0,0,0,0.125,12.65,0.0,0,0,0,0.125,12.65,0.0,0,0,0,0.125,12.65,0.0,0,0,0,0.0,12.65,0.0,0,0,0,0.0,12.65,0.0,0,0,0,0.0,12.700000000000001,0.0,0,0,0,kReverse,kOff,-88.2,1.77,1.77,0.031188965,-0.98443604,0.007507324,28.28,0.0,0.0,-0.5463257,2.1213684,
215.535892,true,true,true,0.0,-0.0078125,0.0,-0.0078125,false,false,false,false,0.0,-0.0078125,0.0,-0.0078125,false,false,false,false,0.125,12.65,0.0,0,0,0,0.125,12.65,0.0,0,0,0,0.125,12.65,0.0,0,0,0,0.0,12.65,0.0,0,0,0,0.0,12.65,0.0,0,0,0,0.0,12.65,0.0,0,0,0,0.0,12.700000000000001,0.0,0,0,0,kReverse,kOff,-88.2,1.77,1.77,0.030822754,-0.9803467,0.0072021484,28.28,0.0,0.0,-0.5463257,2.1213684,
215.561127,true,true,true,0.0,-0.0078125,0.0,-0.0078125,false,false,false,false,0.0,-0.0078125,0.0,-0.0078125,false,false,false,false,0.125,12.65,0.0,0,0,0,0.125,12.65,0.0,0,0,0,0.125,12.65,0.0,0,0,0,0.0,12.65,0.0,0,0,0,0.0,12.65,0.0,0,0,0,0.0,12.65,0.0,0,0,0,0.0,12.700000000000001,0.0,0,0,0,kReverse,kOff,-88.2,1.77,1.77,0.03338623,-0.9855957,0.006225586,28.28,0.0,2.0,-0.5463257,2.1213684,
215.584989,true,true,true,0.0,-0.0078125,0.0,-0.0078125,false,false,false,false,0.0,-0.0078125,0.0,-0.0078125,false,false,false,false,0.125,12.65,0.0,0,0,0,0.125,12.65,0.0,0,0,0,0.125,12.65,0.0,0,0,0,0.0,12.65,0.0,0,0,0,0.0,12.65,0.0,0,0,0,0.0,12.65,0.0,0,0,0,0.0,12.700000000000001,0.0,0,0,0,kReverse,kOff,-88.19,1.77,1.77,0.03302002,-0.98217773,0.0067749023,28.28,0.0,2.0,-0.5463257,2.1213684,
215.606645,true,true,true,0.0,-0.0078125,0.0,-0.0078125,false,false,false,false,0.0,-0.0078125,0.0,-0.0078125,false,false,false,false,0.125,12.65,0.0,0,0,0,0.125,12.65,0.0,0,0,0,0.125,12.65,0.0,0,0,0,0.0,12.65,0.0,0,0,0,0.0,12.65,0.0,0,0,0,0.0,12.65,0.0,0,0,0,0.0,12.700000000000001,0.0,0,0,0,kReverse,kOff,-88.19,1.77,1.77,0.030578613,-0.9821167,0.0072021484,28.28,0.0,0.0,-0.5463257,2.1213684,
215.629274,true,true,true,0.0,-0.0078125,0.0,-0.0078125,false,false,false,false,0.0,-0.0078125,0.0,-0.0078125,false,false,false,false,0.125,12.65,0.0,0,0,0,0.125,12.65,0.0,0,0,0,0.125,12.65,0.0,0,0,0,0.0,12.65,0.0,0,0,0,0.0,12.65,0.0,0,0,0,0.0,12.65,0.0,0,0,0,0.0,12.700000000000001,0.0,0,0,0,kReverse,kOff,-88.2,1.77,1.77,0.026916504,-0.98321533,-3.0517578E-4,28.28,0.0,-3.0,-0.5463257,2.1213684,
215.651114,true,true,true,0.0,-0.0078125,0.0,-0.0078125,false,false,false,false,0.0,-0.0078125,0.0,-0.0078125,false,false,false,false,0.125,12.65,0.0,0,0,0,0.125,12.65,0.0,0,0,0,0.125,12.65,0.0,0,0,0,0.0,12.65,0.0,0,0,0,0.0,12.65,0.0,0,0,0,0.0,12.65,0.0,0,0,0,0.0,12.700000000000001,0.0,0,0,0,kReverse,kOff,-88.19,1.77,1.77,0.032226562,-0.98620605,0.004272461,28.28,0.0,1.0,-0.5463257,2.1213684,
215.671932,true,true,true,0.0,-0.0078125,0.0,-0.0078125,false,false,false,false,0.0,-0.0078125,0.0,-0.0078125,false,false,false,false,0.125,12.65,0.0,0,0,0,0.125,12.65,0.0,0,0,0,0.125,12.65,0.0,0,0,0,0.0,12.65,0.0,0,0,0,0.0,12.65,0.0,0,0,0,0.0,12.65,0.0,0,0,0,0.0,12.700000000000001,0.0,0,0,0,kReverse,kOff,-88.2,1.77,1.77,0.029663086,-0.982605,0.008483887,28.28,0.0,0.0,-0.5463257,2.1213684,
215.69321,true,true,true,0.0,-0.0078125,0.0,-0.0078125,false,false,false,false,0.0,-0.0078125,0.0,-0.0078125,false,false,false,false,0.125,12.65,0.0,0,0,0,0.125,12.65,0.0,0,0,0,0.125,12.65,0.0,0,0,0,0.0,12.65,0.0,0,0,0,0.0,12.65,0.0,0,0,0,0.0,12.65,0.0,0,0,0,0.0,12.700000000000001,0.0,0,0,0,kReverse,kOff,-88.2,1.77,1.77,0.028930664,-0.98498535,0.0065307617,28.28,0.0,-1.0,-0.5463257,2.1213684,
215.716526,true,true,true,0.0,-0.0078125,0.0,-0.0078125,false,false,false,false,0.0,-0.0078125,0.0,-0.0078125,false,false,false,false,0.125,12.65,0.0,0,0,0,0.125,12.65,0.0,0,0,0,0.125,12.65,0.0,0,0,0,0.0,12.65,0.0,0,0,0,0.0,12.65,0.0,0,0,0,0.0,12.65,0.0,0,0,0,0.0,12.700000000000001,0.0,0,0,0,kReverse,kOff,-88.19,1.77,1.77,0.029968262,-0.98547363,0.0065307617,28.28,0.0,0.0,-0.5463257,2.1213684,
215.73914299999998,true,true,true,0.0,-0.0078125,0.0,-0.0078125,false,false,false,false,0.0,-0.0078125,0.0,-0.0078125,false,false,false,false,0.125,12.65,0.0,0,0,0,0.125,12.65,0.0,0,0,0,0.125,12.65,0.0,0,0,0,0.0,12.65,0.0,0,0,0,0.0,12.65,0.0,0,0,0,0.0,12.65,0.0,0,0,0,0.0,12.700000000000001,0.0,0,0,0,kReverse,kOff,-88.19,1.77,1.77,0.032409668,-0.9869385,0.0024414062,28.28,0.0,1.0,-0.5463257,2.1213684,
215.762093,true,true,true,0.0,-0.0078125,0.0,-0.0078125,false,false,false,false,0.0,-0.0078125,0.0,-0.0078125,false,false,false,false,0.125,12.65,0.0,0,0,0,0.125,12.65,0.0,0,0,0,0.125,12.65,0.0,0,0,0,0.0,12.65,0.0,0,0,0,0.0,12.65,0.0,0,0,0,0.0,12.65,0.0,0,0,0,0.0,12.700000000000001,0.0,0,0,0,kReverse,kOff,-88.19,1.77,1.77,0.030151367,-0.9828491,0.0072021484,28.28,0.0,0.0,-0.5463257,2.1213684,
215.785465,true,true,true,0.0,-0.0078125,0.0,-0.0078125,false,false,false,false,0.0,-0.0078125,0.0,-0.0078125,false,false,false,false,0.125,12.65,0.0,0,0,0,0.125,12.65,0.0,0,0,0,0.125,12.65,0.0,0,0,0,0.0,12.65,0.0,0,0,0,0.0,12.65,0.0,0,0,0,0.0,12.65,0.0,0,0,0,0.0,12.700000000000001,0.0,0,0,0,kReverse,kOff,-88.2,1.77,1.77,0.032165527,-0.98339844,0.001159668,28.28,0.0,1.0,-0.5463257,2.1213684,
215.806751,true,true,true,0.0,-0.0078125,0.0,-0.0078125,false,false,false,false,0.0,-0.0078125,0.0,-0.0078125,false,false,false,false,0.125,12.65,0.0,0,0,0,0.125,12.65,0.0,0,0,0,0.125,12.65,0.0,0,0,0,0.0,12.65,0.0,0,0,0,0.0,12.65,0.0,0,0,0,0.0,12.65,0.0,0,0,0,0.0,12.700000000000001,0.0,0,0,0,kReverse,kOff,-88.19,1.77,1.77,0.031311035,-0.9824219,0.006591797,28.28,0.0,0.0,-0.5463257,2.1213684,
215.82939299999998,true,true,true,0.0,-0.0078125,0.0,-0.0078125,false,false,false,false,0.0,-0.0078125,0.0,-0.0078125,false,false,false,false,0.125,12.65,0.0,0,0,0,0.125,12.65,0.0,0,0,0,0.125,12.65,0.0,0,0,0,0.0,12.65,0.0,0,0,0,0.0,12.65,0.0,0,0,0,0.0,12.65,0.0,0,0,0,0.0,12.700000000000001,0.0,0,0,0,kReverse,kOff,-88.19,1.77,1.77,0.02746582,-0.9846802,0.0036010742,28.28,0.0,-3.0,-0.5463257,2.1213684,
215.84986999999998,true,true,true,0.0,-0.0078125,0.0,-0.0078125,false,false,false,false,0.0,-0.0078125,0.0,-0.0078125,false,false,false,false,0.125,12.65,0.0,0,0,0,0.125,12.65,0.0,0,0,0,0.125,12.65,0.0,0,0,0,0.0,12.65,0.0,0,0,0,0.0,12.65,0.0,0,0,0,0.0,12.65,0.0,0,0,0,0.0,12.700000000000001,0.0,0,0,0,kReverse,kOff,-88.19,1.77,1.77,0.032409668,-0.986145,0.006652832,28.28,0.0,1.0,-0.5463257,2.1213684,
215.875086,true,true,true,0.0,-0.0078125,0.0,-0.0078125,false,false,false,false,0.0,-0.0078125,0.0,-0.0078125,false,false,false,false,0.125,12.65,0.0,0,0,0,0.125,12.65,0.0,0,0,0,0.125,12.65,0.0,0,0,0,0.0,12.65,0.0,0,0,0,0.0,12.65,0.0,0,0,0,0.0,12.65,0.0,0,0,0,0.0,12.700000000000001,0.0,0,0,0,kReverse,kOff,-88.19,1.77,1.77,0.027832031,-0.98516846,0.008056641,28.28,0.0,-2.0,-0.5463257,2.1213684,
215.896453,true,true,true,0.0,-0.0078125,0.0,-0.0078125,false,false,false,false,0.0,-0.0078125,0.0,-0.0078125,false,false,false,false,0.125,12.65,0.0,0,0,0,0.125,12.65,0.0,0,0,0,0.125,12.65,0.0,0,0,0,0.0,12.65,0.0,0,0,0,0.0,12.65,0.0,0,0,0,0.0,12.65,0.0,0,0,0,0.0,12.700000000000001,0.0,0,0,0,kReverse,kOff,-88.19,1.77,1.77,0.029724121,-0.9874878,0.0078125,28.28,0.0,0.0,-0.5463257,2.1213684,
215.91696100000001,true,true,true,0.0,-0.0078125,0.0,-0.0078125,false,false,false,false,0.0,-0.0078125,0.0,-0.0078125,false,false,false,false,0.125,12.65,0.0,0,0,0,0.125,12.65,0.0,0,0,0,0.125,12.65,0.0,0,0,0,0.0,12.65,0.0,0,0,0,0.0,12.65,0.0,0,0,0,0.0,12.65,0.0,0,0,0,0.0,12.700000000000001,0.0,0,0,0,kReverse,kOff,-88.19,1.77,1.77,0.02734375,-0.9848633,0.0025634766,28.28,0.0,-3.0,-0.5463257,2.1213684,
215.942669,true,true,true,0.0,-0.0078125,0.0,-0.0078125,false,false,false,false,0.0,-0.0078125,0.0,-0.0078125,false,false,false,false,0.125,12.65,0.0,0,0,0,0.125,12.65,0.0,0,0,0,0.125,12.65,0.0,0,0,0,0.125,12.65,0.0,0,0,0,0.0,12.65,0.0,0,0,0,0.0,12.65,0.0,0,0,0,0.0,12.700000000000001,0.0,0,0,0,kReverse,kOff,-88.19,1.77,1.77,0.027648926,-0.9824829,0.0037841797,28.28,0.0,-2.0,-0.5463257,2.1213684,
215.9651,true,true,true,0.0,-0.0078125,0.0,-0.0078125,false,false,false,false,0.0,-0.0078125,0.0,-0.0078125,false,false,false,false,0.125,12.65,0.0,0,0,0,0.125,12.65,0.0,0,0,0,0.125,12.65,0.0,0,0,0,0.0,12.65,0.0,0,0,0,0.0,12.65,0.0,0,0,0,0.0,12.65,0.0,0,0,0,0.0,12.700000000000001,0.0,0,0,0,kReverse,kOff,-88.2,1.77,1.77,0.028442383,-0.9852295,0.0012817383,28.28,0.0,-2.0,-0.5463257,2.1213684,
215.98641999999998,true,true,true,0.0,-0.0078125,0.0,-0.0078125,false,false,false,false,0.0,-0.0078125,0.0,-0.0078125,false,false,false,false,0.125,12.65,0.0,0,0,0,0.125,12.65,0.0,0,0,0,0.125,12.65,0.0,0,0,0,0.0,12.65,0.0,0,0,0,0.0,12.65,0.0,0,0,0,0.0,12.65,0.0,0,0,0,0.0,12.700000000000001,0.0,0,0,0,kReverse,kOff,-88.2,1.77,1.77,0.030639648,-0.9838867,-3.0517578E-4,28.28,0.0,0.0,-0.5463257,2.1213684,
216.00751499999998,true,true,true,0.0,-0.0078125,0.0,-0.0078125,false,false,false,false,0.0,-0.0078125,0.0,-0.0078125,false,false,false,false,0.125,12.65,0.0,0,0,0,0.125,12.65,0.0,0,0,0,0.125,12.65,0.0,0,0,0,0.0,12.65,0.0,0,0,0,0.0,12.65,0.0,0,0,0,0.0,12.65,0.0,0,0,0,0.0,12.700000000000001,0.0,0,0,0,kReverse,kOff,-88.2,1.77,1.77,0.028564453,-0.9818115,0.0043945312,28.28,0.0,-1.0,-0.5463257,2.1213684,
216.031026,true,true,true,0.0,-0.0078125,0.0,-0.0078125,false,false,false,false,0.0,-0.0078125,0.0,-0.0078125,false,false,false,false,0.125,12.65,0.0,0,0,0,0.125,12.65,0.0,0,0,0,0.125,12.65,0.0,0,0,0,0.0,12.65,0.0,0,0,0,0.0,12.65,0.0,0,0,0,0.0,12.65,0.0,0,0,0,0.0,12.700000000000001,0.0,0,0,0,kReverse,kOff,-88.2,1.77,1.77,0.032104492,-0.9831543,0.008544922,28.28,0.0,1.0,-0.5463257,2.1213684,
216.05563,true,true,true,0.0,-0.0078125,0.0,-0.0078125,false,false,false,false,0.0,-0.0078125,0.0,-0.0078125,false,false,false,false,0.125,12.65,0.0,0,0,0,0.125,12.65,0.0,0,0,0,0.125,12.65,0.0,0,0,0,0.0,12.65,0.0,0,0,0,0.0,12.65,0.0,0,0,0,0.0,12.65,0.0,0,0,0,0.0,12.700000000000001,0.0,0,0,0,kReverse,kOff,-88.2,1.77,1.77,0.032714844,-0.98321533,0.007873535,28.28,0.0,2.0,-0.5463257,2.1213684,
216.081513,true,true,true,0.0,-0.0078125,0.0,-0.0078125,false,false,false,false,0.0,-0.0078125,0.0,-0.0078125,false,false,false,false,0.125,12.65,0.0,0,0,0,0.125,12.65,0.0,0,0,0,0.125,12.65,0.0,0,0,0,0.0,12.65,0.0,0,0,0,0.0,12.65,0.0,0,0,0,0.0,12.65,0.0,0,0,0,0.0,12.700000000000001,0.0,0,0,0,kReverse,kOff,-88.2,1.77,1.77,0.030151367,-0.98498535,0.007751465,28.28,0.0,0.0,-0.5463257,2.1213684,
216.106329,true,true,true,0.0,-0.0078125,0.0,-0.0078125,false,false,false,false,0.0,-0.0078125,0.0,-0.0078125,false,false,false,false,0.125,12.65,0.0,0,0,0,0.125,12.65,0.0,0,0,0,0.125,12.65,0.0,0,0,0,0.0,12.65,0.0,0,0,0,0.0,12.65,0.0,0,0,0,0.0,12.65,0.0,0,0,0,0.0,12.700000000000001,0.0,0,0,0,kReverse,kOff,-88.2,1.77,1.77,0.0289917,-0.98742676,0.005859375,28.28,0.0,-1.0,-0.5463257,2.1213684,
216.140839,true,true,true,0.0,-0.0078125,0.0,-0.0078125,false,false,false,false,0.0,-0.0078125,0.0,-0.0078125,false,false,false,false,0.125,12.65,0.0,0,0,0,0.125,12.65,0.0,0,0,0,0.125,12.65,0.0,0,0,0,0.0,12.65,0.0,0,0,0,0.0,12.65,0.0,0,0,0,0.0,12.65,0.0,0,0,0,0.0,12.700000000000001,0.0,0,0,0,kReverse,kOff,-88.2,1.77,1.77,0.02947998,-0.9848633,0.0087890625,28.28,0.0,0.0,-0.5463257,2.1213684,
216.164629,true,true,true,0.0,-0.0078125,0.0,-0.0078125,false,false,false,false,0.0,-0.0078125,0.0,-0.0078125,false,false,false,false,0.125,12.65,0.0,0,0,0,0.125,12.65,0.0,0,0,0,0.125,12.65,0.0,0,0,0,0.0,12.65,0.0,0,0,0,0.0,12.65,0.0,0,0,0,0.0,12.65,0.0,0,0,0,0.0,12.700000000000001,0.0,0,0,0,kReverse,kOff,-88.2,1.77,1.77,0.03137207,-0.9840088,0.0030517578,28.28,0.0,0.0,-0.5463257,2.1213684,
216.184839,true,true,true,0.0,-0.0078125,0.0,-0.0078125,false,false,false,false,0.0,-0.0078125,0.0,-0.0078125,false,false,false,false,0.125,12.65,0.0,0,0,0,0.125,12.65,0.0,0,0,0,0.125,12.65,0.0,0,0,0,0.0,12.65,0.0,0,0,0,0.0,12.65,0.0,0,0,0,0.0,12.65,0.0,0,0,0,0.0,12.700000000000001,0.0,0,0,0,kReverse,kOff,-88.2,1.77,1.77,0.028747559,-0.98547363,0.0068969727,28.33,0.0,-1.0,-0.5463257,2.1213684,
216.205708,true,true,true,0.0,-0.0078125,0.0,-0.0078125,false,false,false,false,0.0,-0.0078125,0.0,-0.0078125,false,false,false,false,0.125,12.65,0.0,0,0,0,0.125,12.65,0.0,0,0,0,0.125,12.65,0.0,0,0,0,0.0,12.65,0.0,0,0,0,0.0,12.65,0.0,0,0,0,0.0,12.65,0.0,0,0,0,0.0,12.700000000000001,0.0,0,0,0,kReverse,kOff,-88.2,1.77,1.77,0.030334473,-0.98498535,0.00390625,28.33,0.0,0.0,-0.5463257,2.1213684,
216.228331,true,true,true,0.0,-0.0078125,0.0,-0.0078125,false,false,false,false,0.0,-0.0078125,0.0,-0.0078125,false,false,false,false,0.125,12.65,0.0,0,0,0,0.125,12.65,0.0,0,0,0,0.125,12.65,0.0,0,0,0,0.0,12.65,0.0,0,0,0,0.0,12.65,0.0,0,0,0,0.0,12.65,0.0,0,0,0,0.0,12.700000000000001,0.0,0,0,0,kReverse,kOff,-88.2,1.76,1.76,0.030029297,-0.9833374,0.0021972656,28.33,0.0,0.0,-0.5463257,2.1213684,
216.251028,true,true,true,0.0,-0.0078125,0.0,-0.0078125,false,false,false,false,0.0,-0.0078125,0.0,-0.0078125,false,false,false,false,0.125,12.65,0.0,0,0,0,0.125,12.65,0.0,0,0,0,0.125,12.65,0.0,0,0,0,0.125,12.65,0.0,0,0,0,0.0,12.65,0.0,0,0,0,0.0,12.65,0.0,0,0,0,0.0,12.700000000000001,0.0,0,0,0,kReverse,kOff,-88.2,1.76,1.76,0.029968262,-0.98327637,-6.1035156E-5,28.33,0.0,0.0,-0.5463257,2.1213684,
216.272741,true,true,true,0.0,-0.0078125,0.0,-0.0078125,false,false,false,false,0.0,-0.0078125,0.0,-0.0078125,false,false,false,false,0.125,12.65,0.0,0,0,0,0.125,12.65,0.0,0,0,0,0.125,12.65,0.0,0,0,0,0.0,12.65,0.0,0,0,0,0.0,12.65,0.0,0,0,0,0.0,12.65,0.0,0,0,0,0.0,12.700000000000001,0.0,0,0,0,kReverse,kOff,-88.2,1.76,1.76,0.030822754,-0.9841919,0.007873535,28.33,0.0,0.0,-0.5463257,2.1213684,
216.29861799999998,true,true,true,0.0,-0.0078125,0.0,-0.0078125,false,false,false,false,0.0,-0.0078125,0.0,-0.0078125,false,false,false,false,0.125,12.65,0.0,0,0,0,0.125,12.65,0.0,0,0,0,0.125,12.65,0.0,0,0,0,0.0,12.65,0.0,0,0,0,0.0,12.65,0.0,0,0,0,0.0,12.65,0.0,0,0,0,0.0,12.700000000000001,0.0,0,0,0,kReverse,kOff,-88.2,1.76,1.76,0.031066895,-0.9862671,0.008178711,28.33,0.0,0.0,-0.5463257,2.1213684,
216.323729,true,true,true,0.0,-0.0078125,0.0,-0.0078125,false,false,false,false,0.0,-0.0078125,0.0,-0.0078125,false,false,false,false,0.125,12.65,0.0,0,0,0,0.125,12.65,0.0,0,0,0,0.125,12.65,0.0,0,0,0,0.0,12.65,0.0,0,0,0,0.0,12.65,0.0,0,0,0,0.0,12.65,0.0,0,0,0,0.0,12.700000000000001,0.0,0,0,0,kReverse,kOff,-88.2,1.77,1.77,0.032348633,-0.9831543,0.006958008,28.33,0.0,1.0,-0.5463257,2.1213684,
216.34072899999998,true,true,true,0.0,-0.0078125,0.0,-0.0078125,false,false,false,false,0.0,-0.0078125,0.0,-0.0078125,false,false,false,false,0.125,12.65,0.0,0,0,0,0.125,12.65,0.0,0,0,0,0.125,12.65,0.0,0,0,0,0.0,12.65,0.0,0,0,0,0.0,12.65,0.0,0,0,0,0.0,12.65,0.0,0,0,0,0.0,12.700000000000001,0.0,0,0,0,kReverse,kOff,-88.19,1.77,1.77,0.03186035,-0.984375,0.005554199,28.33,0.0,1.0,-0.5463257,2.1213684,
216.368772,true,true,true,0.0,-0.0078125,0.0,-0.0078125,false,false,false,false,0.0,-0.0078125,0.0,-0.0078125,false,false,false,false,0.125,12.65,0.0,0,0,0,0.125,12.65,0.0,0,0,0,0.125,12.65,0.0,0,0,0,0.0,12.65,0.0,0,0,0,0.0,12.65,0.0,0,0,0,0.0,12.65,0.0,0,0,0,0.0,12.700000000000001,0.0,0,0,0,kReverse,kOff,-88.2,1.77,1.77,0.02960205,-0.9852295,0.0033569336,28.33,0.0,0.0,-0.5463257,2.1213684,
216.390666,true,true,true,0.0,-0.0078125,0.0,-0.0078125,false,false,false,false,0.0,-0.0078125,0.0,-0.0078125,false,false,false,false,0.125,12.65,0.0,0,0,0,0.125,12.65,0.0,0,0,0,0.125,12.65,0.0,0,0,0,0.0,12.65,0.0,0,0,0,0.0,12.65,0.0,0,0,0,0.0,12.65,0.0,0,0,0,0.0,12.700000000000001,0.0,0,0,0,kReverse,kOff,-88.2,1.77,1.77,0.030761719,-0.9844971,0.008422852,28.33,0.0,0.0,-0.5463257,2.1213684,
216.414981,true,true,true,0.0,-0.0078125,0.0,-0.0078125,false,false,false,false,0.0,-0.0078125,0.0,-0.0078125,false,false,false,false,0.125,12.65,0.0,0,0,0,0.125,12.65,0.0,0,0,0,0.125,12.65,0.0,0,0,0,0.0,12.65,0.0,0,0,0,0.0,12.65,0.0,0,0,0,0.0,12.65,0.0,0,0,0,0.0,12.700000000000001,0.0,0,0,0,kReverse,kOff,-88.19,1.77,1.77,0.03302002,-0.98217773,-0.0018310547,28.33,0.0,2.0,-0.5463257,2.1213684,
216.43818299999998,true,true,true,0.0,-0.0078125,0.0,-0.0078125,false,false,false,false,0.0,-0.0078125,0.0,-0.0078125,false,false,false,false,0.125,12.65,0.0,0,0,0,0.125,12.65,0.0,0,0,0,0.125,12.65,0.0,0,0,0,0.0,12.65,0.0,0,0,0,0.0,12.65,0.0,0,0,0,0.0,12.65,0.0,0,0,0,0.0,12.700000000000001,0.0,0,0,0,kReverse,kOff,-88.19,1.77,1.77,0.027770996,-0.98760986,0.002746582,28.33,0.0,-2.0,-0.5463257,2.1213684,
216.455127,true,true,true,0.0,-0.0078125,0.0,-0.0078125,false,false,false,false,0.0,-0.0078125,0.0,-0.0078125,false,false,false,false,0.125,12.65,0.0,0,0,0,0.125,12.65,0.0,0,0,0,0.125,12.65,0.0,0,0,0,0.0,12.65,0.0,0,0,0,0.0,12.65,0.0,0,0,0,0.0,12.65,0.0,0,0,0,0.0,12.700000000000001,0.0,0,0,0,kReverse,kOff,-88.2,1.76,1.76,0.030151367,-0.98620605,0.002319336,28.33,0.0,0.0,-0.5463257,2.1213684,
216.486511,true,true,true,0.0,-0.0078125,0.0,-0.0078125,false,false,false,false,0.0,-0.0078125,0.0,-0.0078125,false,false,false,false,0.125,12.65,0.0,0,0,0,0.125,12.65,0.0,0,0,0,0.125,12.65,0.0,0,0,0,0.0,12.65,0.0,0,0,0,0.0,12.65,0.0,0,0,0,0.0,12.65,0.0,0,0,0,0.0,12.700000000000001,0.0,0,0,0,kReverse,kOff,-88.2,1.76,1.76,0.026916504,-0.9871826,0.0064697266,28.33,0.0,-3.0,-0.5463257,2.1213684,
216.50980900000002,true,true,true,0.0,-0.0078125,0.0,-0.0078125,false,false,false,false,0.0,-0.0078125,0.0,-0.0078125,false,false,false,false,0.125,12.65,0.0,0,0,0,0.125,12.65,0.0,0,0,0,0.125,12.65,0.0,0,0,0,0.0,12.65,0.0,0,0,0,0.0,12.65,0.0,0,0,0,0.0,12.65,0.0,0,0,0,0.0,12.700000000000001,0.0,0,0,0,kReverse,kOff,-88.2,1.76,1.76,0.03186035,-0.9822998,0.0025024414,28.33,0.0,1.0,-0.5463257,2.1213684,
216.533955,true,true,true,0.0,-0.0078125,0.0,-0.0078125,false,false,false,false,0.0,-0.0078125,0.0,-0.0078125,false,false,false,false,0.125,12.65,0.0,0,0,0,0.125,12.65,0.0,0,0,0,0.125,12.65,0.0,0,0,0,0.0,12.65,0.0,0,0,0,0.0,12.65,0.0,0,0,0,0.0,12.65,0.0,0,0,0,0.0,12.700000000000001,0.0,0,0,0,kReverse,kOff,-88.2,1.76,1.76,0.030029297,-0.982605,0.0076293945,28.33,0.0,0.0,-0.5463257,2.1213684,
216.557552,true,true,true,0.0,-0.0078125,0.0,-0.0078125,false,false,false,false,0.0,-0.0078125,0.0,-0.0078125,false,false,false,false,0.125,12.65,0.0,0,0,0,0.125,12.65,0.0,0,0,0,0.125,12.65,0.0,0,0,0,0.0,12.65,0.0,0,0,0,0.0,12.65,0.0,0,0,0,0.0,12.65,0.0,0,0,0,0.0,12.700000000000001,0.0,0,0,0,kReverse,kOff,-88.2,1.76,1.76,0.030639648,-0.9845581,0.0014038086,28.33,0.0,0.0,-0.5463257,2.1213684,
216.58070999999998,true,true,true,0.0,-0.0078125,0.0,-0.0078125,false,false,false,false,0.0,-0.0078125,0.0,-0.0078125,false,false,false,false,0.125,12.65,0.0,0,0,0,0.125,12.65,0.0,0,0,0,0.125,12.65,0.0,0,0,0,0.0,12.65,0.0,0,0,0,0.0,12.65,0.0,0,0,0,0.0,12.65,0.0,0,0,0,0.0,12.700000000000001,0.0,0,0,0,kReverse,kOff,-88.2,1.76,1.76,0.03137207,-0.98498535,0.0053710938,28.33,0.0,0.0,-0.5463257,2.1213684,
216.604585,true,true,true,0.0,-0.0078125,0.0,-0.0078125,false,false,false,false,0.0,-0.0078125,0.0,-0.0078125,false,false,false,false,0.125,12.65,0.0,0,0,0,0.125,12.65,0.0,0,0,0,0.125,12.65,0.0,0,0,0,0.0,12.65,0.0,0,0,0,0.0,12.65,0.0,0,0,0,0.0,12.65,0.0,0,0,0,0.0,12.700000000000001,0.0,0,0,0,kReverse,kOff,-88.2,1.76,1.76,0.02935791,-0.9850464,0.007019043,28.33,0.0,-1.0,-0.5463257,2.1213684,
216.626636,true,true,true,0.0,-0.0078125,0.0,-0.0078125,false,false,false,false,0.0,-0.0078125,0.0,-0.0078125,false,false,false,false,0.125,12.65,0.0,0,0,0,0.125,12.65,0.0,0,0,0,0.125,12.65,0.0,0,0,0,0.0,12.65,0.0,0,0,0,0.0,12.65,0.0,0,0,0,0.0,12.65,0.0,0,0,0,0.0,12.700000000000001,0.0,0,0,0,kReverse,kOff,-88.2,1.76,1.76,0.030151367,-0.98413086,0.003479004,28.33,0.0,0.0,-0.5463257,2.1213684,
216.64722899999998,true,true,true,0.0,-0.0078125,0.0,-0.0078125,false,false,false,false,0.0,-0.0078125,0.0,-0.0078125,false,false,false,false,0.125,12.65,0.0,0,0,0,0.125,12.65,0.0,0,0,0,0.125,12.65,0.0,0,0,0,0.0,12.65,0.0,0,0,0,0.0,12.65,0.0,0,0,0,0.0,12.65,0.0,0,0,0,0.0,12.700000000000001,0.0,0,0,0,kReverse,kOff,-88.2,1.76,1.76,0.029296875,-0.9857788,0.00390625,28.33,0.0,-1.0,-0.5463257,2.1213684,
216.668277,true,true,true,0.0,-0.0078125,0.0,-0.0078125,false,false,false,false,0.0,-0.0078125,0.0,-0.0078125,false,false,false,false,0.125,12.65,0.0,0,0,0,0.125,12.65,0.0,0,0,0,0.125,12.65,0.0,0,0,0,0.0,12.65,0.0,0,0,0,0.0,12.65,0.0,0,0,0,0.0,12.65,0.0,0,0,0,0.0,12.700000000000001,0.0,0,0,0,kReverse,kOff,-88.2,1.76,1.76,0.030639648,-0.9879761,0.0063476562,28.33,0.0,0.0,-0.5463257,2.1213684,
216.68948600000002,true,true,true,0.0,-0.0078125,0.0,-0.0078125,false,false,false,false,0.0,-0.0078125,0.0,-0.0078125,false,false,false,false,0.0,12.65,0.0,0,0,0,0.125,12.65,0.0,0,0,0,0.125,12.65,0.0,0,0,0,0.0,12.65,0.0,0,0,0,0.0,12.65,0.0,0,0,0,0.0,12.65,0.0,0,0,0,0.0,12.700000000000001,0.0,0,0,0,kReverse,kOff,-88.2,1.76,1.76,0.027770996,-0.98760986,0.009155273,28.3,0.0,-2.0,-0.5463257,2.1213684,
216.718675,true,true,true,0.0,-0.0078125,0.0,-0.0078125,false,false,false,false,0.0,-0.0078125,0.0,-0.0078125,false,false,false,false,0.0,12.65,0.0,0,0,0,0.125,12.65,0.0,0,0,0,0.125,12.65,0.0,0,0,0,0.0,12.65,0.0,0,0,0,0.0,12.65,0.0,0,0,0,0.0,12.65,0.0,0,0,0,0.0,12.700000000000001,0.0,0,0,0,kReverse,kOff,-88.2,1.76,1.76,0.027160645,-0.9848633,0.0041503906,28.3,0.0,-3.0,-0.5463257,2.1213684,
216.739237,true,true,true,0.0,-0.0078125,0.0,-0.0078125,false,false,false,false,0.0,-0.0078125,0.0,-0.0078125,false,false,false,false,0.0,12.65,0.0,0,0,0,0.125,12.65,0.0,0,0,0,0.125,12.65,0.0,0,0,0,0.0,12.65,0.0,0,0,0,0.0,12.65,0.0,0,0,0,0.0,12.65,0.0,0,0,0,0.0,12.700000000000001,0.0,0,0,0,kReverse,kOff,-88.2,1.76,1.76,0.030029297,-0.9829712,0.0095825195,28.3,0.0,0.0,-0.5463257,2.1213684,
216.760066,true,true,true,0.0,-0.0078125,0.0,-0.0078125,false,false,false,false,0.0,-0.0078125,0.0,-0.0078125,false,false,false,false,0.125,12.65,0.0,0,0,0,0.125,12.65,0.0,0,0,0,0.125,12.65,0.0,0,0,0,0.0,12.65,0.0,0,0,0,0.0,12.65,0.0,0,0,0,0.0,12.65,0.0,0,0,0,0.0,12.700000000000001,0.0,0,0,0,kReverse,kOff,-88.2,1.76,1.76,0.029296875,-0.98620605,0.005126953,28.3,0.0,-1.0,-0.5463257,2.1213684,
216.78619500000002,true,true,true,0.0,-0.0078125,0.0,-0.0078125,false,false,false,false,0.0,-0.0078125,0.0,-0.0078125,false,false,false,false,0.125,12.65,0.0,0,0,0,0.125,12.65,0.0,0,0,0,0.125,12.65,0.0,0,0,0,0.0,12.65,0.0,0,0,0,0.0,12.65,0.0,0,0,0,0.0,12.65,0.0,0,0,0,0.0,12.700000000000001,0.0,0,0,0,kReverse,kOff,-88.2,1.76,1.76,0.031555176,-0.9852295,0.005859375,28.3,0.0,1.0,-0.5463257,2.1213684,
216.80836499999998,true,true,true,0.0,-0.0078125,0.0,-0.0078125,false,false,false,false,0.0,-0.0078125,0.0,-0.0078125,false,false,false,false,0.125,12.65,0.0,0,0,0,0.125,12.65,0.0,0,0,0,0.125,12.65,0.0,0,0,0,0.0,12.65,0.0,0,0,0,0.0,12.65,0.0,0,0,0,0.0,12.65,0.0,0,0,0,0.0,12.700000000000001,0.0,0,0,0,kReverse,kOff,-88.2,1.76,1.76,0.030029297,-0.98565674,0.0065307617,28.3,0.0,0.0,-0.5463257,2.1213684,
216.82915400000002,true,true,true,0.0,-0.0078125,0.0,-0.0078125,false,false,false,false,0.0,-0.0078125,0.0,-0.0078125,false,false,false,false,0.125,12.65,0.0,0,0,0,0.125,12.65,0.0,0,0,0,0.125,12.65,0.0,0,0,0,0.0,12.65,0.0,0,0,0,0.0,12.65,0.0,0,0,0,0.0,12.65,0.0,0,0,0,0.0,12.700000000000001,0.0,0,0,0,kReverse,kOff,-88.2,1.76,1.76,0.029052734,-0.98327637,0.0065307617,28.3,0.0,-1.0,-0.5463257,2.1213684,
216.852531,true,true,true,0.0,-0.0078125,0.0,-0.0078125,false,false,false,false,0.0,-0.0078125,0.0,-0.0078125,false,false,false,false,0.125,12.65,0.0,0,0,0,0.125,12.65,0.0,0,0,0,0.125,12.65,0.0,0,0,0,0.0,12.65,0.0,0,0,0,0.0,12.65,0.0,0,0,0,0.0,12.65,0.0,0,0,0,0.0,12.700000000000001,0.0,0,0,0,kReverse,kOff,-88.19,1.77,1.77,0.030029297,-0.98327637,0.005493164,28.3,0.0,0.0,-0.5463257,2.1213684,
216.875035,true,true,true,0.0,-0.0078125,0.0,-0.0078125,false,false,false,false,0.0,-0.0078125,0.0,-0.0078125,false,false,false,false,0.125,12.65,0.0,0,0,0,0.125,12.65,0.0,0,0,0,0.125,12.65,0.0,0,0,0,0.0,12.65,0.0,0,0,0,0.0,12.65,0.0,0,0,0,0.0,12.65,0.0,0,0,0,0.0,12.700000000000001,0.0,0,0,0,kReverse,kOff,-88.19,1.77,1.77,0.030639648,-0.9815674,0.0053100586,28.3,0.0,0.0,-0.5463257,2.1213684,
216.897856,true,true,true,0.0,-0.0078125,0.0,-0.0078125,false,false,false,false,0.0,-0.0078125,0.0,-0.0078125,false,false,false,false,0.125,12.65,0.0,0,0,0,0.125,12.65,0.0,0,0,0,0.125,12.65,0.0,0,0,0,0.0,12.65,0.0,0,0,0,0.0,12.65,0.0,0,0,0,0.0,12.65,0.0,0,0,0,0.0,12.700000000000001,0.0,0,0,0,kReverse,kOff,-88.19,1.77,1.77,0.031433105,-0.9873047,9.765625E-4,28.3,0.0,0.0,-0.5463257,2.1213684,
216.92057699999998,true,true,true,0.0,-0.0078125,0.0,-0.0078125,false,false,false,false,0.0,-0.0078125,0.0,-0.0078125,false,false,false,false,0.125,12.65,0.0,0,0,0,0.125,12.65,0.0,0,0,0,0.125,12.65,0.0,0,0,0,0.0,12.65,0.0,0,0,0,0.0,12.65,0.0,0,0,0,0.0,12.65,0.0,0,0,0,0.0,12.700000000000001,0.0,0,0,0,kReverse,kOff,-88.19,1.77,1.77,0.029541016,-0.9829712,-0.0014038086,28.3,0.0,0.0,-0.5463257,2.1213684,
216.946953,true,true,true,0.0,-0.0078125,0.0,-0.0078125,false,false,false,false,0.0,-0.0078125,0.0,-0.0078125,false,false,false,false,0.125,12.65,0.0,0,0,0,0.125,12.65,0.0,0,0,0,0.125,12.65,0.0,0,0,0,0.0,12.65,0.0,0,0,0,0.0,12.65,0.0,0,0,0,0.0,12.65,0.0,0,0,0,0.0,12.700000000000001,0.0,0,0,0,kReverse,kOff,-88.19,1.77,1.77,0.030212402,-0.9852905,0.0015258789,28.3,0.0,0.0,-0.5463257,2.1213684,
216.967663,true,true,true,0.0,-0.0078125,0.0,-0.0078125,false,false,false,false,0.0,-0.0078125,0.0,-0.0078125,false,false,false,false,0.125,12.65,0.0,0,0,0,0.125,12.65,0.0,0,0,0,0.125,12.65,0.0,0,0,0,0.0,12.65,0.0,0,0,0,0.0,12.65,0.0,0,0,0,0.0,12.65,0.0,0,0,0,0.0,12.700000000000001,0.0,0,0,0,kReverse,kOff,-88.19,1.77,1.77,0.03363037,-0.9840088,0.0044555664,28.3,0.0,0.0,-0.5463257,2.1213684,
216.998581,true,true,true,0.0,-0.0078125,0.0,-0.0078125,false,false,false,false,0.0,-0.0078125,0.0,-0.0078125,false,false,false,false,0.125,12.65,0.0,0,0,0,0.125,12.65,0.0,0,0,0,0.125,12.65,0.0,0,0,0,0.0,12.65,0.0,0,0,0,0.0,12.65,0.0,0,0,0,0.0,12.65,0.0,0,0,0,0.0,12.700000000000001,0.0,0,0,0,kReverse,kOff,-88.19,1.77,1.77,0.028625488,-0.98461914,-0.0048828125,28.3,0.0,-1.0,-0.5463257,2.1213684,
217.019701,true,true,true,0.0,-0.0078125,0.0,-0.0078125,false,false,false,false,0.0,-0.0078125,0.0,-0.0078125,false,false,false,false,0.125,12.65,0.0,0,0,0,0.125,12.65,0.0,0,0,0,0.125,12.65,0.0,0,0,0,0.0,12.65,0.0,0,0,0,0.0,12.65,0.0,0,0,0,0.0,12.65,0.0,0,0,0,0.0,12.700000000000001,0.0,0,0,0,kReverse,kOff,-88.2,1.77,1.77,0.031555176,-0.9834595,0.0029296875,28.3,0.0,1.0,-0.5463257,2.1213684,
217.043252,true,true,true,0.0,-0.0078125,0.0,-0.0078125,false,false,false,false,0.0,-0.0078125,0.0,-0.0078125,false,false,false,false,0.125,12.65,0.0,0,0,0,0.125,12.65,0.0,0,0,0,0.125,12.65,0.0,0,0,0,0.0,12.65,0.0,0,0,0,0.0,12.65,0.0,0,0,0,0.0,12.65,0.0,0,0,0,0.0,12.700000000000001,0.0,0,0,0,kReverse,kOff,-88.2,1.77,1.77,0.027160645,-0.98413086,0.008605957,28.3,0.0,-3.0,-0.5463257,2.1213684,
217.062331,true,true,true,0.0,-0.0078125,0.0,-0.0078125,false,false,false,false,0.0,-0.0078125,0.0,-0.0078125,false,false,false,false,0.125,12.65,0.0,0,0,0,0.125,12.65,0.0,0,0,0,0.125,12.65,0.0,0,0,0,0.0,12.65,0.0,0,0,0,0.0,12.65,0.0,0,0,0,0.0,12.65,0.0,0,0,0,0.0,12.700000000000001,0.0,0,0,0,kReverse,kOff,-88.19,1.77,1.77,0.030273438,-0.9850464,0.008544922,28.3,0.0,0.0,-0.5463257,2.1213684,
217.08262200000001,true,true,true,0.0,-0.0078125,0.0,-0.0078125,false,false,false,false,0.0,-0.0078125,0.0,-0.0078125,false,false,false,false,0.125,12.65,0.0,0,0,0,0.125,12.65,0.0,0,0,0,0.125,12.65,0.0,0,0,0,0.0,12.65,0.0,0,0,0,0.0,12.65,0.0,0,0,0,0.0,12.65,0.0,0,0,0,0.0,12.700000000000001,0.0,0,0,0,kReverse,kOff,-88.19,1.77,1.77,0.032592773,-0.98498535,0.008850098,28.3,0.0,2.0,-0.5463257,2.1213684,
217.10854999999998,true,true,true,0.0,-0.0078125,0.0,-0.0078125,false,false,false,false,0.0,-0.0078125,0.0,-0.0078125,false,false,false,false,0.125,12.65,0.0,0,0,0,0.125,12.65,0.0,0,0,0,0.125,12.65,0.0,0,0,0,0.0,12.65,0.0,0,0,0,0.0,12.65,0.0,0,0,0,0.0,12.65,0.0,0,0,0,0.0,12.700000000000001,0.0,0,0,0,kReverse,kOff,-88.19,1.77,1.77,0.031982422,-0.9850464,0.0020751953,28.3,0.0,1.0,-0.5463257,2.1213684,
217.13106299999998,true,true,true,0.0,-0.0078125,0.0,-0.0078125,false,false,false,false,0.0,-0.0078125,0.0,-0.0078125,false,false,false,false,0.125,12.65,0.0,0,0,0,0.125,12.65,0.0,0,0,0,0.125,12.65,0.0,0,0,0,0.0,12.65,0.0,0,0,0,0.0,12.65,0.0,0,0,0,0.0,12.65,0.0,0,0,0,0.0,12.700000000000001,0.0,0,0,0,kReverse,kOff,-88.19,1.78,1.78,0.029052734,-0.98583984,0.0030517578,28.3,0.0,-1.0,-0.5463257,2.1213684,
217.15356599999998,true,true,true,0.0,-0.0078125,0.0,-0.0078125,false,false,false,false,0.0,-0.0078125,0.0,-0.0078125,false,false,false,false,0.125,12.65,0.0,0,0,0,0.125,12.65,0.0,0,0,0,0.125,12.65,0.0,0,0,0,0.0,12.65,0.0,0,0,0,0.0,12.65,0.0,0,0,0,0.0,12.65,0.0,0,0,0,0.0,12.700000000000001,0.0,0,0,0,kReverse,kOff,-88.19,1.77,1.77,0.027160645,-0.9857178,6.1035156E-5,28.3,0.0,-3.0,-0.5463257,2.1213684,
217.176377,true,true,true,0.0,-0.0078125,0.0,-0.0078125,false,false,false,false,0.0,-0.0078125,0.0,-0.0078125,false,false,false,false,0.125,12.65,0.0,0,0,0,0.125,12.65,0.0,0,0,0,0.125,12.65,0.0,0,0,0,0.0,12.65,0.0,0,0,0,0.0,12.65,0.0,0,0,0,0.0,12.65,0.0,0,0,0,0.0,12.700000000000001,0.0,0,0,0,kReverse,kOff,-88.19,1.77,1.77,0.03186035,-0.9796753,0.007873535,28.3,0.0,1.0,-0.5463257,2.1213684,
217.200343,true,true,true,0.0,-0.0078125,0.0,-0.0078125,false,false,false,false,0.0,-0.0078125,0.0,-0.0078125,false,false,false,false,0.125,12.65,0.0,0,0,0,0.125,12.65,0.0,0,0,0,0.125,12.65,0.0,0,0,0,0.0,12.65,0.0,0,0,0,0.0,12.65,0.0,0,0,0,0.0,12.65,0.0,0,0,0,0.0,12.700000000000001,0.0,0,0,0,kReverse,kOff,-88.19,1.78,1.78,0.027893066,-0.98187256,-0.0020141602,28.29,0.0,-2.0,-0.5463257,2.1213684,
217.21901,true,true,true,0.0,-0.0078125,0.0,-0.0078125,false,false,false,false,0.0,-0.0078125,0.0,-0.0078125,false,false,false,false,0.125,12.65,0.0,0,0,0,0.125,12.65,0.0,0,0,0,0.125,12.65,0.0,0,0,0,0.0,12.65,0.0,0,0,0,0.0,12.65,0.0,0,0,0,0.0,12.65,0.0,0,0,0,0.0,12.700000000000001,0.0,0,0,0,kReverse,kOff,-88.19,1.78,1.78,0.033081055,-0.9854126,6.1035156E-4,28.29,0.0,2.0,-0.5463257,2.1213684,
217.24100099999998,true,true,true,0.0,-0.0078125,0.0,-0.0078125,false,false,false,false,0.0,-0.0078125,0.0,-0.0078125,false,false,false,false,0.125,12.65,0.0,0,0,0,0.125,12.65,0.0,0,0,0,0.125,12.65,0.0,0,0,0,0.0,12.65,0.0,0,0,0,0.0,12.65,0.0,0,0,0,0.0,12.65,0.0,0,0,0,0.0,12.700000000000001,0.0,0,0,0,kReverse,kOff,-88.19,1.78,1.78,0.03100586,-0.97631836,0.009216309,28.29,0.0,0.0,-0.5463257,2.1213684,
217.25861600000002,true,true,true,0.0,-0.0078125,0.0,-0.0078125,false,false,false,false,0.0,-0.0078125,0.0,-0.0078125,false,false,false,false,0.125,12.65,0.0,0,0,0,0.125,12.65,0.0,0,0,0,0.125,12.65,0.0,0,0,0,0.0,12.65,0.0,0,0,0,0.0,12.65,0.0,0,0,0,0.0,12.65,0.0,0,0,0,0.0,12.700000000000001,0.0,0,0,0,kReverse,kOff,-88.19,1.77,1.77,0.024475098,-0.9810791,0.004699707,28.29,0.0,-5.0,-0.5463257,2.1213684,
217.29309099999998,true,true,true,0.0,-0.0078125,0.0,-0.0078125,false,false,false,false,0.0,-0.0078125,0.0,-0.0078125,false,false,false,false,0.125,12.65,0.0,0,0,0,0.125,12.65,0.0,0,0,0,0.125,12.65,0.0,0,0,0,0.0,12.65,0.0,0,0,0,0.0,12.65,0.0,0,0,0,0.0,12.65,0.0,0,0,0,0.0,12.700000000000001,0.0,0,0,0,kReverse,kOff,-88.19,1.77,1.77,0.034301758,-0.9848633,0.004760742,28.29,0.0,3.0,-0.5463257,2.1213684,
217.325693,true,true,true,0.0,-0.0078125,0.0,-0.0078125,false,false,false,false,0.0,-0.0078125,0.0,-0.0078125,false,false,false,false,0.125,12.65,0.0,0,0,0,0.125,12.65,0.0,0,0,0,0.125,12.65,0.0,0,0,0,0.0,12.65,0.0,0,0,0,0.0,12.65,0.0,0,0,0,0.0,12.65,0.0,0,0,0,0.0,12.700000000000001,0.0,0,0,0,kReverse,kOff,-88.19,1.77,1.77,0.029663086,-0.99432373,-0.005065918,28.29,0.0,-1.0,-0.5463257,2.1213684,
217.348952,true,true,true,0.0,-0.0078125,0.0,-0.0078125,false,false,false,false,0.0,-0.0078125,0.0,-0.0078125,false,false,false,false,0.125,12.65,0.0,0,0,0,0.125,12.65,0.0,0,0,0,0.125,12.65,0.0,0,0,0,0.0,12.65,0.0,0,0,0,0.0,12.65,0.0,0,0,0,0.0,12.65,0.0,0,0,0,0.0,12.700000000000001,0.0,0,0,0,kReverse,kOff,-88.19,1.77,1.77,0.03387451,-0.98931885,0.01159668,28.29,0.0,3.0,-0.5463257,2.1213684,
