timer,lineLeft,lineCenter,lineRight,driverLeftX,driverLeftY,driverRightX,driverRightY,driverA,driverB,driverX,driverY,operatorLeftX,operatorLeftY,operatorRightX,operatorRightY,operatorA,operatorB,operatorX,operatorY,LeftFrontCurrent,LeftFrontVoltage,LeftFrontValue,LeftFrontPosition,LeftFrontVelocity,LeftFrontFaults,LeftRearCurrent,LeftRearVoltage,LeftRearValue,LeftRearPosition,LeftRearVelocity,LeftRearFaults,RightFrontCurrent,RightFrontVoltage,RightFrontValue,RightFrontPosition,RightFrontVelocity,RightFrontFaults,RightRearCurrent,RightRearVoltage,RightRearValue,RightRearPosition,RightRearVelocity,RightRearFaults,LiftCurrent,LiftVoltage,LiftValue,LiftPosition,LiftVelocity,LiftFaults,WristCurrent,WristVoltage,WristValue,WristPosition,WristVelocity,WristFaults,RollerCurrent,RollerVoltage,RollerValue,RollerPosition,RollerVelocity,RollerFaults,PushersState,PivotsState,navx_Pitch,navx_Roll,navx_Yaw,navx_XAcc,navx_YAcc,navx_ZAcc,navx_Temp,navx_Bar,navx_Alt,navx_XDis,navx_YDis,
79.24339000000002,true,true,true,0.0,-0.0078125,0.0,-0.0078125,false,false,false,false,0.0,-0.0078125,0.0,-0.0078125,false,false,false,false,0.125,12.65,0.0,-3509,0,0,0.125,12.65,0.0,0,0,0,0.125,12.65,0.0,-14644,0,0,0.125,12.700000000000001,0.0,0,0,0,0.0,12.65,0.0,0,0,0,0.0,12.65,0.0,0,0,0,0.0,12.75,0.0,0,0,0,kReverse,kOff,-85.7,1.65,-171.89,0.028259277,-0.9822998,0.06896973,30.98,0.0,0.0,-6.8159637,0.8080902,
79.27235800000001,true,true,true,0.0,-0.0078125,0.0,-0.0078125,false,false,false,false,0.0,-0.0078125,0.0,-0.0078125,false,false,false,false,0.125,12.65,0.0,-3509,0,0,0.125,12.65,0.0,0,0,0,0.125,12.65,0.0,-14644,0,0,0.125,12.700000000000001,0.0,0,0,0,0.0,12.65,0.0,0,0,0,0.0,12.65,0.0,0,0,0,0.0,12.75,0.0,0,0,0,kReverse,kOff,-85.69,1.65,-171.89,0.031066895,-0.9812622,0.06903076,30.98,0.0,-2.0,-6.8159637,0.8080902,
79.29814000000002,true,true,true,0.0,-0.0078125,0.0,-0.0078125,false,false,false,false,0.0,-0.0078125,0.0,-0.0078125,false,false,false,false,0.125,12.65,0.0,-3509,0,0,0.125,12.65,0.0,0,0,0,0.125,12.65,0.0,-14644,0,0,0.125,12.700000000000001,0.0,0,0,0,0.0,12.65,0.0,0,0,0,0.0,12.65,0.0,0,0,0,0.0,12.75,0.0,0,0,0,kReverse,kOff,-85.69,1.65,-171.88,0.02923584,-0.98132324,0.06652832,30.98,0.0,0.0,-6.8159637,0.8080902,
79.32099900000001,true,true,true,0.0,-0.0078125,0.0,-0.0078125,false,false,false,false,0.0,-0.0078125,0.0,-0.0078125,false,false,false,false,0.125,12.65,0.0,-3509,0,0,0.125,12.65,0.0,0,0,0,0.125,12.65,0.0,-14644,0,0,0.125,12.700000000000001,0.0,0,0,0,0.0,12.65,0.0,0,0,0,0.0,12.65,0.0,0,0,0,0.0,12.75,0.0,0,0,0,kReverse,kOff,-85.69,1.65,-171.88,0.028015137,-0.98272705,0.06542969,30.98,0.0,2.0,-6.8159637,0.8080902,
79.340986,true,true,true,0.0,-0.0078125,0.0,-0.0078125,false,false,false,false,0.0,-0.0078125,0.0,-0.0078125,false,false,false,false,0.125,12.65,0.0,-3509,0,0,0.125,12.65,0.0,0,0,0,0.125,12.65,0.0,-14644,0,0,0.125,12.700000000000001,0.0,0,0,0,0.0,12.65,0.0,0,0,0,0.0,12.65,0.0,0,0,0,0.0,12.75,0.0,0,0,0,kReverse,kOff,-85.69,1.65,-171.88,0.024291992,-0.98431396,0.06500244,30.98,0.0,5.0,-6.8159637,0.8080902,
79.363813,true,true,true,0.0,-0.0078125,0.0,-0.0078125,false,false,false,false,0.0,-0.0078125,0.0,-0.0078125,false,false,false,false,0.125,12.65,0.0,-3509,0,0,0.125,12.65,0.0,0,0,0,0.125,12.65,0.0,-14644,0,0,0.125,12.700000000000001,0.0,0,0,0,0.0,12.65,0.0,0,0,0,0.0,12.65,0.0,0,0,0,0.0,12.75,0.0,0,0,0,kReverse,kOff,-85.69,1.65,-171.89,0.027770996,-0.9834595,0.07128906,30.98,0.0,-2.0,-6.8159637,0.8080902,
79.38689300000001,true,true,true,0.0,-0.0078125,0.0,-0.0078125,false,false,false,false,0.0,-0.0078125,0.0,-0.0078125,false,false,false,false,0.125,12.65,0.0,-3509,0,0,0.125,12.65,0.0,0,0,0,0.125,12.65,0.0,-14644,0,0,0.125,12.700000000000001,0.0,0,0,0,0.0,12.65,0.0,0,0,0,0.0,12.65,0.0,0,0,0,0.0,12.75,0.0,0,0,0,kReverse,kOff,-85.69,1.65,-171.89,0.02947998,-0.98376465,0.0692749,30.98,0.0,-1.0,-6.8159637,0.8080902,
79.410543,true,true,true,0.0,-0.0078125,0.0,-0.0078125,false,false,false,false,0.0,-0.0078125,0.0,-0.0078125,false,false,false,false,0.125,12.65,0.0,-3509,0,0,0.125,12.65,0.0,0,0,0,0.125,12.65,0.0,-14644,0,0,0.125,12.700000000000001,0.0,0,0,0,0.0,12.65,0.0,0,0,0,0.0,12.65,0.0,0,0,0,0.0,12.75,0.0,0,0,0,kReverse,kOff,-85.7,1.65,-171.89,0.028381348,-0.98223877,0.06512451,30.98,0.0,2.0,-6.8159637,0.8080902,
79.43250200000001,true,true,true,0.0,-0.0078125,0.0,-0.0078125,false,false,false,false,0.0,-0.0078125,0.0,-0.0078125,false,false,false,false,0.125,12.65,0.0,-3509,0,0,0.125,12.65,0.0,0,0,0,0.125,12.65,0.0,-14644,0,0,0.125,12.700000000000001,0.0,0,0,0,0.0,12.65,0.0,0,0,0,0.0,12.65,0.0,0,0,0,0.0,12.75,0.0,0,0,0,kReverse,kOff,-85.7,1.65,-171.89,0.02734375,-0.98083496,0.07019043,30.98,0.0,-1.0,-6.8159637,0.8080902,
79.45246599999999,true,true,true,0.0,-0.0078125,0.0,-0.0078125,false,false,false,false,0.0,-0.0078125,0.0,-0.0078125,false,false,false,false,0.125,12.65,0.0,-3509,0,0,0.125,12.65,0.0,0,0,0,0.125,12.65,0.0,-14644,0,0,0.125,12.700000000000001,0.0,0,0,0,0.0,12.65,0.0,0,0,0,0.0,12.65,0.0,0,0,0,0.0,12.75,0.0,0,0,0,kReverse,kOff,-85.69,1.65,-171.87,0.027526855,-0.9842529,0.0725708,30.98,0.0,-2.0,-6.8159637,0.8080902,
79.47307999999998,true,true,true,0.0,-0.0078125,0.0,-0.0078125,false,false,false,false,0.0,-0.0078125,0.0,-0.0078125,false,false,false,false,0.125,12.65,0.0,-3509,0,0,0.125,12.65,0.0,0,0,0,0.125,12.65,0.0,-14644,0,0,0.125,12.700000000000001,0.0,0,0,0,0.0,12.65,0.0,0,0,0,0.0,12.65,0.0,0,0,0,0.0,12.75,0.0,0,0,0,kReverse,kOff,-85.68,1.65,-171.87,0.027282715,-0.98394775,0.07141113,30.98,0.0,-1.0,-6.8159637,0.8080902,
79.49353700000002,true,true,true,0.0,-0.0078125,0.0,-0.0078125,false,false,false,false,0.0,-0.0078125,0.0,-0.0078125,false,false,false,false,0.125,12.65,0.0,-3509,0,0,0.125,12.65,0.0,0,0,0,0.125,12.65,0.0,-14644,0,0,0.125,12.700000000000001,0.0,0,0,0,0.0,12.65,0.0,0,0,0,0.0,12.65,0.0,0,0,0,0.0,12.75,0.0,0,0,0,kReverse,kOff,-85.68,1.65,-171.87,0.026489258,-0.979126,0.067993164,30.99,0.0,1.0,-6.8159637,0.8080902,
79.51403099999999,true,true,true,0.0,-0.0078125,0.0,-0.0078125,false,false,false,false,0.0,-0.0078125,0.0,-0.0078125,false,false,false,false,0.125,12.65,0.0,-3509,0,0,0.125,12.65,0.0,0,0,0,0.125,12.65,0.0,-14644,0,0,0.125,12.700000000000001,0.0,0,0,0,0.0,12.65,0.0,0,0,0,0.0,12.65,0.0,0,0,0,0.0,12.75,0.0,0,0,0,kReverse,kOff,-85.68,1.65,-171.87,0.029052734,-0.982666,0.066589355,30.99,0.0,1.0,-6.8159637,0.8080902,
79.53457,true,true,true,0.0,-0.0078125,0.0,-0.0078125,false,false,false,false,0.0,-0.0078125,0.0,-0.0078125,false,false,false,false,0.125,12.65,0.0,-3509,0,0,0.125,12.65,0.0,0,0,0,0.125,12.65,0.0,-14644,0,0,0.125,12.700000000000001,0.0,0,0,0,0.0,12.65,0.0,0,0,0,0.0,12.65,0.0,0,0,0,0.0,12.75,0.0,0,0,0,kReverse,kOff,-85.69,1.65,-171.87,0.029541016,-0.9798584,0.06524658,30.99,0.0,1.0,-6.8159637,0.8080902,
79.55524900000002,true,true,true,0.0,-0.0078125,0.0,-0.0078125,false,false,false,false,0.0,-0.0078125,0.0,-0.0078125,false,false,false,false,0.125,12.65,0.0,-3509,0,0,0.125,12.65,0.0,0,0,0,0.125,12.65,0.0,-14644,0,0,0.125,12.700000000000001,0.0,0,0,0,0.0,12.65,0.0,0,0,0,0.0,12.65,0.0,0,0,0,0.0,12.75,0.0,0,0,0,kReverse,kOff,-85.69,1.65,-171.87,0.0289917,-0.9822998,0.06854248,30.99,0.0,0.0,-6.8159637,0.8080902,
79.574211,true,true,true,0.0,-0.0078125,0.0,-0.0078125,false,false,false,false,0.0,-0.0078125,0.0,-0.0078125,false,false,false,false,0.125,12.65,0.0,-3509,0,0,0.125,12.65,0.0,0,0,0,0.125,12.65,0.0,-14644,0,0,0.125,12.700000000000001,0.0,0,0,0,0.0,12.65,0.0,0,0,0,0.0,12.65,0.0,0,0,0,0.0,12.75,0.0,0,0,0,kReverse,kOff,-85.69,1.65,-171.87,0.028320312,-0.98272705,0.07006836,30.99,0.0,-1.0,-6.8159637,0.8080902,
79.59579999999998,true,true,true,0.0,-0.0078125,0.0,-0.0078125,false,false,false,false,0.0,-0.0078125,0.0,-0.0078125,false,false,false,false,0.125,12.65,0.0,-3509,0,0,0.125,12.65,0.0,0,0,0,0.125,12.65,0.0,-14644,0,0,0.125,12.700000000000001,0.0,0,0,0,0.0,12.65,0.0,0,0,0,0.0,12.65,0.0,0,0,0,0.0,12.75,0.0,0,0,0,kReverse,kOff,-85.69,1.65,-171.87,0.02947998,-0.98413086,0.06451416,30.99,0.0,2.0,-6.8159637,0.8080902,
79.61726399999999,true,true,true,0.0,-0.0078125,0.0,-0.0078125,false,false,false,false,0.0,-0.0078125,0.0,-0.0078125,false,false,false,false,0.125,12.65,0.0,-3509,0,0,0.125,12.65,0.0,0,0,0,0.125,12.65,0.0,-14644,0,0,0.125,12.700000000000001,0.0,0,0,0,0.0,12.65,0.0,0,0,0,0.0,12.65,0.0,0,0,0,0.0,12.75,0.0,0,0,0,kReverse,kOff,-85.69,1.65,-171.87,0.029968262,-0.98272705,0.06518555,30.99,0.0,1.0,-6.8159637,0.8080902,
79.64514100000001,true,true,true,0.0,-0.0078125,0.0,-0.0078125,false,false,false,false,0.0,-0.0078125,0.0,-0.0078125,false,false,false,false,0.125,12.65,0.0,-3509,0,0,0.125,12.65,0.0,0,0,0,0.125,12.65,0.0,-14644,0,0,0.125,12.700000000000001,0.0,0,0,0,0.0,12.65,0.0,0,0,0,0.0,12.65,0.0,0,0,0,0.0,12.75,0.0,0,0,0,kReverse,kOff,-85.69,1.65,-171.87,0.029968262,-0.98272705,0.06518555,30.99,0.0,1.0,-6.8159637,0.8080902,
79.663054,true,true,true,0.0,-0.0078125,0.0,-0.0078125,false,false,false,false,0.0,-0.0078125,0.0,-0.0078125,false,false,false,false,0.125,12.65,0.0,-3509,0,0,0.125,12.65,0.0,0,0,0,0.125,12.65,0.0,-14644,0,0,0.125,12.700000000000001,0.0,0,0,0,0.0,12.65,0.0,0,0,0,0.0,12.65,0.0,0,0,0,0.0,12.75,0.0,0,0,0,kReverse,kOff,-85.69,1.65,-171.87,0.031677246,-0.9833374,0.069885254,30.99,0.0,-2.0,-6.8159637,0.8080902,
79.68599900000001,true,true,true,0.0,-0.0078125,0.0,-0.0078125,false,false,false,false,0.0,-0.0078125,0.0,-0.0078125,false,false,false,false,0.125,12.65,0.0,-3509,0,0,0.125,12.65,0.0,0,0,0,0.125,12.65,0.0,-14644,0,0,0.125,12.700000000000001,0.0,0,0,0,0.0,12.65,0.0,0,0,0,0.0,12.65,0.0,0,0,0,0.0,12.75,0.0,0,0,0,kReverse,kOff,-85.68,1.65,-171.87,0.027832031,-0.982605,0.070739746,30.99,0.0,-1.0,-6.8159637,0.8080902,
79.70768900000002,true,true,true,0.0,-0.0078125,0.0,-0.0078125,false,false,false,false,0.0,-0.0078125,0.0,-0.0078125,false,false,false,false,0.125,12.65,0.0,-3509,0,0,0.125,12.65,0.0,0,0,0,0.125,12.65,0.0,-14644,0,0,0.125,12.700000000000001,0.0,0,0,0,0.0,12.65,0.0,0,0,0,0.0,12.65,0.0,0,0,0,0.125,12.75,0.0,0,0,0,kReverse,kOff,-85.68,1.65,-171.87,0.026306152,-0.98358154,0.068237305,30.99,0.0,1.0,-6.8159637,0.8080902,
79.725986,true,true,true,0.0,-0.0078125,0.0,-0.0078125,false,false,false,false,0.0,-0.0078125,0.0,-0.0078125,false,false,false,false,0.125,12.65,0.0,-3509,0,0,0.125,12.65,0.0,0,0,0,0.125,12.65,0.0,-14644,0,0,0.125,12.700000000000001,0.0,0,0,0,0.0,12.65,0.0,0,0,0,0.0,12.65,0.0,0,0,0,0.0,12.75,0.0,0,0,0,kReverse,kOff,-85.68,1.65,-171.87,0.028442383,-0.9821167,0.067993164,30.99,0.0,0.0,-6.8159637,0.8080902,
79.743261,true,true,true,0.0,-0.0078125,0.0,-0.0078125,false,false,false,false,0.0,-0.0078125,0.0,-0.0078125,false,false,false,false,0.125,12.65,0.0,-3509,0,0,0.125,12.65,0.0,0,0,0,0.125,12.65,0.0,-14644,0,0,0.125,12.700000000000001,0.0,0,0,0,0.0,12.65,0.0,0,0,0,0.0,12.65,0.0,0,0,0,0.0,12.75,0.0,0,0,0,kReverse,kOff,-85.68,1.65,-171.87,0.028137207,-0.9795532,0.0736084,30.99,0.0,-4.0,-6.8159637,0.8080902,
79.765267,true,true,true,0.0,-0.0078125,0.0,-0.0078125,false,false,false,false,0.0,-0.0078125,0.0,-0.0078125,false,false,false,false,0.125,12.65,0.0,-3509,0,0,0.125,12.65,0.0,0,0,0,0.125,12.65,0.0,-14644,0,0,0.125,12.700000000000001,0.0,0,0,0,0.0,12.65,0.0,0,0,0,0.0,12.65,0.0,0,0,0,0.0,12.75,0.0,0,0,0,kReverse,kOff,-85.68,1.65,-171.87,0.027404785,-0.98217773,0.064697266,30.99,0.0,3.0,-6.8159637,0.8080902,
79.787782,true,true,true,0.0,-0.0078125,0.0,-0.0078125,false,false,false,false,0.0,-0.0078125,0.0,-0.0078125,false,false,false,false,0.125,12.65,0.0,-3509,0,0,0.125,12.65,0.0,0,0,0,0.125,12.65,0.0,-14644,0,0,0.125,12.700000000000001,0.0,0,0,0,0.0,12.65,0.0,0,0,0,0.0,12.65,0.0,0,0,0,0.0,12.75,0.0,0,0,0,kReverse,kOff,-85.68,1.65,-171.87,0.030761719,-0.9805908,0.06665039,30.99,0.0,0.0,-6.8159637,0.8080902,
79.81374,true,true,true,0.0,-0.0078125,0.0,-0.0078125,false,false,false,false,0.0,-0.0078125,0.0,-0.0078125,false,false,false,false,0.125,12.65,0.0,-3509,0,0,0.125,12.65,0.0,0,0,0,0.125,12.65,0.0,-14644,0,0,0.125,12.700000000000001,0.0,0,0,0,0.0,12.65,0.0,0,0,0,0.0,12.65,0.0,0,0,0,0.0,12.75,0.0,0,0,0,kReverse,kOff,-85.68,1.65,-171.87,0.027038574,-0.98309326,0.0692749,30.99,0.0,0.0,-6.8159637,0.8080902,
79.83527600000001,true,true,true,0.0,-0.0078125,0.0,-0.0078125,false,false,false,false,0.0,-0.0078125,0.0,-0.0078125,false,false,false,false,0.125,12.65,0.0,-3509,0,0,0.125,12.65,0.0,0,0,0,0.125,12.65,0.0,-14644,0,0,0.125,12.700000000000001,0.0,0,0,0,0.0,12.65,0.0,0,0,0,0.0,12.65,0.0,0,0,0,0.0,12.75,0.0,0,0,0,kReverse,kOff,-85.68,1.66,-171.86,0.028137207,-0.9819946,0.070495605,30.99,0.0,-1.0,-6.8159637,0.8080902,
79.85555,true,true,true,0.0,-0.0078125,0.0,-0.0078125,false,false,false,false,0.0,-0.0078125,0.0,-0.0078125,false,false,false,false,0.125,12.65,0.0,-3509,0,0,0.125,12.65,0.0,0,0,0,0.125,12.65,0.0,-14644,0,0,0.125,12.700000000000001,0.0,0,0,0,0.0,12.65,0.0,0,0,0,0.0,12.65,0.0,0,0,0,0.0,12.75,0.0,0,0,0,kReverse,kOff,-85.68,1.66,-171.86,0.027770996,-0.98046875,0.07122803,30.99,0.0,-2.0,-6.8159637,0.8080902,
79.87759,true,true,true,0.0,-0.0078125,0.0,-0.0078125,false,false,false,false,0.0,-0.0078125,0.0,-0.0078125,false,false,false,false,0.125,12.65,0.0,-3509,0,0,0.125,12.65,0.0,0,0,0,0.125,12.65,0.0,-14644,0,0,0.125,12.700000000000001,0.0,0,0,0,0.0,12.65,0.0,0,0,0,0.0,12.65,0.0,0,0,0,0.0,12.75,0.0,0,0,0,kReverse,kOff,-85.68,1.66,-171.86,0.028930664,-0.97924805,0.06604004,30.99,0.0,1.0,-6.8159637,0.8080902,
79.89796799999999,true,true,true,0.0,-0.0078125,0.0,-0.0078125,false,false,false,false,0.0,-0.0078125,0.0,-0.0078125,false,false,false,false,0.125,12.65,0.0,-3509,0,0,0.125,12.65,0.0,0,0,0,0.125,12.65,0.0,-14644,0,0,0.125,12.700000000000001,0.0,0,0,0,0.0,12.65,0.0,0,0,0,0.0,12.65,0.0,0,0,0,0.0,12.75,0.0,0,0,0,kReverse,kOff,-85.68,1.65,-171.87,0.02722168,-0.98553467,0.064819336,30.99,0.0,3.0,-6.8159637,0.8080902,
79.92083600000001,true,true,true,0.0,-0.0078125,0.0,-0.0078125,false,false,false,false,0.0,-0.0078125,0.0,-0.0078125,false,false,false,false,0.125,12.65,0.0,-3509,0,0,0.125,12.65,0.0,0,0,0,0.125,12.65,0.0,-14644,0,0,0.125,12.700000000000001,0.0,0,0,0,0.0,12.65,0.0,0,0,0,0.0,12.65,0.0,0,0,0,0.0,12.75,0.0,0,0,0,kReverse,kOff,-85.69,1.65,-171.88,0.028869629,-0.9822998,0.06854248,30.99,0.0,0.0,-6.8159637,0.8080902,
79.947115,true,true,true,0.0,-0.0078125,0.0,-0.0078125,false,false,false,false,0.0,-0.0078125,0.0,-0.0078125,false,false,false,false,0.125,12.65,0.0,-3509,0,0,0.125,12.65,0.0,0,0,0,0.125,12.65,0.0,-14644,0,0,0.125,12.700000000000001,0.0,0,0,0,0.0,12.65,0.0,0,0,0,0.0,12.65,0.0,0,0,0,0.0,12.75,0.0,0,0,0,kReverse,kOff,-85.69,1.65,-171.88,0.027282715,-0.9831543,0.07287598,30.99,0.0,-3.0,-6.8159637,0.8080902,
79.969559,true,true,true,0.0,-0.0078125,0.0,-0.0078125,false,false,false,false,0.0,-0.0078125,0.0,-0.0078125,false,false,false,false,0.125,12.65,0.0,-3509,0,0,0.125,12.65,0.0,0,0,0,0.125,12.65,0.0,-14644,0,0,0.125,12.700000000000001,0.0,0,0,0,0.0,12.65,0.0,0,0,0,0.0,12.65,0.0,0,0,0,0.0,12.75,0.0,0,0,0,kReverse,kOff,-85.68,1.65,-171.87,0.028625488,-0.9812622,0.06719971,30.99,0.0,0.0,-6.8159637,0.8080902,
79.99103400000001,true,true,true,0.0,-0.0078125,0.0,-0.0078125,false,false,false,false,0.0,-0.0078125,0.0,-0.0078125,false,false,false,false,0.125,12.65,0.0,-3509,0,0,0.125,12.65,0.0,0,0,0,0.125,12.65,0.0,-14644,0,0,0.125,12.700000000000001,0.0,0,0,0,0.0,12.65,0.0,0,0,0,0.0,12.65,0.0,0,0,0,0.0,12.75,0.0,0,0,0,kReverse,kOff,-85.68,1.65,-171.87,0.027832031,-0.9817505,0.06750488,30.99,0.0,1.0,-6.8159637,0.8080902,
80.013611,true,true,true,0.0,-0.0078125,0.0,-0.0078125,false,false,false,false,0.0,-0.0078125,0.0,-0.0078125,false,false,false,false,0.125,12.65,0.0,-3509,0,0,0.125,12.65,0.0,0,0,0,0.125,12.65,0.0,-14644,0,0,0.125,12.700000000000001,0.0,0,0,0,0.0,12.65,0.0,0,0,0,0.0,12.65,0.0,0,0,0,0.0,12.75,0.0,0,0,0,kReverse,kOff,-85.68,1.65,-171.87,0.027038574,-0.9812012,0.07196045,30.97,0.0,-2.0,-6.8159637,0.8080902,
80.03411600000001,true,true,true,0.0,-0.0078125,0.0,-0.0078125,false,false,false,false,0.0,-0.0078125,0.0,-0.0078125,false,false,false,false,0.125,12.65,0.0,-3509,0,0,0.125,12.65,0.0,0,0,0,0.125,12.65,0.0,-14644,0,0,0.125,12.700000000000001,0.0,0,0,0,0.0,12.65,0.0,0,0,0,0.0,12.65,0.0,0,0,0,0.0,12.75,0.0,0,0,0,kReverse,kOff,-85.68,1.65,-171.87,0.026672363,-0.9833374,0.0670166,30.97,0.0,2.0,-6.8159637,0.8080902,
80.053626,true,true,true,0.0,-0.0078125,0.0,-0.0078125,false,false,false,false,0.0,-0.0078125,0.0,-0.0078125,false,false,false,false,0.125,12.65,0.0,-3509,0,0,0.125,12.65,0.0,0,0,0,0.125,12.65,0.0,-14644,0,0,0.125,12.700000000000001,0.0,0,0,0,0.0,12.65,0.0,0,0,0,0.0,12.65,0.0,0,0,0,0.0,12.75,0.0,0,0,0,kReverse,kOff,-85.68,1.66,-171.86,0.027404785,-0.9831543,0.06500244,30.97,0.0,3.0,-6.8159637,0.8080902,
80.078337,true,true,true,0.0,-0.0078125,0.0,-0.0078125,false,false,false,false,0.0,-0.0078125,0.0,-0.0078125,false,false,false,false,0.125,12.65,0.0,-3509,0,0,0.125,12.65,0.0,0,0,0,0.125,12.65,0.0,-14644,0,0,0.125,12.700000000000001,0.0,0,0,0,0.0,12.65,0.0,0,0,0,0.0,12.65,0.0,0,0,0,0.0,12.75,0.0,0,0,0,kReverse,kOff,-85.68,1.65,-171.86,0.028564453,-0.982605,0.07067871,30.97,0.0,-1.0,-6.8159637,0.8080902,
80.102555,true,true,true,0.0,-0.0078125,0.0,-0.0078125,false,false,false,false,0.0,-0.0078125,0.0,-0.0078125,false,false,false,false,0.125,12.65,0.0,-3509,0,0,0.125,12.65,0.0,0,0,0,0.125,12.65,0.0,-14644,0,0,0.125,12.700000000000001,0.0,0,0,0,0.0,12.65,0.0,0,0,0,0.0,12.65,0.0,0,0,0,0.0,12.75,0.0,0,0,0,kReverse,kOff,-85.67,1.65,-171.85,0.028503418,-0.98321533,0.0715332,30.97,0.0,-2.0,-6.8159637,0.8080902,
80.12597,true,true,true,0.0,-0.0078125,0.0,-0.0078125,false,false,false,false,0.0,-0.0078125,0.0,-0.0078125,false,false,false,false,0.125,12.65,0.0,-3509,0,0,0.125,12.65,0.0,0,0,0,0.125,12.65,0.0,-14644,0,0,0.125,12.700000000000001,0.0,0,0,0,0.0,12.65,0.0,0,0,0,0.0,12.65,0.0,0,0,0,0.0,12.75,0.0,0,0,0,kReverse,kOff,-85.67,1.65,-171.85,0.028503418,-0.9805298,0.068847656,30.97,0.0,0.0,-6.8159637,0.8080902,
80.14566099999999,true,true,true,0.0,-0.0078125,0.0,-0.0078125,false,false,false,false,0.0,-0.0078125,0.0,-0.0078125,false,false,false,false,0.125,12.65,0.0,-3509,0,0,0.125,12.65,0.0,0,0,0,0.125,12.65,0.0,-14644,0,0,0.125,12.700000000000001,0.0,0,0,0,0.0,12.65,0.0,0,0,0,0.0,12.65,0.0,0,0,0,0.0,12.75,0.0,0,0,0,kReverse,kOff,-85.67,1.65,-171.85,0.029174805,-0.9813843,0.06378174,30.97,0.0,3.0,-6.8159637,0.8080902,
80.166473,true,true,true,0.0,-0.0078125,0.0,-0.0078125,false,false,false,false,0.0,-0.0078125,0.0,-0.0078125,false,false,false,false,0.125,12.65,0.0,-3509,0,0,0.125,12.65,0.0,0,0,0,0.125,12.65,0.0,-14644,0,0,0.125,12.700000000000001,0.0,0,0,0,0.0,12.65,0.0,0,0,0,0.0,12.65,0.0,0,0,0,0.0,12.75,0.0,0,0,0,kReverse,kOff,-85.68,1.65,-171.86,0.0289917,-0.98150635,0.06890869,30.97,0.0,0.0,-6.8159637,0.8080902,
80.19136400000001,true,true,true,0.0,-0.0078125,0.0,-0.0078125,false,false,false,false,0.0,-0.0078125,0.0,-0.0078125,false,false,false,false,0.125,12.65,0.0,-3509,0,0,0.125,12.65,0.0,0,0,0,0.125,12.65,0.0,-14644,0,0,0.125,12.700000000000001,0.0,0,0,0,0.0,12.65,0.0,0,0,0,0.0,12.65,0.0,0,0,0,0.0,12.75,0.0,0,0,0,kReverse,kOff,-85.68,1.65,-171.86,0.026672363,-0.98394775,0.06951904,30.97,0.0,0.0,-6.8159637,0.8080902,
80.211884,true,true,true,0.0,-0.0078125,0.0,-0.0078125,false,false,false,false,0.0,-0.0078125,0.0,-0.0078125,false,false,false,false,0.125,12.65,0.0,-3509,0,0,0.125,12.65,0.0,0,0,0,0.125,12.65,0.0,-14644,0,0,0.125,12.700000000000001,0.0,0,0,0,0.0,12.65,0.0,0,0,0,0.0,12.65,0.0,0,0,0,0.0,12.75,0.0,0,0,0,kReverse,kOff,-85.68,1.65,-171.86,0.028381348,-0.98065186,0.06695557,30.97,0.0,1.0,-6.8159637,0.8080902,
80.233302,true,true,true,0.0,-0.0078125,0.0,-0.0078125,false,false,false,false,0.0,-0.0078125,0.0,-0.0078125,false,false,false,false,0.125,12.65,0.0,-3509,0,0,0.125,12.65,0.0,0,0,0,0.125,12.65,0.0,-14644,0,0,0.125,12.700000000000001,0.0,0,0,0,0.0,12.65,0.0,0,0,0,0.0,12.65,0.0,0,0,0,0.0,12.75,0.0,0,0,0,kReverse,kOff,-85.68,1.65,-171.86,0.030151367,-0.9838257,0.06713867,30.97,0.0,0.0,-6.8159637,0.8080902,
80.254855,true,true,true,0.0,-0.0078125,0.0,-0.0078125,false,false,false,false,0.0,-0.0078125,0.0,-0.0078125,false,false,false,false,0.125,12.65,0.0,-3509,0,0,0.125,12.65,0.0,0,0,0,0.125,12.65,0.0,-14644,0,0,0.125,12.700000000000001,0.0,0,0,0,0.0,12.65,0.0,0,0,0,0.0,12.65,0.0,0,0,0,0.0,12.75,0.0,0,0,0,kReverse,kOff,-85.68,1.65,-171.86,0.028442383,-0.9801636,0.06719971,30.97,0.0,0.0,-6.8159637,0.8080902,
80.27752900000002,true,true,true,0.0,-0.0078125,0.0,-0.0078125,false,false,false,false,0.0,-0.0078125,0.0,-0.0078125,false,false,false,false,0.125,12.65,0.0,-3509,0,0,0.125,12.65,0.0,0,0,0,0.125,12.65,0.0,-14644,0,0,0.125,12.700000000000001,0.0,0,0,0,0.0,12.65,0.0,0,0,0,0.0,12.65,0.0,0,0,0,0.0,12.75,0.0,0,0,0,kReverse,kOff,-85.68,1.65,-171.86,0.030456543,-0.9801636,0.06994629,30.97,0.0,-2.0,-6.8159637,0.8080902,
80.29637799999999,true,true,true,0.0,-0.0078125,0.0,-0.0078125,false,false,false,false,0.0,-0.0078125,0.0,-0.0078125,false,false,false,false,0.125,12.65,0.0,-3509,0,0,0.125,12.65,0.0,0,0,0,0.125,12.65,0.0,-14644,0,0,0.125,12.700000000000001,0.0,0,0,0,0.0,12.65,0.0,0,0,0,0.0,12.65,0.0,0,0,0,0.0,12.75,0.0,0,0,0,kReverse,kOff,-85.68,1.65,-171.86,0.02734375,-0.98168945,0.06549072,30.97,0.0,3.0,-6.8159637,0.8080902,
80.31722700000002,true,true,true,0.0,-0.0078125,0.0,-0.0078125,false,false,false,false,0.0,-0.0078125,0.0,-0.0078125,false,false,false,false,0.125,12.65,0.0,-3509,0,0,0.125,12.65,0.0,0,0,0,0.125,12.65,0.0,-14644,0,0,0.125,12.700000000000001,0.0,0,0,0,0.0,12.65,0.0,0,0,0,0.0,12.65,0.0,0,0,0,0.0,12.75,0.0,0,0,0,kReverse,kOff,-85.69,1.65,-171.88,0.028930664,-0.98272705,0.064819336,30.97,0.0,2.0,-6.8159637,0.8080902,
80.35007199999998,true,true,true,0.0,-0.0078125,0.0,-0.0078125,false,false,false,false,0.0,-0.0078125,0.0,-0.0078125,false,false,false,false,0.125,12.65,0.0,-3509,0,0,0.125,12.65,0.0,0,0,0,0.125,12.65,0.0,-14644,0,0,0.125,12.700000000000001,0.0,0,0,0,0.0,12.65,0.0,0,0,0,0.0,12.65,0.0,0,0,0,0.0,12.75,0.0,0,0,0,kReverse,kOff,-85.68,1.65,-171.87,0.027893066,-0.98498535,0.067993164,30.97,0.0,0.0,-6.8159637,0.8080902,
80.37690400000001,true,true,true,0.0,-0.0078125,0.0,-0.0078125,false,false,false,false,0.0,-0.0078125,0.0,-0.0078125,false,false,false,false,0.125,12.65,0.0,-3509,0,0,0.125,12.65,0.0,0,0,0,0.125,12.65,0.0,-14644,0,0,0.125,12.700000000000001,0.0,0,0,0,0.0,12.65,0.0,0,0,0,0.0,12.65,0.0,0,0,0,0.0,12.75,0.0,0,0,0,kReverse,kOff,-85.68,1.65,-171.87,0.026062012,-0.98498535,0.06768799,30.97,0.0,2.0,-6.8159637,0.8080902,
80.401112,true,true,true,0.0,-0.0078125,0.0,-0.0078125,false,false,false,false,0.0,-0.0078125,0.0,-0.0078125,false,false,false,false,0.125,12.65,0.0,-3509,0,0,0.125,12.65,0.0,0,0,0,0.125,12.65,0.0,-14644,0,0,0.125,12.700000000000001,0.0,0,0,0,0.0,12.65,0.0,0,0,0,0.0,12.65,0.0,0,0,0,0.0,12.75,0.0,0,0,0,kReverse,kOff,-85.68,1.65,-171.87,0.029296875,-0.98028564,0.06561279,30.97,0.0,1.0,-6.8159637,0.8080902,
80.42348199999999,true,true,true,0.0,-0.0078125,0.0,-0.0078125,false,false,false,false,0.0,-0.0078125,0.0,-0.0078125,false,false,false,false,0.125,12.65,0.0,-3509,0,0,0.125,12.65,0.0,0,0,0,0.125,12.65,0.0,-14644,0,0,0.125,12.700000000000001,0.0,0,0,0,0.0,12.65,0.0,0,0,0,0.0,12.65,0.0,0,0,0,0.0,12.75,0.0,0,0,0,kReverse,kOff,-85.69,1.65,-171.88,0.02923584,-0.9840698,0.06317139,30.97,0.0,4.0,-6.8159637,0.8080902,
80.44571499999999,true,true,true,0.0,-0.0078125,0.0,-0.0078125,false,false,false,false,0.0,-0.0078125,0.0,-0.0078125,false,false,false,false,0.125,12.65,0.0,-3509,0,0,0.125,12.65,0.0,0,0,0,0.125,12.65,0.0,-14644,0,0,0.125,12.700000000000001,0.0,0,0,0,0.0,12.65,0.0,0,0,0,0.0,12.65,0.0,0,0,0,0.0,12.75,0.0,0,0,0,kReverse,kOff,-85.69,1.65,-171.88,0.02709961,-0.9812622,0.06738281,30.97,0.0,1.0,-6.8159637,0.8080902,
80.465471,true,true,true,0.0,-0.0078125,0.0,-0.0078125,false,false,false,false,0.0,-0.0078125,0.0,-0.0078125,false,false,false,false,0.125,12.65,0.0,-3509,0,0,0.125,12.65,0.0,0,0,0,0.125,12.65,0.0,-14644,0,0,0.125,12.700000000000001,0.0,0,0,0,0.0,12.65,0.0,0,0,0,0.0,12.65,0.0,0,0,0,0.0,12.75,0.0,0,0,0,kReverse,kOff,-85.68,1.65,-171.87,0.028442383,-0.9804077,0.06744385,30.97,0.0,0.0,-6.8159637,0.8080902,
80.48778899999999,true,true,true,0.0,-0.0078125,0.0,-0.0078125,false,false,false,false,0.0,-0.0078125,0.0,-0.0078125,false,false,false,false,0.125,12.65,0.0,-3509,0,0,0.125,12.65,0.0,0,0,0,0.125,12.65,0.0,-14644,0,0,0.125,12.700000000000001,0.0,0,0,0,0.0,12.65,0.0,0,0,0,0.0,12.65,0.0,0,0,0,0.0,12.75,0.0,0,0,0,kReverse,kOff,-85.69,1.65,-171.88,0.027954102,-0.9852295,0.06945801,30.97,0.0,0.0,-6.8159637,0.8080902,
80.51247000000001,true,true,true,0.0,-0.0078125,0.0,-0.0078125,false,false,false,false,0.0,-0.0078125,0.0,-0.0078125,false,false,false,false,0.125,12.65,0.0,-3509,0,0,0.125,12.65,0.0,0,0,0,0.125,12.65,0.0,-14644,0,0,0.125,12.700000000000001,0.0,0,0,0,0.0,12.65,0.0,0,0,0,0.0,12.65,0.0,0,0,0,0.0,12.75,0.0,0,0,0,kReverse,kOff,-85.69,1.64,-171.89,0.02520752,-0.9814453,0.06512451,30.99,0.0,4.0,-6.8159637,0.8080902,
80.532055,true,true,true,0.0,-0.0078125,0.0,-0.0078125,false,false,false,false,0.0,-0.0078125,0.0,-0.0078125,false,false,false,false,0.125,12.65,0.0,-3509,0,0,0.125,12.65,0.0,0,0,0,0.125,12.65,0.0,-14644,0,0,0.125,12.700000000000001,0.0,0,0,0,0.0,12.65,0.0,0,0,0,0.0,12.65,0.0,0,0,0,0.0,12.75,0.0,0,0,0,kReverse,kOff,-85.69,1.64,-171.89,0.024963379,-0.9837036,0.06726074,30.99,0.0,2.0,-6.8159637,0.8080902,
80.554614,true,true,true,0.0,-0.0078125,0.0,-0.0078125,false,false,false,false,0.0,-0.0078125,0.0,-0.0078125,false,false,false,false,0.125,12.65,0.0,-3509,0,0,0.125,12.65,0.0,0,0,0,0.125,12.65,0.0,-14644,0,0,0.125,12.700000000000001,0.0,0,0,0,0.0,12.65,0.0,0,0,0,0.0,12.65,0.0,0,0,0,0.0,12.75,0.0,0,0,0,kReverse,kOff,-85.69,1.64,-171.89,0.0289917,-0.98132324,0.065979004,30.99,0.0,1.0,-6.8159637,0.8080902,
80.57666699999999,true,true,true,0.0,-0.0078125,0.0,-0.0078125,false,false,false,false,0.0,-0.0078125,0.0,-0.0078125,false,false,false,false,0.125,12.65,0.0,-3509,0,0,0.125,12.65,0.0,0,0,0,0.125,12.65,0.0,-14644,0,0,0.125,12.700000000000001,0.0,0,0,0,0.0,12.65,0.0,0,0,0,0.0,12.65,0.0,0,0,0,0.0,12.75,0.0,0,0,0,kReverse,kOff,-85.69,1.64,-171.89,0.031433105,-0.98291016,0.064575195,30.99,0.0,1.0,-6.8159637,0.8080902,
80.59692499999998,true,true,true,0.0,-0.0078125,0.0,-0.0078125,false,false,false,false,0.0,-0.0078125,0.0,-0.0078125,false,false,false,false,0.125,12.65,0.0,-3509,0,0,0.125,12.65,0.0,0,0,0,0.125,12.65,0.0,-14644,0,0,0.125,12.700000000000001,0.0,0,0,0,0.0,12.65,0.0,0,0,0,0.0,12.65,0.0,0,0,0,0.0,12.75,0.0,0,0,0,kReverse,kOff,-85.69,1.64,-171.89,0.027038574,-0.9827881,0.06628418,30.99,0.0,2.0,-6.8159637,0.8080902,
80.617019,true,true,true,0.0,-0.0078125,0.0,-0.0078125,false,false,false,false,0.0,-0.0078125,0.0,-0.0078125,false,false,false,false,0.125,12.65,0.0,-3509,0,0,0.125,12.65,0.0,0,0,0,0.125,12.65,0.0,-14644,0,0,0.125,12.700000000000001,0.0,0,0,0,0.0,12.65,0.0,0,0,0,0.0,12.65,0.0,0,0,0,0.0,12.75,0.0,0,0,0,kReverse,kOff,-85.7,1.65,-171.89,0.030151367,-0.9830322,0.06524658,30.99,0.0,1.0,-6.8159637,0.8080902,
80.637905,true,true,true,0.0,-0.0078125,0.0,-0.0078125,false,false,false,false,0.0,-0.0078125,0.0,-0.0078125,false,false,false,false,0.125,12.65,0.0,-3509,0,0,0.125,12.65,0.0,0,0,0,0.125,12.65,0.0,-14644,0,0,0.125,12.700000000000001,0.0,0,0,0,0.0,12.65,0.0,0,0,0,0.0,12.65,0.0,0,0,0,0.0,12.75,0.0,0,0,0,kReverse,kOff,-85.7,1.65,-171.89,0.028259277,-0.98431396,0.07019043,30.99,0.0,-1.0,-6.8159637,0.8080902,
80.65611100000001,true,true,true,0.0,-0.0078125,0.0,-0.0078125,false,false,false,false,0.0,-0.0078125,0.0,-0.0078125,false,false,false,false,0.125,12.65,0.0,-3509,0,0,0.125,12.65,0.0,0,0,0,0.125,12.65,0.0,-14644,0,0,0.125,12.700000000000001,0.0,0,0,0,0.0,12.65,0.0,0,0,0,0.0,12.65,0.0,0,0,0,0.0,12.75,0.0,0,0,0,kReverse,kOff,-85.7,1.65,-171.89,0.028015137,-0.98223877,0.07232666,30.99,0.0,-3.0,-6.8159637,0.8080902,
80.68858499999999,true,true,true,0.0,-0.0078125,0.0,-0.0078125,false,false,false,false,0.0,-0.0078125,0.0,-0.0078125,false,false,false,false,0.125,12.65,0.0,-3509,0,0,0.125,12.65,0.0,0,0,0,0.125,12.65,0.0,-14644,0,0,0.125,12.700000000000001,0.0,0,0,0,0.0,12.65,0.0,0,0,0,0.0,12.65,0.0,0,0,0,0.0,12.75,0.0,0,0,0,kReverse,kOff,-85.69,1.64,-171.89,0.02532959,-0.9807739,0.06506348,30.99,0.0,4.0,-6.8159637,0.8080902,
80.70943,true,true,true,0.0,-0.0078125,0.0,-0.0078125,false,false,false,false,0.0,-0.0078125,0.0,-0.0078125,false,false,false,false,0.125,12.65,0.0,-3509,0,0,0.125,12.65,0.0,0,0,0,0.125,12.65,0.0,-14644,0,0,0.125,12.700000000000001,0.0,0,0,0,0.0,12.65,0.0,0,0,0,0.0,12.65,0.0,0,0,0,0.0,12.75,0.0,0,0,0,kReverse,kOff,-85.69,1.64,-171.89,0.02758789,-0.9817505,0.06719971,30.99,0.0,1.0,-6.8159637,0.8080902,
80.743079,true,true,true,0.0,-0.0078125,0.0,-0.0078125,false,false,false,false,0.0,-0.0078125,0.0,-0.0078125,false,false,false,false,0.125,12.65,0.0,-3509,0,0,0.125,12.65,0.0,0,0,0,0.125,12.65,0.0,-14644,0,0,0.125,12.700000000000001,0.0,0,0,0,0.0,12.65,0.0,0,0,0,0.0,12.65,0.0,0,0,0,0.0,12.75,0.0,0,0,0,kReverse,kOff,-85.69,1.64,-171.89,0.02935791,-0.9814453,0.06793213,30.99,0.0,0.0,-6.8159637,0.8080902,
80.81366,true,true,true,0.0,-0.0078125,0.0,-0.0078125,false,false,false,false,0.0,-0.0078125,0.0,-0.0078125,false,false,false,false,0.125,12.65,0.0,-3509,0,0,0.125,12.65,0.0,0,0,0,0.125,12.65,0.0,-14644,0,0,0.125,12.700000000000001,0.0,0,0,0,0.0,12.65,0.0,0,0,0,0.0,12.65,0.0,0,0,0,0.0,12.75,0.0,0,0,0,kReverse,kOff,-85.69,1.65,-171.88,0.02758789,-0.9824829,0.06854248,30.99,0.0,0.0,-6.8159637,0.8080902,
80.844801,true,true,true,0.0,-0.0078125,0.0,-0.0078125,false,false,false,false,0.0,-0.0078125,0.0,-0.0078125,false,false,false,false,0.125,12.65,0.0,-3509,0,0,0.125,12.65,0.0,0,0,0,0.125,12.65,0.0,-14644,0,0,0.125,12.700000000000001,0.0,0,0,0,0.0,12.65,0.0,0,0,0,0.0,12.65,0.0,0,0,0,0.0,12.75,0.0,0,0,0,kReverse,kOff,-85.69,1.65,-171.88,0.030700684,-0.98083496,0.070617676,30.99,0.0,-3.0,-6.8159637,0.8080902,
80.86495499999998,true,true,true,0.0,-0.0078125,0.0,-0.0078125,false,false,false,false,0.0,-0.0078125,0.0,-0.0078125,false,false,false,false,0.125,12.65,0.0,-3509,0,0,0.125,12.65,0.0,0,0,0,0.125,12.65,0.0,-14644,0,0,0.125,12.700000000000001,0.0,0,0,0,0.0,12.65,0.0,0,0,0,0.0,12.65,0.0,0,0,0,0.125,12.75,0.0,0,0,0,kReverse,kOff,-85.69,1.65,-171.88,0.031311035,-0.98321533,0.06890869,30.99,0.0,-1.0,-6.8159637,0.8080902,
80.89131400000001,true,true,true,0.0,-0.0078125,0.0,-0.0078125,false,false,false,false,0.0,-0.0078125,0.0,-0.0078125,false,false,false,false,0.125,12.65,0.0,-3509,0,0,0.125,12.65,0.0,0,0,0,0.125,12.65,0.0,-14644,0,0,0.125,12.700000000000001,0.0,0,0,0,0.0,12.65,0.0,0,0,0,0.0,12.65,0.0,0,0,0,0.0,12.75,0.0,0,0,0,kReverse,kOff,-85.69,1.65,-171.88,0.030029297,-0.98028564,0.068237305,30.99,0.0,0.0,-6.8159637,0.8080902,
80.91276500000001,true,true,true,0.0,-0.0078125,0.0,-0.0078125,false,false,false,false,0.0,-0.0078125,0.0,-0.0078125,false,false,false,false,0.125,12.65,0.0,-3509,0,0,0.125,12.65,0.0,0,0,0,0.125,12.65,0.0,-14644,0,0,0.125,12.700000000000001,0.0,0,0,0,0.0,12.65,0.0,0,0,0,0.0,12.65,0.0,0,0,0,0.0,12.75,0.0,0,0,0,kReverse,kOff,-85.69,1.65,-171.88,0.028808594,-0.9819946,0.06378174,30.99,0.0,3.0,-6.8159637,0.8080902,
80.93443299999998,true,true,true,0.0,-0.0078125,0.0,-0.0078125,false,false,false,false,0.0,-0.0078125,0.0,-0.0078125,false,false,false,false,0.125,12.65,0.0,-3509,0,0,0.125,12.65,0.0,0,0,0,0.125,12.65,0.0,-14644,0,0,0.125,12.700000000000001,0.0,0,0,0,0.0,12.65,0.0,0,0,0,0.0,12.65,0.0,0,0,0,0.0,12.75,0.0,0,0,0,kReverse,kOff,-85.69,1.65,-171.88,0.02722168,-0.9805908,0.070617676,30.99,0.0,-1.0,-6.8159637,0.8080902,
80.956065,true,true,true,0.0,-0.0078125,0.0,-0.0078125,false,false,false,false,0.0,-0.0078125,0.0,-0.0078125,false,false,false,false,0.125,12.65,0.0,-3509,0,0,0.125,12.65,0.0,0,0,0,0.125,12.65,0.0,-14644,0,0,0.125,12.700000000000001,0.0,0,0,0,0.0,12.65,0.0,0,0,0,0.0,12.65,0.0,0,0,0,0.0,12.75,0.0,0,0,0,kReverse,kOff,-85.68,1.65,-171.87,0.02911377,-0.9810791,0.068359375,30.99,0.0,0.0,-6.8159637,0.8080902,
80.977378,true,true,true,0.0,-0.0078125,0.0,-0.0078125,false,false,false,false,0.0,-0.0078125,0.0,-0.0078125,false,false,false,false,0.125,12.65,0.0,-3509,0,0,0.125,12.65,0.0,0,0,0,0.125,12.65,0.0,-14644,0,0,0.125,12.700000000000001,0.0,0,0,0,0.0,12.65,0.0,0,0,0,0.0,12.65,0.0,0,0,0,0.0,12.75,0.0,0,0,0,kReverse,kOff,-85.68,1.65,-171.87,0.02947998,-0.98321533,0.067993164,30.99,0.0,0.0,-6.8159637,0.8080902,
80.997902,true,true,true,0.0,-0.0078125,0.0,-0.0078125,false,false,false,false,0.0,-0.0078125,0.0,-0.0078125,false,false,false,false,0.125,12.65,0.0,-3509,0,0,0.125,12.65,0.0,0,0,0,0.125,12.65,0.0,-14644,0,0,0.125,12.700000000000001,0.0,0,0,0,0.0,12.65,0.0,0,0,0,0.0,12.65,0.0,0,0,0,0.0,12.75,0.0,0,0,0,kReverse,kOff,-85.68,1.65,-171.87,0.026916504,-0.9818115,0.07122803,30.99,0.0,-1.0,-6.8159637,0.8080902,
81.021608,true,true,true,0.0,-0.0078125,0.0,-0.0078125,false,false,false,false,0.0,-0.0078125,0.0,-0.0078125,false,false,false,false,0.125,12.65,0.0,-3509,0,0,0.125,12.65,0.0,0,0,0,0.125,12.65,0.0,-14644,0,0,0.125,12.700000000000001,0.0,0,0,0,0.0,12.65,0.0,0,0,0,0.0,12.65,0.0,0,0,0,0.0,12.75,0.0,0,0,0,kReverse,kOff,-85.69,1.65,-171.88,0.027038574,-0.9797363,0.06896973,30.99,0.0,0.0,-6.8159637,0.8080902,
81.049,true,true,true,0.0,-0.0078125,0.0,-0.0078125,false,false,false,false,0.0,-0.0078125,0.0,-0.0078125,false,false,false,false,0.125,12.65,0.0,-3509,0,0,0.125,12.65,0.0,0,0,0,0.125,12.65,0.0,-14644,0,0,0.125,12.700000000000001,0.0,0,0,0,0.0,12.65,0.0,0,0,0,0.0,12.65,0.0,0,0,0,0.0,12.75,0.0,0,0,0,kReverse,kOff,-85.68,1.65,-171.87,0.02758789,-0.9827881,0.061523438,30.95,0.0,6.0,-6.8159637,0.8080902,
81.072723,true,true,true,0.0,-0.0078125,0.0,-0.0078125,false,false,false,false,0.0,-0.0078125,0.0,-0.0078125,false,false,false,false,0.125,12.65,0.0,-3509,0,0,0.125,12.65,0.0,0,0,0,0.125,12.65,0.0,-14644,0,0,0.125,12.700000000000001,0.0,0,0,0,0.0,12.65,0.0,0,0,0,0.0,12.65,0.0,0,0,0,0.0,12.75,0.0,0,0,0,kReverse,kOff,-85.68,1.65,-171.87,0.030822754,-0.98339844,0.07159424,30.95,0.0,-3.0,-6.8159637,0.8080902,
81.091986,true,true,true,0.0,-0.0078125,0.0,-0.0078125,false,false,false,false,0.0,-0.0078125,0.0,-0.0078125,false,false,false,false,0.125,12.65,0.0,-3509,0,0,0.125,12.65,0.0,0,0,0,0.125,12.65,0.0,-14644,0,0,0.125,12.700000000000001,0.0,0,0,0,0.0,12.65,0.0,0,0,0,0.0,12.65,0.0,0,0,0,0.0,12.75,0.0,0,0,0,kReverse,kOff,-85.68,1.65,-171.87,0.027038574,-0.9805298,0.074157715,30.95,0.0,-4.0,-6.8159637,0.8080902,
81.11007099999999,true,true,true,0.0,-0.0078125,0.0,-0.0078125,false,false,false,false,0.0,-0.0078125,0.0,-0.0078125,false,false,false,false,0.125,12.65,0.0,-3509,0,0,0.125,12.65,0.0,0,0,0,0.125,12.65,0.0,-14644,0,0,0.125,12.700000000000001,0.0,0,0,0,0.0,12.65,0.0,0,0,0,0.0,12.65,0.0,0,0,0,0.0,12.75,0.0,0,0,0,kReverse,kOff,-85.68,1.65,-171.87,0.028137207,-0.9827881,0.070373535,30.95,0.0,-1.0,-6.8159637,0.8080902,
81.130795,true,true,true,0.0,-0.0078125,0.0,-0.0078125,false,false,false,false,0.0,-0.0078125,0.0,-0.0078125,false,false,false,false,0.125,12.65,0.0,-3509,0,0,0.125,12.65,0.0,0,0,0,0.125,12.65,0.0,-14644,0,0,0.125,12.700000000000001,0.0,0,0,0,0.0,12.65,0.0,0,0,0,0.0,12.65,0.0,0,0,0,0.0,12.75,0.0,0,0,0,kReverse,kOff,-85.68,1.65,-171.87,0.026489258,-0.9816284,0.06524658,30.95,0.0,3.0,-6.8159637,0.8080902,
81.151595,true,true,true,0.0,-0.0078125,0.0,-0.0078125,false,false,false,false,0.0,-0.0078125,0.0,-0.0078125,false,false,false,false,0.125,12.65,0.0,-3509,0,0,0.125,12.65,0.0,0,0,0,0.125,12.65,0.0,-14644,0,0,0.125,12.700000000000001,0.0,0,0,0,0.0,12.65,0.0,0,0,0,0.0,12.65,0.0,0,0,0,0.0,12.75,0.0,0,0,0,kReverse,kOff,-85.69,1.65,-171.88,0.02947998,-0.98187256,0.06726074,30.95,0.0,0.0,-6.8159637,0.8080902,
81.173908,true,true,true,0.0,-0.0078125,0.0,-0.0078125,false,false,false,false,0.0,-0.0078125,0.0,-0.0078125,false,false,false,false,0.125,12.65,0.0,-3509,0,0,0.125,12.65,0.0,0,0,0,0.125,12.65,0.0,-14644,0,0,0.125,12.700000000000001,0.0,0,0,0,0.0,12.65,0.0,0,0,0,0.0,12.65,0.0,0,0,0,0.0,12.75,0.0,0,0,0,kReverse,kOff,-85.69,1.65,-171.88,0.02758789,-0.98394775,0.064697266,30.95,0.0,3.0,-6.8159637,0.8080902,
81.19298300000001,true,true,true,0.0,-0.0078125,0.0,-0.0078125,false,false,false,false,0.0,-0.0078125,0.0,-0.0078125,false,false,false,false,0.125,12.65,0.0,-3509,0,0,0.125,12.65,0.0,0,0,0,0.125,12.65,0.0,-14644,0,0,0.125,12.700000000000001,0.0,0,0,0,0.0,12.65,0.0,0,0,0,0.0,12.65,0.0,0,0,0,0.0,12.75,0.0,0,0,0,kReverse,kOff,-85.69,1.65,-171.88,0.029541016,-0.9816284,0.06463623,30.95,0.0,-4.0,-6.8159637,0.8080902,
81.21442199999998,true,true,true,0.0,-0.0078125,0.0,-0.0078125,false,false,false,false,0.0,-0.0078125,0.0,-0.0078125,false,false,false,false,0.125,12.65,0.0,-3509,0,0,0.125,12.65,0.0,0,0,0,0.125,12.65,0.0,-14644,0,0,0.125,12.700000000000001,0.0,0,0,0,0.0,12.65,0.0,0,0,0,0.0,12.65,0.0,0,0,0,0.0,12.75,0.0,0,0,0,kReverse,kOff,-85.69,1.65,-171.88,0.027770996,-0.98083496,0.074279785,30.95,0.0,-4.0,-6.8159637,0.8080902,
81.235731,true,true,true,0.0,-0.0078125,0.0,-0.0078125,false,false,false,false,0.0,-0.0078125,0.0,-0.0078125,false,false,false,false,0.125,12.65,0.0,-3509,0,0,0.125,12.65,0.0,0,0,0,0.125,12.65,0.0,-14644,0,0,0.125,12.700000000000001,0.0,0,0,0,0.0,12.65,0.0,0,0,0,0.0,12.65,0.0,0,0,0,0.0,12.75,0.0,0,0,0,kReverse,kOff,-85.69,1.65,-171.88,0.029418945,-0.9828491,0.06555176,30.95,0.0,1.0,-6.8159637,0.8080902,
81.25647599999999,true,true,true,0.0,-0.0078125,0.0,-0.0078125,false,false,false,false,0.0,-0.0078125,0.0,-0.0078125,false,false,false,false,0.125,12.65,0.0,-3509,0,0,0.125,12.65,0.0,0,0,0,0.125,12.65,0.0,-14644,0,0,0.125,12.700000000000001,0.0,0,0,0,0.0,12.65,0.0,0,0,0,0.0,12.65,0.0,0,0,0,0.0,12.75,0.0,0,0,0,kReverse,kOff,-85.69,1.65,-171.88,0.028869629,-0.9821167,0.07092285,30.95,0.0,-2.0,-6.8159637,0.8080902,
81.277014,true,true,true,0.0,-0.0078125,0.0,-0.0078125,false,false,false,false,0.0,-0.0078125,0.0,-0.0078125,false,false,false,false,0.125,12.65,0.0,-3509,0,0,0.125,12.65,0.0,0,0,0,0.125,12.65,0.0,-14644,0,0,0.125,12.700000000000001,0.0,0,0,0,0.0,12.65,0.0,0,0,0,0.0,12.65,0.0,0,0,0,0.0,12.75,0.0,0,0,0,kReverse,kOff,-85.69,1.65,-171.88,0.029052734,-0.98321533,0.068115234,30.95,0.0,0.0,-6.8159637,0.8080902,
81.29881700000001,true,true,true,0.0,-0.0078125,0.0,-0.0078125,false,false,false,false,0.0,-0.0078125,0.0,-0.0078125,false,false,false,false,0.125,12.65,0.0,-3509,0,0,0.125,12.65,0.0,0,0,0,0.125,12.65,0.0,-14644,0,0,0.125,12.700000000000001,0.0,0,0,0,0.0,12.65,0.0,0,0,0,0.0,12.65,0.0,0,0,0,0.0,12.75,0.0,0,0,0,kReverse,kOff,-85.69,1.65,-171.88,0.027160645,-0.9828491,0.0625,30.95,0.0,5.0,-6.8159637,0.8080902,
81.323024,true,true,true,0.0,-0.0078125,0.0,-0.0078125,false,false,false,false,0.0,-0.0078125,0.0,-0.0078125,false,false,false,false,0.125,12.65,0.0,-3509,0,0,0.125,12.65,0.0,0,0,0,0.125,12.65,0.0,-14644,0,0,0.125,12.700000000000001,0.0,0,0,0,0.0,12.65,0.0,0,0,0,0.0,12.65,0.0,0,0,0,0.0,12.75,0.0,0,0,0,kReverse,kOff,-85.69,1.65,-171.88,0.026916504,-0.98291016,0.07623291,30.95,0.0,-5.0,-6.8159637,0.8080902,
81.347301,true,true,true,0.0,-0.0078125,0.0,-0.0078125,false,false,false,false,0.0,-0.0078125,0.0,-0.0078125,false,false,false,false,0.125,12.65,0.0,-3509,0,0,0.125,12.65,0.0,0,0,0,0.125,12.65,0.0,-14644,0,0,0.125,12.700000000000001,0.0,0,0,0,0.0,12.65,0.0,0,0,0,0.0,12.65,0.0,0,0,0,0.0,12.75,0.0,0,0,0,kReverse,kOff,-85.69,1.65,-171.88,0.024902344,-0.9829712,0.061706543,30.95,0.0,7.0,-6.8159637,0.8080902,
81.36792600000001,true,true,true,0.0,-0.0078125,0.06299212574958801,-0.0078125,false,false,false,false,0.0,-0.0078125,0.0,-0.0078125,false,false,false,false,0.125,12.65,0.0,-3509,0,0,0.125,12.65,0.0,0,0,0,0.125,12.65,0.0,-14644,0,0,0.125,12.700000000000001,0.0,0,0,0,0.0,12.65,0.0,0,0,0,0.0,12.65,0.0,0,0,0,0.0,12.75,0.0,0,0,0,kReverse,kOff,-85.69,1.65,-171.88,0.029174805,-0.98236084,0.068603516,30.95,0.0,0.0,-6.8159637,0.8080902,
81.38997399999998,true,true,true,0.0,-0.0078125,0.06299212574958801,-0.0078125,false,false,false,false,0.0,-0.0078125,0.0,-0.0078125,false,false,false,false,0.125,12.65,0.0,-3509,0,0,0.25,12.65,0.0,0,0,0,0.375,12.65,0.0,-14644,0,0,0.25,12.700000000000001,0.0,0,0,0,0.0,12.65,0.0,0,0,0,0.0,12.65,0.0,0,0,0,0.0,12.75,0.0,0,0,0,kReverse,kOff,-85.69,1.65,-171.88,0.026611328,-0.98028564,0.0657959,30.95,0.0,2.0,-6.8159637,0.8080902,
81.41253599999999,true,true,true,0.0,-0.0078125,0.10236220806837082,-0.0078125,false,false,false,false,0.0,-0.0078125,0.0,-0.0078125,false,false,false,false,0.25,12.65,0.0,-3510,0,0,0.25,12.65,0.0,0,0,0,0.375,12.65,0.0,-14642,0,0,0.25,12.700000000000001,0.0,0,0,0,0.0,12.65,0.0,0,0,0,0.0,12.65,0.0,0,0,0,0.0,12.75,0.0,0,0,0,kReverse,kOff,-85.69,1.64,-171.89,0.020019531,-0.9852905,0.050476074,30.95,0.0,19.0,-6.8159637,0.8080902,
81.43472399999999,true,true,true,0.0,-0.0078125,0.11023622006177902,-0.0078125,false,false,false,false,0.0,-0.0078125,0.0,-0.0078125,false,false,false,false,0.375,12.65,0.0,-3511,0,0,0.375,12.65,0.0,0,0,0,0.5,12.65,0.0,-14640,1,0,0.375,12.700000000000001,0.0,0,0,0,0.0,12.65,0.0,0,0,0,0.0,12.65,0.0,0,0,0,0.125,12.75,0.0,0,0,0,kReverse,kOff,-85.75,1.65,-171.98,0.0357666,-0.98547363,0.06500244,30.95,0.0,-1.0,-6.8158417,0.8081665,
81.456403,true,true,true,0.0,-0.0078125,0.11023622006177902,-0.0078125,false,false,false,false,0.0,-0.0078125,0.0,-0.0078125,false,false,false,false,0.5,12.65,0.0,-3514,-1,0,0.75,12.65,0.0,0,0,0,0.5,12.65,0.0,-14636,3,0,0.375,12.700000000000001,0.0,0,0,0,0.0,12.65,0.0,0,0,0,0.0,12.65,0.0,0,0,0,0.0,12.75,0.0,0,0,0,kReverse,kOff,-85.77,1.65,-172.0,0.02520752,-1.0283813,0.029907227,30.95,0.0,36.0,-6.815735,0.80822754,
81.476941,true,true,true,0.0,-0.0078125,0.12598425149917603,-0.0078125,false,false,false,false,0.0,-0.0078125,0.0,-0.0078125,false,false,false,false,0.75,12.65,0.0,-3516,-3,0,1.0,12.65,0.0,0,0,0,0.625,12.65,0.0,-14632,6,0,0.625,12.700000000000001,0.0,0,0,0,0.0,12.65,0.0,0,0,0,0.0,12.65,0.0,0,0,0,0.0,12.75,0.0,0,0,0,kReverse,kOff,-85.82,1.66,-172.07,0.0501709,-0.94085693,0.05407715,30.95,0.0,-4.0,-6.815399,0.8084717,
81.511081,true,true,true,0.0,-0.0078125,0.18897637724876404,-0.0078125,false,false,false,false,0.0,-0.0078125,0.0,-0.0078125,false,false,false,false,1.0,12.65,0.0,-3521,-8,0,1.25,12.65,0.0,0,0,0,0.75,12.65,0.0,-14627,12,0,0.75,12.700000000000001,0.0,0,0,0,0.0,12.65,0.0,0,0,0,0.0,12.65,0.0,0,0,0,0.0,12.75,0.0,0,0,0,kReverse,kOff,-85.84,1.69,-172.04,0.034057617,-1.0418091,-0.026123047,30.95,0.0,79.0,-6.8153687,0.80888367,
81.53673699999999,true,true,true,0.0,-0.0078125,0.5196850299835205,-0.0078125,false,false,false,false,0.0,-0.0078125,0.0,-0.0078125,false,false,false,false,1.5,12.5,0.0,-3525,-10,0,1.75,12.5,0.0,0,0,0,1.375,12.450000000000001,0.0,-14625,14,0,1.375,12.55,0.0,0,0,0,0.0,12.5,0.0,0,0,0,0.0,12.450000000000001,0.0,0,0,0,0.0,12.55,0.0,0,0,0,kReverse,kOff,-85.81,1.71,-171.91,0.026916504,-1.0006104,0.07720947,30.98,0.0,-7.0,-6.8153534,0.8093872,
81.56258100000001,true,true,true,0.0,-0.0078125,0.787401556968689,-0.0078125,false,false,false,false,0.0,-0.0078125,0.0,-0.0078125,false,false,false,false,2.375,12.5,0.0,-3530,-12,0,2.5,12.5,0.0,0,0,0,2.125,12.450000000000001,0.0,-14622,15,0,1.625,12.55,0.0,0,0,0,0.0,12.5,0.0,0,0,0,0.0,12.450000000000001,0.0,0,0,0,0.0,12.55,0.0,0,0,0,kReverse,kOff,-85.87,1.69,-171.96,-0.041259766,-0.9979248,-0.13659668,30.98,0.0,209.0,-6.8152466,0.8096466,
81.58805600000001,true,true,true,0.0,-0.0078125,0.9370078444480896,-0.0078125,false,false,false,false,0.0,-0.0078125,0.0,-0.0078125,false,false,false,false,7.125,12.5,0.0,-3537,-15,0,12.125,12.5,0.0,0,0,0,16.25,12.450000000000001,0.0,-14599,16,0,12.75,12.55,0.0,0,0,0,0.0,12.5,0.0,0,0,0,0.0,12.450000000000001,0.0,0,0,0,0.0,12.55,0.0,0,0,0,kReverse,kOff,-86.07,1.7,-172.18,0.075927734,-1.0939331,0.08935547,30.98,0.0,-40.0,-6.814743,0.8104248,
81.61505799999999,true,true,true,0.0,-0.0078125,0.8110235929489136,-0.0078125,false,false,false,false,0.0,-0.0078125,0.0,-0.0078125,false,false,false,false,29.875,12.5,0.0,-3577,-29,0,22.5,12.5,0.0,0,0,0,27.75,12.450000000000001,0.0,-14576,24,0,22.125,12.55,0.0,0,0,0,0.0,12.5,0.0,0,0,0,0.0,12.450000000000001,0.0,0,0,0,0.0,12.55,0.0,0,0,0,kReverse,kOff,-86.62,1.78,-172.91,0.21484375,-1.017334,-0.48083496,30.98,0.0,380.0,-6.8134003,0.81243896,
81.63599900000001,true,true,true,0.0,-0.0078125,0.8110235929489136,-0.0078125,false,false,false,false,0.0,-0.0078125,0.0,-0.0078125,false,false,false,false,39.375,12.5,0.0,-3603,-45,0,34.25,12.5,0.0,0,0,0,37.625,12.450000000000001,0.0,-14547,40,0,32.5,12.55,0.0,0,0,0,0.0,12.5,0.0,0,0,0,0.0,12.450000000000001,0.0,0,0,0,0.125,12.55,0.0,0,0,0,kReverse,kOff,-86.77,2.03,-173.04,0.52593994,-1.1646118,0.51342773,30.98,0.0,-630.0,-6.812332,0.8161621,
81.66258400000001,true,true,true,0.0,-0.0078125,0.6850393414497375,-0.0078125,false,false,false,false,0.0,-0.0078125,0.0,-0.0078125,false,false,false,false,37.125,12.5,0.0,-3636,-66,0,39.625,12.5,0.0,0,0,0,35.125,12.450000000000001,0.0,-14513,63,0,33.75,12.55,0.0,0,0,0,0.0,12.5,0.0,0,0,0,0.0,12.450000000000001,0.0,0,0,0,0.0,12.55,0.0,0,0,0,kReverse,kOff,-86.51,2.36,-171.55,-0.12805176,-0.789917,-0.50128174,30.98,0.0,556.0,-6.8116302,0.8183594,
81.678978,true,true,true,0.0,-0.0078125,0.8110235929489136,-0.0078125,false,false,false,false,0.0,-0.0078125,0.0,-0.0078125,false,false,false,false,33.125,12.5,0.0,-3674,-91,0,38.0,12.5,0.0,0,0,0,31.0,12.450000000000001,0.0,-14474,91,0,32.125,12.55,0.0,0,0,0,0.0,12.5,0.0,0,0,0,0.0,12.450000000000001,0.0,0,0,0,0.0,12.55,0.0,0,0,0,kReverse,kOff,-86.64,2.27,-171.03,-0.09020996,-0.75567627,0.012084961,30.98,0.0,60.0,-6.810501,0.8205261,
81.701503,true,true,true,0.0,-0.0078125,0.748031497001648,-0.0078125,false,false,false,false,0.0,-0.0078125,0.0,-0.0078125,false,false,false,false,26.875,10.3,0.0,-3718,-120,0,30.5,10.100000000000001,0.0,0,0,0,24.375,10.350000000000001,0.0,-14433,122,0,25.75,10.350000000000001,0.0,0,0,0,0.0,10.5,0.0,0,0,0,0.0,10.5,0.0,0,0,0,0.0,10.55,0.0,0,0,0,kReverse,kOff,-86.61,2.45,-168.51,0.09753418,-0.99298096,-0.2098999,30.98,0.0,228.0,-6.807312,0.8254242,
81.723782,true,true,true,0.0,-0.0078125,0.8110235929489136,-0.0078125,false,false,false,false,0.0,-0.0078125,0.0,-0.0078125,false,false,false,false,24.25,10.3,0.0,-3763,-146,0,27.5,10.100000000000001,0.0,0,0,0,22.625,10.350000000000001,0.0,-14387,150,0,23.0,10.350000000000001,0.0,0,0,0,0.0,10.5,0.0,0,0,0,0.0,10.5,0.0,0,0,0,0.0,10.55,0.0,0,0,0,kReverse,kOff,-86.74,2.41,-166.74,-0.27075195,-1.0155029,-0.31420898,30.98,0.0,406.0,-6.8050995,0.8279114,
81.739139,true,true,true,0.0,-0.0078125,0.748031497001648,-0.0078125,false,false,false,false,0.0,-0.0078125,0.0,-0.0078125,false,false,false,false,21.875,10.3,0.0,-3814,-173,0,24.875,10.100000000000001,0.0,0,0,0,20.25,10.350000000000001,0.0,-14338,175,0,20.75,10.350000000000001,0.0,0,0,0,0.0,10.5,0.0,0,0,0,0.0,10.5,0.0,0,0,0,0.0,10.55,0.0,0,0,0,kReverse,kOff,-87.01,2.23,-163.94,-0.26098633,-0.98706055,-0.16931152,30.98,0.0,242.0,-6.8024445,0.8300781,
81.763766,true,true,true,0.0,-0.0078125,0.8110235929489136,-0.0078125,false,false,false,false,0.0,-0.0078125,0.0,-0.0078125,false,false,false,false,22.625,10.3,0.0,-3863,-194,0,23.75,10.100000000000001,0.0,0,0,0,20.875,10.350000000000001,0.0,-14286,196,0,20.875,10.350000000000001,0.0,0,0,0,0.0,10.5,0.0,0,0,0,0.0,10.5,0.0,0,0,0,0.125,10.55,0.0,0,0,0,kReverse,kOff,-87.15,2.27,-121.59,0.0048217773,-1.0212402,-0.5887451,30.98,0.0,619.0,-6.795639,0.833786,
81.782614,true,true,true,0.0,-0.0078125,0.748031497001648,-0.0078125,false,false,false,false,0.0,-0.0078125,0.0,-0.0078125,false,false,false,false,21.0,10.3,0.0,-3920,-216,0,23.25,10.100000000000001,0.0,0,0,0,19.0,10.350000000000001,0.0,-14232,216,0,19.5,10.350000000000001,0.0,0,0,0,0.0,10.5,0.0,0,0,0,0.0,10.5,0.0,0,0,0,0.0,10.55,0.0,0,0,0,kReverse,kOff,-87.19,2.35,-28.1,-0.31237793,-0.9499512,-0.11621094,30.98,0.0,125.0,-6.791397,0.83532715,
81.807718,true,true,true,0.0,-0.0078125,0.874015748500824,-0.0078125,false,false,false,false,0.0,-0.0078125,0.0,-0.0078125,false,false,false,false,20.875,10.3,0.0,-3977,-234,0,20.875,10.100000000000001,0.0,0,0,0,16.75,10.350000000000001,0.0,-14117,248,0,18.0,10.350000000000001,0.0,0,0,0,0.0,10.5,0.0,0,0,0,0.0,10.5,0.0,0,0,0,0.0,10.55,0.0,0,0,0,kReverse,kOff,-87.02,2.48,-6.32,-0.058044434,-0.96313477,-0.2975464,30.98,0.0,301.0,-6.7826996,0.83755493,
81.83163,true,true,true,0.0,-0.0078125,0.6062992215156555,-0.0078125,false,false,false,false,0.0,-0.0078125,0.0,-0.0078125,false,false,false,false,19.625,10.3,0.0,-4037,-249,0,21.0,10.100000000000001,0.0,0,0,0,18.0,10.350000000000001,0.0,-14058,261,0,18.375,10.350000000000001,0.0,0,0,0,0.0,10.5,0.0,0,0,0,0.0,10.5,0.0,0,0,0,0.0,10.55,0.0,0,0,0,kReverse,kOff,-87.01,2.59,-3.13,0.04321289,-0.9741821,0.24499512,30.98,0.0,-213.0,-6.7782135,0.8384857,
81.852088,true,true,true,0.0,-0.0078125,0.23622047901153564,-0.0078125,false,false,false,false,0.0,-0.0078125,0.0,-0.0078125,false,false,false,false,20.875,10.3,0.0,-4159,-276,0,21.125,10.350000000000001,0.0,0,0,0,16.125,10.5,0.0,-13996,274,0,17.625,10.45,0.0,0,0,0,0.0,10.7,0.0,0,0,0,0.0,10.5,0.0,0,0,0,0.0,10.8,0.0,0,0,0,kReverse,kOff,-86.99,2.66,-0.64,-0.25219727,-1.2602539,-0.57891846,30.98,0.0,442.0,-6.7694855,0.8395996,
81.87297399999999,true,true,true,0.0,-0.0078125,0.015748031437397003,-0.0078125,false,false,false,false,0.0,-0.0078125,0.0,-0.0078125,false,false,false,false,18.875,10.5,0.0,-4222,-289,0,18.875,10.350000000000001,0.0,0,0,0,14.25,10.5,0.0,-13937,283,0,15.75,10.45,0.0,0,0,0,0.0,10.7,0.0,0,0,0,0.0,10.9,0.0,0,0,0,0.0,10.8,0.0,0,0,0,kReverse,kOff,-87.14,2.62,0.43,-0.3734131,-1.2313232,-0.2699585,30.98,0.0,67.0,-6.7646637,0.8391876,
81.89414199999999,true,true,true,0.0,-0.0078125,0.0,-0.0078125,false,false,false,false,0.0,-0.0078125,0.0,-0.0078125,false,false,false,false,9.75,10.5,0.0,-4276,-297,0,13.5,10.350000000000001,0.0,0,0,0,8.5,10.5,0.0,-13882,290,0,11.375,10.45,0.0,0,0,0,0.0,10.7,0.0,0,0,0,0.0,10.9,0.0,0,0,0,0.125,10.8,0.0,0,0,0,kReverse,kOff,-87.27,2.51,1.05,-0.49639893,-0.4272461,-0.1973877,30.98,0.0,-130.0,-6.7546997,0.83621216,
81.914562,true,true,true,0.0,-0.0078125,0.0,-0.0078125,false,false,false,false,0.0,-0.0078125,0.0,-0.0078125,false,false,false,false,4.25,10.5,0.0,-4327,-300,0,7.0,10.350000000000001,0.0,0,0,0,3.75,10.5,0.0,-13845,290,0,5.25,10.45,0.0,0,0,0,0.0,10.7,0.0,0,0,0,0.0,10.9,0.0,0,0,0,0.0,10.8,0.0,0,0,0,kReverse,kOff,-87.28,2.45,1.04,-0.30297852,-0.5924072,0.037719727,30.98,0.0,-228.0,-6.749954,0.8338165,
81.93649900000001,true,true,true,0.0,-0.0078125,0.0,-0.0078125,false,false,false,false,0.0,-0.0078125,0.0,-0.0078125,false,false,false,false,1.125,10.5,0.0,-4374,-295,0,2.625,10.350000000000001,0.0,0,0,0,0.875,10.5,0.0,-13815,279,0,1.625,10.45,0.0,0,0,0,0.0,10.7,0.0,0,0,0,0.0,10.9,0.0,0,0,0,0.0,10.8,0.0,0,0,0,kReverse,kOff,-87.48,2.14,0.92,-0.25701904,-0.8550415,0.5194092,30.98,0.0,-550.0,-6.741928,0.82821655,
81.95741899999999,true,true,true,0.0,-0.0078125,0.0,-0.0078125,false,false,false,false,0.0,-0.0078125,0.0,-0.0078125,false,false,false,false,0.125,10.5,0.0,-4418,-284,0,0.125,10.350000000000001,0.0,0,0,0,0.125,10.5,0.0,-13774,259,0,0.0,10.45,0.0,0,0,0,0.0,10.7,0.0,0,0,0,0.0,10.9,0.0,0,0,0,0.0,10.8,0.0,0,0,0,kReverse,kOff,-87.48,2.08,0.95,-0.380188,-1.1710815,-0.18334961,30.98,0.0,-196.0,-6.738739,0.82518005,
81.97814100000001,true,true,true,0.0,-0.0078125,0.0,-0.0078125,false,false,false,false,0.0,-0.0078125,0.0,-0.0078125,false,false,false,false,0.125,10.5,0.0,-4461,-268,0,0.125,10.350000000000001,0.0,0,0,0,0.125,10.5,0.0,-13734,235,0,0.0,10.45,0.0,0,0,0,0.0,10.7,0.0,0,0,0,0.0,10.9,0.0,0,0,0,0.0,10.8,0.0,0,0,0,kReverse,kOff,-88.16,1.59,1.02,-0.29211426,-0.927063,0.27416992,30.98,0.0,-407.0,-6.733124,0.81681824,
82.000709,true,true,true,0.0,-0.0078125,0.0,-0.0078125,false,false,false,false,0.0,-0.0078125,0.0,-0.0078125,false,false,false,false,0.125,10.5,0.0,-4504,-252,0,0.125,10.350000000000001,0.0,0,0,0,0.125,10.5,0.0,-13700,213,0,0.0,10.45,0.0,0,0,0,0.0,12.450000000000001,0.0,0,0,0,0.0,10.9,0.0,0,0,0,0.0,12.55,0.0,0,0,0,kReverse,kOff,-88.21,1.56,1.13,-0.4335327,-1.0526123,-0.23162842,30.98,0.0,-299.0,-6.729645,0.80804443,
82.032601,true,true,true,0.0,-0.0078125,0.0,-0.0078125,false,false,false,false,0.0,-0.0078125,0.0,-0.0078125,false,false,false,false,0.125,12.450000000000001,0.0,-4593,-227,0,0.125,12.450000000000001,0.0,0,0,0,0.125,12.450000000000001,0.0,-13636,184,0,0.0,12.450000000000001,0.0,0,0,0,0.0,12.450000000000001,0.0,0,0,0,0.0,12.450000000000001,0.0,0,0,0,0.0,12.55,0.0,0,0,0,kReverse,kOff,-88.37,1.44,1.1,-0.20324707,-0.9333496,-0.13043213,30.98,0.0,-147.0,-6.7285004,0.8031311,
82.05398000000001,true,true,true,0.0,-0.0078125,0.0,-0.0078125,false,false,false,false,0.0,-0.0078125,0.0,-0.0078125,false,false,false,false,0.125,12.450000000000001,0.0,-4634,-221,0,0.125,12.450000000000001,0.0,0,0,0,0.125,12.450000000000001,0.0,-13608,177,0,0.0,12.450000000000001,0.0,0,0,0,0.0,12.450000000000001,0.0,0,0,0,0.0,12.450000000000001,0.0,0,0,0,0.125,12.55,0.0,0,0,0,kReverse,kOff,-88.28,1.47,1.13,-0.061279297,-1.0390015,-0.25756836,30.95,0.0,-98.0,-6.72641,0.7921448,
82.07453,true,true,true,0.0,-0.0078125,0.0,-0.0078125,false,false,false,false,0.0,-0.0078125,0.0,-0.0078125,false,false,false,false,0.125,12.450000000000001,0.0,-4675,-218,0,0.125,12.450000000000001,0.0,0,0,0,0.125,12.450000000000001,0.0,-13584,170,0,0.0,12.450000000000001,0.0,0,0,0,0.0,12.450000000000001,0.0,0,0,0,0.0,12.450000000000001,0.0,0,0,0,0.125,12.55,0.0,0,0,0,kReverse,kOff,-88.24,1.46,1.17,-0.33758545,-0.28515625,-0.55944824,30.95,0.0,-169.0,-6.7255707,0.7857361,
82.09501500000002,true,true,true,0.0,-0.0078125,0.0,-0.0078125,false,false,false,false,0.0,-0.0078125,0.0,-0.0078125,false,false,false,false,0.125,12.450000000000001,0.0,-4715,-215,0,0.125,12.450000000000001,0.0,0,0,0,0.125,12.450000000000001,0.0,-13562,159,0,0.0,12.450000000000001,0.0,0,0,0,0.0,12.450000000000001,0.0,0,0,0,0.0,12.450000000000001,0.0,0,0,0,0.0,12.55,0.0,0,0,0,kReverse,kOff,-88.32,1.36,1.12,-0.2695923,-0.5228882,-0.3912964,30.95,0.0,-174.0,-6.7249756,0.77856445,
82.117098,true,true,true,0.0,-0.0078125,0.0,-0.0078125,false,false,false,false,0.0,-0.0078125,0.0,-0.0078125,false,false,false,false,0.125,12.450000000000001,0.0,-4753,-211,0,0.125,12.450000000000001,0.0,0,0,0,0.125,12.450000000000001,0.0,-13542,145,0,0.0,12.450000000000001,0.0,0,0,0,0.0,12.450000000000001,0.0,0,0,0,0.0,12.450000000000001,0.0,0,0,0,0.0,12.55,0.0,0,0,0,kReverse,kOff,-88.4,1.19,1.01,-0.0736084,-0.7833252,0.5648804,30.95,0.0,-184.0,-6.7248535,0.76400757,
82.14054800000001,true,true,true,0.0,-0.0078125,0.0,-0.0078125,false,false,false,false,0.0,-0.0078125,0.0,-0.0078125,false,false,false,false,0.125,12.450000000000001,0.0,-4789,-206,0,0.125,12.450000000000001,0.0,0,0,0,0.125,12.450000000000001,0.0,-13524,132,0,0.0,12.450000000000001,0.0,0,0,0,0.0,12.450000000000001,0.0,0,0,0,0.0,12.450000000000001,0.0,0,0,0,0.0,12.55,0.0,0,0,0,kReverse,kOff,-88.22,1.23,1.05,-0.09918213,-0.8255615,0.11022949,30.95,0.0,-128.0,-6.725189,0.7573242,
82.16485899999999,true,true,true,0.0,-0.0078125,0.0,-0.0078125,false,false,false,false,0.0,-0.0078125,0.0,-0.0078125,false,false,false,false,0.125,12.450000000000001,0.0,-4823,-200,0,0.125,12.450000000000001,0.0,0,0,0,0.125,12.450000000000001,0.0,-13499,105,0,0.0,12.55,0.0,0,0,0,0.0,12.5,0.0,0,0,0,0.0,12.450000000000001,0.0,0,0,0,0.0,12.55,0.0,0,0,0,kReverse,kOff,-88.1,1.33,1.22,-0.037841797,-0.97491455,0.25146484,30.95,0.0,-80.0,-6.7261047,0.7448425,
82.18772299999999,true,true,true,0.0,-0.0078125,0.0,-0.0078125,false,false,false,false,0.0,-0.0078125,0.0,-0.0078125,false,false,false,false,0.125,12.5,0.0,-4856,-193,0,0.125,12.5,0.0,0,0,0,0.125,12.5,0.0,-13493,92,0,0.0,12.55,0.0,0,0,0,0.0,12.5,0.0,0,0,0,0.0,12.5,0.0,0,0,0,0.0,12.55,0.0,0,0,0,kReverse,kOff,-88.13,1.28,1.2,-0.37182617,-1.2058716,0.03955078,30.95,0.0,-398.0,-6.7269135,0.7389374,
82.210185,true,true,true,0.0,-0.0078125,0.0,-0.0078125,false,false,false,false,0.0,-0.0078125,0.0,-0.0078125,false,false,false,false,0.125,12.5,0.0,-4915,-176,0,0.125,12.5,0.0,0,0,0,0.125,12.5,0.0,-13490,77,0,0.0,12.55,0.0,0,0,0,0.0,12.5,0.0,0,0,0,0.0,12.5,0.0,0,0,0,0.0,12.55,0.0,0,0,0,kReverse,kOff,-88.32,0.84,0.81,-0.33428955,-1.0023804,-0.023254395,30.95,0.0,-348.0,-6.7302246,0.7272644,
82.23191399999999,true,true,true,0.0,-0.0078125,0.0,-0.0078125,false,false,false,false,0.0,-0.0078125,0.0,-0.0078125,false,false,false,false,0.125,12.5,0.0,-4942,-167,0,0.125,12.5,0.0,0,0,0,0.125,12.5,0.0,-13487,62,0,0.125,12.55,0.0,0,0,0,0.0,12.5,0.0,0,0,0,0.0,12.5,0.0,0,0,0,0.125,12.55,0.0,0,0,0,kReverse,kOff,-88.45,0.73,0.73,-0.04888916,-1.0286255,-0.01763916,30.95,0.0,-62.0,-6.732437,0.72135925,
82.250984,true,true,true,0.0,-0.0078125,0.0,-0.0078125,false,false,false,false,0.0,-0.0078125,0.0,-0.0078125,false,false,false,false,0.125,12.5,0.0,-4966,-158,0,0.125,12.5,0.0,0,0,0,0.125,12.5,0.0,-13485,46,0,0.125,12.55,0.0,0,0,0,0.0,12.5,0.0,0,0,0,0.0,12.5,0.0,0,0,0,0.125,12.55,0.0,0,0,0,kReverse,kOff,-88.45,0.76,0.78,0.08190918,-0.9902954,0.20794678,30.95,0.0,71.0,-6.7346344,0.7155762,
82.274278,true,true,true,0.0,-0.0078125,0.0,-0.0078125,false,false,false,false,0.0,-0.0078125,0.0,-0.0078125,false,false,false,false,0.125,12.5,0.0,-4989,-148,0,0.125,12.5,0.0,0,0,0,0.125,12.5,0.0,-13484,33,0,0.125,12.55,0.0,0,0,0,0.0,12.5,0.0,0,0,0,0.0,12.5,0.0,0,0,0,0.125,12.55,0.0,0,0,0,kReverse,kOff,-88.29,0.83,0.88,-0.046569824,-1.3613892,-0.014587402,30.95,0.0,-67.0,-6.7368317,0.7039795,
82.29532999999999,true,true,true,0.0,-0.0078125,0.0,-0.0078125,false,false,false,false,0.0,-0.0078125,0.0,-0.0078125,false,false,false,false,0.125,12.5,0.0,-5011,-138,0,0.125,12.5,0.0,0,0,0,0.125,12.5,0.0,-13484,21,0,0.125,12.55,0.0,0,0,0,0.0,12.5,0.0,0,0,0,0.0,12.5,0.0,0,0,0,0.0,12.55,0.0,0,0,0,kReverse,kOff,-87.99,1.06,1.16,0.1307373,-1.3251343,0.27954102,30.95,0.0,120.0,-6.7412567,0.69807434,
82.328038,true,true,true,0.0,-0.0078125,0.0,-0.0078125,false,false,false,false,0.0,-0.0078125,0.0,-0.0078125,false,false,false,false,0.125,12.5,0.0,-5031,-129,0,0.125,12.55,0.0,0,0,0,0.125,12.5,0.0,-13484,8,0,0.125,12.55,0.0,0,0,0,0.0,12.55,0.0,0,0,0,0.0,12.5,0.0,0,0,0,0.0,12.6,0.0,0,0,0,kReverse,kOff,-87.59,1.21,1.4,-0.047058105,-0.9650879,0.2515869,30.95,0.0,-47.0,-6.747162,0.68151855,
82.35178,true,true,true,0.0,-0.0078125,0.0,-0.0078125,false,false,false,false,0.0,-0.0078125,0.0,-0.0078125,false,false,false,false,0.125,12.55,0.0,-5065,-111,0,0.125,12.55,0.0,0,0,0,0.125,12.5,0.0,-13484,4,0,0.125,12.55,0.0,0,0,0,0.0,12.55,0.0,0,0,0,0.0,12.55,0.0,0,0,0,0.125,12.6,0.0,0,0,0,kReverse,kOff,-87.53,1.18,1.39,-0.03289795,-1.0404663,0.04864502,30.95,0.0,-53.0,-6.7492065,0.6763916,
82.37097399999999,true,true,true,0.0,-0.0078125,0.0,-0.0078125,false,false,false,false,0.0,-0.0078125,0.0,-0.0078125,false,false,false,false,0.125,12.55,0.0,-5079,-103,0,0.125,12.55,0.0,0,0,0,0.125,12.5,0.0,-13488,2,0,0.125,12.55,0.0,0,0,0,0.0,12.55,0.0,0,0,0,0.0,12.55,0.0,0,0,0,0.125,12.6,0.0,0,0,0,kReverse,kOff,-87.51,1.16,1.38,-0.0053710938,-1.0203857,0.26831055,30.95,0.0,-2.0,-6.7512665,0.67144775,
82.38911799999998,true,true,true,0.0,-0.0078125,0.0,-0.0078125,false,false,false,false,0.0,-0.0078125,0.0,-0.0078125,false,false,false,false,0.125,12.55,0.0,-5079,-94,0,0.125,12.55,0.0,0,0,0,0.125,12.5,0.0,-13496,-1,0,0.125,12.55,0.0,0,0,0,0.0,12.55,0.0,0,0,0,0.0,12.55,0.0,0,0,0,0.0,12.6,0.0,0,0,0,kReverse,kOff,-87.33,1.13,1.39,-0.04095459,-0.9005127,0.17980957,30.95,0.0,-43.0,-6.7555237,0.66226196,
82.409212,true,true,true,0.0,-0.0078125,0.0,-0.0078125,false,false,false,false,0.0,-0.0078125,0.0,-0.0078125,false,false,false,false,0.125,12.55,0.0,-5102,-85,0,0.125,12.55,0.0,0,0,0,0.125,12.5,0.0,-13503,-7,0,0.125,12.55,0.0,0,0,0,0.0,12.55,0.0,0,0,0,0.0,12.55,0.0,0,0,0,0.0,12.6,0.0,0,0,0,kReverse,kOff,-87.05,1.1,1.4,-0.053588867,-1.0229492,0.2640381,30.95,0.0,-49.0,-6.759857,0.65434265,
82.434294,true,true,true,0.0,-0.0078125,0.0,-0.0078125,false,false,false,false,0.0,-0.0078125,0.0,-0.0078125,false,false,false,false,0.125,12.55,0.0,-5112,-77,0,0.125,12.55,0.0,0,0,0,0.125,12.5,0.0,-13510,-14,0,0.125,12.55,0.0,0,0,0,0.0,12.55,0.0,0,0,0,0.0,12.55,0.0,0,0,0,0.0,12.6,0.0,0,0,0,kReverse,kOff,-86.94,1.05,1.37,-0.014831543,-0.94989014,0.30218506,30.95,0.0,-3.0,-6.7620544,0.6509094,
