timer,lineLeft,lineCenter,lineRight,driverLeftX,driverLeftY,driverRightX,driverRightY,driverA,driverB,driverX,driverY,operatorLeftX,operatorLeftY,operatorRightX,operatorRightY,operatorA,operatorB,operatorX,operatorY,LeftFrontCurrent,LeftFrontVoltage,LeftFrontValue,LeftFrontPosition,LeftFrontVelocity,LeftFrontFaults,LeftRearCurrent,LeftRearVoltage,LeftRearValue,LeftRearPosition,LeftRearVelocity,LeftRearFaults,RightFrontCurrent,RightFrontVoltage,RightFrontValue,RightFrontPosition,RightFrontVelocity,RightFrontFaults,RightRearCurrent,RightRearVoltage,RightRearValue,RightRearPosition,RightRearVelocity,RightRearFaults,LiftCurrent,LiftVoltage,LiftValue,LiftPosition,LiftVelocity,LiftFaults,WristCurrent,WristVoltage,WristValue,WristPosition,WristVelocity,WristFaults,RollerCurrent,RollerVoltage,RollerValue,RollerPosition,RollerVelocity,RollerFaults,PushersState,PivotsState,navx_Pitch,navx_Roll,navx_Yaw,navx_XAcc,navx_YAcc,navx_ZAcc,navx_Temp,navx_Bar,navx_Alt,navx_XDis,navx_YDis,
161.346744,true,true,true,0.0,-0.0078125,0.0,-0.0078125,false,false,false,false,0.0,-0.0078125,0.0,-0.0078125,false,false,false,false,0.125,12.65,0.0,-11325,0,0,0.125,12.65,0.0,0,0,0,0.125,12.65,0.0,-14364,0,0,0.125,12.700000000000001,0.0,0,0,0,0.0,12.65,0.0,0,0,0,0.0,12.65,0.0,0,0,0,0.0,12.75,0.0,0,0,0,kReverse,kOff,-86.14,1.77,-71.8,0.029418945,-0.98327637,0.055419922,30.88,0.0,3.0,-6.980118,-3.2656403,
161.422634,true,true,true,0.0,-0.0078125,0.0,-0.0078125,false,false,false,false,0.0,-0.0078125,0.0,-0.0078125,false,false,false,false,0.125,12.65,0.0,-11325,0,0,0.125,12.65,0.0,0,0,0,0.125,12.65,0.0,-14364,0,0,0.125,12.700000000000001,0.0,0,0,0,0.0,12.65,0.0,0,0,0,0.0,12.65,0.0,0,0,0,0.0,12.75,0.0,0,0,0,kReverse,kOff,-86.14,1.77,-71.8,0.028503418,-0.98150635,0.059936523,30.88,0.0,-1.0,-6.980118,-3.2656403,
161.452405,true,true,true,0.0,-0.0078125,0.0,-0.0078125,false,false,false,false,0.0,-0.0078125,0.0,-0.0078125,false,false,false,false,0.125,12.65,0.0,-11325,0,0,0.125,12.65,0.0,0,0,0,0.125,12.65,0.0,-14364,0,0,0.125,12.700000000000001,0.0,0,0,0,0.0,12.65,0.0,0,0,0,0.0,12.65,0.0,0,0,0,0.0,12.75,0.0,0,0,0,kReverse,kOff,-86.14,1.77,-71.8,0.030151367,-0.98083496,0.059326172,30.88,0.0,0.0,-6.980118,-3.2656403,
161.473874,true,true,true,0.0,-0.0078125,0.0,-0.0078125,false,false,false,false,0.0,-0.0078125,0.0,-0.0078125,false,false,false,false,0.125,12.65,0.0,-11325,0,0,0.125,12.65,0.0,0,0,0,0.125,12.65,0.0,-14364,0,0,0.125,12.700000000000001,0.0,0,0,0,0.0,12.65,0.0,0,0,0,0.0,12.65,0.0,0,0,0,0.0,12.75,0.0,0,0,0,kReverse,kOff,-86.14,1.77,-71.8,0.029418945,-0.98553467,0.061584473,30.88,0.0,-2.0,-6.980118,-3.2656403,
161.49544899999998,true,true,true,0.0,-0.0078125,0.0,-0.0078125,false,false,false,false,0.0,-0.0078125,0.0,-0.0078125,false,false,false,false,0.125,12.65,0.0,-11325,0,0,0.125,12.65,0.0,0,0,0,0.125,12.65,0.0,-14364,0,0,0.125,12.700000000000001,0.0,0,0,0,0.0,12.65,0.0,0,0,0,0.0,12.65,0.0,0,0,0,0.0,12.75,0.0,0,0,0,kReverse,kOff,-86.14,1.77,-71.8,0.028320312,-0.9837036,0.060302734,30.88,0.0,-1.0,-6.980118,-3.2656403,
161.517641,true,true,true,0.0,-0.0078125,0.0,-0.0078125,false,false,false,false,0.0,-0.0078125,0.0,-0.0078125,false,false,false,false,0.125,12.65,0.0,-11325,0,0,0.125,12.65,0.0,0,0,0,0.125,12.65,0.0,-14364,0,0,0.125,12.700000000000001,0.0,0,0,0,0.0,12.65,0.0,0,0,0,0.0,12.65,0.0,0,0,0,0.0,12.75,0.0,0,0,0,kReverse,kOff,-86.14,1.77,-71.8,0.032348633,-0.9836426,0.05859375,30.88,0.0,0.0,-6.980118,-3.2656403,
161.542013,true,true,true,0.0,-0.0078125,0.0,-0.0078125,false,false,false,false,0.0,-0.0078125,0.0,-0.0078125,false,false,false,false,0.125,12.65,0.0,-11325,0,0,0.125,12.65,0.0,0,0,0,0.125,12.65,0.0,-14364,0,0,0.125,12.700000000000001,0.0,0,0,0,0.0,12.65,0.0,0,0,0,0.0,12.65,0.0,0,0,0,0.0,12.75,0.0,0,0,0,kReverse,kOff,-86.14,1.77,-71.8,0.026184082,-0.98394775,0.05407715,30.88,0.0,4.0,-6.980118,-3.2656403,
161.562031,true,true,true,0.0,-0.0078125,0.0,-0.0078125,false,false,false,false,0.0,-0.0078125,0.0,-0.0078125,false,false,false,false,0.125,12.65,0.0,-11325,0,0,0.125,12.65,0.0,0,0,0,0.125,12.65,0.0,-14364,0,0,0.125,12.700000000000001,0.0,0,0,0,0.0,12.65,0.0,0,0,0,0.0,12.65,0.0,0,0,0,0.0,12.75,0.0,0,0,0,kReverse,kOff,-86.15,1.77,-71.89,0.030273438,-0.9829712,0.054626465,30.88,0.0,4.0,-6.980118,-3.2656403,
161.58593599999998,true,true,true,0.0,-0.0078125,0.0,-0.0078125,false,false,false,false,0.0,-0.0078125,0.0,-0.0078125,false,false,false,false,0.125,12.65,0.0,-11325,0,0,0.125,12.65,0.0,0,0,0,0.125,12.65,0.0,-14364,0,0,0.125,12.700000000000001,0.0,0,0,0,0.0,12.65,0.0,0,0,0,0.0,12.65,0.0,0,0,0,0.0,12.75,0.0,0,0,0,kReverse,kOff,-86.15,1.77,-71.89,0.027770996,-0.9850464,0.05529785,30.88,0.0,3.0,-6.980118,-3.2656403,
161.609916,true,true,true,0.0,-0.0078125,0.0,-0.0078125,false,false,false,false,0.0,-0.0078125,0.0,-0.0078125,false,false,false,false,0.125,12.65,0.0,-11325,0,0,0.125,12.65,0.0,0,0,0,0.125,12.65,0.0,-14364,0,0,0.125,12.700000000000001,0.0,0,0,0,0.0,12.65,0.0,0,0,0,0.0,12.65,0.0,0,0,0,0.0,12.75,0.0,0,0,0,kReverse,kOff,-86.15,1.77,-71.89,0.032226562,-0.98394775,0.06384277,30.88,0.0,-5.0,-6.980118,-3.2656403,
161.630291,true,true,true,0.0,-0.0078125,0.0,-0.0078125,false,false,false,false,0.0,-0.0078125,0.0,-0.0078125,false,false,false,false,0.125,12.65,0.0,-11325,0,0,0.125,12.65,0.0,0,0,0,0.125,12.65,0.0,-14364,0,0,0.125,12.700000000000001,0.0,0,0,0,0.0,12.65,0.0,0,0,0,0.0,12.65,0.0,0,0,0,0.0,12.75,0.0,0,0,0,kReverse,kOff,-86.14,1.77,-71.8,0.03125,-0.9838867,0.06414795,30.92,0.0,-5.0,-6.980118,-3.2656403,
161.652647,true,true,true,0.0,-0.0078125,0.0,-0.0078125,false,false,false,false,0.0,-0.0078125,0.0,-0.0078125,false,false,false,false,0.125,12.65,0.0,-11325,0,0,0.125,12.65,0.0,0,0,0,0.125,12.65,0.0,-14364,0,0,0.125,12.700000000000001,0.0,0,0,0,0.0,12.65,0.0,0,0,0,0.0,12.65,0.0,0,0,0,0.0,12.75,0.0,0,0,0,kReverse,kOff,-86.14,1.77,-71.81,0.031066895,-0.9801636,0.062683105,30.92,0.0,-4.0,-6.980118,-3.2656403,
161.67535999999998,true,true,true,0.0,-0.0078125,0.0,-0.0078125,false,false,false,false,0.0,-0.0078125,0.0,-0.0078125,false,false,false,false,0.125,12.65,0.0,-11325,0,0,0.125,12.65,0.0,0,0,0,0.125,12.65,0.0,-14364,0,0,0.125,12.700000000000001,0.0,0,0,0,0.0,12.65,0.0,0,0,0,0.0,12.65,0.0,0,0,0,0.0,12.75,0.0,0,0,0,kReverse,kOff,-86.14,1.77,-71.81,0.029296875,-0.982666,0.059509277,30.92,0.0,0.0,-6.980118,-3.2656403,
161.69721399999997,true,true,true,0.0,-0.0078125,0.0,-0.0078125,false,false,false,false,0.0,-0.0078125,0.0,-0.0078125,false,false,false,false,0.125,12.65,0.0,-11325,0,0,0.125,12.65,0.0,0,0,0,0.125,12.65,0.0,-14364,0,0,0.125,12.700000000000001,0.0,0,0,0,0.0,12.65,0.0,0,0,0,0.0,12.65,0.0,0,0,0,0.0,12.75,0.0,0,0,0,kReverse,kOff,-86.14,1.77,-71.92,0.03338623,-0.98321533,0.061767578,30.92,0.0,-2.0,-6.980118,-3.2656403,
161.719879,true,true,true,0.0,-0.0078125,0.0,-0.0078125,false,false,false,false,0.0,-0.0078125,0.0,-0.0078125,false,false,false,false,0.125,12.65,0.0,-11325,0,0,0.125,12.65,0.0,0,0,0,0.125,12.65,0.0,-14364,0,0,0.125,12.700000000000001,0.0,0,0,0,0.0,12.65,0.0,0,0,0,0.0,12.65,0.0,0,0,0,0.0,12.75,0.0,0,0,0,kReverse,kOff,-86.14,1.77,-71.93,0.027526855,-0.98480225,0.059509277,30.92,0.0,0.0,-6.980118,-3.2656403,
161.741323,true,true,true,0.0,-0.0078125,0.0,-0.0078125,false,false,false,false,0.0,-0.0078125,0.0,-0.0078125,false,false,false,false,0.125,12.65,0.0,-11325,0,0,0.125,12.65,0.0,0,0,0,0.125,12.65,0.0,-14364,0,0,0.125,12.700000000000001,0.0,0,0,0,0.0,12.65,0.0,0,0,0,0.0,12.65,0.0,0,0,0,0.0,12.75,0.0,0,0,0,kReverse,kOff,-86.13,1.77,-71.86,0.030456543,-0.9828491,0.06451416,30.92,0.0,-5.0,-6.980118,-3.2656403,
161.76053699999997,true,true,true,0.0,-0.0078125,0.0,-0.0078125,false,false,false,false,0.0,-0.0078125,0.0,-0.0078125,false,false,false,false,0.125,12.65,0.0,-11325,0,0,0.125,12.65,0.0,0,0,0,0.125,12.65,0.0,-14364,0,0,0.125,12.700000000000001,0.0,0,0,0,0.0,12.65,0.0,0,0,0,0.0,12.65,0.0,0,0,0,0.0,12.75,0.0,0,0,0,kReverse,kOff,-86.14,1.77,-71.95,0.03100586,-0.98101807,0.058776855,30.92,0.0,0.0,-6.980118,-3.2656403,
161.785419,true,true,true,0.0,-0.0078125,0.0,-0.0078125,false,false,false,false,0.0,-0.0078125,0.0,-0.0078125,false,false,false,false,0.125,12.65,0.0,-11325,0,0,0.125,12.65,0.0,0,0,0,0.125,12.65,0.0,-14364,0,0,0.125,12.700000000000001,0.0,0,0,0,0.0,12.65,0.0,0,0,0,0.0,12.65,0.0,0,0,0,0.0,12.75,0.0,0,0,0,kReverse,kOff,-86.14,1.77,-71.95,0.028625488,-0.98114014,0.05432129,30.92,0.0,4.0,-6.980118,-3.2656403,
161.805683,true,true,true,0.0,-0.0078125,0.0,-0.0078125,false,false,false,false,0.0,-0.0078125,0.0,-0.0078125,false,false,false,false,0.125,12.65,0.0,-11325,0,0,0.125,12.65,0.0,0,0,0,0.125,12.65,0.0,-14364,0,0,0.125,12.700000000000001,0.0,0,0,0,0.0,12.65,0.0,0,0,0,0.0,12.65,0.0,0,0,0,0.0,12.75,0.0,0,0,0,kReverse,kOff,-86.14,1.77,-71.95,0.032165527,-0.9824829,0.06304932,30.92,0.0,-4.0,-6.980118,-3.2656403,
161.827557,true,true,true,0.0,-0.0078125,0.0,-0.0078125,false,false,false,false,0.0,-0.0078125,0.0,-0.0078125,false,false,false,false,0.125,12.65,0.0,-11325,0,0,0.125,12.65,0.0,0,0,0,0.125,12.65,0.0,-14364,0,0,0.125,12.700000000000001,0.0,0,0,0,0.0,12.65,0.0,0,0,0,0.0,12.65,0.0,0,0,0,0.0,12.75,0.0,0,0,0,kReverse,kOff,-86.14,1.76,-71.97,0.028747559,-0.9805908,0.05718994,30.92,0.0,1.0,-6.980118,-3.2656403,
161.85071899999997,true,true,true,0.0,-0.0078125,0.0,-0.0078125,false,false,false,false,0.0,-0.0078125,0.0,-0.0078125,false,false,false,false,0.125,12.65,0.0,-11325,0,0,0.125,12.65,0.0,0,0,0,0.125,12.65,0.0,-14364,0,0,0.125,12.700000000000001,0.0,0,0,0,0.0,12.65,0.0,0,0,0,0.0,12.65,0.0,0,0,0,0.0,12.75,0.0,0,0,0,kReverse,kOff,-86.14,1.77,-71.96,0.03186035,-0.9834595,0.0592041,30.92,0.0,0.0,-6.980118,-3.2656403,
161.87303999999997,true,true,true,0.0,-0.0078125,0.0,-0.0078125,false,false,false,false,0.0,-0.0078125,0.0,-0.0078125,false,false,false,false,0.125,12.65,0.0,-11325,0,0,0.125,12.65,0.0,0,0,0,0.125,12.65,0.0,-14364,0,0,0.125,12.700000000000001,0.0,0,0,0,0.0,12.65,0.0,0,0,0,0.0,12.65,0.0,0,0,0,0.0,12.75,0.0,0,0,0,kReverse,kOff,-86.14,1.77,-71.96,0.030944824,-0.9814453,0.057678223,30.92,0.0,1.0,-6.980118,-3.2656403,
161.89305199999998,true,true,true,0.0,-0.0078125,0.0,-0.0078125,false,false,false,false,0.0,-0.0078125,0.0,-0.0078125,false,false,false,false,0.125,12.65,0.0,-11325,0,0,0.125,12.65,0.0,0,0,0,0.125,12.65,0.0,-14364,0,0,0.125,12.700000000000001,0.0,0,0,0,0.0,12.65,0.0,0,0,0,0.0,12.65,0.0,0,0,0,0.0,12.75,0.0,0,0,0,kReverse,kOff,-86.14,1.76,-72.05,0.030944824,-0.98272705,0.05908203,30.92,0.0,0.0,-6.980118,-3.2656403,
161.914804,true,true,true,0.0,-0.0078125,0.0,-0.0078125,false,false,false,false,0.0,-0.0078125,0.0,-0.0078125,false,false,false,false,0.125,12.65,0.0,-11325,0,0,0.125,12.65,0.0,0,0,0,0.125,12.65,0.0,-14364,0,0,0.125,12.700000000000001,0.0,0,0,0,0.0,12.65,0.0,0,0,0,0.0,12.65,0.0,0,0,0,0.0,12.75,0.0,0,0,0,kReverse,kOff,-86.14,1.76,-72.05,0.031921387,-0.9851074,0.06036377,30.92,0.0,-1.0,-6.980118,-3.2656403,
161.936668,true,true,true,0.0,-0.0078125,0.0,-0.0078125,false,false,false,false,0.0,-0.0078125,0.0,-0.0078125,false,false,false,false,0.125,12.65,0.0,-11325,0,0,0.125,12.65,0.0,0,0,0,0.125,12.65,0.0,-14364,0,0,0.125,12.700000000000001,0.0,0,0,0,0.0,12.65,0.0,0,0,0,0.0,12.65,0.0,0,0,0,0.0,12.75,0.0,0,0,0,kReverse,kOff,-86.14,1.77,-72.04,0.02960205,-0.98413086,0.059570312,30.92,0.0,0.0,-6.980118,-3.2656403,
161.957457,true,true,true,0.0,-0.0078125,0.0,-0.0078125,false,false,false,false,0.0,-0.0078125,0.0,-0.0078125,false,false,false,false,0.125,12.65,0.0,-11325,0,0,0.125,12.65,0.0,0,0,0,0.125,12.65,0.0,-14364,0,0,0.125,12.700000000000001,0.0,0,0,0,0.0,12.65,0.0,0,0,0,0.0,12.65,0.0,0,0,0,0.0,12.75,0.0,0,0,0,kReverse,kOff,-86.14,1.77,-72.04,0.031677246,-0.98168945,0.06335449,30.92,0.0,-4.0,-6.980118,-3.2656403,
161.981579,true,true,true,0.0,-0.0078125,0.0,-0.0078125,false,false,false,false,0.0,-0.0078125,0.0,-0.0078125,false,false,false,false,0.125,12.65,0.0,-11325,0,0,0.125,12.65,0.0,0,0,0,0.125,12.65,0.0,-14364,0,0,0.125,12.700000000000001,0.0,0,0,0,0.0,12.65,0.0,0,0,0,0.0,12.65,0.0,0,0,0,0.0,12.75,0.0,0,0,0,kReverse,kOff,-86.14,1.77,-72.04,0.030029297,-0.98236084,0.057861328,30.92,0.0,0.0,-6.980118,-3.2656403,
162.00626699999998,true,true,true,0.0,-0.0078125,0.0,-0.0078125,false,false,false,false,0.0,-0.0078125,0.0,-0.0078125,false,false,false,false,0.125,12.65,0.0,-11325,0,0,0.125,12.65,0.0,0,0,0,0.125,12.65,0.0,-14364,0,0,0.125,12.700000000000001,0.0,0,0,0,0.0,12.65,0.0,0,0,0,0.0,12.65,0.0,0,0,0,0.0,12.75,0.0,0,0,0,kReverse,kOff,-86.15,1.76,-72.13,0.030822754,-0.9835205,0.053222656,30.92,0.0,5.0,-6.980118,-3.2656403,
162.02954300000002,true,true,true,0.0,-0.0078125,0.0,-0.0078125,false,false,false,false,0.0,-0.0078125,0.0,-0.0078125,false,false,false,false,0.125,12.65,0.0,-11325,0,0,0.125,12.65,0.0,0,0,0,0.125,12.65,0.0,-14364,0,0,0.125,12.700000000000001,0.0,0,0,0,0.0,12.65,0.0,0,0,0,0.0,12.65,0.0,0,0,0,0.0,12.75,0.0,0,0,0,kReverse,kOff,-86.15,1.77,-72.11,0.032714844,-0.9798584,0.059509277,30.92,0.0,-1.0,-6.980118,-3.2656403,
162.04968,true,true,true,0.0,-0.0078125,0.0,-0.0078125,false,false,false,false,0.0,-0.0078125,0.0,-0.0078125,false,false,false,false,0.125,12.65,0.0,-11325,0,0,0.125,12.65,0.0,0,0,0,0.125,12.65,0.0,-14364,0,0,0.125,12.700000000000001,0.0,0,0,0,0.0,12.65,0.0,0,0,0,0.0,12.65,0.0,0,0,0,0.0,12.75,0.0,0,0,0,kReverse,kOff,-86.15,1.77,-72.11,0.027893066,-0.9805908,0.05883789,30.92,0.0,0.0,-6.980118,-3.2656403,
162.07057999999998,true,true,true,0.0,-0.0078125,0.0,-0.0078125,false,false,false,false,0.0,-0.0078125,0.0,-0.0078125,false,false,false,false,0.125,12.65,0.0,-11325,0,0,0.125,12.65,0.0,0,0,0,0.125,12.65,0.0,-14364,0,0,0.125,12.700000000000001,0.0,0,0,0,0.0,12.65,0.0,0,0,0,0.0,12.65,0.0,0,0,0,0.0,12.75,0.0,0,0,0,kReverse,kOff,-86.15,1.77,-72.11,0.029663086,-0.98205566,0.0569458,30.92,0.0,1.0,-6.980118,-3.2656403,
162.092142,true,true,true,0.0,-0.0078125,0.0,-0.0078125,false,false,false,false,0.0,-0.0078125,0.0,-0.0078125,false,false,false,false,0.125,12.65,0.0,-11325,0,0,0.125,12.65,0.0,0,0,0,0.125,12.65,0.0,-14364,0,0,0.125,12.700000000000001,0.0,0,0,0,0.0,12.65,0.0,0,0,0,0.0,12.65,0.0,0,0,0,0.0,12.75,0.0,0,0,0,kReverse,kOff,-86.15,1.77,-72.11,0.030456543,-0.98339844,0.06298828,30.92,0.0,-4.0,-6.980118,-3.2656403,
162.115036,true,true,true,0.0,-0.0078125,0.0,-0.0078125,false,false,false,false,0.0,-0.0078125,0.0,-0.0078125,false,false,false,false,0.125,12.65,0.0,-11325,0,0,0.125,12.65,0.0,0,0,0,0.125,12.65,0.0,-14364,0,0,0.125,12.700000000000001,0.0,0,0,0,0.0,12.65,0.0,0,0,0,0.0,12.65,0.0,0,0,0,0.0,12.75,0.0,0,0,0,kReverse,kOff,-86.15,1.76,-72.13,0.030822754,-0.98657227,0.057739258,30.92,0.0,1.0,-6.980118,-3.2656403,
162.137196,true,true,true,0.0,-0.0078125,0.0,-0.0078125,false,false,false,false,0.0,-0.0078125,0.0,-0.0078125,false,false,false,false,0.125,12.65,0.0,-11325,0,0,0.125,12.65,0.0,0,0,0,0.125,12.65,0.0,-14364,0,0,0.125,12.700000000000001,0.0,0,0,0,0.0,12.65,0.0,0,0,0,0.0,12.65,0.0,0,0,0,0.125,12.75,0.0,0,0,0,kReverse,kOff,-86.15,1.76,-72.13,0.030822754,-0.98657227,0.057739258,30.92,0.0,1.0,-6.980118,-3.2656403,
162.157551,true,true,true,0.0,-0.0078125,0.0,-0.0078125,false,false,false,false,0.0,-0.0078125,0.0,-0.0078125,false,false,false,false,0.125,12.65,0.0,-11325,0,0,0.125,12.65,0.0,0,0,0,0.125,12.65,0.0,-14364,0,0,0.125,12.700000000000001,0.0,0,0,0,0.0,12.65,0.0,0,0,0,0.0,12.65,0.0,0,0,0,0.125,12.75,0.0,0,0,0,kReverse,kOff,-86.15,1.76,-72.13,0.032958984,-0.98168945,0.060791016,30.93,0.0,-2.0,-6.980118,-3.2656403,
162.177505,true,true,true,0.0,-0.0078125,0.0,-0.0078125,false,false,false,false,0.0,-0.0078125,0.0,-0.0078125,false,false,false,false,0.125,12.65,0.0,-11325,0,0,0.125,12.65,0.0,0,0,0,0.125,12.65,0.0,-14364,0,0,0.125,12.700000000000001,0.0,0,0,0,0.0,12.65,0.0,0,0,0,0.0,12.65,0.0,0,0,0,0.0,12.75,0.0,0,0,0,kReverse,kOff,-86.15,1.76,-72.13,0.030517578,-0.9850464,0.06048584,30.93,0.0,-1.0,-6.980118,-3.2656403,
162.197794,true,true,true,0.0,-0.0078125,0.0,-0.0078125,false,false,false,false,0.0,-0.0078125,0.0,-0.0078125,false,false,false,false,0.125,12.65,0.0,-11325,0,0,0.125,12.65,0.0,0,0,0,0.125,12.65,0.0,-14364,0,0,0.125,12.700000000000001,0.0,0,0,0,0.0,12.65,0.0,0,0,0,0.0,12.65,0.0,0,0,0,0.0,12.75,0.0,0,0,0,kReverse,kOff,-86.15,1.77,-72.11,0.030639648,-0.9842529,0.052978516,30.93,0.0,5.0,-6.980118,-3.2656403,
162.216988,true,true,true,0.0,-0.0078125,0.0,-0.0078125,false,false,false,false,0.0,-0.0078125,0.0,-0.0078125,false,false,false,false,0.125,12.65,0.0,-11325,0,0,0.125,12.65,0.0,0,0,0,0.125,12.65,0.0,-14364,0,0,0.125,12.700000000000001,0.0,0,0,0,0.0,12.65,0.0,0,0,0,0.0,12.65,0.0,0,0,0,0.0,12.75,0.0,0,0,0,kReverse,kOff,-86.15,1.77,-72.11,0.02947998,-0.9827881,0.0625,30.93,0.0,-3.0,-6.980118,-3.2656403,
162.240175,true,true,true,0.0,-0.0078125,0.0,-0.0078125,false,false,false,false,0.0,-0.0078125,0.0,-0.0078125,false,false,false,false,0.125,12.65,0.0,-11325,0,0,0.125,12.65,0.0,0,0,0,0.125,12.65,0.0,-14364,0,0,0.125,12.700000000000001,0.0,0,0,0,0.0,12.65,0.0,0,0,0,0.0,12.65,0.0,0,0,0,0.0,12.75,0.0,0,0,0,kReverse,kOff,-86.15,1.77,-72.11,0.030761719,-0.98602295,0.05682373,30.93,0.0,1.0,-6.980118,-3.2656403,
162.25921599999998,true,true,true,0.0,-0.0078125,0.0,-0.0078125,false,false,false,false,0.0,-0.0078125,0.0,-0.0078125,false,false,false,false,0.125,12.65,0.0,-11325,0,0,0.125,12.65,0.0,0,0,0,0.125,12.65,0.0,-14364,0,0,0.125,12.700000000000001,0.0,0,0,0,0.0,12.65,0.0,0,0,0,0.0,12.65,0.0,0,0,0,0.0,12.75,0.0,0,0,0,kReverse,kOff,-86.15,1.76,-72.13,0.03149414,-0.9796753,0.055541992,30.93,0.0,2.0,-6.980118,-3.2656403,
162.28407099999998,true,true,true,0.0,-0.0078125,0.0,-0.0078125,false,false,false,false,0.0,-0.0078125,0.0,-0.0078125,false,false,false,false,0.125,12.65,0.0,-11325,0,0,0.125,12.65,0.0,0,0,0,0.125,12.65,0.0,-14364,0,0,0.125,12.700000000000001,0.0,0,0,0,0.0,12.65,0.0,0,0,0,0.0,12.65,0.0,0,0,0,0.0,12.75,0.0,0,0,0,kReverse,kOff,-86.15,1.76,-72.23,0.02960205,-0.9818115,0.059387207,30.93,0.0,0.0,-6.980118,-3.2656403,
162.304993,true,true,true,0.0,-0.0078125,0.0,-0.0078125,false,false,false,false,0.0,-0.0078125,0.0,-0.0078125,false,false,false,false,0.125,12.65,0.0,-11325,0,0,0.125,12.65,0.0,0,0,0,0.125,12.65,0.0,-14364,0,0,0.125,12.700000000000001,0.0,0,0,0,0.0,12.65,0.0,0,0,0,0.0,12.65,0.0,0,0,0,0.0,12.75,0.0,0,0,0,kReverse,kOff,-86.15,1.76,-72.23,0.03112793,-0.9834595,0.058776855,30.93,0.0,0.0,-6.980118,-3.2656403,
162.325572,true,true,true,0.0,-0.0078125,0.0,-0.0078125,false,false,false,false,0.0,-0.0078125,0.0,-0.0078125,false,false,false,false,0.125,12.65,0.0,-11325,0,0,0.125,12.65,0.0,0,0,0,0.125,12.65,0.0,-14364,0,0,0.125,12.700000000000001,0.0,0,0,0,0.0,12.65,0.0,0,0,0,0.0,12.65,0.0,0,0,0,0.0,12.75,0.0,0,0,0,kReverse,kOff,-86.15,1.76,-72.23,0.03326416,-0.9830322,0.056396484,30.93,0.0,2.0,-6.980118,-3.2656403,
162.34936199999999,true,true,true,0.0,-0.0078125,0.0,-0.0078125,false,false,false,false,0.0,-0.0078125,0.0,-0.0078125,false,false,false,false,0.125,12.65,0.0,-11325,0,0,0.125,12.65,0.0,0,0,0,0.125,12.65,0.0,-14364,0,0,0.125,12.700000000000001,0.0,0,0,0,0.0,12.65,0.0,0,0,0,0.0,12.65,0.0,0,0,0,0.0,12.75,0.0,0,0,0,kReverse,kOff,-86.15,1.76,-72.21,0.034301758,-0.9847412,0.058288574,30.93,0.0,0.0,-6.980118,-3.2656403,
162.372053,true,true,true,0.0,-0.0078125,0.0,-0.0078125,false,false,false,false,0.0,-0.0078125,0.0,-0.0078125,false,false,false,false,0.125,12.65,0.0,-11325,0,0,0.125,12.65,0.0,0,0,0,0.125,12.65,0.0,-14364,0,0,0.125,12.700000000000001,0.0,0,0,0,0.0,12.65,0.0,0,0,0,0.0,12.65,0.0,0,0,0,0.0,12.75,0.0,0,0,0,kReverse,kOff,-86.15,1.76,-72.21,0.031921387,-0.9852295,0.062927246,30.93,0.0,-4.0,-6.980118,-3.2656403,
162.39199,true,true,true,0.0,-0.0078125,0.0,-0.0078125,false,false,false,false,0.0,-0.0078125,0.0,-0.0078125,false,false,false,false,0.125,12.65,0.0,-11325,0,0,0.125,12.65,0.0,0,0,0,0.125,12.65,0.0,-14364,0,0,0.125,12.700000000000001,0.0,0,0,0,0.0,12.65,0.0,0,0,0,0.0,12.65,0.0,0,0,0,0.0,12.75,0.0,0,0,0,kReverse,kOff,-86.15,1.77,-72.12,0.030212402,-0.9833374,0.059814453,30.93,0.0,-1.0,-6.980118,-3.2656403,
162.412609,true,true,true,0.0,-0.0078125,0.0,-0.0078125,false,false,false,false,0.0,-0.0078125,0.0,-0.0078125,false,false,false,false,0.125,12.65,0.0,-11325,0,0,0.125,12.65,0.0,0,0,0,0.125,12.65,0.0,-14364,0,0,0.125,12.700000000000001,0.0,0,0,0,0.0,12.65,0.0,0,0,0,0.0,12.65,0.0,0,0,0,0.0,12.75,0.0,0,0,0,kReverse,kOff,-86.15,1.76,-72.21,0.02746582,-0.9836426,0.05657959,30.93,0.0,1.0,-6.980118,-3.2656403,
162.433012,true,true,true,0.0,-0.0078125,0.0,-0.0078125,false,false,false,false,0.0,-0.0078125,0.0,-0.0078125,false,false,false,false,0.125,12.65,0.0,-11325,0,0,0.125,12.65,0.0,0,0,0,0.125,12.65,0.0,-14364,0,0,0.125,12.700000000000001,0.0,0,0,0,0.0,12.65,0.0,0,0,0,0.0,12.65,0.0,0,0,0,0.0,12.75,0.0,0,0,0,kReverse,kOff,-86.15,1.76,-72.21,0.03302002,-0.9829712,0.058044434,30.93,0.0,0.0,-6.980118,-3.2656403,
162.452919,true,true,true,0.0,-0.0078125,0.0,-0.0078125,false,false,false,false,0.0,-0.0078125,0.0,-0.0078125,false,false,false,false,0.125,12.65,0.0,-11325,0,0,0.125,12.65,0.0,0,0,0,0.125,12.65,0.0,-14364,0,0,0.125,12.700000000000001,0.0,0,0,0,0.0,12.65,0.0,0,0,0,0.0,12.65,0.0,0,0,0,0.0,12.75,0.0,0,0,0,kReverse,kOff,-86.15,1.76,-72.21,0.031677246,-0.9822998,0.06542969,30.93,0.0,-6.0,-6.980118,-3.2656403,
162.47220499999997,true,true,true,0.0,-0.0078125,0.0,-0.0078125,false,false,false,false,0.0,-0.0078125,0.0,-0.0078125,false,false,false,false,0.125,12.65,0.0,-11325,0,0,0.125,12.65,0.0,0,0,0,0.125,12.65,0.0,-14364,0,0,0.125,12.700000000000001,0.0,0,0,0,0.0,12.65,0.0,0,0,0,0.0,12.65,0.0,0,0,0,0.0,12.75,0.0,0,0,0,kReverse,kOff,-86.15,1.76,-72.21,0.032714844,-0.98272705,0.06524658,30.93,0.0,-6.0,-6.980118,-3.2656403,
162.49270199999998,true,true,true,0.0,-0.0078125,0.0,-0.0078125,false,false,false,false,0.0,-0.0078125,0.0,-0.0078125,false,false,false,false,0.125,12.65,0.0,-11325,0,0,0.125,12.65,0.0,0,0,0,0.125,12.65,0.0,-14364,0,0,0.125,12.700000000000001,0.0,0,0,0,0.0,12.65,0.0,0,0,0,0.0,12.65,0.0,0,0,0,0.0,12.75,0.0,0,0,0,kReverse,kOff,-86.15,1.76,-72.21,0.0335083,-0.9805908,0.061828613,30.93,0.0,-3.0,-6.980118,-3.2656403,
162.51199,true,true,true,0.0,-0.0078125,0.0,-0.0078125,false,false,false,false,0.0,-0.0078125,0.0,-0.0078125,false,false,false,false,0.125,12.65,0.0,-11325,0,0,0.125,12.65,0.0,0,0,0,0.125,12.65,0.0,-14364,0,0,0.125,12.700000000000001,0.0,0,0,0,0.0,12.65,0.0,0,0,0,0.0,12.65,0.0,0,0,0,0.0,12.75,0.0,0,0,0,kReverse,kOff,-86.15,1.76,-72.21,0.026672363,-0.9845581,0.059265137,30.93,0.0,0.0,-6.980118,-3.2656403,
162.530938,true,true,true,0.0,-0.0078125,0.0,-0.0078125,false,false,false,false,0.0,-0.0078125,0.0,-0.0078125,false,false,false,false,0.125,12.65,0.0,-11325,0,0,0.125,12.65,0.0,0,0,0,0.125,12.65,0.0,-14364,0,0,0.125,12.700000000000001,0.0,0,0,0,0.0,12.65,0.0,0,0,0,0.0,12.65,0.0,0,0,0,0.0,12.75,0.0,0,0,0,kReverse,kOff,-86.15,1.77,-72.19,0.031311035,-0.9805298,0.061462402,30.93,0.0,-3.0,-6.980118,-3.2656403,
162.55160999999998,true,true,true,0.0,-0.0078125,0.0,-0.0078125,false,false,false,false,0.0,-0.0078125,0.0,-0.0078125,false,false,false,false,0.125,12.65,0.0,-11325,0,0,0.125,12.65,0.0,0,0,0,0.125,12.65,0.0,-14364,0,0,0.125,12.700000000000001,0.0,0,0,0,0.0,12.65,0.0,0,0,0,0.0,12.65,0.0,0,0,0,0.0,12.75,0.0,0,0,0,kReverse,kOff,-86.15,1.77,-72.19,0.029541016,-0.9835205,0.061523438,30.93,0.0,-2.0,-6.980118,-3.2656403,
162.57362,true,true,true,0.0,-0.0078125,0.0,-0.0078125,false,false,false,false,0.0,-0.0078125,0.0,-0.0078125,false,false,false,false,0.125,12.65,0.0,-11325,0,0,0.125,12.65,0.0,0,0,0,0.125,12.65,0.0,-14364,0,0,0.125,12.700000000000001,0.0,0,0,0,0.0,12.65,0.0,0,0,0,0.0,12.65,0.0,0,0,0,0.0,12.75,0.0,0,0,0,kReverse,kOff,-86.15,1.76,-72.21,0.030822754,-0.9851074,0.05731201,30.93,0.0,1.0,-6.980118,-3.2656403,
162.59420799999998,true,true,true,0.0,-0.0078125,0.0,-0.0078125,false,false,false,false,0.0,-0.0078125,0.0,-0.0078125,false,false,false,false,0.125,12.65,0.0,-11325,0,0,0.125,12.65,0.0,0,0,0,0.125,12.65,0.0,-14364,0,0,0.125,12.700000000000001,0.0,0,0,0,0.0,12.65,0.0,0,0,0,0.0,12.65,0.0,0,0,0,0.0,12.75,0.0,0,0,0,kReverse,kOff,-86.15,1.76,-72.21,0.030822754,-0.9807129,0.0592041,30.93,0.0,0.0,-6.980118,-3.2656403,
162.61528399999997,true,true,true,0.0,-0.0078125,0.0,-0.0078125,false,false,false,false,0.0,-0.0078125,0.0,-0.0078125,false,false,false,false,0.125,12.65,0.0,-11325,0,0,0.125,12.65,0.0,0,0,0,0.125,12.65,0.0,-14364,0,0,0.125,12.700000000000001,0.0,0,0,0,0.0,12.65,0.0,0,0,0,0.0,12.65,0.0,0,0,0,0.0,12.75,0.0,0,0,0,kReverse,kOff,-86.15,1.77,-72.33,0.030212402,-0.98083496,0.05847168,30.93,0.0,0.0,-6.980118,-3.2656403,
162.634637,true,true,true,0.0,-0.0078125,0.0,-0.0078125,false,false,false,false,0.0,-0.0078125,0.0,-0.0078125,false,false,false,false,0.125,12.65,0.0,-11325,0,0,0.125,12.65,0.0,0,0,0,0.125,12.65,0.0,-14364,0,0,0.125,12.700000000000001,0.0,0,0,0,0.0,12.65,0.0,0,0,0,0.0,12.65,0.0,0,0,0,0.0,12.75,0.0,0,0,0,kReverse,kOff,-86.15,1.77,-72.33,0.030944824,-0.9812622,0.061462402,30.93,0.0,-2.0,-6.980118,-3.2656403,
162.655259,true,true,true,0.0,-0.0078125,0.0,-0.0078125,false,false,false,false,0.0,-0.0078125,0.0,-0.0078125,false,false,false,false,0.125,12.65,0.0,-11325,0,0,0.125,12.65,0.0,0,0,0,0.125,12.65,0.0,-14364,0,0,0.125,12.700000000000001,0.0,0,0,0,0.0,12.65,0.0,0,0,0,0.0,12.65,0.0,0,0,0,0.0,12.75,0.0,0,0,0,kReverse,kOff,-86.15,1.77,-72.33,0.03149414,-0.9814453,0.0579834,30.92,0.0,0.0,-6.980118,-3.2656403,
162.67570299999997,true,true,true,0.0,-0.0078125,0.0,-0.0078125,false,false,false,false,0.0,-0.0078125,0.0,-0.0078125,false,false,false,false,0.125,12.65,0.0,-11325,0,0,0.125,12.65,0.0,0,0,0,0.125,12.65,0.0,-14364,0,0,0.125,12.700000000000001,0.0,0,0,0,0.0,12.65,0.0,0,0,0,0.0,12.65,0.0,0,0,0,0.0,12.75,0.0,0,0,0,kReverse,kOff,-86.15,1.77,-72.32,0.03186035,-0.98431396,0.052856445,30.92,0.0,5.0,-6.980118,-3.2656403,
162.694965,true,true,true,0.0,-0.0078125,0.0,-0.0078125,false,false,false,false,0.0,-0.0078125,0.0,-0.0078125,false,false,false,false,0.125,12.65,0.0,-11325,0,0,0.125,12.65,0.0,0,0,0,0.125,12.65,0.0,-14364,0,0,0.125,12.700000000000001,0.0,0,0,0,0.0,12.65,0.0,0,0,0,0.0,12.65,0.0,0,0,0,0.0,12.75,0.0,0,0,0,kReverse,kOff,-86.15,1.77,-72.32,0.030761719,-0.9816284,0.061462402,30.92,0.0,-2.0,-6.980118,-3.2656403,
162.71566,true,true,true,0.0,-0.0078125,0.0,-0.0078125,false,false,false,false,0.0,-0.0078125,0.0,-0.0078125,false,false,false,false,0.125,12.65,0.0,-11325,0,0,0.125,12.65,0.0,0,0,0,0.125,12.65,0.0,-14364,0,0,0.125,12.700000000000001,0.0,0,0,0,0.0,12.65,0.0,0,0,0,0.0,12.65,0.0,0,0,0,0.0,12.75,0.0,0,0,0,kReverse,kOff,-86.15,1.77,-72.32,0.029968262,-0.9835205,0.060424805,30.92,0.0,-1.0,-6.980118,-3.2656403,
162.75065899999998,true,true,true,0.0,-0.0078125,0.0,-0.0078125,false,false,false,false,0.0,-0.0078125,0.0,-0.0078125,false,false,false,false,0.125,12.65,0.0,-11325,0,0,0.125,12.65,0.0,0,0,0,0.125,12.65,0.0,-14364,0,0,0.125,12.700000000000001,0.0,0,0,0,0.0,12.65,0.0,0,0,0,0.0,12.65,0.0,0,0,0,0.125,12.75,0.0,0,0,0,kReverse,kOff,-86.15,1.77,-72.32,0.03277588,-0.9818115,0.057006836,30.92,0.0,1.0,-6.980118,-3.2656403,
162.776242,true,true,true,0.0,-0.0078125,0.0,-0.0078125,false,false,false,false,0.0,-0.0078125,0.0,-0.0078125,false,false,false,false,0.125,12.65,0.0,-11325,0,0,0.125,12.65,0.0,0,0,0,0.125,12.65,0.0,-14364,0,0,0.125,12.700000000000001,0.0,0,0,0,0.0,12.65,0.0,0,0,0,0.0,12.65,0.0,0,0,0,0.0,12.75,0.0,0,0,0,kReverse,kOff,-86.15,1.77,-72.32,0.033203125,-0.98187256,0.05999756,30.92,0.0,-1.0,-6.980118,-3.2656403,
162.799648,true,true,true,0.0,-0.0078125,0.0,-0.0078125,false,false,false,false,0.0,-0.0078125,0.0,-0.0078125,false,false,false,false,0.125,12.65,0.0,-11325,0,0,0.125,12.65,0.0,0,0,0,0.125,12.65,0.0,-14364,0,0,0.125,12.700000000000001,0.0,0,0,0,0.0,12.65,0.0,0,0,0,0.0,12.65,0.0,0,0,0,0.0,12.75,0.0,0,0,0,kReverse,kOff,-86.15,1.77,-72.32,0.031799316,-0.9803467,0.058410645,30.92,0.0,0.0,-6.980118,-3.2656403,
162.825231,true,true,true,0.0,-0.0078125,0.0,-0.0078125,false,false,false,false,0.0,-0.0078125,0.0,-0.0078125,false,false,false,false,0.125,12.65,0.0,-11325,0,0,0.125,12.65,0.0,0,0,0,0.125,12.65,0.0,-14364,0,0,0.125,12.700000000000001,0.0,0,0,0,0.0,12.65,0.0,0,0,0,0.0,12.65,0.0,0,0,0,0.0,12.75,0.0,0,0,0,kReverse,kOff,-86.15,1.77,-72.32,0.03149414,-0.98565674,0.06311035,30.92,0.0,-4.0,-6.980118,-3.2656403,
162.847413,true,true,true,0.0,-0.0078125,0.0,-0.0078125,false,false,false,false,0.0,-0.0078125,0.0,-0.0078125,false,false,false,false,0.125,12.65,0.0,-11325,0,0,0.125,12.65,0.0,0,0,0,0.125,12.65,0.0,-14364,0,0,0.125,12.700000000000001,0.0,0,0,0,0.0,12.65,0.0,0,0,0,0.0,12.65,0.0,0,0,0,0.0,12.75,0.0,0,0,0,kReverse,kOff,-86.15,1.77,-72.32,0.03363037,-0.98168945,0.051452637,30.92,0.0,7.0,-6.980118,-3.2656403,
162.869387,true,true,true,0.0,-0.0078125,0.0,-0.0078125,false,false,false,false,0.0,-0.0078125,0.0,-0.0078125,false,false,false,false,0.125,12.65,0.0,-11325,0,0,0.125,12.65,0.0,0,0,0,0.125,12.65,0.0,-14364,0,0,0.125,12.700000000000001,0.0,0,0,0,0.0,12.65,0.0,0,0,0,0.0,12.65,0.0,0,0,0,0.0,12.75,0.0,0,0,0,kReverse,kOff,-86.15,1.78,-72.3,0.034179688,-0.9845581,0.055725098,30.92,0.0,2.0,-6.980118,-3.2656403,
162.891655,true,true,true,0.0,-0.0078125,0.0,-0.0078125,false,false,false,false,0.0,-0.0078125,0.0,-0.0078125,false,false,false,false,0.125,12.65,0.0,-11325,0,0,0.125,12.65,0.0,0,0,0,0.125,12.65,0.0,-14364,0,0,0.125,12.700000000000001,0.0,0,0,0,0.0,12.65,0.0,0,0,0,0.0,12.65,0.0,0,0,0,0.0,12.75,0.0,0,0,0,kReverse,kOff,-86.15,1.78,-72.3,0.028381348,-0.98272705,0.05633545,30.92,0.0,2.0,-6.980118,-3.2656403,
162.911353,true,true,true,0.0,-0.0078125,0.0,-0.0078125,false,false,false,false,0.0,-0.0078125,0.0,-0.0078125,false,false,false,false,0.125,12.65,0.0,-11325,0,0,0.125,12.65,0.0,0,0,0,0.125,12.65,0.0,-14364,0,0,0.125,12.700000000000001,0.0,0,0,0,0.0,12.65,0.0,0,0,0,0.0,12.65,0.0,0,0,0,0.0,12.75,0.0,0,0,0,kReverse,kOff,-86.15,1.78,-72.22,0.030883789,-0.9819946,0.06011963,30.92,0.0,-1.0,-6.980118,-3.2656403,
162.93230599999998,true,true,true,0.0,-0.0078125,0.0,-0.0078125,false,false,false,false,0.0,-0.0078125,0.0,-0.0078125,false,false,false,false,0.125,12.65,0.0,-11325,0,0,0.125,12.65,0.0,0,0,0,0.125,12.65,0.0,-14364,0,0,0.125,12.700000000000001,0.0,0,0,0,0.0,12.65,0.0,0,0,0,0.0,12.65,0.0,0,0,0,0.0,12.75,0.0,0,0,0,kReverse,kOff,-86.15,1.78,-72.22,0.030029297,-0.98168945,0.061279297,30.92,0.0,-2.0,-6.980118,-3.2656403,
162.95506,true,true,true,0.0,-0.0078125,0.0,-0.0078125,false,false,false,false,0.0,-0.0078125,0.0,-0.0078125,false,false,false,false,0.125,12.65,0.0,-11325,0,0,0.125,12.65,0.0,0,0,0,0.125,12.65,0.0,-14364,0,0,0.125,12.700000000000001,0.0,0,0,0,0.0,12.65,0.0,0,0,0,0.0,12.65,0.0,0,0,0,0.0,12.75,0.0,0,0,0,kReverse,kOff,-86.14,1.78,-72.34,0.026672363,-0.98187256,0.060424805,30.92,0.0,-1.0,-6.980118,-3.2656403,
162.980796,true,true,true,0.0,-0.0078125,0.0,-0.0078125,false,false,false,false,0.0,-0.0078125,0.0,-0.0078125,false,false,false,false,0.125,12.65,0.0,-11325,0,0,0.125,12.65,0.0,0,0,0,0.125,12.65,0.0,-14364,0,0,0.125,12.700000000000001,0.0,0,0,0,0.0,12.65,0.0,0,0,0,0.0,12.65,0.0,0,0,0,0.125,12.75,0.0,0,0,0,kReverse,kOff,-86.14,1.78,-72.34,0.029724121,-0.9793701,0.060302734,30.92,0.0,-1.0,-6.980118,-3.2656403,
163.002187,true,true,true,0.0,-0.0078125,0.0,-0.0078125,false,false,false,false,0.0,-0.0078125,0.0,-0.0078125,false,false,false,false,0.125,12.65,0.0,-11325,0,0,0.125,12.65,0.0,0,0,0,0.125,12.65,0.0,-14364,0,0,0.125,12.700000000000001,0.0,0,0,0,0.0,12.65,0.0,0,0,0,0.0,12.65,0.0,0,0,0,0.0,12.75,0.0,0,0,0,kReverse,kOff,-86.14,1.77,-72.46,0.029968262,-0.9813843,0.053527832,30.92,0.0,5.0,-6.980118,-3.2656403,
163.024826,true,true,true,0.0,-0.0078125,0.0,-0.0078125,false,false,false,false,0.0,-0.0078125,0.0,-0.0078125,false,false,false,false,0.125,12.65,0.0,-11325,0,0,0.125,12.65,0.0,0,0,0,0.125,12.65,0.0,-14364,0,0,0.125,12.700000000000001,0.0,0,0,0,0.0,12.65,0.0,0,0,0,0.0,12.65,0.0,0,0,0,0.0,12.75,0.0,0,0,0,kReverse,kOff,-86.14,1.77,-72.46,0.03277588,-0.98516846,0.057861328,30.92,0.0,1.0,-6.980118,-3.2656403,
163.047216,true,true,true,0.0,-0.0078125,0.0,-0.0078125,false,false,false,false,0.0,-0.0078125,0.0,-0.0078125,false,false,false,false,0.125,12.65,0.0,-11325,0,0,0.125,12.65,0.0,0,0,0,0.125,12.65,0.0,-14364,0,0,0.125,12.700000000000001,0.0,0,0,0,0.0,12.65,0.0,0,0,0,0.0,12.65,0.0,0,0,0,0.0,12.75,0.0,0,0,0,kReverse,kOff,-86.14,1.77,-72.46,0.030212402,-0.9828491,0.053527832,30.92,0.0,5.0,-6.980118,-3.2656403,
163.069527,true,true,true,0.0,-0.0078125,0.0,-0.0078125,false,false,false,false,0.0,-0.0078125,0.0,-0.0078125,false,false,false,false,0.125,12.65,0.0,-11325,0,0,0.125,12.65,0.0,0,0,0,0.125,12.65,0.0,-14364,0,0,0.125,12.700000000000001,0.0,0,0,0,0.0,12.65,0.0,0,0,0,0.0,12.65,0.0,0,0,0,0.0,12.75,0.0,0,0,0,kReverse,kOff,-86.14,1.77,-72.46,0.034362793,-0.9850464,0.05657959,30.92,0.0,2.0,-6.980118,-3.2656403,
163.090587,true,true,true,0.0,-0.0078125,0.0,-0.0078125,false,false,false,false,0.0,-0.0078125,0.0,-0.0078125,false,false,false,false,0.125,12.65,0.0,-11325,0,0,0.125,12.65,0.0,0,0,0,0.125,12.65,0.0,-14364,0,0,0.125,12.700000000000001,0.0,0,0,0,0.0,12.65,0.0,0,0,0,0.0,12.65,0.0,0,0,0,0.0,12.75,0.0,0,0,0,kReverse,kOff,-86.15,1.78,-72.44,0.030639648,-0.9842529,0.05871582,30.92,0.0,0.0,-6.980118,-3.2656403,
163.113044,true,true,true,0.0,-0.0078125,0.0,-0.0078125,false,false,false,false,0.0,-0.0078125,0.0,-0.0078125,false,false,false,false,0.125,12.65,0.0,-11325,0,0,0.125,12.65,0.0,0,0,0,0.125,12.65,0.0,-14364,0,0,0.125,12.700000000000001,0.0,0,0,0,0.0,12.65,0.0,0,0,0,0.0,12.65,0.0,0,0,0,0.0,12.75,0.0,0,0,0,kReverse,kOff,-86.15,1.78,-72.44,0.03112793,-0.9810791,0.052001953,30.92,0.0,6.0,-6.980118,-3.2656403,
163.133876,true,true,true,0.0,-0.0078125,0.0,-0.0078125,false,false,false,false,0.0,-0.0078125,0.0,-0.0078125,false,false,false,false,0.125,12.65,0.0,-11325,0,0,0.125,12.65,0.0,0,0,0,0.125,12.65,0.0,-14364,0,0,0.125,12.700000000000001,0.0,0,0,0,0.0,12.65,0.0,0,0,0,0.0,12.65,0.0,0,0,0,0.0,12.75,0.0,0,0,0,kReverse,kOff,-86.15,1.78,-72.3,0.031188965,-0.98223877,0.0602417,30.92,0.0,-1.0,-6.980118,-3.2656403,
163.155494,true,true,true,0.0,-0.0078125,0.0,-0.0078125,false,false,false,false,0.0,-0.0078125,0.0,-0.0078125,false,false,false,false,0.125,12.65,0.0,-11325,0,0,0.125,12.65,0.0,0,0,0,0.125,12.65,0.0,-14364,0,0,0.125,12.700000000000001,0.0,0,0,0,0.0,12.65,0.0,0,0,0,0.0,12.65,0.0,0,0,0,0.0,12.75,0.0,0,0,0,kReverse,kOff,-86.15,1.77,-72.32,0.02911377,-0.9810791,0.061279297,30.91,0.0,-2.0,-6.980118,-3.2656403,
163.175412,true,true,true,0.0,-0.0078125,0.0,-0.0078125,false,false,false,false,0.0,-0.0078125,0.0,-0.0078125,false,false,false,false,0.125,12.65,0.0,-11325,0,0,0.125,12.65,0.0,0,0,0,0.125,12.65,0.0,-14364,0,0,0.125,12.700000000000001,0.0,0,0,0,0.0,12.65,0.0,0,0,0,0.0,12.65,0.0,0,0,0,0.0,12.75,0.0,0,0,0,kReverse,kOff,-86.15,1.77,-72.32,0.03253174,-0.9830322,0.061157227,30.91,0.0,-2.0,-6.980118,-3.2656403,
163.19685499999997,true,true,true,0.0,-0.0078125,0.0,-0.0078125,false,false,false,false,0.0,-0.0078125,0.0,-0.0078125,false,false,false,false,0.125,12.65,0.0,-11325,0,0,0.125,12.65,0.0,0,0,0,0.125,12.65,0.0,-14364,0,0,0.125,12.700000000000001,0.0,0,0,0,0.0,12.65,0.0,0,0,0,0.0,12.65,0.0,0,0,0,0.0,12.75,0.0,0,0,0,kReverse,kOff,-86.15,1.77,-72.32,0.029846191,-0.98236084,0.057434082,30.91,0.0,1.0,-6.980118,-3.2656403,
163.217966,true,true,true,0.0,-0.0078125,0.0,-0.0078125,false,false,false,false,0.0,-0.0078125,0.0,-0.0078125,false,false,false,false,0.125,12.65,0.0,-11325,0,0,0.125,12.65,0.0,0,0,0,0.125,12.65,0.0,-14364,0,0,0.125,12.700000000000001,0.0,0,0,0,0.0,12.65,0.0,0,0,0,0.0,12.65,0.0,0,0,0,0.0,12.75,0.0,0,0,0,kReverse,kOff,-86.14,1.78,-72.36,0.030029297,-0.98150635,0.055419922,30.91,0.0,3.0,-6.980118,-3.2656403,
163.24244399999998,true,true,true,0.0,-0.0078125,0.0,-0.0078125,false,false,false,false,0.0,-0.0078125,0.0,-0.0078125,false,false,false,false,0.125,12.65,0.0,-11325,0,0,0.125,12.65,0.0,0,0,0,0.125,12.65,0.0,-14364,0,0,0.125,12.700000000000001,0.0,0,0,0,0.0,12.65,0.0,0,0,0,0.0,12.65,0.0,0,0,0,0.0,12.75,0.0,0,0,0,kReverse,kOff,-86.14,1.77,-72.38,0.027893066,-0.98205566,0.06549072,30.91,0.0,-6.0,-6.980118,-3.2656403,
163.264702,true,true,true,0.0,-0.0078125,0.0,-0.0078125,false,false,false,false,0.0,-0.0078125,0.0,-0.0078125,false,false,false,false,0.125,12.65,0.0,-11325,0,0,0.125,12.65,0.0,0,0,0,0.125,12.65,0.0,-14364,0,0,0.125,12.700000000000001,0.0,0,0,0,0.0,12.65,0.0,0,0,0,0.0,12.65,0.0,0,0,0,0.0,12.75,0.0,0,0,0,kReverse,kOff,-86.14,1.77,-72.38,0.031799316,-0.9838867,0.057678223,30.91,0.0,1.0,-6.980118,-3.2656403,
163.28156099999998,true,true,true,0.0,-0.0078125,0.0,-0.0078125,false,false,false,false,0.0,-0.0078125,0.0,-0.0078125,false,false,false,false,0.125,12.65,0.0,-11325,0,0,0.125,12.65,0.0,0,0,0,0.125,12.65,0.0,-14364,0,0,0.125,12.700000000000001,0.0,0,0,0,0.0,12.65,0.0,0,0,0,0.0,12.65,0.0,0,0,0,0.0,12.75,0.0,0,0,0,kReverse,kOff,-86.14,1.77,-72.38,0.033569336,-0.9834595,0.054748535,30.91,0.0,4.0,-6.980118,-3.2656403,
163.308136,true,true,true,0.0,-0.0078125,0.0,-0.0078125,false,false,false,false,0.0,-0.0078125,0.0,-0.0078125,false,false,false,false,0.125,12.65,0.0,-11325,0,0,0.125,12.65,0.0,0,0,0,0.125,12.65,0.0,-14364,0,0,0.125,12.700000000000001,0.0,0,0,0,0.0,12.65,0.0,0,0,0,0.0,12.65,0.0,0,0,0,0.0,12.75,0.0,0,0,0,kReverse,kOff,-86.14,1.77,-72.47,0.028015137,-0.9813843,0.06298828,30.91,0.0,-4.0,-6.980118,-3.2656403,
163.32931200000002,true,true,true,0.0,-0.0078125,0.0,-0.0078125,false,false,false,false,0.0,-0.0078125,0.0,-0.0078125,false,false,false,false,0.125,12.65,0.0,-11325,0,0,0.125,12.65,0.0,0,0,0,0.125,12.65,0.0,-14364,0,0,0.125,12.700000000000001,0.0,0,0,0,0.0,12.65,0.0,0,0,0,0.0,12.65,0.0,0,0,0,0.0,12.75,0.0,0,0,0,kReverse,kOff,-86.14,1.77,-72.46,0.030700684,-0.98236084,0.05493164,30.91,0.0,3.0,-6.980118,-3.2656403,
163.349657,true,true,true,0.0,-0.0078125,0.0,-0.0078125,false,false,false,false,0.0,-0.0078125,0.0,-0.0078125,false,false,false,false,0.125,12.65,0.0,-11325,0,0,0.125,12.65,0.0,0,0,0,0.125,12.65,0.0,-14364,0,0,0.125,12.700000000000001,0.0,0,0,0,0.0,12.65,0.0,0,0,0,0.0,12.65,0.0,0,0,0,0.0,12.75,0.0,0,0,0,kReverse,kOff,-86.14,1.77,-72.46,0.030395508,-0.98431396,0.057495117,30.91,0.0,1.0,-6.980118,-3.2656403,
163.368617,true,true,true,0.0,-0.0078125,0.0,-0.0078125,false,false,false,false,0.0,-0.0078125,0.0,-0.0078125,false,false,false,false,0.125,12.65,0.0,-11325,0,0,0.125,12.65,0.0,0,0,0,0.125,12.65,0.0,-14364,0,0,0.125,12.700000000000001,0.0,0,0,0,0.0,12.65,0.0,0,0,0,0.0,12.65,0.0,0,0,0,0.0,12.75,0.0,0,0,0,kReverse,kOff,-86.15,1.77,-72.56,0.028503418,-0.98114014,0.051635742,30.91,0.0,6.0,-6.980118,-3.2656403,
163.389231,true,true,true,0.0,-0.0078125,0.0,-0.0078125,false,false,false,false,0.0,-0.0078125,0.0,-0.0078125,false,false,false,false,0.125,12.65,0.0,-11325,0,0,0.125,12.65,0.0,0,0,0,0.125,12.65,0.0,-14364,0,0,0.125,12.700000000000001,0.0,0,0,0,0.0,12.65,0.0,0,0,0,0.0,12.65,0.0,0,0,0,0.0,12.75,0.0,0,0,0,kReverse,kOff,-86.15,1.77,-72.43,0.031188965,-0.9801636,0.052124023,30.91,0.0,6.0,-6.980118,-3.2656403,
163.40997099999998,true,true,true,0.0,-0.0078125,0.0,-0.0078125,false,false,false,false,0.0,-0.0078125,0.0,-0.0078125,false,false,false,false,0.125,12.65,0.0,-11325,0,0,0.125,12.65,0.0,0,0,0,0.125,12.65,0.0,-14364,0,0,0.125,12.700000000000001,0.0,0,0,0,0.0,12.65,0.0,0,0,0,0.0,12.65,0.0,0,0,0,0.0,12.75,0.0,0,0,0,kReverse,kOff,-86.16,1.77,-72.4,0.032348633,-0.9814453,0.05596924,30.91,0.0,2.0,-6.980118,-3.2656403,
163.43256,true,true,true,0.0,-0.0078125,0.0,-0.0078125,false,false,false,false,0.0,-0.0078125,0.0,-0.0078125,false,false,false,false,0.125,12.65,0.0,-11325,0,0,0.125,12.65,0.0,0,0,0,0.125,12.65,0.0,-14364,0,0,0.125,12.700000000000001,0.0,0,0,0,0.0,12.65,0.0,0,0,0,0.0,12.65,0.0,0,0,0,0.0,12.75,0.0,0,0,0,kReverse,kOff,-86.16,1.77,-72.4,0.030700684,-0.9835205,0.054138184,30.91,0.0,4.0,-6.980118,-3.2656403,
163.45232799999997,true,true,true,0.0,-0.0078125,0.0,-0.0078125,false,false,false,false,0.0,-0.0078125,0.0,-0.0078125,false,false,false,false,0.125,12.65,0.0,-11325,0,0,0.125,12.65,0.0,0,0,0,0.125,12.65,0.0,-14364,0,0,0.125,12.700000000000001,0.0,0,0,0,0.0,12.65,0.0,0,0,0,0.0,12.65,0.0,0,0,0,0.0,12.75,0.0,0,0,0,kReverse,kOff,-86.15,1.77,-72.42,0.031066895,-0.98187256,0.05670166,30.91,0.0,1.0,-6.980118,-3.2656403,
163.475352,true,true,true,0.0,-0.0078125,0.0,-0.0078125,false,false,false,false,0.0,-0.0078125,0.0,-0.0078125,false,false,false,false,0.125,12.65,0.0,-11325,0,0,0.125,12.65,0.0,0,0,0,0.125,12.65,0.0,-14364,0,0,0.125,12.700000000000001,0.0,0,0,0,0.0,12.65,0.0,0,0,0,0.0,12.65,0.0,0,0,0,0.0,12.75,0.0,0,0,0,kReverse,kOff,-86.15,1.77,-72.32,0.03277588,-0.98443604,0.05859375,30.91,0.0,0.0,-6.980118,-3.2656403,
163.49536299999997,true,true,true,0.0,-0.0078125,0.0,-0.0078125,false,false,false,false,0.0,-0.0078125,0.0,-0.0078125,false,false,false,false,0.125,12.65,0.0,-11325,0,0,0.125,12.65,0.0,0,0,0,0.125,12.65,0.0,-14364,0,0,0.125,12.700000000000001,0.0,0,0,0,0.0,12.65,0.0,0,0,0,0.0,12.65,0.0,0,0,0,0.0,12.75,0.0,0,0,0,kReverse,kOff,-86.15,1.77,-72.32,0.031311035,-0.9829712,0.06201172,30.91,0.0,-3.0,-6.980118,-3.2656403,
163.51563199999998,true,true,true,0.0,-0.0078125,0.0,-0.0078125,false,false,false,false,0.0,-0.0078125,0.0,-0.0078125,false,false,false,false,0.125,12.65,0.0,-11325,0,0,0.125,12.65,0.0,0,0,0,0.125,12.65,0.0,-14364,0,0,0.125,12.700000000000001,0.0,0,0,0,0.0,12.65,0.0,0,0,0,0.0,12.65,0.0,0,0,0,0.0,12.75,0.0,0,0,0,kReverse,kOff,-86.15,1.77,-72.2,0.027954102,-0.9829712,0.060668945,30.91,0.0,-2.0,-6.980118,-3.2656403,
163.539239,true,true,true,0.0,-0.0078125,0.0,-0.0078125,false,false,false,false,0.0,-0.0078125,0.0,-0.0078125,false,false,false,false,0.125,12.65,0.0,-11325,0,0,0.125,12.65,0.0,0,0,0,0.125,12.65,0.0,-14364,0,0,0.125,12.700000000000001,0.0,0,0,0,0.0,12.65,0.0,0,0,0,0.0,12.65,0.0,0,0,0,0.0,12.75,0.0,0,0,0,kReverse,kOff,-86.15,1.77,-72.2,0.027282715,-0.98254395,0.053222656,30.91,0.0,5.0,-6.980118,-3.2656403,
163.558844,true,true,true,0.0,-0.0078125,0.0,-0.0078125,false,false,false,false,0.0,-0.0078125,0.0,-0.0078125,false,false,false,false,0.125,12.65,0.0,-11325,0,0,0.125,12.65,0.0,0,0,0,0.125,12.65,0.0,-14364,0,0,0.125,12.700000000000001,0.0,0,0,0,0.0,12.65,0.0,0,0,0,0.0,12.65,0.0,0,0,0,0.0,12.75,0.0,0,0,0,kReverse,kOff,-86.16,1.77,-72.29,0.028747559,-0.98309326,0.062805176,30.91,0.0,-4.0,-6.980118,-3.2656403,
163.580361,true,true,true,0.0,-0.0078125,0.0,-0.0078125,false,false,false,false,0.0,-0.0078125,0.0,-0.0078125,false,false,false,false,0.125,12.65,0.0,-11325,0,0,0.125,12.65,0.0,0,0,0,0.125,12.65,0.0,-14364,0,0,0.125,12.700000000000001,0.0,0,0,0,0.0,12.65,0.0,0,0,0,0.0,12.65,0.0,0,0,0,0.0,12.75,0.0,0,0,0,kReverse,kOff,-86.15,1.77,-72.42,0.031188965,-0.98358154,0.058776855,30.91,0.0,0.0,-6.980118,-3.2656403,
163.598283,true,true,true,0.0,-0.0078125,0.0,-0.0078125,false,false,false,false,0.0,-0.0078125,0.0,-0.0078125,false,false,false,false,0.125,12.65,0.0,-11325,0,0,0.125,12.65,0.0,0,0,0,0.125,12.65,0.0,-14364,0,0,0.125,12.700000000000001,0.0,0,0,0,0.0,12.65,0.0,0,0,0,0.0,12.65,0.0,0,0,0,0.0,12.75,0.0,0,0,0,kReverse,kOff,-86.15,1.77,-72.42,0.030090332,-0.98217773,0.058044434,30.91,0.0,0.0,-6.980118,-3.2656403,
163.620321,true,true,true,0.0,-0.0078125,0.0,-0.0078125,false,false,false,false,0.0,-0.0078125,0.0,-0.0078125,false,false,false,false,0.125,12.65,0.0,-11325,0,0,0.125,12.65,0.0,0,0,0,0.125,12.65,0.0,-14364,0,0,0.125,12.700000000000001,0.0,0,0,0,0.0,12.65,0.0,0,0,0,0.0,12.65,0.0,0,0,0,0.0,12.75,0.0,0,0,0,kReverse,kOff,-86.16,1.77,-72.4,0.029663086,-0.9805298,0.05718994,30.91,0.0,1.0,-6.980118,-3.2656403,
163.640911,true,true,true,0.0,-0.0078125,0.0,-0.0078125,false,false,false,false,0.0,-0.0078125,0.0,-0.0078125,false,false,false,false,0.125,12.65,0.0,-11325,0,0,0.125,12.65,0.0,0,0,0,0.125,12.65,0.0,-14364,0,0,0.125,12.700000000000001,0.0,0,0,0,0.0,12.65,0.0,0,0,0,0.0,12.65,0.0,0,0,0,0.0,12.75,0.0,0,0,0,kReverse,kOff,-86.16,1.77,-72.4,0.030090332,-0.9850464,0.053771973,30.91,0.0,4.0,-6.980118,-3.2656403,
163.658074,true,true,true,0.0,-0.0078125,0.0,-0.0078125,false,false,false,false,0.0,-0.0078125,0.0,-0.0078125,false,false,false,false,0.125,12.65,0.0,-11325,0,0,0.125,12.65,0.0,0,0,0,0.125,12.65,0.0,-14364,0,0,0.125,12.700000000000001,0.0,0,0,0,0.0,12.65,0.0,0,0,0,0.0,12.65,0.0,0,0,0,0.0,12.75,0.0,0,0,0,kReverse,kOff,-86.16,1.77,-72.5,0.028747559,-0.98150635,0.061279297,30.91,0.0,-2.0,-6.980118,-3.2656403,
163.683562,true,true,true,0.0,-0.0078125,0.0,-0.0078125,false,false,false,false,0.0,-0.0078125,0.0,-0.0078125,false,false,false,false,0.125,12.65,0.0,-11325,0,0,0.125,12.65,0.0,0,0,0,0.125,12.65,0.0,-14364,0,0,0.125,12.700000000000001,0.0,0,0,0,0.0,12.65,0.0,0,0,0,0.0,12.65,0.0,0,0,0,0.125,12.75,0.0,0,0,0,kReverse,kOff,-86.17,1.77,-72.38,0.03112793,-0.98321533,0.05480957,30.93,0.0,3.0,-6.980118,-3.2656403,
163.707367,true,true,true,0.0,-0.0078125,0.0,-0.0078125,false,false,false,false,0.0,-0.0078125,0.0,-0.0078125,false,false,false,false,0.125,12.65,0.0,-11325,0,0,0.125,12.65,0.0,0,0,0,0.125,12.65,0.0,-14364,0,0,0.125,12.700000000000001,0.0,0,0,0,0.0,12.65,0.0,0,0,0,0.0,12.65,0.0,0,0,0,0.0,12.75,0.0,0,0,0,kReverse,kOff,-86.17,1.77,-72.38,0.02923584,-0.98205566,0.059265137,30.93,0.0,-1.0,-6.980118,-3.2656403,
163.72590899999997,true,true,true,0.0,-0.0078125,0.0,-0.0078125,false,false,false,false,0.0,-0.0078125,0.0,-0.0078125,false,false,false,false,0.125,12.65,0.0,-11325,0,0,0.125,12.65,0.0,0,0,0,0.125,12.65,0.0,-14364,0,0,0.125,12.700000000000001,0.0,0,0,0,0.0,12.65,0.0,0,0,0,0.0,12.65,0.0,0,0,0,0.0,12.75,0.0,0,0,0,kReverse,kOff,-86.17,1.77,-72.38,0.029846191,-0.98565674,0.05505371,30.93,0.0,3.0,-6.980118,-3.2656403,
163.749888,true,true,true,0.0,-0.0078125,0.0,-0.0078125,false,false,false,false,0.0,-0.0078125,0.0,-0.0078125,false,false,false,false,0.125,12.65,0.0,-11325,0,0,0.125,12.65,0.0,0,0,0,0.125,12.65,0.0,-14364,0,0,0.125,12.700000000000001,0.0,0,0,0,0.0,12.65,0.0,0,0,0,0.0,12.65,0.0,0,0,0,0.0,12.75,0.0,0,0,0,kReverse,kOff,-86.17,1.77,-72.38,0.032348633,-0.9849243,0.054382324,30.93,0.0,4.0,-6.980118,-3.2656403,
163.772206,true,true,true,0.0,-0.0078125,0.0,-0.0078125,false,false,false,false,0.0,-0.0078125,0.0,-0.0078125,false,false,false,false,0.125,12.65,0.0,-11325,0,0,0.125,12.65,0.0,0,0,0,0.125,12.65,0.0,-14364,0,0,0.125,12.700000000000001,0.0,0,0,0,0.0,12.65,0.0,0,0,0,0.0,12.65,0.0,0,0,0,0.0,12.75,0.0,0,0,0,kReverse,kOff,-86.16,1.76,-72.39,0.026916504,-0.98272705,0.06451416,30.93,0.0,-6.0,-6.980118,-3.2656403,
163.794391,true,true,true,0.0,-0.0078125,0.0,-0.0078125,false,false,false,false,0.0,-0.0078125,0.0,-0.0078125,false,false,false,false,0.125,12.65,0.0,-11325,0,0,0.125,12.65,0.0,0,0,0,0.125,12.65,0.0,-14364,0,0,0.125,12.700000000000001,0.0,0,0,0,0.0,12.65,0.0,0,0,0,0.0,12.65,0.0,0,0,0,0.0,12.75,0.0,0,0,0,kReverse,kOff,-86.17,1.77,-72.38,0.031555176,-0.9827881,0.060058594,30.93,0.0,-1.0,-6.980118,-3.2656403,
163.815983,true,true,true,0.0,-0.0078125,0.0,-0.0078125,false,false,false,false,0.0,-0.0078125,0.0,-0.0078125,false,false,false,false,0.125,12.65,0.0,-11325,0,0,0.125,12.65,0.0,0,0,0,0.125,12.65,0.0,-14364,0,0,0.125,12.700000000000001,0.0,0,0,0,0.0,12.65,0.0,0,0,0,0.0,12.65,0.0,0,0,0,0.0,12.75,0.0,0,0,0,kReverse,kOff,-86.16,1.76,-72.41,0.030029297,-0.98272705,0.058532715,30.93,0.0,0.0,-6.980118,-3.2656403,
163.836772,true,true,true,0.0,-0.0078125,0.0,-0.0078125,false,false,false,false,0.0,-0.0078125,0.0,-0.0078125,false,false,false,false,0.125,12.65,0.0,-11325,0,0,0.125,12.65,0.0,0,0,0,0.125,12.65,0.0,-14364,0,0,0.125,12.700000000000001,0.0,0,0,0,0.0,12.65,0.0,0,0,0,0.0,12.65,0.0,0,0,0,0.0,12.75,0.0,0,0,0,kReverse,kOff,-86.16,1.76,-72.41,0.030700684,-0.98309326,0.057006836,30.93,0.0,1.0,-6.980118,-3.2656403,
163.858635,true,true,true,0.0,-0.0078125,0.0,-0.0078125,false,false,false,false,0.0,-0.0078125,0.0,-0.0078125,false,false,false,false,0.125,12.65,0.0,-11325,0,0,0.125,12.65,0.0,0,0,0,0.125,12.65,0.0,-14364,0,0,0.125,12.700000000000001,0.0,0,0,0,0.0,12.65,0.0,0,0,0,0.0,12.65,0.0,0,0,0,0.0,12.75,0.0,0,0,0,kReverse,kOff,-86.17,1.77,-72.38,0.030517578,-0.9824829,0.057861328,30.93,0.0,0.0,-6.980118,-3.2656403,
163.893193,true,true,true,0.0,-0.0078125,0.0,-0.0078125,false,false,false,false,0.0,-0.0078125,0.0,-0.0078125,false,false,false,false,0.125,12.65,0.0,-11325,0,0,0.125,12.65,0.0,0,0,0,0.125,12.65,0.0,-14364,0,0,0.125,12.700000000000001,0.0,0,0,0,0.0,12.65,0.0,0,0,0,0.0,12.65,0.0,0,0,0,0.0,12.75,0.0,0,0,0,kReverse,kOff,-86.17,1.77,-72.38,0.029907227,-0.98291016,0.06085205,30.93,0.0,-2.0,-6.980118,-3.2656403,
163.92522699999998,true,true,true,0.0,-0.0078125,0.0,-0.0078125,false,false,false,false,0.0,-0.0078125,0.0,-0.0078125,false,false,false,false,0.125,12.65,0.0,-11325,0,0,0.125,12.65,0.0,0,0,0,0.125,12.65,0.0,-14364,0,0,0.125,12.700000000000001,0.0,0,0,0,0.0,12.65,0.0,0,0,0,0.0,12.65,0.0,0,0,0,0.0,12.75,0.0,0,0,0,kReverse,kOff,-86.17,1.77,-72.46,0.032714844,-0.98321533,0.05706787,30.93,0.0,1.0,-6.980118,-3.2656403,
163.952498,true,true,true,0.0,-0.0078125,0.0,-0.0078125,false,false,false,false,0.0,-0.0078125,0.0,-0.0078125,false,false,false,false,0.125,12.65,0.0,-11325,0,0,0.125,12.65,0.0,0,0,0,0.125,12.65,0.0,-14364,0,0,0.125,12.700000000000001,0.0,0,0,0,0.0,12.65,0.0,0,0,0,0.0,12.65,0.0,0,0,0,0.0,12.75,0.0,0,0,0,kReverse,kOff,-86.17,1.77,-72.46,0.030578613,-0.9833374,0.0579834,30.93,0.0,0.0,-6.980118,-3.2656403,
163.972693,true,true,true,0.0,-0.0078125,0.0,-0.0078125,false,false,false,false,0.0,-0.0078125,0.0,-0.0078125,false,false,false,false,0.125,12.65,0.0,-11325,0,0,0.125,12.65,0.0,0,0,0,0.125,12.65,0.0,-14364,0,0,0.125,12.700000000000001,0.0,0,0,0,0.0,12.65,0.0,0,0,0,0.0,12.65,0.0,0,0,0,0.0,12.75,0.0,0,0,0,kReverse,kOff,-86.17,1.77,-72.46,0.033447266,-0.98443604,0.057617188,30.93,0.0,0.0,-6.980118,-3.2656403,
163.99217199999998,true,true,true,0.0,-0.0078125,0.0,-0.0078125,false,false,false,false,0.0,-0.0078125,0.0,-0.0078125,false,false,false,false,0.125,12.65,0.0,-11325,0,0,0.125,12.65,0.0,0,0,0,0.125,12.65,0.0,-14364,0,0,0.125,12.700000000000001,0.0,0,0,0,0.0,12.65,0.0,0,0,0,0.0,12.65,0.0,0,0,0,0.0,12.75,0.0,0,0,0,kReverse,kOff,-86.17,1.77,-72.46,0.03137207,-0.98217773,0.059753418,30.93,0.0,-1.0,-6.980118,-3.2656403,
164.01296899999997,true,true,true,0.0,-0.0078125,0.0,-0.0078125,false,false,false,false,0.0,-0.0078125,0.0,-0.0078125,false,false,false,false,0.125,12.65,0.0,-11325,0,0,0.125,12.65,0.0,0,0,0,0.125,12.65,0.0,-14364,0,0,0.125,12.700000000000001,0.0,0,0,0,0.0,12.65,0.0,0,0,0,0.0,12.65,0.0,0,0,0,0.0,12.75,0.0,0,0,0,kReverse,kOff,-86.17,1.77,-72.46,0.028747559,-0.9836426,0.058532715,30.93,0.0,0.0,-6.980118,-3.2656403,
164.03276699999998,true,true,true,0.0,-0.0078125,0.0,-0.0078125,false,false,false,false,0.0,-0.0078125,0.0,-0.0078125,false,false,false,false,0.125,12.65,0.0,-11325,0,0,0.125,12.65,0.0,0,0,0,0.125,12.65,0.0,-14364,0,0,0.125,12.700000000000001,0.0,0,0,0,0.0,12.65,0.0,0,0,0,0.0,12.65,0.0,0,0,0,0.0,12.75,0.0,0,0,0,kReverse,kOff,-86.17,1.77,-72.38,0.031311035,-0.9824219,0.06048584,30.93,0.0,-2.0,-6.980118,-3.2656403,
164.054316,true,true,true,0.0,-0.0078125,0.0,-0.0078125,false,false,false,false,0.0,-0.0078125,0.0,-0.0078125,false,false,false,false,0.125,12.65,0.0,-11325,0,0,0.125,12.65,0.0,0,0,0,0.125,12.65,0.0,-14364,0,0,0.125,12.700000000000001,0.0,0,0,0,0.0,12.65,0.0,0,0,0,0.0,12.65,0.0,0,0,0,0.0,12.75,0.0,0,0,0,kReverse,kOff,-86.16,1.77,-72.52,0.032348633,-0.9851074,0.057250977,30.93,0.0,1.0,-6.980118,-3.2656403,
164.075264,true,true,true,0.0,-0.0078125,0.0,-0.0078125,false,false,false,false,0.0,-0.0078125,0.0,-0.0078125,false,false,false,false,0.125,12.65,0.0,-11325,0,0,0.125,12.65,0.0,0,0,0,0.125,12.65,0.0,-14364,0,0,0.125,12.700000000000001,0.0,0,0,0,0.0,12.65,0.0,0,0,0,0.0,12.65,0.0,0,0,0,0.125,12.75,0.0,0,0,0,kReverse,kOff,-86.16,1.77,-72.52,0.02947998,-0.98254395,0.061950684,30.93,0.0,-3.0,-6.980118,-3.2656403,
164.09588499999998,true,true,true,0.0,-0.0078125,0.0,-0.0078125,false,false,false,false,0.0,-0.0078125,0.0,-0.0078125,false,false,false,false,0.125,12.65,0.0,-11325,0,0,0.125,12.65,0.0,0,0,0,0.125,12.65,0.0,-14364,0,0,0.125,12.700000000000001,0.0,0,0,0,0.0,12.65,0.0,0,0,0,0.0,12.65,0.0,0,0,0,0.125,12.75,0.0,0,0,0,kReverse,kOff,-86.16,1.77,-72.52,0.032348633,-0.982666,0.060913086,30.93,0.0,-2.0,-6.980118,-3.2656403,
164.115812,true,true,true,0.0,-0.0078125,0.0,-0.0078125,false,false,false,false,0.0,-0.0078125,0.0,-0.0078125,false,false,false,false,0.125,12.65,0.0,-11325,0,0,0.125,12.65,0.0,0,0,0,0.125,12.65,0.0,-14364,0,0,0.125,12.700000000000001,0.0,0,0,0,0.0,12.65,0.0,0,0,0,0.0,12.65,0.0,0,0,0,0.0,12.75,0.0,0,0,0,kReverse,kOff,-86.16,1.77,-72.52,0.032592773,-0.98217773,0.057250977,30.93,0.0,1.0,-6.980118,-3.2656403,
164.13826600000002,true,true,true,0.0,-0.0078125,0.0,-0.0078125,false,false,false,false,0.0,-0.0078125,0.0,-0.0078125,false,false,false,false,0.125,12.65,0.0,-11325,0,0,0.125,12.65,0.0,0,0,0,0.125,12.65,0.0,-14364,0,0,0.125,12.700000000000001,0.0,0,0,0,0.0,12.65,0.0,0,0,0,0.0,12.65,0.0,0,0,0,0.0,12.75,0.0,0,0,0,kReverse,kOff,-86.16,1.77,-72.52,0.030273438,-0.97991943,0.06085205,30.93,0.0,-2.0,-6.980118,-3.2656403,
164.159049,true,true,true,0.0,-0.0078125,0.0,-0.0078125,false,false,false,false,0.0,-0.0078125,0.0,-0.0078125,false,false,false,false,0.125,12.65,0.0,-11325,0,0,0.125,12.65,0.0,0,0,0,0.125,12.65,0.0,-14364,0,0,0.125,12.700000000000001,0.0,0,0,0,0.0,12.65,0.0,0,0,0,0.0,12.65,0.0,0,0,0,0.0,12.75,0.0,0,0,0,kReverse,kOff,-86.16,1.77,-72.52,0.032104492,-0.98083496,0.059020996,30.93,0.0,0.0,-6.980118,-3.2656403,
164.176887,true,true,true,0.0,-0.0078125,0.0,-0.0078125,false,false,false,false,0.0,-0.0078125,0.0,-0.0078125,false,false,false,false,0.125,12.65,0.0,-11325,0,0,0.125,12.65,0.0,0,0,0,0.125,12.65,0.0,-14364,0,0,0.125,12.700000000000001,0.0,0,0,0,0.0,12.65,0.0,0,0,0,0.0,12.65,0.0,0,0,0,0.0,12.75,0.0,0,0,0,kReverse,kOff,-86.16,1.77,-72.52,0.026977539,-0.9835205,0.057922363,30.92,0.0,0.0,-6.980118,-3.2656403,
164.19675099999998,true,true,true,0.0,-0.0078125,0.0,-0.0078125,false,false,false,false,0.0,-0.0078125,0.0,-0.0078125,false,false,false,false,0.125,12.65,0.0,-11325,0,0,0.125,12.65,0.0,0,0,0,0.125,12.65,0.0,-14364,0,0,0.125,12.700000000000001,0.0,0,0,0,0.0,12.65,0.0,0,0,0,0.0,12.65,0.0,0,0,0,0.0,12.75,0.0,0,0,0,kReverse,kOff,-86.15,1.77,-72.42,0.034179688,-0.9833374,0.057617188,30.92,0.0,0.0,-6.980118,-3.2656403,
164.218092,true,true,true,0.0,-0.0078125,0.0,-0.0078125,false,false,false,false,0.0,-0.0078125,0.0,-0.0078125,false,false,false,false,0.125,12.65,0.0,-11325,0,0,0.125,12.65,0.0,0,0,0,0.125,12.65,0.0,-14364,0,0,0.125,12.700000000000001,0.0,0,0,0,0.0,12.65,0.0,0,0,0,0.0,12.65,0.0,0,0,0,0.0,12.75,0.0,0,0,0,kReverse,kOff,-86.15,1.77,-72.42,0.02935791,-0.9837036,0.05987549,30.92,0.0,-1.0,-6.980118,-3.2656403,
164.242087,true,true,true,0.0,-0.0078125,0.0,-0.0078125,false,false,false,false,0.0,-0.0078125,0.0,-0.0078125,false,false,false,false,0.125,12.65,0.0,-11325,0,0,0.125,12.65,0.0,0,0,0,0.125,12.65,0.0,-14364,0,0,0.125,12.700000000000001,0.0,0,0,0,0.0,12.65,0.0,0,0,0,0.0,12.65,0.0,0,0,0,0.0,12.75,0.0,0,0,0,kReverse,kOff,-86.15,1.77,-72.54,0.02746582,-0.9840698,0.06121826,30.92,0.0,-2.0,-6.980118,-3.2656403,
164.262043,true,true,true,0.0,-0.0078125,0.0,-0.0078125,false,false,false,false,0.0,-0.0078125,0.0,-0.0078125,false,false,false,false,0.125,12.65,0.0,-11325,0,0,0.125,12.65,0.0,0,0,0,0.125,12.65,0.0,-14364,0,0,0.125,12.700000000000001,0.0,0,0,0,0.0,12.65,0.0,0,0,0,0.0,12.65,0.0,0,0,0,0.0,12.75,0.0,0,0,0,kReverse,kOff,-86.16,1.77,-72.52,0.030700684,-0.9829712,0.06536865,30.92,0.0,-6.0,-6.980118,-3.2656403,
164.288081,true,true,true,0.0,-0.0078125,0.0,-0.0078125,false,false,false,false,0.0,-0.0078125,0.0,-0.0078125,false,false,false,false,0.125,12.65,0.0,-11325,0,0,0.125,12.65,0.0,0,0,0,0.125,12.65,0.0,-14364,0,0,0.125,12.700000000000001,0.0,0,0,0,0.0,12.65,0.0,0,0,0,0.0,12.65,0.0,0,0,0,0.0,12.75,0.0,0,0,0,kReverse,kOff,-86.15,1.77,-72.54,0.02947998,-0.98236084,0.059448242,30.92,0.0,0.0,-6.980118,-3.2656403,
164.30913499999997,true,true,true,0.0,-0.0078125,0.0,-0.0078125,false,false,false,false,0.0,-0.0078125,0.0,-0.0078125,false,false,false,false,0.125,12.65,0.0,-11325,0,0,0.125,12.65,0.0,0,0,0,0.125,12.65,0.0,-14364,0,0,0.125,12.700000000000001,0.0,0,0,0,0.0,12.65,0.0,0,0,0,0.0,12.65,0.0,0,0,0,0.0,12.75,0.0,0,0,0,kReverse,kOff,-86.15,1.77,-72.64,0.029174805,-0.9812622,0.06347656,30.92,0.0,-5.0,-6.980118,-3.2656403,
164.33072099999998,true,true,true,0.0,-0.0078125,0.0,-0.0078125,false,false,false,false,0.0,-0.0078125,0.0,-0.0078125,false,false,false,false,0.125,12.65,0.0,-11325,0,0,0.125,12.65,0.0,0,0,0,0.125,12.65,0.0,-14364,0,0,0.125,12.700000000000001,0.0,0,0,0,0.0,12.65,0.0,0,0,0,0.0,12.65,0.0,0,0,0,0.0,12.75,0.0,0,0,0,kReverse,kOff,-86.15,1.77,-72.56,0.030212402,-0.98168945,0.054626465,30.92,0.0,3.0,-6.980118,-3.2656403,
164.35259299999998,true,true,true,0.0,-0.0078125,0.0,-0.0078125,false,false,false,false,0.0,-0.0078125,0.0,-0.0078125,false,false,false,false,0.125,12.65,0.0,-11325,0,0,0.125,12.65,0.0,0,0,0,0.125,12.65,0.0,-14364,0,0,0.125,12.700000000000001,0.0,0,0,0,0.0,12.65,0.0,0,0,0,0.0,12.65,0.0,0,0,0,0.0,12.75,0.0,0,0,0,kReverse,kOff,-86.15,1.77,-72.58,0.02923584,-0.9821167,0.054016113,30.92,0.0,4.0,-6.980118,-3.2656403,
164.374022,true,true,true,0.0,-0.0078125,0.0,-0.0078125,false,false,false,false,0.0,-0.0078125,0.0,-0.0078125,false,false,false,false,0.125,12.65,0.0,-11325,0,0,0.125,12.65,0.0,0,0,0,0.125,12.65,0.0,-14364,0,0,0.125,12.700000000000001,0.0,0,0,0,0.0,12.65,0.0,0,0,0,0.0,12.65,0.0,0,0,0,0.0,12.75,0.0,0,0,0,kReverse,kOff,-86.15,1.76,-72.67,0.03149414,-0.9824219,0.05609131,30.92,0.0,2.0,-6.980118,-3.2656403,
164.39359299999998,true,true,true,0.0,-0.0078125,0.0,-0.0078125,false,false,false,false,0.0,-0.0078125,0.0,-0.0078125,false,false,false,false,0.125,12.65,0.0,-11325,0,0,0.125,12.65,0.0,0,0,0,0.125,12.65,0.0,-14364,0,0,0.125,12.700000000000001,0.0,0,0,0,0.0,12.65,0.0,0,0,0,0.0,12.65,0.0,0,0,0,0.125,12.75,0.0,0,0,0,kReverse,kOff,-86.16,1.77,-72.52,0.032287598,-0.98083496,0.057861328,30.92,0.0,0.0,-6.980118,-3.2656403,
164.414743,true,true,true,0.0,-0.0078125,0.0,-0.0078125,false,false,false,false,0.0,-0.0078125,0.0,-0.0078125,false,false,false,false,0.125,12.65,0.0,-11325,0,0,0.125,12.65,0.0,0,0,0,0.125,12.65,0.0,-14364,0,0,0.125,12.700000000000001,0.0,0,0,0,0.0,12.65,0.0,0,0,0,0.0,12.65,0.0,0,0,0,0.0,12.75,0.0,0,0,0,kReverse,kOff,-86.16,1.77,-72.52,0.029174805,-0.98223877,0.052978516,30.92,0.0,5.0,-6.980118,-3.2656403,
164.43669999999997,true,true,true,0.0,-0.0078125,0.0,-0.0078125,false,false,false,false,0.0,-0.0078125,0.0,-0.0078125,false,false,false,false,0.125,12.65,0.0,-11325,0,0,0.125,12.65,0.0,0,0,0,0.125,12.65,0.0,-14364,0,0,0.125,12.700000000000001,0.0,0,0,0,0.0,12.65,0.0,0,0,0,0.0,12.65,0.0,0,0,0,0.0,12.75,0.0,0,0,0,kReverse,kOff,-86.15,1.77,-72.64,0.032165527,-0.9829712,0.055664062,30.92,0.0,2.0,-6.980118,-3.2656403,
164.45640099999997,true,true,true,0.0,-0.0078125,0.0,-0.0078125,false,false,false,false,0.0,-0.0078125,0.0,-0.0078125,false,false,false,false,0.125,12.65,0.0,-11325,0,0,0.125,12.65,0.0,0,0,0,0.125,12.65,0.0,-14364,0,0,0.125,12.700000000000001,0.0,0,0,0,0.0,12.65,0.0,0,0,0,0.0,12.65,0.0,0,0,0,0.0,12.75,0.0,0,0,0,kReverse,kOff,-86.16,1.77,-72.52,0.032958984,-0.9868164,0.059448242,30.92,0.0,0.0,-6.980118,-3.2656403,
164.476811,true,true,true,0.0,-0.0078125,0.0,-0.0078125,false,false,false,false,0.0,-0.0078125,0.0,-0.0078125,false,false,false,false,0.125,12.65,0.0,-11325,0,0,0.125,12.65,0.0,0,0,0,0.125,12.65,0.0,-14364,0,0,0.125,12.700000000000001,0.0,0,0,0,0.0,12.65,0.0,0,0,0,0.0,12.65,0.0,0,0,0,0.0,12.75,0.0,0,0,0,kReverse,kOff,-86.16,1.77,-72.52,0.02923584,-0.9851074,0.06402588,30.92,0.0,-5.0,-6.980118,-3.2656403,
164.49954699999998,true,true,true,0.0,-0.0078125,0.0,-0.0078125,false,false,false,false,0.0,-0.0078125,0.0,-0.0078125,false,false,false,false,0.125,12.65,0.0,-11325,0,0,0.125,12.65,0.0,0,0,0,0.125,12.65,0.0,-14364,0,0,0.125,12.700000000000001,0.0,0,0,0,0.0,12.65,0.0,0,0,0,0.0,12.65,0.0,0,0,0,0.125,12.75,0.0,0,0,0,kReverse,kOff,-86.15,1.77,-72.54,0.03161621,-0.98321533,0.054992676,30.92,0.0,3.0,-6.980118,-3.2656403,
