timer,lineLeft,lineCenter,lineRight,LeftFrontCurrent,LeftFrontVoltage,LeftFrontValue,LeftFrontPosition,LeftFrontVelocity,LeftFrontFaults,LeftRearCurrent,LeftRearVoltage,LeftRearValue,LeftRearPosition,LeftRearVelocity,LeftRearFaults,RightFrontCurrent,RightFrontVoltage,RightFrontValue,RightFrontPosition,RightFrontVelocity,RightFrontFaults,RightRearCurrent,RightRearVoltage,RightRearValue,RightRearPosition,RightRearVelocity,RightRearFaults,LiftCurrent,LiftVoltage,LiftValue,LiftPosition,LiftVelocity,LiftFaults,WristCurrent,WristVoltage,WristValue,WristPosition,WristVelocity,WristFaults,RollerCurrent,RollerVoltage,RollerValue,RollerPosition,RollerVelocity,RollerFaults,PushersState,PivotsState,navx_Pitch,navx_Roll,navx_Yaw,navx_XAcc,navx_YAcc,navx_ZAcc,navx_Temp,navx_Bar,navx_Alt,navx_XDis,navx_YDis,
248.476399,true,true,true,0.0,12.4,0.0,0,0,0,0.0,12.450000000000001,0.0,0,0,0,0.125,12.4,0.0,0,0,0,0.0,12.450000000000001,0.0,0,0,0,0.0,12.450000000000001,0.0,0,0,0,0.0,12.4,0.0,0,0,0,0.0,12.450000000000001,0.0,0,0,0,kReverse,kOff,-87.44,1.97,1.99,0.24298096,-1.0090942,-0.15600586,26.08,0.0,143.0,-0.15653992,-0.10168457,
248.555118,true,true,true,0.0,12.4,0.0,0,0,0,0.0,12.450000000000001,0.0,0,0,0,0.125,12.4,0.0,0,0,0,0.0,12.450000000000001,0.0,0,0,0,0.0,12.450000000000001,0.0,0,0,0,0.0,12.4,0.0,0,0,0,0.0,12.450000000000001,0.0,0,0,0,kReverse,kOff,-87.52,1.96,1.98,0.17315674,-0.7449341,-0.35009766,26.08,0.0,152.0,-0.1586914,-0.10014343,
248.59324099999998,true,true,true,0.0,12.4,0.0,0,0,0,0.0,12.450000000000001,0.0,0,0,0,0.125,12.4,0.0,0,0,0,0.0,12.450000000000001,0.0,0,0,0,0.0,12.450000000000001,0.0,0,0,0,0.0,12.4,0.0,0,0,0,0.0,12.450000000000001,0.0,0,0,0,kReverse,kOff,-87.5,1.95,1.97,0.113464355,-0.6010132,-0.31713867,26.08,0.0,97.0,-0.16053772,-0.10090637,
248.63007399999998,true,true,true,0.0,12.4,0.0,0,0,0,0.0,12.4,0.0,0,0,0,0.125,12.4,0.0,0,0,0,0.0,12.450000000000001,0.0,0,0,0,0.0,12.4,0.0,0,0,0,0.0,12.4,0.0,0,0,0,0.0,12.450000000000001,0.0,0,0,0,kReverse,kOff,-87.47,1.99,2.01,0.13647461,-0.69226074,-0.13995361,26.08,0.0,113.0,-0.16105652,-0.10273743,
248.668194,true,true,true,0.0,12.4,0.0,0,0,0,0.0,12.4,0.0,0,0,0,0.125,12.4,0.0,0,0,0,0.0,12.450000000000001,0.0,0,0,0,0.0,12.4,0.0,0,0,0,0.0,12.4,0.0,0,0,0,0.0,12.450000000000001,0.0,0,0,0,kReverse,kOff,-87.43,2.03,2.05,-0.04815674,-0.5878906,-0.122558594,26.08,0.0,-67.0,-0.1614685,-0.10656738,
248.70743999999996,true,true,true,0.0,12.4,0.0,0,0,0,0.0,12.4,0.0,0,0,0,0.125,12.4,0.0,0,0,0,0.0,12.450000000000001,0.0,0,0,0,0.0,12.4,0.0,0,0,0,0.0,12.4,0.0,0,0,0,0.0,12.450000000000001,0.0,0,0,0,kReverse,kOff,-87.42,2.02,2.04,-0.026977539,-0.71343994,-0.01184082,26.08,0.0,-52.0,-0.16209412,-0.10948181,
248.74817099999999,true,true,true,0.0,12.4,0.0,0,0,0,0.0,12.4,0.0,0,0,0,0.125,12.4,0.0,0,0,0,0.0,12.450000000000001,0.0,0,0,0,0.0,12.4,0.0,0,0,0,0.0,12.4,0.0,0,0,0,0.0,12.450000000000001,0.0,0,0,0,kReverse,kOff,-87.42,2.02,2.04,-0.123413086,-0.79351807,0.016723633,26.08,0.0,-151.0,-0.16419983,-0.11367798,
248.787832,true,true,true,0.0,12.4,0.0,0,0,0,0.0,12.4,0.0,0,0,0,0.125,12.4,0.0,0,0,0,0.0,12.450000000000001,0.0,0,0,0,0.0,12.4,0.0,0,0,0,0.0,12.4,0.0,0,0,0,0.0,12.450000000000001,0.0,0,0,0,kReverse,kOff,-87.49,2.03,2.05,-0.19006348,-0.81829834,-0.19036865,26.08,0.0,-216.0,-0.16836548,-0.11752319,
248.830049,true,true,true,0.0,12.4,0.0,0,0,0,0.0,12.4,0.0,0,0,0,0.125,12.4,0.0,0,0,0,0.0,12.450000000000001,0.0,0,0,0,0.0,12.4,0.0,0,0,0,0.0,12.4,0.0,0,0,0,0.0,12.450000000000001,0.0,0,0,0,kReverse,kOff,-87.49,2.02,2.04,-0.22393799,-0.7116089,-0.23822021,26.08,0.0,-245.0,-0.17260742,-0.12336731,
248.86554299999997,true,true,true,0.0,12.4,0.0,0,0,0,0.0,12.4,0.0,0,0,0,0.125,12.4,0.0,0,0,0,0.0,12.450000000000001,0.0,0,0,0,0.0,12.4,0.0,0,0,0,0.0,12.4,0.0,0,0,0,0.0,12.450000000000001,0.0,0,0,0,kReverse,kOff,-87.46,2.08,2.1,-0.15612793,-0.9526367,-0.21594238,26.08,0.0,-188.0,-0.18122864,-0.12895203,
248.903923,true,true,true,0.0,12.4,0.0,0,0,0,0.0,12.4,0.0,0,0,0,0.125,12.4,0.0,0,0,0,0.0,12.450000000000001,0.0,0,0,0,0.0,12.4,0.0,0,0,0,0.0,12.4,0.0,0,0,0,0.0,12.450000000000001,0.0,0,0,0,kReverse,kOff,-87.42,2.08,2.11,-0.1307373,-1.1773071,-0.12634277,26.08,0.0,-172.0,-0.19203186,-0.13973999,
248.943917,true,true,true,0.0,12.4,0.0,0,0,0,0.0,12.4,0.0,0,0,0,0.125,12.4,0.0,0,0,0,0.0,12.4,0.0,0,0,0,0.0,12.4,0.0,0,0,0,0.0,12.4,0.0,0,0,0,0.0,12.450000000000001,0.0,0,0,0,kReverse,kOff,-87.39,2.08,2.1,0.014953613,-1.2211304,0.06390381,26.08,0.0,-30.0,-0.2000885,-0.14776611,
248.982653,true,true,true,0.0,12.4,0.0,0,0,0,0.0,12.4,0.0,0,0,0,0.125,12.4,0.0,0,0,0,0.0,12.4,0.0,0,0,0,0.0,12.4,0.0,0,0,0,0.0,12.4,0.0,0,0,0,0.0,12.450000000000001,0.0,0,0,0,kReverse,kOff,-87.5,2.0,2.02,0.1350708,-1.241272,0.3843994,26.08,0.0,85.0,-0.22187805,-0.16271973,
249.054767,true,true,true,0.0,12.4,0.0,0,0,0,0.0,12.4,0.0,0,0,0,0.125,12.4,0.0,0,0,0,0.0,12.4,0.0,0,0,0,0.0,12.4,0.0,0,0,0,0.0,12.4,0.0,0,0,0,0.0,12.450000000000001,0.0,0,0,0,kReverse,kOff,-87.49,2.02,2.04,0.24737549,-1.2106323,0.28753662,26.08,0.0,200.0,-0.2372284,-0.1648407,
249.117435,true,true,true,0.0,12.4,0.0,0,0,0,0.0,12.4,0.0,0,0,0,0.125,12.4,0.0,0,0,0,0.0,12.4,0.0,0,0,0,0.0,12.4,0.0,0,0,0,0.0,12.4,0.0,0,0,0,0.0,12.450000000000001,0.0,0,0,0,kReverse,kOff,-87.51,2.02,2.04,0.21478271,-1.161438,-0.08380127,26.08,0.0,174.0,-0.24594116,-0.16168213,
249.14962599999998,true,true,true,0.0,12.4,0.0,0,0,0,0.0,12.4,0.0,0,0,0,0.125,12.4,0.0,0,0,0,0.0,12.4,0.0,0,0,0,0.0,12.4,0.0,0,0,0,0.0,12.4,0.0,0,0,0,0.0,12.450000000000001,0.0,0,0,0,kReverse,kOff,-87.48,1.99,2.01,0.24316406,-1.1803589,-0.14312744,26.08,0.0,203.0,-0.25048828,-0.15945435,
249.182231,true,true,true,0.0,12.4,0.0,0,0,0,0.0,12.4,0.0,0,0,0,0.125,12.4,0.0,0,0,0,0.0,12.4,0.0,0,0,0,0.0,12.4,0.0,0,0,0,0.0,12.4,0.0,0,0,0,0.0,12.450000000000001,0.0,0,0,0,kReverse,kOff,-87.55,1.95,1.97,0.26391602,-1.0186768,-0.15045166,26.08,0.0,230.0,-0.25402832,-0.15792847,
249.212791,true,true,true,0.0,12.4,0.0,0,0,0,0.0,12.4,0.0,0,0,0,0.125,12.4,0.0,0,0,0,0.0,12.4,0.0,0,0,0,0.0,12.4,0.0,0,0,0,0.0,12.4,0.0,0,0,0,0.0,12.450000000000001,0.0,0,0,0,kReverse,kOff,-87.54,1.98,2.0,0.12878418,-0.8312378,-0.24163818,26.08,0.0,103.0,-0.25668335,-0.15757751,
249.246527,true,true,true,0.0,12.4,0.0,0,0,0,0.0,12.4,0.0,0,0,0,0.125,12.4,0.0,0,0,0,0.0,12.4,0.0,0,0,0,0.0,12.4,0.0,0,0,0,0.0,12.4,0.0,0,0,0,0.0,12.450000000000001,0.0,0,0,0,kReverse,kOff,-87.53,1.97,1.99,0.081970215,-0.61242676,-0.32159424,26.08,0.0,65.0,-0.25865173,-0.15872192,
249.274094,true,true,true,0.0,12.4,0.0,0,0,0,0.0,12.4,0.0,0,0,0,0.125,12.4,0.0,0,0,0,0.0,12.4,0.0,0,0,0,0.0,12.4,0.0,0,0,0,0.0,12.4,0.0,0,0,0,0.0,12.450000000000001,0.0,0,0,0,kReverse,kOff,-87.5,1.98,2.0,0.02130127,-0.5690918,-0.109802246,26.08,0.0,2.0,-0.26019287,-0.16090393,
249.307754,true,true,true,0.0,12.4,0.0,0,0,0,0.0,12.4,0.0,0,0,0,0.125,12.4,0.0,0,0,0,0.0,12.4,0.0,0,0,0,0.0,12.4,0.0,0,0,0,0.0,12.4,0.0,0,0,0,0.0,12.450000000000001,0.0,0,0,0,kReverse,kOff,-87.51,2.0,2.02,0.0115356445,-0.65338135,-0.043273926,26.08,0.0,-10.0,-0.26019287,-0.16334534,
249.33994099999998,true,true,true,0.0,12.4,0.0,0,0,0,0.0,12.4,0.0,0,0,0,0.125,12.4,0.0,0,0,0,0.0,12.4,0.0,0,0,0,0.0,12.4,0.0,0,0,0,0.0,12.4,0.0,0,0,0,0.0,12.450000000000001,0.0,0,0,0,kReverse,kOff,-87.44,2.02,2.04,-0.105285645,-0.77459717,0.074157715,26.08,0.0,-133.0,-0.2607422,-0.1671753,
249.37102599999997,true,true,true,0.0,12.4,0.0,0,0,0,0.0,12.4,0.0,0,0,0,0.125,12.4,0.0,0,0,0,0.0,12.4,0.0,0,0,0,0.0,12.4,0.0,0,0,0,0.0,12.4,0.0,0,0,0,0.0,12.450000000000001,0.0,0,0,0,kReverse,kOff,-87.5,2.01,2.03,-0.09875488,-0.72662354,0.107421875,26.08,0.0,-125.0,-0.26202393,-0.16911316,
249.40470799999997,true,true,true,0.0,12.4,0.0,0,0,0,0.0,12.4,0.0,0,0,0,0.125,12.4,0.0,0,0,0,0.0,12.4,0.0,0,0,0,0.0,12.4,0.0,0,0,0,0.0,12.4,0.0,0,0,0,0.0,12.450000000000001,0.0,0,0,0,kReverse,kOff,-87.55,2.0,2.01,-0.17218018,-0.9104004,-0.10760498,26.08,0.0,-202.0,-0.2642517,-0.17088318,
249.460916,true,true,true,0.0,12.4,0.0,0,0,0,0.125,12.4,0.0,0,0,0,0.125,12.35,0.0,0,0,0,0.0,12.4,0.0,0,0,0,0.0,12.4,0.0,0,0,0,0.0,12.4,0.0,0,0,0,0.0,12.450000000000001,0.0,0,0,0,kReverse,kOff,-87.52,2.03,2.05,-0.1274414,-1.000061,-0.15014648,26.1,0.0,-161.0,-0.27211,-0.17765808,
249.51218,true,true,true,0.0,12.4,0.0,0,0,0,0.125,12.4,0.0,0,0,0,0.125,12.35,0.0,0,0,0,0.0,12.4,0.0,0,0,0,0.0,12.4,0.0,0,0,0,0.0,12.4,0.0,0,0,0,0.0,12.450000000000001,0.0,0,0,0,kReverse,kOff,-87.45,2.03,2.05,-0.04046631,-1.2955322,0.01574707,26.1,0.0,-87.0,-0.28355408,-0.1887207,
249.568289,true,true,true,0.0,12.4,0.0,0,0,0,0.0,12.4,0.0,0,0,0,0.125,12.35,0.0,0,0,0,0.0,12.4,0.0,0,0,0,0.0,12.4,0.0,0,0,0,0.0,12.4,0.0,0,0,0,0.0,12.450000000000001,0.0,0,0,0,kReverse,kOff,-87.52,1.99,2.01,0.08111572,-1.2597656,0.28808594,26.1,0.0,32.0,-0.29333496,-0.19598389,
249.61251599999997,true,true,true,0.0,12.4,0.0,0,0,0,0.125,12.4,0.0,0,0,0,0.125,12.35,0.0,0,0,0,0.0,12.4,0.0,0,0,0,0.0,12.4,0.0,0,0,0,0.0,12.4,0.0,0,0,0,0.0,12.450000000000001,0.0,0,0,0,kReverse,kOff,-87.52,1.97,1.99,0.19470215,-1.3829956,0.4003296,26.1,0.0,140.0,-0.29960632,-0.1986084,
249.641564,true,true,true,0.0,12.4,0.0,0,0,0,0.0,12.4,0.0,0,0,0,0.125,12.35,0.0,0,0,0,0.0,12.4,0.0,0,0,0,0.0,12.4,0.0,0,0,0,0.0,12.4,0.0,0,0,0,0.0,12.450000000000001,0.0,0,0,0,kReverse,kOff,-87.55,1.95,1.97,0.24285889,-1.2365112,0.28955078,26.1,0.0,195.0,-0.3050995,-0.19892883,
249.66964099999998,true,true,true,0.0,12.4,0.0,0,0,0,0.0,12.4,0.0,0,0,0,0.125,12.35,0.0,0,0,0,0.0,12.4,0.0,0,0,0,0.0,12.4,0.0,0,0,0,0.0,12.4,0.0,0,0,0,0.0,12.450000000000001,0.0,0,0,0,kReverse,kOff,-87.57,1.93,1.95,0.26654053,-1.3314819,0.14422607,26.1,0.0,218.0,-0.30958557,-0.19743347,
249.700969,true,true,true,0.0,12.4,0.0,0,0,0,0.0,12.4,0.0,0,0,0,0.125,12.35,0.0,0,0,0,0.0,12.4,0.0,0,0,0,0.0,12.4,0.0,0,0,0,0.0,12.4,0.0,0,0,0,0.0,12.450000000000001,0.0,0,0,0,kReverse,kOff,-87.57,1.89,1.91,0.19854736,-1.0750122,-0.2156372,26.1,0.0,165.0,-0.31443787,-0.19485474,
249.730694,true,true,true,0.0,12.4,0.0,0,0,0,0.0,12.4,0.0,0,0,0,0.125,12.35,0.0,0,0,0,0.0,12.4,0.0,0,0,0,0.0,12.4,0.0,0,0,0,0.0,12.4,0.0,0,0,0,0.0,12.450000000000001,0.0,0,0,0,kReverse,kOff,-87.6,1.9,1.92,0.18170166,-1.0084229,-0.24694824,26.1,0.0,151.0,-0.3156128,-0.19442749,
249.760425,true,true,true,0.0,12.4,0.0,0,0,0,0.0,12.4,0.0,0,0,0,0.125,12.35,0.0,0,0,0,0.0,12.4,0.0,0,0,0,0.0,12.4,0.0,0,0,0,0.0,12.4,0.0,0,0,0,0.0,12.450000000000001,0.0,0,0,0,kReverse,kOff,-87.62,1.89,1.91,0.1270752,-0.66070557,-0.32659912,26.1,0.0,109.0,-0.31723022,-0.19462585,
249.78631699999997,true,true,true,0.0,12.4,0.0,0,0,0,0.0,12.4,0.0,0,0,0,0.125,12.35,0.0,0,0,0,0.0,12.4,0.0,0,0,0,0.0,12.4,0.0,0,0,0,0.0,12.4,0.0,0,0,0,0.0,12.450000000000001,0.0,0,0,0,kReverse,kOff,-87.59,1.93,1.95,0.13702393,-0.6706543,-0.20269775,26.1,0.0,116.0,-0.31819153,-0.19604492,
249.808131,true,true,true,0.0,12.4,0.0,0,0,0,0.0,12.4,0.0,0,0,0,0.125,12.35,0.0,0,0,0,0.0,12.4,0.0,0,0,0,0.0,12.4,0.0,0,0,0,0.0,12.4,0.0,0,0,0,0.0,12.450000000000001,0.0,0,0,0,kReverse,kOff,-87.57,1.97,1.99,0.037597656,-0.5987549,-0.052124023,26.1,0.0,-4.0,-0.31851196,-0.19819641,
249.83797399999997,true,true,true,0.0,12.4,0.0,0,0,0,0.0,12.4,0.0,0,0,0,0.125,12.35,0.0,0,0,0,0.0,12.4,0.0,0,0,0,0.0,12.4,0.0,0,0,0,0.0,12.4,0.0,0,0,0,0.0,12.450000000000001,0.0,0,0,0,kReverse,kOff,-87.54,1.98,2.0,-0.02557373,-0.585083,-0.10449219,26.1,0.0,-44.0,-0.31854248,-0.19940186,
249.86371899999997,true,true,true,0.0,12.4,0.0,0,0,0,0.0,12.4,0.0,0,0,0,0.125,12.35,0.0,0,0,0,0.0,12.4,0.0,0,0,0,0.0,12.4,0.0,0,0,0,0.0,12.4,0.0,0,0,0,0.0,12.450000000000001,0.0,0,0,0,kReverse,kOff,-87.5,2.0,2.02,-0.09387207,-0.73742676,0.074279785,26.1,0.0,-120.0,-0.31881714,-0.2019043,
249.89472999999998,true,true,true,0.0,12.4,0.0,0,0,0,0.0,12.4,0.0,0,0,0,0.125,12.35,0.0,0,0,0,0.0,12.4,0.0,0,0,0,0.0,12.4,0.0,0,0,0,0.0,12.4,0.0,0,0,0,0.0,12.4,0.0,0,0,0,kReverse,kOff,-87.55,1.99,2.01,-0.06695557,-0.7543335,0.15612793,26.1,0.0,-95.0,-0.31983948,-0.20367432,
249.922398,true,true,true,0.0,12.35,0.0,0,0,0,0.0,12.4,0.0,0,0,0,0.125,12.35,0.0,0,0,0,0.0,12.4,0.0,0,0,0,0.0,12.4,0.0,0,0,0,0.0,12.35,0.0,0,0,0,0.0,12.4,0.0,0,0,0,kReverse,kOff,-87.57,1.99,2.01,-0.15881348,-0.95373535,-0.09667969,26.1,0.0,-191.0,-0.32174683,-0.20503235,
249.94946699999997,true,true,true,0.0,12.35,0.0,0,0,0,0.0,12.4,0.0,0,0,0,0.125,12.35,0.0,0,0,0,0.0,12.4,0.0,0,0,0,0.0,12.4,0.0,0,0,0,0.0,12.35,0.0,0,0,0,0.0,12.4,0.0,0,0,0,kReverse,kOff,-87.54,2.01,2.03,-0.20135498,-0.87158203,-0.27331543,26.1,0.0,-228.0,-0.3247223,-0.20721436,
249.98118999999997,true,true,true,0.0,12.35,0.0,0,0,0,0.0,12.4,0.0,0,0,0,0.125,12.35,0.0,0,0,0,0.0,12.4,0.0,0,0,0,0.0,12.4,0.0,0,0,0,0.0,12.35,0.0,0,0,0,0.0,12.4,0.0,0,0,0,kReverse,kOff,-87.53,2.01,2.03,-0.17376709,-1.0671997,-0.19787598,26.09,0.0,-208.0,-0.32876587,-0.21084595,
250.01018699999997,true,true,true,0.0,12.35,0.0,0,0,0,0.0,12.4,0.0,0,0,0,0.125,12.35,0.0,0,0,0,0.0,12.4,0.0,0,0,0,0.0,12.4,0.0,0,0,0,0.0,12.35,0.0,0,0,0,0.0,12.4,0.0,0,0,0,kReverse,kOff,-87.51,2.01,2.03,-0.036071777,-1.1543579,0.007080078,26.09,0.0,-77.0,-0.33363342,-0.21543884,
250.035446,true,true,true,0.0,12.35,0.0,0,0,0,0.0,12.4,0.0,0,0,0,0.125,12.35,0.0,0,0,0,0.0,12.4,0.0,0,0,0,0.0,12.4,0.0,0,0,0,0.0,12.35,0.0,0,0,0,0.0,12.4,0.0,0,0,0,kReverse,kOff,-87.56,1.96,1.98,0.05822754,-1.3013306,0.12939453,26.09,0.0,11.0,-0.33903503,-0.21986389,
250.06722399999998,true,true,true,0.0,12.35,0.0,0,0,0,0.0,12.35,0.0,0,0,0,0.125,12.35,0.0,0,0,0,0.0,12.4,0.0,0,0,0,0.0,12.35,0.0,0,0,0,0.0,12.35,0.0,0,0,0,0.0,12.4,0.0,0,0,0,kReverse,kOff,-87.56,1.96,1.98,0.09362793,-1.3424683,0.23968506,26.09,0.0,43.0,-0.33901978,-0.22317505,
250.09610199999997,true,true,true,0.0,12.35,0.0,0,0,0,0.0,12.35,0.0,0,0,0,0.125,12.35,0.0,0,0,0,0.0,12.4,0.0,0,0,0,0.0,12.35,0.0,0,0,0,0.0,12.35,0.0,0,0,0,0.0,12.4,0.0,0,0,0,kReverse,kOff,-87.56,1.94,1.96,0.22808838,-1.326355,0.4284668,26.09,0.0,176.0,-0.3379364,-0.22431946,
250.13573799999998,true,true,true,0.0,12.35,0.0,0,0,0,0.0,12.35,0.0,0,0,0,0.125,12.35,0.0,0,0,0,0.0,12.4,0.0,0,0,0,0.0,12.35,0.0,0,0,0,0.0,12.35,0.0,0,0,0,0.0,12.4,0.0,0,0,0,kReverse,kOff,-87.61,1.95,1.97,0.24072266,-1.1793823,0.0063476562,26.09,0.0,199.0,-0.33592224,-0.2225647,
250.166643,true,true,true,0.0,12.35,0.0,0,0,0,0.0,12.35,0.0,0,0,0,0.125,12.35,0.0,0,0,0,0.0,12.4,0.0,0,0,0,0.0,12.35,0.0,0,0,0,0.0,12.35,0.0,0,0,0,0.0,12.4,0.0,0,0,0,kReverse,kOff,-87.65,1.9,1.92,0.18218994,-1.1087036,-0.21655273,26.09,0.0,147.0,-0.33288574,-0.2206726,
250.19214,true,true,true,0.0,12.35,0.0,0,0,0,0.0,12.35,0.0,0,0,0,0.125,12.35,0.0,0,0,0,0.0,12.4,0.0,0,0,0,0.0,12.35,0.0,0,0,0,0.0,12.35,0.0,0,0,0,0.0,12.4,0.0,0,0,0,kReverse,kOff,-87.64,1.91,1.93,0.1907959,-1.0210571,-0.26098633,26.09,0.0,159.0,-0.33103943,-0.22009277,
250.22174699999997,true,true,true,0.0,12.35,0.0,0,0,0,0.0,12.35,0.0,0,0,0,0.125,12.35,0.0,0,0,0,0.0,12.4,0.0,0,0,0,0.0,12.35,0.0,0,0,0,0.0,12.35,0.0,0,0,0,0.0,12.4,0.0,0,0,0,kReverse,kOff,-87.65,1.89,1.91,0.1005249,-0.6604004,-0.35595703,26.09,0.0,83.0,-0.32659912,-0.22003174,
250.250076,true,true,true,0.0,12.35,0.0,0,0,0,0.0,12.35,0.0,0,0,0,0.125,12.35,0.0,0,0,0,0.0,12.4,0.0,0,0,0,0.0,12.35,0.0,0,0,0,0.0,12.35,0.0,0,0,0,0.0,12.4,0.0,0,0,0,kReverse,kOff,-87.63,1.92,1.94,0.052490234,-0.62335205,-0.22973633,26.09,0.0,34.0,-0.32157898,-0.22131348,
250.276257,true,true,true,0.0,12.35,0.0,0,0,0,0.0,12.35,0.0,0,0,0,0.125,12.35,0.0,0,0,0,0.0,12.4,0.0,0,0,0,0.0,12.35,0.0,0,0,0,0.0,12.35,0.0,0,0,0,0.0,12.4,0.0,0,0,0,kReverse,kOff,-87.64,1.93,1.94,0.030578613,-0.61468506,-0.047180176,26.09,0.0,10.0,-0.318985,-0.2233429,
250.305367,true,true,true,0.0,12.35,0.0,0,0,0,0.0,12.35,0.0,0,0,0,0.125,12.35,0.0,0,0,0,0.0,12.4,0.0,0,0,0,0.0,12.35,0.0,0,0,0,0.0,12.35,0.0,0,0,0,0.0,12.4,0.0,0,0,0,kReverse,kOff,-87.62,1.92,1.94,-0.09112549,-0.82403564,0.056762695,26.09,0.0,-119.0,-0.31939697,-0.22543335,
250.33652899999998,true,true,true,0.0,12.35,0.0,0,0,0,0.0,12.35,0.0,0,0,0,0.125,12.35,0.0,0,0,0,0.0,12.4,0.0,0,0,0,0.0,12.35,0.0,0,0,0,0.0,12.35,0.0,0,0,0,0.0,12.4,0.0,0,0,0,kReverse,kOff,-87.62,1.93,1.95,-0.1552124,-0.9411621,0.118652344,26.09,0.0,-188.0,-0.32055664,-0.22705078,
250.362642,true,true,true,0.0,12.35,0.0,0,0,0,0.0,12.35,0.0,0,0,0,0.125,12.35,0.0,0,0,0,0.0,12.4,0.0,0,0,0,0.0,12.35,0.0,0,0,0,0.0,12.35,0.0,0,0,0,0.0,12.4,0.0,0,0,0,kReverse,kOff,-87.64,1.92,1.93,-0.17687988,-0.8614502,-0.08721924,26.09,0.0,-204.0,-0.32276917,-0.228302,
250.39003,true,true,true,0.0,12.35,0.0,0,0,0,0.0,12.35,0.0,0,0,0,0.125,12.35,0.0,0,0,0,0.0,12.35,0.0,0,0,0,0.0,12.35,0.0,0,0,0,0.0,12.35,0.0,0,0,0,0.0,12.4,0.0,0,0,0,kReverse,kOff,-87.64,1.92,1.93,-0.17687988,-0.8614502,-0.08721924,26.09,0.0,-204.0,-0.32276917,-0.23020935,
250.412402,true,true,true,0.125,12.35,0.0,0,0,0,0.0,12.35,0.0,0,0,0,0.125,12.35,0.0,0,0,0,0.0,12.35,0.0,0,0,0,0.0,12.35,0.0,0,0,0,0.0,12.35,0.0,0,0,0,0.0,12.4,0.0,0,0,0,kReverse,kOff,-87.63,1.96,1.98,-0.13647461,-0.9528198,-0.18835449,26.09,0.0,-166.0,-0.32591248,-0.23020935,
250.43271299999998,true,true,true,0.0,12.35,0.0,0,0,0,0.0,12.35,0.0,0,0,0,0.125,12.35,0.0,0,0,0,0.0,12.35,0.0,0,0,0,0.0,12.35,0.0,0,0,0,0.0,12.35,0.0,0,0,0,0.0,12.4,0.0,0,0,0,kReverse,kOff,-87.63,1.98,2.0,-0.15655518,-0.9638672,-0.30560303,26.09,0.0,-186.0,-0.32781982,-0.2315979,
250.460154,true,true,true,0.0,12.35,0.0,0,0,0,0.0,12.35,0.0,0,0,0,0.125,12.35,0.0,0,0,0,0.0,12.35,0.0,0,0,0,0.0,12.35,0.0,0,0,0,0.0,12.35,0.0,0,0,0,0.0,12.4,0.0,0,0,0,kReverse,kOff,-87.61,1.96,1.97,-0.13848877,-1.1002197,-0.17089844,26.09,0.0,-174.0,-0.3322296,-0.23529053,
250.50194699999997,true,true,true,0.0,12.35,0.0,0,0,0,0.0,12.35,0.0,0,0,0,0.125,12.35,0.0,0,0,0,0.0,12.35,0.0,0,0,0,0.0,12.35,0.0,0,0,0,0.0,12.35,0.0,0,0,0,0.0,12.4,0.0,0,0,0,kReverse,kOff,-87.63,1.89,1.91,0.14312744,-1.1997681,0.34783936,26.13,0.0,98.0,-0.3421936,-0.2421875,
250.532147,true,true,true,0.0,12.35,0.0,0,0,0,0.0,12.35,0.0,0,0,0,0.125,12.35,0.0,0,0,0,0.0,12.35,0.0,0,0,0,0.0,12.35,0.0,0,0,0,0.0,12.35,0.0,0,0,0,0.0,12.4,0.0,0,0,0,kReverse,kOff,-87.65,1.9,1.92,0.20690918,-1.2989502,0.3595581,26.13,0.0,158.0,-0.34449768,-0.24293518,
250.55971,true,true,true,0.0,12.35,0.0,0,0,0,0.0,12.35,0.0,0,0,0,0.125,12.35,0.0,0,0,0,0.0,12.35,0.0,0,0,0,0.0,12.35,0.0,0,0,0,0.0,12.35,0.0,0,0,0,0.0,12.4,0.0,0,0,0,kReverse,kOff,-87.66,1.91,1.93,0.25842285,-1.3168945,0.34777832,26.13,0.0,208.0,-0.3483734,-0.24259949,
250.587662,true,true,true,0.0,12.35,0.0,0,0,0,0.0,12.35,0.0,0,0,0,0.125,12.35,0.0,0,0,0,0.0,12.35,0.0,0,0,0,0.0,12.35,0.0,0,0,0,0.0,12.35,0.0,0,0,0,0.0,12.4,0.0,0,0,0,kReverse,kOff,-87.67,1.91,1.92,0.2052002,-1.0779419,-0.010009766,26.13,0.0,168.0,-0.3511505,-0.24095154,
250.611234,true,true,true,0.0,12.35,0.0,0,0,0,0.0,12.35,0.0,0,0,0,0.125,12.35,0.0,0,0,0,0.0,12.35,0.0,0,0,0,0.0,12.35,0.0,0,0,0,0.0,12.35,0.0,0,0,0,0.0,12.4,0.0,0,0,0,kReverse,kOff,-87.69,1.88,1.9,0.18969727,-0.98950195,-0.26434326,26.13,0.0,160.0,-0.35299683,-0.23971558,
250.63861,true,true,true,0.0,12.35,0.0,0,0,0,0.0,12.35,0.0,0,0,0,0.125,12.35,0.0,0,0,0,0.0,12.35,0.0,0,0,0,0.0,12.35,0.0,0,0,0,0.0,12.35,0.0,0,0,0,0.0,12.4,0.0,0,0,0,kReverse,kOff,-87.71,1.87,1.89,0.2677002,-1.0064697,-0.33319092,26.13,0.0,51.0,-0.35386658,-0.2399292,
250.668075,true,true,true,0.0,12.35,0.0,0,0,0,0.0,12.35,0.0,0,0,0,0.125,12.35,0.0,0,0,0,0.0,12.35,0.0,0,0,0,0.0,12.35,0.0,0,0,0,0.0,12.35,0.0,0,0,0,0.0,12.4,0.0,0,0,0,kReverse,kOff,-87.7,1.86,1.87,0.14971924,-0.7258301,-0.16815186,26.13,0.0,128.0,-0.3540802,-0.24058533,
250.69247499999997,true,true,true,0.0,12.35,0.0,0,0,0,0.0,12.35,0.0,0,0,0,0.125,12.35,0.0,0,0,0,0.0,12.35,0.0,0,0,0,0.0,12.35,0.0,0,0,0,0.0,12.35,0.0,0,0,0,0.0,12.4,0.0,0,0,0,kReverse,kOff,-87.69,1.89,1.91,0.009887695,-0.59814453,0.0038452148,26.13,0.0,-10.0,-0.35429382,-0.24356079,
250.732286,true,true,true,0.0,12.35,0.0,0,0,0,0.0,12.35,0.0,0,0,0,0.125,12.35,0.0,0,0,0,0.0,12.35,0.0,0,0,0,0.0,12.35,0.0,0,0,0,0.0,12.35,0.0,0,0,0,0.0,12.4,0.0,0,0,0,kReverse,kOff,-87.68,1.89,1.91,-0.12219238,-0.76690674,0.101379395,26.13,0.0,-149.0,-0.35481262,-0.24543762,
250.76113299999997,true,true,true,0.0,12.35,0.0,0,0,0,0.0,12.35,0.0,0,0,0,0.125,12.35,0.0,0,0,0,0.0,12.35,0.0,0,0,0,0.0,12.35,0.0,0,0,0,0.0,12.35,0.0,0,0,0,0.0,12.4,0.0,0,0,0,kReverse,kOff,-87.69,1.88,1.9,-0.16552734,-0.9741821,0.049682617,26.13,0.0,-198.0,-0.35620117,-0.24676514,
250.78825199999997,true,true,true,0.0,12.35,0.0,0,0,0,0.0,12.35,0.0,0,0,0,0.125,12.35,0.0,0,0,0,0.0,12.35,0.0,0,0,0,0.0,12.35,0.0,0,0,0,0.0,12.35,0.0,0,0,0,0.0,12.4,0.0,0,0,0,kReverse,kOff,-87.68,1.88,1.9,-0.19140625,-0.88897705,-0.206604,26.13,0.0,-218.0,-0.3587036,-0.24827576,
250.826145,true,true,true,0.0,12.35,0.0,0,0,0,0.0,12.35,0.0,0,0,0,0.125,12.35,0.0,0,0,0,0.0,12.35,0.0,0,0,0,0.0,12.35,0.0,0,0,0,0.0,12.35,0.0,0,0,0,0.0,12.4,0.0,0,0,0,kReverse,kOff,-87.68,1.89,1.9,-0.19934082,-1.0479736,-0.19702148,26.13,0.0,-231.0,-0.36235046,-0.2509613,
250.85280899999998,true,true,true,0.0,12.35,0.0,0,0,0,0.0,12.35,0.0,0,0,0,0.125,12.35,0.0,0,0,0,0.0,12.35,0.0,0,0,0,0.0,12.35,0.0,0,0,0,0.0,12.35,0.0,0,0,0,0.0,12.4,0.0,0,0,0,kReverse,kOff,-87.67,1.88,1.9,-0.024719238,-1.1433716,-0.048217773,26.13,0.0,-62.0,-0.36689758,-0.25468445,
250.88194199999998,true,true,true,0.0,12.35,0.0,0,0,0,0.0,12.35,0.0,0,0,0,0.125,12.35,0.0,0,0,0,0.0,12.35,0.0,0,0,0,0.0,12.35,0.0,0,0,0,0.0,12.35,0.0,0,0,0,0.0,12.4,0.0,0,0,0,kReverse,kOff,-87.66,1.89,1.91,0.05596924,-1.3148804,0.11853027,26.13,0.0,10.0,-0.37171936,-0.25862122,
250.911117,true,true,true,0.0,12.35,0.0,0,0,0,0.0,12.35,0.0,0,0,0,0.125,12.35,0.0,0,0,0,0.0,12.35,0.0,0,0,0,0.0,12.35,0.0,0,0,0,0.0,12.35,0.0,0,0,0,0.0,12.4,0.0,0,0,0,kReverse,kOff,-87.68,1.87,1.89,0.13330078,-1.374939,0.2942505,26.13,0.0,83.0,-0.37654114,-0.26139832,
250.939182,true,true,true,0.0,12.35,0.0,0,0,0,0.0,12.35,0.0,0,0,0,0.125,12.35,0.0,0,0,0,0.0,12.35,0.0,0,0,0,0.0,12.35,0.0,0,0,0,0.0,12.35,0.0,0,0,0,0.0,12.4,0.0,0,0,0,kReverse,kOff,-87.67,1.85,1.87,0.20507812,-1.2070312,0.32458496,26.13,0.0,160.0,-0.37875366,-0.26208496,
250.96026799999999,true,true,true,0.0,12.35,0.0,0,0,0,0.0,12.35,0.0,0,0,0,0.125,12.35,0.0,0,0,0,0.0,12.35,0.0,0,0,0,0.0,12.35,0.0,0,0,0,0.0,12.35,0.0,0,0,0,0.0,12.4,0.0,0,0,0,kReverse,kOff,-87.66,1.83,1.85,0.28479004,-1.322937,0.14031982,26.13,0.0,239.0,-0.3839569,-0.26158142,
250.99773899999997,true,true,true,0.0,12.35,0.0,0,0,0,0.0,12.35,0.0,0,0,0,0.125,12.35,0.0,0,0,0,0.0,12.35,0.0,0,0,0,0.0,12.35,0.0,0,0,0,0.0,12.35,0.0,0,0,0,0.0,12.4,0.0,0,0,0,kReverse,kOff,-87.74,1.8,1.82,0.2666626,-1.0247803,-0.14904785,26.12,0.0,235.0,-0.38606262,-0.26052856,
251.02933299999998,true,true,true,0.0,12.35,0.0,0,0,0,0.0,12.35,0.0,0,0,0,0.125,12.35,0.0,0,0,0,0.0,12.35,0.0,0,0,0,0.0,12.35,0.0,0,0,0,0.0,12.35,0.0,0,0,0,0.0,12.4,0.0,0,0,0,kReverse,kOff,-87.74,1.84,1.86,0.15222168,-0.8867798,-0.24987793,26.12,0.0,126.0,-0.387146,-0.26046753,
251.05319599999999,true,true,true,0.0,12.35,0.0,0,0,0,0.0,12.35,0.0,0,0,0,0.125,12.35,0.0,0,0,0,0.0,12.35,0.0,0,0,0,0.0,12.35,0.0,0,0,0,0.0,12.35,0.0,0,0,0,0.0,12.4,0.0,0,0,0,kReverse,kOff,-87.72,1.86,1.88,0.18841553,-0.7788696,-0.28240967,26.12,0.0,166.0,-0.38739014,-0.26094055,
251.07568799999999,true,true,true,0.0,12.35,0.0,0,0,0,0.0,12.35,0.0,0,0,0,0.125,12.35,0.0,0,0,0,0.0,12.35,0.0,0,0,0,0.0,12.35,0.0,0,0,0,0.0,12.35,0.0,0,0,0,0.0,12.4,0.0,0,0,0,kReverse,kOff,-87.69,1.88,1.89,0.045898438,-0.5895996,-0.05908203,26.12,0.0,27.0,-0.3875885,-0.2627716,
251.102082,true,true,true,0.0,12.35,0.0,0,0,0,0.0,12.35,0.0,0,0,0,0.125,12.35,0.0,0,0,0,0.0,12.35,0.0,0,0,0,0.0,12.35,0.0,0,0,0,0.0,12.35,0.0,0,0,0,0.0,12.4,0.0,0,0,0,kReverse,kOff,-87.65,1.9,1.92,-0.0010986328,-0.7852173,0.04071045,26.12,0.0,-27.0,-0.38786316,-0.26498413,
251.13073699999998,true,true,true,0.0,12.35,0.0,0,0,0,0.0,12.35,0.0,0,0,0,0.125,12.35,0.0,0,0,0,0.0,12.35,0.0,0,0,0,0.0,12.35,0.0,0,0,0,0.0,12.35,0.0,0,0,0,0.0,12.4,0.0,0,0,0,kReverse,kOff,-87.62,1.93,1.95,-0.09429932,-0.7391968,0.10180664,26.12,0.0,-120.0,-0.38813782,-0.2659912,
251.153328,true,true,true,0.0,12.35,0.0,0,0,0,0.0,12.35,0.0,0,0,0,0.125,12.35,0.0,0,0,0,0.0,12.35,0.0,0,0,0,0.0,12.35,0.0,0,0,0,0.0,12.35,0.0,0,0,0,0.0,12.4,0.0,0,0,0,kReverse,kOff,-87.62,1.93,1.95,-0.20233154,-0.72558594,0.07611084,26.12,0.0,-227.0,-0.38935852,-0.2675171,
251.181942,true,true,true,0.0,12.35,0.0,0,0,0,0.0,12.35,0.0,0,0,0,0.125,12.35,0.0,0,0,0,0.0,12.35,0.0,0,0,0,0.0,12.35,0.0,0,0,0,0.0,12.35,0.0,0,0,0,0.0,12.4,0.0,0,0,0,kReverse,kOff,-87.64,1.94,1.96,-0.18536377,-0.8161621,-0.23883057,26.12,0.0,-210.0,-0.39169312,-0.2690277,
251.207812,true,true,true,0.0,12.35,0.0,0,0,0,0.0,12.35,0.0,0,0,0,0.125,12.35,0.0,0,0,0,0.0,12.35,0.0,0,0,0,0.0,12.35,0.0,0,0,0,0.0,12.35,0.0,0,0,0,0.0,12.4,0.0,0,0,0,kReverse,kOff,-87.66,1.93,1.95,-0.18261719,-0.9249878,-0.1885376,26.12,0.0,-211.0,-0.3932953,-0.2701416,
251.22838299999998,true,true,true,0.0,12.35,0.0,0,0,0,0.0,12.35,0.0,0,0,0,0.125,12.35,0.0,0,0,0,0.0,12.35,0.0,0,0,0,0.0,12.35,0.0,0,0,0,0.0,12.35,0.0,0,0,0,0.0,12.4,0.0,0,0,0,kReverse,kOff,-87.62,1.95,1.97,-0.095703125,-1.1777344,-0.10845947,26.12,0.0,-134.0,-0.3972168,-0.27319336,
251.25029199999997,true,true,true,0.0,12.35,0.0,0,0,0,0.0,12.35,0.0,0,0,0,0.125,12.35,0.0,0,0,0,0.0,12.35,0.0,0,0,0,0.0,12.35,0.0,0,0,0,0.0,12.35,0.0,0,0,0,0.0,12.4,0.0,0,0,0,kReverse,kOff,-87.62,1.93,1.95,0.036254883,-1.2730103,0.13861084,26.12,0.0,-9.0,-0.40177917,-0.27630615,
251.273191,true,true,true,0.0,12.35,0.0,0,0,0,0.125,12.35,0.0,0,0,0,0.125,12.35,0.0,0,0,0,0.0,12.35,0.0,0,0,0,0.0,12.35,0.0,0,0,0,0.0,12.35,0.0,0,0,0,0.0,12.4,0.0,0,0,0,kReverse,kOff,-87.62,1.93,1.95,0.09710693,-1.27948,0.19726562,26.12,0.0,50.0,-0.404068,-0.2775116,
251.30193599999998,true,true,true,0.0,12.35,0.0,0,0,0,0.0,12.35,0.0,0,0,0,0.125,12.35,0.0,0,0,0,0.0,12.35,0.0,0,0,0,0.0,12.35,0.0,0,0,0,0.0,12.35,0.0,0,0,0,0.0,12.4,0.0,0,0,0,kReverse,kOff,-87.6,1.94,1.96,0.15301514,-1.2104492,0.36206055,26.12,0.0,106.0,-0.40841675,-0.27870178,
251.324644,true,true,true,0.0,12.35,0.0,0,0,0,0.0,12.35,0.0,0,0,0,0.125,12.35,0.0,0,0,0,0.0,12.35,0.0,0,0,0,0.0,12.35,0.0,0,0,0,0.0,12.35,0.0,0,0,0,0.0,12.4,0.0,0,0,0,kReverse,kOff,-87.64,1.93,1.94,0.23101807,-1.2926636,0.33135986,26.12,0.0,182.0,-0.41033936,-0.27853394,
251.347999,true,true,true,0.0,12.35,0.0,0,0,0,0.0,12.35,0.0,0,0,0,0.125,12.3,0.0,0,0,0,0.0,12.35,0.0,0,0,0,0.0,12.35,0.0,0,0,0,0.0,12.35,0.0,0,0,0,0.0,12.4,0.0,0,0,0,kReverse,kOff,-87.69,1.89,1.9,0.23217773,-1.2634888,0.09173584,26.12,0.0,188.0,-0.4134369,-0.27711487,
251.36924699999997,true,true,true,0.0,12.35,0.0,0,0,0,0.0,12.35,0.0,0,0,0,0.125,12.3,0.0,0,0,0,0.0,12.35,0.0,0,0,0,0.0,12.35,0.0,0,0,0,0.0,12.35,0.0,0,0,0,0.0,12.4,0.0,0,0,0,kReverse,kOff,-87.69,1.89,1.9,0.25830078,-1.159729,-0.11242676,26.12,0.0,221.0,-0.4145813,-0.27624512,
251.390802,true,true,true,0.0,12.35,0.0,0,0,0,0.0,12.35,0.0,0,0,0,0.125,12.3,0.0,0,0,0,0.0,12.35,0.0,0,0,0,0.0,12.35,0.0,0,0,0,0.0,12.35,0.0,0,0,0,0.0,12.4,0.0,0,0,0,kReverse,kOff,-87.71,1.88,1.89,0.21917725,-0.95684814,-0.35723877,26.12,0.0,192.0,-0.41603088,-0.27531433,
251.412525,true,true,true,0.0,12.35,0.0,0,0,0,0.0,12.35,0.0,0,0,0,0.125,12.3,0.0,0,0,0,0.0,12.35,0.0,0,0,0,0.0,12.35,0.0,0,0,0,0.0,12.35,0.0,0,0,0,0.0,12.4,0.0,0,0,0,kReverse,kOff,-87.68,1.88,1.9,0.119140625,-0.7817993,-0.34222412,26.12,0.0,97.0,-0.41641235,-0.27549744,
251.43681399999997,true,true,true,0.0,12.35,0.0,0,0,0,0.0,12.35,0.0,0,0,0,0.125,12.3,0.0,0,0,0,0.0,12.35,0.0,0,0,0,0.0,12.35,0.0,0,0,0,0.0,12.35,0.0,0,0,0,0.0,12.4,0.0,0,0,0,kReverse,kOff,-87.66,1.87,1.89,0.099365234,-0.5969238,-0.20495605,26.12,0.0,82.0,-0.41677856,-0.27687073,
251.46088699999999,true,true,true,0.0,12.35,0.0,0,0,0,0.0,12.35,0.0,0,0,0,0.125,12.3,0.0,0,0,0,0.0,12.35,0.0,0,0,0,0.0,12.35,0.0,0,0,0,0.0,12.35,0.0,0,0,0,0.0,12.4,0.0,0,0,0,kReverse,kOff,-87.66,1.87,1.89,0.031799316,-0.68896484,-0.01550293,26.12,0.0,9.0,-0.4168396,-0.27783203,
251.478734,true,true,true,0.0,12.35,0.0,0,0,0,0.0,12.35,0.0,0,0,0,0.125,12.3,0.0,0,0,0,0.0,12.35,0.0,0,0,0,0.0,12.35,0.0,0,0,0,0.0,12.35,0.0,0,0,0,0.0,12.4,0.0,0,0,0,kReverse,kOff,-87.65,1.89,1.91,-0.12182617,-0.7401123,0.10986328,26.12,0.0,-147.0,-0.417099,-0.27954102,
251.509074,true,true,true,0.0,12.35,0.0,0,0,0,0.0,12.35,0.0,0,0,0,0.125,12.3,0.0,0,0,0,0.0,12.35,0.0,0,0,0,0.0,12.35,0.0,0,0,0,0.0,12.35,0.0,0,0,0,0.0,12.4,0.0,0,0,0,kReverse,kOff,-87.66,1.92,1.94,-0.14263916,-0.7702637,0.07885742,26.1,0.0,-169.0,-0.41799927,-0.28053284,
251.54011799999998,true,true,true,0.0,12.35,0.0,0,0,0,0.0,12.35,0.0,0,0,0,0.125,12.3,0.0,0,0,0,0.0,12.35,0.0,0,0,0,0.0,12.35,0.0,0,0,0,0.0,12.35,0.0,0,0,0,0.0,12.4,0.0,0,0,0,kReverse,kOff,-87.65,1.96,1.98,-0.17297363,-0.84246826,-0.18939209,26.1,0.0,-199.0,-0.41970825,-0.28125,
251.56309699999997,true,true,true,0.0,12.35,0.0,0,0,0,0.0,12.35,0.0,0,0,0,0.125,12.3,0.0,0,0,0,0.0,12.35,0.0,0,0,0,0.0,12.35,0.0,0,0,0,0.0,12.35,0.0,0,0,0,0.0,12.4,0.0,0,0,0,kReverse,kOff,-87.64,1.96,1.97,-0.21020508,-0.89660645,-0.16235352,26.1,0.0,-238.0,-0.42097473,-0.2818756,
251.587647,true,true,true,0.0,12.35,0.0,0,0,0,0.0,12.35,0.0,0,0,0,0.125,12.3,0.0,0,0,0,0.0,12.35,0.0,0,0,0,0.0,12.35,0.0,0,0,0,0.0,12.35,0.0,0,0,0,0.0,12.4,0.0,0,0,0,kReverse,kOff,-87.66,1.96,1.98,-0.17437744,-1.0093994,-0.22558594,26.1,0.0,-206.0,-0.42434692,-0.28404236,
251.61008299999997,true,true,true,0.0,12.35,0.0,0,0,0,0.0,12.35,0.0,0,0,0,0.125,12.3,0.0,0,0,0,0.0,12.35,0.0,0,0,0,0.0,12.35,0.0,0,0,0,0.0,12.35,0.0,0,0,0,0.0,12.4,0.0,0,0,0,kReverse,kOff,-87.64,1.95,1.96,-0.0635376,-1.270813,0.11260986,26.1,0.0,-108.0,-0.42855835,-0.2869568,
251.63209999999998,true,true,true,0.0,12.35,0.0,0,0,0,0.0,12.35,0.0,0,0,0,0.125,12.3,0.0,0,0,0,0.0,12.35,0.0,0,0,0,0.0,12.35,0.0,0,0,0,0.0,12.35,0.0,0,0,0,0.0,12.4,0.0,0,0,0,kReverse,kOff,-87.65,1.93,1.95,0.08795166,-1.3188477,0.15325928,26.1,0.0,40.0,-0.43078613,-0.2881775,
251.65733899999998,true,true,true,0.0,12.35,0.0,0,0,0,0.0,12.35,0.0,0,0,0,0.125,12.3,0.0,0,0,0,0.0,12.35,0.0,0,0,0,0.0,12.35,0.0,0,0,0,0.0,12.35,0.0,0,0,0,0.0,12.4,0.0,0,0,0,kReverse,kOff,-87.63,1.93,1.95,0.09814453,-1.2266235,0.3258667,26.1,0.0,51.0,-0.43510437,-0.2896576,
251.68218999999996,true,true,true,0.0,12.35,0.0,0,0,0,0.0,12.35,0.0,0,0,0,0.125,12.3,0.0,0,0,0,0.0,12.35,0.0,0,0,0,0.0,12.35,0.0,0,0,0,0.0,12.35,0.0,0,0,0,0.0,12.4,0.0,0,0,0,kReverse,kOff,-87.64,1.92,1.93,0.14904785,-1.2275391,0.35620117,26.1,0.0,102.0,-0.4371338,-0.2896881,
251.70774799999998,true,true,true,0.0,12.35,0.0,0,0,0,0.0,12.35,0.0,0,0,0,0.125,12.3,0.0,0,0,0,0.0,12.35,0.0,0,0,0,0.0,12.35,0.0,0,0,0,0.0,12.35,0.0,0,0,0,0.0,12.4,0.0,0,0,0,kReverse,kOff,-87.66,1.91,1.92,0.22241211,-1.2549438,0.34521484,26.1,0.0,175.0,-0.43896484,-0.28919983,
251.73198499999998,true,true,true,0.0,12.35,0.0,0,0,0,0.0,12.35,0.0,0,0,0,0.125,12.3,0.0,0,0,0,0.0,12.35,0.0,0,0,0,0.0,12.35,0.0,0,0,0,0.0,12.35,0.0,0,0,0,0.0,12.4,0.0,0,0,0,kReverse,kOff,-87.7,1.89,1.91,0.2647705,-1.2156372,0.018554688,26.1,0.0,223.0,-0.44177246,-0.28733826,
251.753786,true,true,true,0.0,12.35,0.0,0,0,0,0.0,12.35,0.0,0,0,0,0.125,12.3,0.0,0,0,0,0.0,12.35,0.0,0,0,0,0.0,12.35,0.0,0,0,0,0.0,12.35,0.0,0,0,0,0.0,12.4,0.0,0,0,0,kReverse,kOff,-87.69,1.91,1.93,0.26617432,-1.1572876,-0.1348877,26.1,0.0,228.0,-0.4427185,-0.28637695,
251.77546699999996,true,true,true,0.0,12.35,0.0,0,0,0,0.0,12.35,0.0,0,0,0,0.125,12.3,0.0,0,0,0,0.0,12.35,0.0,0,0,0,0.0,12.35,0.0,0,0,0,0.0,12.35,0.0,0,0,0,0.0,12.4,0.0,0,0,0,kReverse,kOff,-87.7,1.93,1.95,0.18804932,-0.83947754,-0.3338623,26.1,0.0,163.0,-0.44377136,-0.28533936,
251.80531,true,true,true,0.0,12.35,0.0,0,0,0,0.0,12.35,0.0,0,0,0,0.125,12.3,0.0,0,0,0,0.0,12.35,0.0,0,0,0,0.0,12.35,0.0,0,0,0,0.0,12.35,0.0,0,0,0,0.0,12.4,0.0,0,0,0,kReverse,kOff,-87.7,1.94,1.96,0.105163574,-0.67993164,-0.09899902,26.1,0.0,83.0,-0.4440155,-0.28573608,
251.827802,true,true,true,0.0,12.35,0.0,0,0,0,0.0,12.35,0.0,0,0,0,0.125,12.3,0.0,0,0,0,0.0,12.35,0.0,0,0,0,0.0,12.35,0.0,0,0,0,0.0,12.35,0.0,0,0,0,0.0,12.4,0.0,0,0,0,kReverse,kOff,-87.71,1.93,1.95,0.011291504,-0.6677246,0.0078125,26.1,0.0,-11.0,-0.4440155,-0.28608704,
251.848911,true,true,true,0.0,12.35,0.0,0,0,0,0.0,12.35,0.0,0,0,0,0.125,12.3,0.0,0,0,0,0.0,12.35,0.0,0,0,0,0.0,12.35,0.0,0,0,0,0.0,12.35,0.0,0,0,0,0.0,12.4,0.0,0,0,0,kReverse,kOff,-87.7,1.94,1.96,0.00390625,-0.6515503,-0.015991211,26.1,0.0,-18.0,-0.4440155,-0.286438,
251.86784499999996,true,true,true,0.0,12.35,0.0,0,0,0,0.0,12.35,0.0,0,0,0,0.125,12.3,0.0,0,0,0,0.0,12.35,0.0,0,0,0,0.0,12.35,0.0,0,0,0,0.0,12.35,0.0,0,0,0,0.0,12.4,0.0,0,0,0,kReverse,kOff,-87.66,1.98,2.0,-0.088256836,-0.6464844,0.10437012,26.1,0.0,-112.0,-0.4441681,-0.286911,
251.888255,true,true,true,0.0,12.35,0.0,0,0,0,0.0,12.35,0.0,0,0,0,0.125,12.3,0.0,0,0,0,0.0,12.35,0.0,0,0,0,0.0,12.35,0.0,0,0,0,0.0,12.35,0.0,0,0,0,0.0,12.4,0.0,0,0,0,kReverse,kOff,-87.66,1.99,2.01,-0.095581055,-0.79437256,0.08868408,26.1,0.0,-124.0,-0.44444275,-0.2869568,
251.910427,true,true,true,0.0,12.35,0.0,0,0,0,0.0,12.35,0.0,0,0,0,0.125,12.3,0.0,0,0,0,0.0,12.35,0.0,0,0,0,0.0,12.35,0.0,0,0,0,0.0,12.35,0.0,0,0,0,0.0,12.4,0.0,0,0,0,kReverse,kOff,-87.63,2.05,2.06,-0.20251465,-0.8491211,-0.058898926,26.1,0.0,-232.0,-0.44560242,-0.2868042,
251.932361,true,true,true,0.0,12.35,0.0,0,0,0,0.0,12.35,0.0,0,0,0,0.125,12.3,0.0,0,0,0,0.0,12.35,0.0,0,0,0,0.0,12.35,0.0,0,0,0,0.0,12.35,0.0,0,0,0,0.0,12.4,0.0,0,0,0,kReverse,kOff,-87.64,2.03,2.05,-0.2133789,-0.82702637,-0.23309326,26.1,0.0,-239.0,-0.4466095,-0.286911,
251.95691799999997,true,true,true,0.0,12.35,0.0,0,0,0,0.125,12.35,0.0,0,0,0,0.125,12.3,0.0,0,0,0,0.0,12.35,0.0,0,0,0,0.0,12.35,0.0,0,0,0,0.0,12.35,0.0,0,0,0,0.0,12.4,0.0,0,0,0,kReverse,kOff,-87.65,2.01,2.02,-0.14868164,-1.046814,-0.33825684,26.1,0.0,-181.0,-0.44953918,-0.28823853,
251.980259,true,true,true,0.0,12.35,0.0,0,0,0,0.125,12.35,0.0,0,0,0,0.125,12.3,0.0,0,0,0,0.0,12.35,0.0,0,0,0,0.0,12.35,0.0,0,0,0,0.0,12.3,0.0,0,0,0,0.0,12.35,0.0,0,0,0,kReverse,kOff,-87.59,2.01,2.03,-0.03930664,-1.2744751,0.02331543,26.1,0.0,-84.0,-0.4533081,-0.29060364,
252.009709,true,true,true,0.0,12.3,0.0,0,0,0,0.0,12.35,0.0,0,0,0,0.125,12.3,0.0,0,0,0,0.0,12.35,0.0,0,0,0,0.0,12.35,0.0,0,0,0,0.0,12.3,0.0,0,0,0,0.0,12.35,0.0,0,0,0,kReverse,kOff,-87.57,2.02,2.04,0.0657959,-1.251709,0.21685791,26.1,0.0,18.0,-0.455307,-0.29237366,
252.037986,true,true,true,0.0,12.3,0.0,0,0,0,0.0,12.35,0.0,0,0,0,0.125,12.3,0.0,0,0,0,0.0,12.35,0.0,0,0,0,0.0,12.35,0.0,0,0,0,0.0,12.3,0.0,0,0,0,0.0,12.35,0.0,0,0,0,kReverse,kOff,-87.59,1.99,2.01,0.13275146,-1.2783813,0.28155518,26.13,0.0,83.0,-0.45524597,-0.2927246,
252.06098799999998,true,true,true,0.0,12.3,0.0,0,0,0,0.0,12.35,0.0,0,0,0,0.125,12.3,0.0,0,0,0,0.0,12.35,0.0,0,0,0,0.0,12.35,0.0,0,0,0,0.0,12.3,0.0,0,0,0,0.0,12.35,0.0,0,0,0,kReverse,kOff,-87.61,1.97,1.99,0.21429443,-1.2510376,0.2607422,26.13,0.0,167.0,-0.45466614,-0.29216003,
252.08556699999997,true,true,true,0.0,12.3,0.0,0,0,0,0.0,12.35,0.0,0,0,0,0.125,12.3,0.0,0,0,0,0.0,12.35,0.0,0,0,0,0.0,12.35,0.0,0,0,0,0.0,12.3,0.0,0,0,0,0.0,12.35,0.0,0,0,0,kReverse,kOff,-87.62,1.97,1.99,0.28363037,-1.2879028,0.10809326,26.13,0.0,241.0,-0.4530182,-0.29048157,
252.10749399999997,true,true,true,0.0,12.3,0.0,0,0,0,0.0,12.35,0.0,0,0,0,0.125,12.3,0.0,0,0,0,0.0,12.35,0.0,0,0,0,0.0,12.35,0.0,0,0,0,0.0,12.3,0.0,0,0,0,0.0,12.35,0.0,0,0,0,kReverse,kOff,-87.63,1.98,2.0,0.2526245,-1.119751,-0.2131958,26.13,0.0,216.0,-0.4517212,-0.28971863,
252.13057299999997,true,true,true,0.0,12.3,0.0,0,0,0,0.0,12.35,0.0,0,0,0,0.125,12.3,0.0,0,0,0,0.0,12.35,0.0,0,0,0,0.0,12.35,0.0,0,0,0,0.0,12.3,0.0,0,0,0,0.0,12.35,0.0,0,0,0,kReverse,kOff,-87.62,1.99,2.01,0.14916992,-0.79797363,-0.31988525,26.13,0.0,125.0,-0.44837952,-0.2892151,
252.15311799999998,true,true,true,0.0,12.3,0.0,0,0,0,0.0,12.35,0.0,0,0,0,0.125,12.3,0.0,0,0,0,0.0,12.35,0.0,0,0,0,0.0,12.35,0.0,0,0,0,0.0,12.3,0.0,0,0,0,0.0,12.35,0.0,0,0,0,kReverse,kOff,-87.64,1.97,1.99,0.13861084,-0.6444092,-0.21838379,26.13,0.0,119.0,-0.44644165,-0.289505,
252.18163499999997,true,true,true,0.0,12.3,0.0,0,0,0,0.125,12.35,0.0,0,0,0,0.125,12.3,0.0,0,0,0,0.0,12.35,0.0,0,0,0,0.0,12.35,0.0,0,0,0,0.0,12.3,0.0,0,0,0,0.0,12.35,0.0,0,0,0,kReverse,kOff,-87.64,1.98,2.0,0.07775879,-0.6734619,0.0025634766,26.13,0.0,54.0,-0.44221497,-0.29040527,
252.209019,true,true,true,0.0,12.3,0.0,0,0,0,0.0,12.35,0.0,0,0,0,0.125,12.3,0.0,0,0,0,0.0,12.35,0.0,0,0,0,0.0,12.35,0.0,0,0,0,0.0,12.3,0.0,0,0,0,0.0,12.35,0.0,0,0,0,kReverse,kOff,-87.62,2.02,2.04,-0.020996094,-0.7809448,0.08239746,26.13,0.0,-49.0,-0.4380188,-0.2910614,
252.230821,true,true,true,0.0,12.3,0.0,0,0,0,0.0,12.35,0.0,0,0,0,0.125,12.3,0.0,0,0,0,0.0,12.35,0.0,0,0,0,0.0,12.35,0.0,0,0,0,0.0,12.3,0.0,0,0,0,0.0,12.35,0.0,0,0,0,kReverse,kOff,-87.62,2.05,2.07,-0.11633301,-0.7720947,0.039916992,26.13,0.0,-144.0,-0.43437195,-0.29115295,
252.25302699999997,true,true,true,0.0,12.3,0.0,0,0,0,0.0,12.35,0.0,0,0,0,0.125,12.3,0.0,0,0,0,0.0,12.35,0.0,0,0,0,0.0,12.35,0.0,0,0,0,0.0,12.3,0.0,0,0,0,0.0,12.35,0.0,0,0,0,kReverse,kOff,-87.61,2.07,2.08,-0.17822266,-0.80255127,-0.047851562,26.13,0.0,-206.0,-0.43289185,-0.29110718,
252.27690399999997,true,true,true,0.0,12.3,0.0,0,0,0,0.0,12.35,0.0,0,0,0,0.125,12.3,0.0,0,0,0,0.0,12.35,0.0,0,0,0,0.0,12.35,0.0,0,0,0,0.0,12.3,0.0,0,0,0,0.0,12.35,0.0,0,0,0,kReverse,kOff,-87.63,2.07,2.09,-0.22454834,-0.9147339,-0.1895752,26.13,0.0,-255.0,-0.43086243,-0.29136658,
252.304531,true,true,true,0.0,12.3,0.0,0,0,0,0.0,12.35,0.0,0,0,0,0.125,12.3,0.0,0,0,0,0.0,12.35,0.0,0,0,0,0.0,12.3,0.0,0,0,0,0.0,12.3,0.0,0,0,0,0.0,12.35,0.0,0,0,0,kReverse,kOff,-87.65,2.05,2.07,-0.10089111,-1.1227417,-0.18341064,26.13,0.0,-139.0,-0.42996216,-0.29258728,
252.329357,true,true,true,0.0,12.3,0.0,0,0,0,0.0,12.3,0.0,0,0,0,0.125,12.3,0.0,0,0,0,0.0,12.35,0.0,0,0,0,0.0,12.3,0.0,0,0,0,0.0,12.3,0.0,0,0,0,0.0,12.35,0.0,0,0,0,kReverse,kOff,-87.63,2.06,2.08,-0.01928711,-1.2318726,-0.0037231445,26.13,0.0,-63.0,-0.42974854,-0.2934265,
252.349188,true,true,true,0.0,12.3,0.0,0,0,0,0.0,12.3,0.0,0,0,0,0.125,12.3,0.0,0,0,0,0.0,12.35,0.0,0,0,0,0.0,12.3,0.0,0,0,0,0.0,12.3,0.0,0,0,0,0.0,12.35,0.0,0,0,0,kReverse,kOff,-87.62,2.06,2.08,0.051574707,-1.2646484,0.103637695,26.13,0.0,4.0,-0.42959595,-0.2941742,
252.37186499999999,true,true,true,0.0,12.3,0.0,0,0,0,0.0,12.3,0.0,0,0,0,0.125,12.3,0.0,0,0,0,0.0,12.35,0.0,0,0,0,0.0,12.3,0.0,0,0,0,0.0,12.3,0.0,0,0,0,0.0,12.35,0.0,0,0,0,kReverse,kOff,-87.6,2.09,2.1,0.10180664,-1.2715454,0.29589844,26.13,0.0,50.0,-0.42915344,-0.29460144,
252.392858,true,true,true,0.0,12.3,0.0,0,0,0,0.0,12.3,0.0,0,0,0,0.125,12.3,0.0,0,0,0,0.0,12.35,0.0,0,0,0,0.0,12.3,0.0,0,0,0,0.0,12.3,0.0,0,0,0,0.0,12.35,0.0,0,0,0,kReverse,kOff,-87.63,2.07,2.08,0.14978027,-1.2339478,0.31323242,26.13,0.0,100.0,-0.4288025,-0.29412842,
252.41781499999996,true,true,true,0.0,12.3,0.0,0,0,0,0.0,12.3,0.0,0,0,0,0.125,12.3,0.0,0,0,0,0.0,12.35,0.0,0,0,0,0.0,12.3,0.0,0,0,0,0.0,12.3,0.0,0,0,0,0.0,12.35,0.0,0,0,0,kReverse,kOff,-87.67,2.04,2.05,0.25256348,-1.2368774,0.16314697,26.13,0.0,205.0,-0.42756653,-0.29203796,
252.441375,true,true,true,0.0,12.3,0.0,0,0,0,0.125,12.3,0.0,0,0,0,0.125,12.3,0.0,0,0,0,0.0,12.35,0.0,0,0,0,0.0,12.3,0.0,0,0,0,0.0,12.3,0.0,0,0,0,0.0,12.35,0.0,0,0,0,kReverse,kOff,-87.65,2.06,2.07,0.20440674,-1.0117188,-0.256958,26.13,0.0,171.0,-0.42518616,-0.28948975,
252.466914,true,true,true,0.0,12.3,0.0,0,0,0,0.0,12.3,0.0,0,0,0,0.125,12.3,0.0,0,0,0,0.0,12.35,0.0,0,0,0,0.0,12.3,0.0,0,0,0,0.0,12.3,0.0,0,0,0,0.0,12.35,0.0,0,0,0,kReverse,kOff,-87.63,2.07,2.09,0.19042969,-0.8093872,-0.36505127,26.13,0.0,165.0,-0.42182922,-0.28833008,
252.49742799999999,true,true,true,0.0,12.3,0.0,0,0,0,0.0,12.3,0.0,0,0,0,0.125,12.3,0.0,0,0,0,0.0,12.35,0.0,0,0,0,0.0,12.3,0.0,0,0,0,0.0,12.3,0.0,0,0,0,0.0,12.35,0.0,0,0,0,kReverse,kOff,-87.64,2.05,2.06,0.113342285,-0.62835693,-0.0993042,26.13,0.0,91.0,-0.41778564,-0.28855896,
252.529476,true,true,true,0.0,12.3,0.0,0,0,0,0.0,12.3,0.0,0,0,0,0.125,12.3,0.0,0,0,0,0.0,12.35,0.0,0,0,0,0.0,12.3,0.0,0,0,0,0.0,12.3,0.0,0,0,0,0.0,12.35,0.0,0,0,0,kReverse,kOff,-87.63,2.06,2.07,0.05999756,-0.71795654,-0.018676758,26.14,0.0,34.0,-0.41349792,-0.28907776,
252.55262399999998,true,true,true,0.0,12.3,0.0,0,0,0,0.0,12.3,0.0,0,0,0,0.125,12.3,0.0,0,0,0,0.0,12.35,0.0,0,0,0,0.0,12.3,0.0,0,0,0,0.0,12.3,0.0,0,0,0,0.0,12.35,0.0,0,0,0,kReverse,kOff,-87.59,2.09,2.1,-0.04840088,-0.76153564,0.08178711,26.14,0.0,-77.0,-0.4113922,-0.28927612,
252.577669,true,true,true,0.0,12.3,0.0,0,0,0,0.0,12.3,0.0,0,0,0,0.125,12.3,0.0,0,0,0,0.0,12.35,0.0,0,0,0,0.0,12.3,0.0,0,0,0,0.0,12.3,0.0,0,0,0,0.0,12.35,0.0,0,0,0,kReverse,kOff,-87.59,2.1,2.11,-0.1463623,-0.77978516,0.07281494,26.14,0.0,-176.0,-0.40776062,-0.2892456,
252.596716,true,true,true,0.0,12.3,0.0,0,0,0,0.0,12.3,0.0,0,0,0,0.125,12.3,0.0,0,0,0,0.0,12.35,0.0,0,0,0,0.0,12.3,0.0,0,0,0,0.0,12.3,0.0,0,0,0,0.0,12.35,0.0,0,0,0,kReverse,kOff,-87.6,2.1,2.11,-0.1829834,-0.7719116,-0.07897949,26.14,0.0,-210.0,-0.40634155,-0.28915405,
252.62299399999998,true,true,true,0.125,12.3,0.0,0,0,0,0.0,12.3,0.0,0,0,0,0.125,12.3,0.0,0,0,0,0.0,12.35,0.0,0,0,0,0.0,12.3,0.0,0,0,0,0.0,12.3,0.0,0,0,0,0.0,12.35,0.0,0,0,0,kReverse,kOff,-87.62,2.09,2.1,-0.16638184,-0.90625,-0.1965332,26.14,0.0,-197.0,-0.40434265,-0.2895813,
252.64797499999997,true,true,true,0.0,12.3,0.0,0,0,0,0.0,12.3,0.0,0,0,0,0.125,12.3,0.0,0,0,0,0.0,12.35,0.0,0,0,0,0.0,12.3,0.0,0,0,0,0.0,12.3,0.0,0,0,0,0.0,12.35,0.0,0,0,0,kReverse,kOff,-87.62,2.1,2.11,-0.18701172,-1.0279541,-0.3034668,26.14,0.0,-220.0,-0.40376282,-0.29023743,
252.66828399999997,true,true,true,0.0,12.3,0.0,0,0,0,0.0,12.3,0.0,0,0,0,0.125,12.3,0.0,0,0,0,0.0,12.35,0.0,0,0,0,0.0,12.3,0.0,0,0,0,0.0,12.3,0.0,0,0,0,0.0,12.35,0.0,0,0,0,kReverse,kOff,-87.58,2.11,2.12,-0.07952881,-1.2832031,0.044555664,26.14,0.0,-127.0,-0.40324402,-0.29214478,
252.689481,true,true,true,0.0,12.3,0.0,0,0,0,0.0,12.3,0.0,0,0,0,0.125,12.3,0.0,0,0,0,0.0,12.35,0.0,0,0,0,0.0,12.3,0.0,0,0,0,0.0,12.3,0.0,0,0,0,0.0,12.35,0.0,0,0,0,kReverse,kOff,-87.58,2.08,2.09,0.07684326,-1.2368774,0.19073486,26.14,0.0,28.0,-0.4030304,-0.29359436,
252.711634,true,true,true,0.0,12.3,0.0,0,0,0,0.0,12.3,0.0,0,0,0,0.125,12.3,0.0,0,0,0,0.0,12.35,0.0,0,0,0,0.0,12.3,0.0,0,0,0,0.0,12.3,0.0,0,0,0,0.0,12.35,0.0,0,0,0,kReverse,kOff,-87.6,2.05,2.07,0.07055664,-1.2418823,0.29400635,26.14,0.0,21.0,-0.40286255,-0.2938385,
252.733076,true,true,true,0.0,12.3,0.0,0,0,0,0.0,12.3,0.0,0,0,0,0.125,12.3,0.0,0,0,0,0.0,12.35,0.0,0,0,0,0.0,12.3,0.0,0,0,0,0.0,12.3,0.0,0,0,0,0.0,12.35,0.0,0,0,0,kReverse,kOff,-87.62,2.02,2.04,0.15905762,-1.227417,0.37854004,26.14,0.0,109.0,-0.4026184,-0.2935791,
252.761824,true,true,true,0.0,12.3,0.0,0,0,0,0.0,12.3,0.0,0,0,0,0.125,12.3,0.0,0,0,0,0.0,12.35,0.0,0,0,0,0.0,12.3,0.0,0,0,0,0.0,12.3,0.0,0,0,0,0.0,12.35,0.0,0,0,0,kReverse,kOff,-87.65,2.02,2.04,0.26013184,-1.2150269,-0.03656006,26.14,0.0,217.0,-0.4003601,-0.2906494,
252.789618,true,true,true,0.0,12.3,0.0,0,0,0,0.0,12.3,0.0,0,0,0,0.125,12.3,0.0,0,0,0,0.0,12.35,0.0,0,0,0,0.0,12.3,0.0,0,0,0,0.0,12.3,0.0,0,0,0,0.0,12.35,0.0,0,0,0,kReverse,kOff,-87.67,2.02,2.03,0.24023438,-1.1072388,-0.23632812,26.14,0.0,203.0,-0.39901733,-0.28967285,
252.813837,true,true,true,0.0,12.3,0.0,0,0,0,0.0,12.3,0.0,0,0,0,0.125,12.3,0.0,0,0,0,0.0,12.35,0.0,0,0,0,0.0,12.3,0.0,0,0,0,0.0,12.3,0.0,0,0,0,0.0,12.35,0.0,0,0,0,kReverse,kOff,-87.66,2.02,2.04,0.16760254,-0.777771,-0.30926514,26.14,0.0,143.0,-0.39559937,-0.28881836,
252.83409199999997,true,true,true,0.0,12.3,0.0,0,0,0,0.0,12.3,0.0,0,0,0,0.125,12.3,0.0,0,0,0,0.0,12.35,0.0,0,0,0,0.0,12.3,0.0,0,0,0,0.0,12.3,0.0,0,0,0,0.0,12.35,0.0,0,0,0,kReverse,kOff,-87.66,2.01,2.02,0.1362915,-0.63653564,-0.1829834,26.14,0.0,116.0,-0.39361572,-0.28889465,
252.85761499999998,true,true,true,0.0,12.3,0.0,0,0,0,0.0,12.3,0.0,0,0,0,0.125,12.3,0.0,0,0,0,0.0,12.35,0.0,0,0,0,0.0,12.3,0.0,0,0,0,0.0,12.3,0.0,0,0,0,0.0,12.35,0.0,0,0,0,kReverse,kOff,-87.66,2.02,2.04,0.009460449,-0.6864624,-0.011962891,26.14,0.0,-14.0,-0.389328,-0.28941345,
252.88746999999998,true,true,true,0.0,12.3,0.0,0,0,0,0.0,12.3,0.0,0,0,0,0.125,12.3,0.0,0,0,0,0.0,12.35,0.0,0,0,0,0.0,12.3,0.0,0,0,0,0.0,12.3,0.0,0,0,0,0.0,12.35,0.0,0,0,0,kReverse,kOff,-87.65,2.03,2.05,-0.06530762,-0.71295166,0.052368164,26.14,0.0,-90.0,-0.38528442,-0.2897339,
252.908949,true,true,true,0.0,12.3,0.0,0,0,0,0.0,12.3,0.0,0,0,0,0.125,12.3,0.0,0,0,0,0.0,12.35,0.0,0,0,0,0.0,12.3,0.0,0,0,0,0.0,12.3,0.0,0,0,0,0.0,12.35,0.0,0,0,0,kReverse,kOff,-87.65,2.05,2.07,-0.11846924,-0.7103882,0.14526367,26.14,0.0,-145.0,-0.3834839,-0.28962708,
252.930666,true,true,true,0.0,12.3,0.0,0,0,0,0.0,12.3,0.0,0,0,0,0.125,12.3,0.0,0,0,0,0.0,12.35,0.0,0,0,0,0.0,12.3,0.0,0,0,0,0.0,12.3,0.0,0,0,0,0.0,12.35,0.0,0,0,0,kReverse,kOff,-87.66,2.06,2.07,-0.22668457,-0.779541,-0.12670898,26.14,0.0,-253.0,-0.38058472,-0.28919983,
252.95157299999997,true,true,true,0.0,12.3,0.0,0,0,0,0.0,12.3,0.0,0,0,0,0.125,12.3,0.0,0,0,0,0.0,12.35,0.0,0,0,0,0.0,12.3,0.0,0,0,0,0.0,12.3,0.0,0,0,0,0.0,12.35,0.0,0,0,0,kReverse,kOff,-87.67,2.06,2.07,-0.16192627,-0.9154053,-0.14624023,26.14,0.0,-193.0,-0.37957764,-0.28918457,
252.97461299999998,true,true,true,0.0,12.3,0.0,0,0,0,0.0,12.3,0.0,0,0,0,0.125,12.3,0.0,0,0,0,0.0,12.35,0.0,0,0,0,0.0,12.3,0.0,0,0,0,0.0,12.3,0.0,0,0,0,0.0,12.35,0.0,0,0,0,kReverse,kOff,-87.67,2.08,2.09,-0.1895752,-0.95825195,-0.21014404,26.14,0.0,-221.0,-0.37886047,-0.28938293,
252.99552,true,true,true,0.0,12.3,0.0,0,0,0,0.0,12.3,0.0,0,0,0,0.125,12.3,0.0,0,0,0,0.0,12.35,0.0,0,0,0,0.0,12.3,0.0,0,0,0,0.0,12.3,0.0,0,0,0,0.0,12.35,0.0,0,0,0,kReverse,kOff,-87.69,2.05,2.07,-0.08917236,-1.1626587,-0.15594482,26.14,0.0,-129.0,-0.37815857,-0.29052734,
253.02285999999998,true,true,true,0.0,12.3,0.0,0,0,0,0.0,12.3,0.0,0,0,0,0.125,12.3,0.0,0,0,0,0.0,12.35,0.0,0,0,0,0.0,12.3,0.0,0,0,0,0.0,12.3,0.0,0,0,0,0.0,12.35,0.0,0,0,0,kReverse,kOff,-87.67,2.05,2.07,0.005065918,-1.2811279,0.038879395,26.14,0.0,-41.0,-0.3780365,-0.29127502,
253.04924099999997,true,true,true,0.0,12.3,0.0,0,0,0,0.0,12.3,0.0,0,0,0,0.125,12.3,0.0,0,0,0,0.0,12.35,0.0,0,0,0,0.0,12.3,0.0,0,0,0,0.0,12.3,0.0,0,0,0,0.0,12.35,0.0,0,0,0,kReverse,kOff,-87.67,2.03,2.05,0.12872314,-1.2184448,0.38293457,26.12,0.0,79.0,-0.3778839,-0.29200745,
253.081199,true,true,true,0.0,12.3,0.0,0,0,0,0.0,12.3,0.0,0,0,0,0.125,12.3,0.0,0,0,0,0.0,12.35,0.0,0,0,0,0.0,12.3,0.0,0,0,0,0.0,12.3,0.0,0,0,0,0.0,12.35,0.0,0,0,0,kReverse,kOff,-87.7,2.02,2.04,0.22583008,-1.3133545,0.3359375,26.12,0.0,174.0,-0.37763977,-0.2913208,
253.105865,true,true,true,0.0,12.3,0.0,0,0,0,0.0,12.3,0.0,0,0,0,0.125,12.25,0.0,0,0,0,0.0,12.35,0.0,0,0,0,0.0,12.3,0.0,0,0,0,0.0,12.3,0.0,0,0,0,0.0,12.35,0.0,0,0,0,kReverse,kOff,-87.72,2.01,2.03,0.20483398,-1.2629395,0.16741943,26.12,0.0,157.0,-0.37716675,-0.29026794,
253.128231,true,true,true,0.0,12.3,0.0,0,0,0,0.0,12.3,0.0,0,0,0,0.125,12.25,0.0,0,0,0,0.0,12.35,0.0,0,0,0,0.0,12.3,0.0,0,0,0,0.0,12.3,0.0,0,0,0,0.0,12.35,0.0,0,0,0,kReverse,kOff,-87.74,1.99,2.01,0.26757812,-1.1757202,-0.092041016,26.12,0.0,227.0,-0.37547302,-0.28770447,
253.151842,true,true,true,0.0,12.3,0.0,0,0,0,0.0,12.3,0.0,0,0,0,0.125,12.25,0.0,0,0,0,0.0,12.35,0.0,0,0,0,0.0,12.3,0.0,0,0,0,0.0,12.3,0.0,0,0,0,0.0,12.35,0.0,0,0,0,kReverse,kOff,-87.71,2.03,2.05,0.22546387,-0.8376465,-0.36297607,26.12,0.0,200.0,-0.37268066,-0.28601074,
253.173216,true,true,true,0.0,12.3,0.0,0,0,0,0.0,12.3,0.0,0,0,0,0.125,12.25,0.0,0,0,0,0.0,12.35,0.0,0,0,0,0.0,12.3,0.0,0,0,0,0.0,12.3,0.0,0,0,0,0.0,12.35,0.0,0,0,0,kReverse,kOff,-87.7,2.03,2.05,0.12158203,-0.7011719,-0.29699707,26.12,0.0,100.0,-0.37095642,-0.28581238,
253.202571,true,true,true,0.0,12.3,0.0,0,0,0,0.0,12.3,0.0,0,0,0,0.125,12.25,0.0,0,0,0,0.0,12.35,0.0,0,0,0,0.0,12.3,0.0,0,0,0,0.0,12.3,0.0,0,0,0,0.0,12.35,0.0,0,0,0,kReverse,kOff,-87.7,2.03,2.04,0.07366943,-0.6522217,-0.051818848,26.12,0.0,51.0,-0.36715698,-0.28599548,
253.22791499999997,true,true,true,0.0,12.3,0.0,0,0,0,0.125,12.3,0.0,0,0,0,0.125,12.25,0.0,0,0,0,0.0,12.35,0.0,0,0,0,0.0,12.3,0.0,0,0,0,0.0,12.3,0.0,0,0,0,0.0,12.35,0.0,0,0,0,kReverse,kOff,-87.68,2.04,2.06,-0.039367676,-0.6395874,-0.0022583008,26.12,0.0,-62.0,-0.36521912,-0.28616333,
253.24832999999998,true,true,true,0.0,12.3,0.0,0,0,0,0.125,12.3,0.0,0,0,0,0.125,12.25,0.0,0,0,0,0.0,12.35,0.0,0,0,0,0.0,12.3,0.0,0,0,0,0.0,12.3,0.0,0,0,0,0.0,12.35,0.0,0,0,0,kReverse,kOff,-87.65,2.05,2.07,-0.059265137,-0.7513428,0.12957764,26.12,0.0,-88.0,-0.36166382,-0.2862854,
253.26775999999998,true,true,true,0.0,12.3,0.0,0,0,0,0.125,12.3,0.0,0,0,0,0.125,12.25,0.0,0,0,0,0.0,12.35,0.0,0,0,0,0.0,12.3,0.0,0,0,0,0.0,12.3,0.0,0,0,0,0.0,12.35,0.0,0,0,0,kReverse,kOff,-87.62,2.09,2.1,-0.11791992,-0.83691406,0.09906006,26.12,0.0,-149.0,-0.36009216,-0.2861023,
253.28878899999998,true,true,true,0.0,12.3,0.0,0,0,0,0.0,12.3,0.0,0,0,0,0.125,12.25,0.0,0,0,0,0.0,12.35,0.0,0,0,0,0.0,12.3,0.0,0,0,0,0.0,12.3,0.0,0,0,0,0.0,12.35,0.0,0,0,0,kReverse,kOff,-87.64,2.08,2.09,-0.17242432,-0.8959961,-0.08605957,26.12,0.0,-203.0,-0.35777283,-0.2856598,
253.30771699999997,true,true,true,0.0,12.3,0.0,0,0,0,0.0,12.3,0.0,0,0,0,0.125,12.25,0.0,0,0,0,0.0,12.35,0.0,0,0,0,0.0,12.3,0.0,0,0,0,0.0,12.3,0.0,0,0,0,0.0,12.35,0.0,0,0,0,kReverse,kOff,-87.64,2.09,2.11,-0.19360352,-0.9071045,-0.31524658,26.12,0.0,-222.0,-0.35705566,-0.28572083,
253.330876,true,true,true,0.125,12.3,0.0,0,0,0,0.0,12.3,0.0,0,0,0,0.125,12.25,0.0,0,0,0,0.0,12.35,0.0,0,0,0,0.0,12.3,0.0,0,0,0,0.0,12.3,0.0,0,0,0,0.0,12.35,0.0,0,0,0,kReverse,kOff,-87.65,2.06,2.08,-0.088012695,-1.1338501,-0.24761963,26.12,0.0,-125.0,-0.35646057,-0.286911,
253.35695199999998,true,true,true,0.0,12.3,0.0,0,0,0,0.0,12.3,0.0,0,0,0,0.125,12.25,0.0,0,0,0,0.0,12.35,0.0,0,0,0,0.0,12.3,0.0,0,0,0,0.0,12.3,0.0,0,0,0,0.0,12.35,0.0,0,0,0,kReverse,kOff,-87.62,2.06,2.08,-0.056884766,-1.241272,0.044799805,26.12,0.0,-102.0,-0.3564453,-0.28778076,
253.38097799999997,true,true,true,0.0,12.3,0.0,0,0,0,0.0,12.3,0.0,0,0,0,0.125,12.25,0.0,0,0,0,0.0,12.35,0.0,0,0,0,0.0,12.3,0.0,0,0,0,0.0,12.3,0.0,0,0,0,0.0,12.35,0.0,0,0,0,kReverse,kOff,-87.6,2.06,2.08,0.07720947,-1.2914429,0.16235352,26.12,0.0,28.0,-0.35650635,-0.28903198,
253.404316,true,true,true,0.0,12.3,0.0,0,0,0,0.0,12.3,0.0,0,0,0,0.125,12.25,0.0,0,0,0,0.0,12.35,0.0,0,0,0,0.0,12.3,0.0,0,0,0,0.0,12.3,0.0,0,0,0,0.0,12.35,0.0,0,0,0,kReverse,kOff,-87.61,2.03,2.05,0.090148926,-1.1989746,0.29351807,26.12,0.0,43.0,-0.35646057,-0.2892151,
253.42364999999998,true,true,true,0.0,12.3,0.0,0,0,0,0.0,12.3,0.0,0,0,0,0.125,12.25,0.0,0,0,0,0.0,12.35,0.0,0,0,0,0.0,12.3,0.0,0,0,0,0.0,12.3,0.0,0,0,0,0.0,12.35,0.0,0,0,0,kReverse,kOff,-87.65,2.01,2.02,0.2142334,-1.25177,0.27972412,26.12,0.0,165.0,-0.35601807,-0.288208,
253.45099699999997,true,true,true,0.0,12.3,0.0,0,0,0,0.0,12.3,0.0,0,0,0,0.125,12.25,0.0,0,0,0,0.0,12.35,0.0,0,0,0,0.0,12.3,0.0,0,0,0,0.0,12.3,0.0,0,0,0,0.0,12.35,0.0,0,0,0,kReverse,kOff,-87.68,1.98,2.0,0.20391846,-1.0897217,-0.14727783,26.12,0.0,167.0,-0.35466003,-0.28614807,
253.472071,true,true,true,0.0,12.3,0.0,0,0,0,0.0,12.3,0.0,0,0,0,0.125,12.25,0.0,0,0,0,0.0,12.35,0.0,0,0,0,0.0,12.3,0.0,0,0,0,0.0,12.3,0.0,0,0,0,0.0,12.35,0.0,0,0,0,kReverse,kOff,-87.7,1.95,1.97,0.22668457,-1.059082,-0.28961182,26.12,0.0,193.0,-0.35362244,-0.28536987,
253.49710299999998,true,true,true,0.0,12.3,0.0,0,0,0,0.0,12.3,0.0,0,0,0,0.125,12.25,0.0,0,0,0,0.0,12.35,0.0,0,0,0,0.0,12.3,0.0,0,0,0,0.0,12.3,0.0,0,0,0,0.0,12.35,0.0,0,0,0,kReverse,kOff,-87.68,1.95,1.97,0.11328125,-0.7357788,-0.3255005,26.12,0.0,92.0,-0.35081482,-0.28507996,
253.52082499999997,true,true,true,0.0,12.3,0.0,0,0,0,0.0,12.3,0.0,0,0,0,0.125,12.25,0.0,0,0,0,0.0,12.35,0.0,0,0,0,0.0,12.3,0.0,0,0,0,0.0,12.3,0.0,0,0,0,0.0,12.35,0.0,0,0,0,kReverse,kOff,-87.68,1.93,1.95,0.14703369,-0.7136841,-0.099243164,26.12,0.0,42.0,-0.3474121,-0.28601074,
253.547305,true,true,true,0.0,12.3,0.0,0,0,0,0.0,12.3,0.0,0,0,0,0.125,12.25,0.0,0,0,0,0.0,12.35,0.0,0,0,0,0.0,12.3,0.0,0,0,0,0.0,12.3,0.0,0,0,0,0.0,12.35,0.0,0,0,0,kReverse,kOff,-87.68,1.92,1.94,1.2207031E-4,-0.6966553,-0.007080078,26.12,0.0,-23.0,-0.3456421,-0.28660583,
253.56927299999998,true,true,true,0.0,12.3,0.0,0,0,0,0.0,12.3,0.0,0,0,0,0.125,12.25,0.0,0,0,0,0.0,12.35,0.0,0,0,0,0.0,12.3,0.0,0,0,0,0.0,12.3,0.0,0,0,0,0.0,12.35,0.0,0,0,0,kReverse,kOff,-87.65,1.94,1.96,-0.08862305,-0.7576294,0.097229004,26.15,0.0,-115.0,-0.34228516,-0.28756714,
253.59205099999997,true,true,true,0.0,12.3,0.0,0,0,0,0.125,12.3,0.0,0,0,0,0.125,12.25,0.0,0,0,0,0.0,12.35,0.0,0,0,0,0.0,12.3,0.0,0,0,0,0.0,12.3,0.0,0,0,0,0.0,12.35,0.0,0,0,0,kReverse,kOff,-87.65,1.95,1.97,-0.1394043,-0.8588257,0.085754395,26.15,0.0,-170.0,-0.34085083,-0.2878418,
253.61507699999999,true,true,true,0.0,12.3,0.0,0,0,0,0.125,12.3,0.0,0,0,0,0.125,12.25,0.0,0,0,0,0.0,12.35,0.0,0,0,0,0.0,12.3,0.0,0,0,0,0.0,12.3,0.0,0,0,0,0.0,12.35,0.0,0,0,0,kReverse,kOff,-87.64,1.95,1.96,-0.19238281,-0.83343506,-0.109375,26.15,0.0,-219.0,-0.3388214,-0.28842163,
253.63852899999998,true,true,true,0.0,12.3,0.0,0,0,0,0.0,12.3,0.0,0,0,0,0.125,12.25,0.0,0,0,0,0.0,12.35,0.0,0,0,0,0.0,12.3,0.0,0,0,0,0.0,12.3,0.0,0,0,0,0.0,12.35,0.0,0,0,0,kReverse,kOff,-87.65,1.94,1.96,-0.19207764,-0.8439331,-0.21520996,26.15,0.0,-218.0,-0.33824158,-0.28897095,
253.66172199999997,true,true,true,0.0,12.3,0.0,0,0,0,0.0,12.3,0.0,0,0,0,0.125,12.25,0.0,0,0,0,0.0,12.35,0.0,0,0,0,0.0,12.3,0.0,0,0,0,0.0,12.3,0.0,0,0,0,0.0,12.35,0.0,0,0,0,kReverse,kOff,-87.66,1.92,1.94,-0.0713501,-1.140686,-0.29083252,26.15,0.0,-106.0,-0.33795166,-0.29103088,
253.68523899999997,true,true,true,0.0,12.3,0.0,0,0,0,0.0,12.3,0.0,0,0,0,0.125,12.25,0.0,0,0,0,0.0,12.35,0.0,0,0,0,0.0,12.3,0.0,0,0,0,0.0,12.3,0.0,0,0,0,0.0,12.35,0.0,0,0,0,kReverse,kOff,-87.62,1.91,1.93,0.028686523,-1.3170776,0.13372803,26.15,0.0,-17.0,-0.33833313,-0.29359436,
253.708555,true,true,true,0.0,12.3,0.0,0,0,0,0.0,12.3,0.0,0,0,0,0.125,12.25,0.0,0,0,0,0.0,12.35,0.0,0,0,0,0.0,12.3,0.0,0,0,0,0.0,12.3,0.0,0,0,0,0.0,12.35,0.0,0,0,0,kReverse,kOff,-87.62,1.9,1.92,0.084472656,-1.2860107,0.1807251,26.15,0.0,38.0,-0.33857727,-0.29452515,
253.731234,true,true,true,0.0,12.3,0.0,0,0,0,0.0,12.3,0.0,0,0,0,0.125,12.25,0.0,0,0,0,0.0,12.35,0.0,0,0,0,0.0,12.3,0.0,0,0,0,0.0,12.3,0.0,0,0,0,0.0,12.35,0.0,0,0,0,kReverse,kOff,-87.63,1.88,1.9,0.12945557,-1.2432861,0.2824707,26.15,0.0,84.0,-0.33885193,-0.29536438,
253.754719,true,true,true,0.0,12.3,0.0,0,0,0,0.0,12.3,0.0,0,0,0,0.125,12.25,0.0,0,0,0,0.0,12.3,0.0,0,0,0,0.0,12.3,0.0,0,0,0,0.0,12.3,0.0,0,0,0,0.0,12.35,0.0,0,0,0,kReverse,kOff,-87.65,1.85,1.87,0.19476318,-1.2537231,0.23840332,26.15,0.0,150.0,-0.3387909,-0.29518127,
253.77981,true,true,true,0.0,12.3,0.0,0,0,0,0.0,12.3,0.0,0,0,0,0.125,12.25,0.0,0,0,0,0.0,12.3,0.0,0,0,0,0.0,12.3,0.0,0,0,0,0.0,12.3,0.0,0,0,0,0.0,12.35,0.0,0,0,0,kReverse,kOff,-87.67,1.83,1.85,0.23425293,-1.0935059,-0.097961426,26.15,0.0,200.0,-0.33789062,-0.29418945,
253.80147499999998,true,true,true,0.0,12.3,0.0,0,0,0,0.0,12.3,0.0,0,0,0,0.125,12.25,0.0,0,0,0,0.0,12.3,0.0,0,0,0,0.0,12.3,0.0,0,0,0,0.0,12.3,0.0,0,0,0,0.0,12.35,0.0,0,0,0,kReverse,kOff,-87.69,1.83,1.85,0.2331543,-1.0484009,-0.25494385,26.15,0.0,202.0,-0.33703613,-0.29385376,
253.823566,true,true,true,0.0,12.3,0.0,0,0,0,0.0,12.3,0.0,0,0,0,0.125,12.25,0.0,0,0,0,0.0,12.3,0.0,0,0,0,0.0,12.3,0.0,0,0,0,0.0,12.3,0.0,0,0,0,0.0,12.35,0.0,0,0,0,kReverse,kOff,-87.66,1.86,1.88,0.12402344,-0.7967529,-0.30541992,26.15,0.0,101.0,-0.33457947,-0.29437256,
253.846895,true,true,true,0.0,12.3,0.0,0,0,0,0.0,12.3,0.0,0,0,0,0.125,12.25,0.0,0,0,0,0.0,12.3,0.0,0,0,0,0.0,12.3,0.0,0,0,0,0.0,12.3,0.0,0,0,0,0.0,12.35,0.0,0,0,0,kReverse,kOff,-87.65,1.84,1.86,0.13946533,-0.6854248,-0.1809082,26.15,0.0,119.0,-0.33309937,-0.29515076,
253.8673,true,true,true,0.0,12.3,0.0,0,0,0,0.0,12.3,0.0,0,0,0,0.125,12.25,0.0,0,0,0,0.0,12.3,0.0,0,0,0,0.0,12.3,0.0,0,0,0,0.0,12.3,0.0,0,0,0,0.0,12.35,0.0,0,0,0,kReverse,kOff,-87.64,1.83,1.85,0.02758789,-0.7451172,-0.025878906,26.15,0.0,3.0,-0.32983398,-0.29707336,
253.89852899999997,true,true,true,0.125,12.3,0.0,0,0,0,0.0,12.3,0.0,0,0,0,0.125,12.25,0.0,0,0,0,0.0,12.3,0.0,0,0,0,0.0,12.3,0.0,0,0,0,0.0,12.3,0.0,0,0,0,0.0,12.35,0.0,0,0,0,kReverse,kOff,-87.61,1.86,1.88,-0.1081543,-0.7821045,0.11456299,26.15,0.0,-135.0,-0.32676697,-0.29890442,
253.92231999999998,true,true,true,0.0,12.3,0.0,0,0,0,0.0,12.3,0.0,0,0,0,0.125,12.25,0.0,0,0,0,0.0,12.3,0.0,0,0,0,0.0,12.3,0.0,0,0,0,0.0,12.3,0.0,0,0,0,0.0,12.35,0.0,0,0,0,kReverse,kOff,-87.59,1.88,1.9,-0.076416016,-0.82232666,0.1418457,26.15,0.0,-105.0,-0.3254547,-0.2995758,
253.943708,true,true,true,0.0,12.3,0.0,0,0,0,0.0,12.3,0.0,0,0,0,0.125,12.25,0.0,0,0,0,0.0,12.3,0.0,0,0,0,0.0,12.3,0.0,0,0,0,0.0,12.3,0.0,0,0,0,0.0,12.35,0.0,0,0,0,kReverse,kOff,-87.6,1.89,1.91,-0.16973877,-0.7902832,-0.20251465,26.15,0.0,-193.0,-0.32354736,-0.30081177,
253.96662199999997,true,true,true,0.0,12.3,0.0,0,0,0,0.125,12.3,0.0,0,0,0,0.125,12.25,0.0,0,0,0,0.0,12.3,0.0,0,0,0,0.0,12.3,0.0,0,0,0,0.0,12.3,0.0,0,0,0,0.0,12.35,0.0,0,0,0,kReverse,kOff,-87.58,1.9,1.92,-0.16082764,-1.0575562,-0.31140137,26.15,0.0,-192.0,-0.3227539,-0.30308533,
253.98942899999997,true,true,true,0.0,12.3,0.0,0,0,0,0.0,12.3,0.0,0,0,0,0.125,12.25,0.0,0,0,0,0.0,12.3,0.0,0,0,0,0.0,12.3,0.0,0,0,0,0.0,12.3,0.0,0,0,0,0.0,12.35,0.0,0,0,0,kReverse,kOff,-87.54,1.91,1.93,-0.107299805,-1.1964111,-0.19458008,26.15,0.0,-145.0,-0.32273865,-0.30470276,
254.01264299999997,true,true,true,0.0,12.3,0.0,0,0,0,0.0,12.3,0.0,0,0,0,0.125,12.25,0.0,0,0,0,0.0,12.3,0.0,0,0,0,0.0,12.3,0.0,0,0,0,0.0,12.3,0.0,0,0,0,0.0,12.35,0.0,0,0,0,kReverse,kOff,-87.51,1.92,1.94,0.021728516,-1.2547607,0.14471436,26.15,0.0,-22.0,-0.3230896,-0.30796814,
254.03324099999998,true,true,true,0.0,12.3,0.0,0,0,0,0.0,12.3,0.0,0,0,0,0.125,12.25,0.0,0,0,0,0.0,12.3,0.0,0,0,0,0.0,12.3,0.0,0,0,0,0.0,12.3,0.0,0,0,0,0.0,12.35,0.0,0,0,0,kReverse,kOff,-87.52,1.92,1.94,0.07775879,-1.2041016,0.24365234,26.15,0.0,33.0,-0.32328796,-0.3092041,
254.057182,true,true,true,0.0,12.3,0.0,0,0,0,0.0,12.3,0.0,0,0,0,0.125,12.25,0.0,0,0,0,0.0,12.3,0.0,0,0,0,0.0,12.3,0.0,0,0,0,0.0,12.3,0.0,0,0,0,0.0,12.35,0.0,0,0,0,kReverse,kOff,-87.55,1.89,1.91,0.12432861,-1.2137451,0.3330078,26.13,0.0,79.0,-0.3235321,-0.31040955,
254.081976,true,true,true,0.0,12.3,0.0,0,0,0,0.0,12.3,0.0,0,0,0,0.125,12.25,0.0,0,0,0,0.0,12.3,0.0,0,0,0,0.0,12.3,0.0,0,0,0,0.0,12.25,0.0,0,0,0,0.0,12.35,0.0,0,0,0,kReverse,kOff,-87.57,1.87,1.89,0.20941162,-1.2960815,0.23797607,26.13,0.0,162.0,-0.3234558,-0.31033325,
254.10512199999997,true,true,true,0.0,12.3,0.0,0,0,0,0.0,12.3,0.0,0,0,0,0.125,12.25,0.0,0,0,0,0.0,12.3,0.0,0,0,0,0.0,12.3,0.0,0,0,0,0.0,12.25,0.0,0,0,0,0.0,12.35,0.0,0,0,0,kReverse,kOff,-87.57,1.87,1.89,0.2590332,-1.19104,-0.11791992,26.13,0.0,221.0,-0.3224945,-0.30973816,
254.12768999999997,true,true,true,0.0,12.3,0.0,0,0,0,0.0,12.3,0.0,0,0,0,0.125,12.25,0.0,0,0,0,0.0,12.3,0.0,0,0,0,0.0,12.3,0.0,0,0,0,0.0,12.25,0.0,0,0,0,0.0,12.35,0.0,0,0,0,kReverse,kOff,-87.6,1.85,1.87,0.22546387,-1.0228882,-0.2565918,26.13,0.0,195.0,-0.32157898,-0.30966187,
254.14854799999998,true,true,true,0.125,12.3,0.0,0,0,0,0.0,12.3,0.0,0,0,0,0.125,12.25,0.0,0,0,0,0.0,12.3,0.0,0,0,0,0.0,12.3,0.0,0,0,0,0.0,12.25,0.0,0,0,0,0.0,12.35,0.0,0,0,0,kReverse,kOff,-87.6,1.86,1.88,0.15625,-0.7267456,-0.2678833,26.13,0.0,135.0,-0.31900024,-0.31051636,
254.16929499999998,true,true,true,0.0,12.3,0.0,0,0,0,0.0,12.3,0.0,0,0,0,0.125,12.25,0.0,0,0,0,0.0,12.3,0.0,0,0,0,0.0,12.3,0.0,0,0,0,0.0,12.25,0.0,0,0,0,0.0,12.35,0.0,0,0,0,kReverse,kOff,-87.6,1.86,1.88,0.11791992,-0.659729,-0.24487305,26.13,0.0,99.0,-0.31744385,-0.31143188,
254.192286,true,true,true,0.0,12.3,0.0,0,0,0,0.0,12.3,0.0,0,0,0,0.125,12.25,0.0,0,0,0,0.0,12.3,0.0,0,0,0,0.0,12.3,0.0,0,0,0,0.0,12.25,0.0,0,0,0,0.0,12.35,0.0,0,0,0,kReverse,kOff,-87.59,1.86,1.88,0.068359375,-0.7059326,-0.068237305,26.13,0.0,46.0,-0.31578064,-0.31253052,
254.222887,true,true,true,0.0,12.3,0.0,0,0,0,0.0,12.3,0.0,0,0,0,0.125,12.25,0.0,0,0,0,0.0,12.3,0.0,0,0,0,0.0,12.3,0.0,0,0,0,0.0,12.25,0.0,0,0,0,0.0,12.35,0.0,0,0,0,kReverse,kOff,-87.54,1.9,1.92,-0.064575195,-0.7835083,0.10620117,26.13,0.0,-92.0,-0.31230164,-0.31471252,
254.249305,true,true,true,0.0,12.3,0.0,0,0,0,0.0,12.3,0.0,0,0,0,0.125,12.25,0.0,0,0,0,0.0,12.3,0.0,0,0,0,0.0,12.3,0.0,0,0,0,0.0,12.25,0.0,0,0,0,0.0,12.35,0.0,0,0,0,kReverse,kOff,-87.57,1.91,1.93,-0.15142822,-0.72265625,0.0993042,26.13,0.0,-177.0,-0.3093872,-0.3162079,
254.27292799999998,true,true,true,0.0,12.3,0.0,0,0,0,0.0,12.3,0.0,0,0,0,0.125,12.25,0.0,0,0,0,0.0,12.3,0.0,0,0,0,0.0,12.3,0.0,0,0,0,0.0,12.25,0.0,0,0,0,0.0,12.35,0.0,0,0,0,kReverse,kOff,-87.59,1.9,1.92,-0.19458008,-0.7307129,-0.008605957,26.13,0.0,-218.0,-0.3083191,-0.31677246,
