timer,lineLeft,lineCenter,lineRight,driverLeftX,driverLeftY,driverRightX,driverRightY,driverA,driverB,driverX,driverY,operatorLeftX,operatorLeftY,operatorRightX,operatorRightY,operatorA,operatorB,operatorX,operatorY,LeftFrontCurrent,LeftFrontVoltage,LeftFrontValue,LeftFrontPosition,LeftFrontVelocity,LeftFrontFaults,LeftRearCurrent,LeftRearVoltage,LeftRearValue,LeftRearPosition,LeftRearVelocity,LeftRearFaults,RightFrontCurrent,RightFrontVoltage,RightFrontValue,RightFrontPosition,RightFrontVelocity,RightFrontFaults,RightRearCurrent,RightRearVoltage,RightRearValue,RightRearPosition,RightRearVelocity,RightRearFaults,LiftCurrent,LiftVoltage,LiftValue,LiftPosition,LiftVelocity,LiftFaults,RollerCurrent,RollerVoltage,RollerValue,RollerPosition,RollerVelocity,RollerFaults,PushersState,navx_Pitch,navx_Roll,navx_Yaw,navx_XAcc,navx_YAcc,navx_ZAcc,navx_Temp,navx_Bar,navx_Alt,navx_XDis,navx_YDis,
711.9062929999999,true,true,true,0.0,-0.0078125,-0.0234375,-0.0078125,false,false,false,false,0.0,0.0,0.0,0.0,false,false,false,false,0.0,12.4,0.0,0,0,64,0.25,12.4,0.0,0,0,0,0.125,12.4,0.0,0,0,0,0.0,12.4,0.0,0,0,0,0.125,12.05,0.0,0,0,0,0.125,12.0,0.0,0,0,0,kForward,0.0,0.0,0.0,0.0,0.0,0.0,0.0,0.0,0.0,0.0,0.0,
711.999417,true,true,true,0.0,-0.0078125,-0.0234375,-0.0078125,false,false,false,false,0.0,0.0,0.0,0.0,false,false,false,false,0.0,12.0,0.0,0,0,64,0.25,12.0,0.0,0,0,0,0.125,12.0,0.0,0,0,0,0.0,11.95,0.0,0,0,0,0.125,12.05,0.0,0,0,0,0.125,12.0,0.0,0,0,0,kForward,0.0,0.0,0.0,0.0,0.0,0.0,0.0,0.0,0.0,0.0,0.0,
712.0924229999999,true,true,true,0.0,-0.0078125,-0.0234375,-0.0078125,false,false,false,false,0.0,0.0,0.0,0.0,false,false,false,false,0.0,12.0,0.0,0,0,64,0.25,12.0,0.0,0,0,0,0.125,12.0,0.0,0,0,0,0.0,12.0,0.0,0,0,0,0.125,12.05,0.0,0,0,0,0.125,12.0,0.0,0,0,0,kForward,0.0,0.0,0.0,0.0,0.0,0.0,0.0,0.0,0.0,0.0,0.0,
712.149755,true,true,true,0.0,-0.0078125,-0.0234375,-0.0078125,false,false,false,false,0.0,0.0,0.0,0.0,false,false,false,false,0.0,12.0,0.0,0,0,64,0.25,12.0,0.0,0,0,0,0.125,12.0,0.0,0,0,0,0.0,12.0,0.0,0,0,0,0.125,12.05,0.0,0,0,0,0.125,12.0,0.0,0,0,0,kForward,0.0,0.0,0.0,0.0,0.0,0.0,0.0,0.0,0.0,0.0,0.0,
712.227562,true,true,true,0.0,-0.0078125,-0.0234375,-0.0078125,false,false,false,false,0.0,0.0,0.0,0.0,false,false,false,false,0.0,12.0,0.0,0,0,64,0.25,12.0,0.0,0,0,0,0.125,12.0,0.0,0,0,0,0.0,11.95,0.0,0,0,0,0.125,12.05,0.0,0,0,0,0.125,12.0,0.0,0,0,0,kForward,0.0,0.0,0.0,0.0,0.0,0.0,0.0,0.0,0.0,0.0,0.0,
712.306719,true,true,true,0.0,-0.0078125,-0.0234375,-0.0078125,false,false,false,false,0.0,0.0,0.0,0.0,false,false,false,false,0.0,11.95,0.0,0,0,64,0.25,12.0,0.0,0,0,0,0.125,12.0,0.0,0,0,0,0.0,11.95,0.0,0,0,0,0.125,12.05,0.0,0,0,0,0.125,12.0,0.0,0,0,0,kForward,0.0,0.0,0.0,0.0,0.0,0.0,0.0,0.0,0.0,0.0,0.0,
712.3710649999999,true,true,true,0.0,-0.0078125,-0.0234375,-0.0078125,false,false,false,false,0.0,0.0,0.0,0.0,false,false,false,false,0.0,11.95,0.0,0,0,64,0.25,12.0,0.0,0,0,0,0.125,12.0,0.0,0,0,0,0.0,11.95,0.0,0,0,0,0.125,12.05,0.0,0,0,0,0.125,12.0,0.0,0,0,0,kForward,0.0,0.0,0.0,0.0,0.0,0.0,0.0,0.0,0.0,0.0,0.0,
712.4248699999999,true,true,true,0.0,-0.0078125,-0.0234375,-0.0078125,false,false,false,false,0.0,0.0,0.0,0.0,false,false,false,false,0.0,11.95,0.0,0,0,64,0.25,11.95,0.0,0,0,0,0.125,11.95,0.0,0,0,0,0.0,11.95,0.0,0,0,0,0.125,12.0,0.0,0,0,0,0.125,12.0,0.0,0,0,0,kForward,0.0,0.0,0.0,0.0,0.0,0.0,0.0,0.0,0.0,0.0,0.0,
712.487948,true,true,true,0.0,-0.0078125,-0.0234375,-0.0078125,false,false,false,false,0.0,0.0,0.0,0.0,false,false,false,false,0.0,11.95,0.0,0,0,64,0.25,11.95,0.0,0,0,0,0.125,11.95,0.0,0,0,0,0.0,11.95,0.0,0,0,0,0.125,12.0,0.0,0,0,0,0.125,12.0,0.0,0,0,0,kForward,0.0,0.0,0.0,0.0,0.0,0.0,0.0,0.0,0.0,0.0,0.0,
712.560517,true,true,true,0.0,-0.0078125,-0.0234375,-0.0078125,false,false,false,false,0.0,0.0,0.0,0.0,false,false,false,false,0.0,11.95,0.0,0,0,64,0.25,11.95,0.0,0,0,0,0.125,11.95,0.0,0,0,0,0.0,11.9,0.0,0,0,0,0.125,12.0,0.0,0,0,0,0.125,12.0,0.0,0,0,0,kForward,0.0,0.0,0.0,0.0,0.0,0.0,0.0,0.0,0.0,0.0,0.0,
712.648248,true,true,true,0.0,-0.0078125,-0.0234375,-0.0078125,false,false,false,false,0.0,0.0,0.0,0.0,false,false,false,false,0.0,11.9,0.0,0,0,64,0.25,11.95,0.0,0,0,0,0.125,11.95,0.0,0,0,0,0.0,11.9,0.0,0,0,0,0.125,12.0,0.0,0,0,0,0.125,12.0,0.0,0,0,0,kForward,0.0,0.0,0.0,0.0,0.0,0.0,0.0,0.0,0.0,0.0,0.0,
712.71349,true,true,true,0.0,-0.0078125,-0.0234375,-0.0078125,false,false,false,false,0.0,0.0,0.0,0.0,false,false,false,false,0.0,11.9,0.0,0,0,64,0.25,11.95,0.0,0,0,0,0.125,11.95,0.0,0,0,0,0.0,11.9,0.0,0,0,0,0.125,12.0,0.0,0,0,0,0.125,11.95,0.0,0,0,0,kForward,0.0,0.0,0.0,0.0,0.0,0.0,0.0,0.0,0.0,0.0,0.0,
712.784757,true,true,true,0.0,-0.0078125,-0.0234375,-0.0078125,false,false,false,false,0.0,0.0,0.0,0.0,false,false,false,false,0.0,11.9,0.0,0,0,64,0.25,11.95,0.0,0,0,0,0.125,11.9,0.0,0,0,0,0.0,11.9,0.0,0,0,0,0.125,12.0,0.0,0,0,0,0.125,11.95,0.0,0,0,0,kForward,0.0,0.0,0.0,0.0,0.0,0.0,0.0,0.0,0.0,0.0,0.0,
712.858248,true,true,true,0.0,-0.0078125,-0.0234375,-0.0078125,false,false,false,false,0.0,0.0,0.0,0.0,false,false,false,false,0.0,11.9,0.0,0,0,64,0.25,11.95,0.0,0,0,0,0.125,11.9,0.0,0,0,0,0.0,11.9,0.0,0,0,0,0.125,12.0,0.0,0,0,0,0.125,11.95,0.0,0,0,0,kForward,0.0,0.0,0.0,0.0,0.0,0.0,0.0,0.0,0.0,0.0,0.0,
712.957815,true,true,true,0.0,-0.0078125,-0.0234375,-0.0078125,false,false,false,false,0.0,0.0,0.0,0.0,false,false,false,false,0.0,11.9,0.0,0,0,64,0.25,11.9,0.0,0,0,0,0.125,11.9,0.0,0,0,0,0.0,11.9,0.0,0,0,0,0.125,12.0,0.0,0,0,0,0.125,11.95,0.0,0,0,0,kForward,0.0,0.0,0.0,0.0,0.0,0.0,0.0,0.0,0.0,0.0,0.0,
713.048786,true,true,true,0.0,-0.0078125,-0.0234375,-0.0078125,false,false,false,false,0.0,0.0,0.0,0.0,false,false,false,false,0.0,11.9,0.0,0,0,64,0.25,11.9,0.0,0,0,0,0.125,11.9,0.0,0,0,0,0.0,11.9,0.0,0,0,0,0.125,12.0,0.0,0,0,0,0.125,11.95,0.0,0,0,0,kForward,0.0,0.0,0.0,0.0,0.0,0.0,0.0,0.0,0.0,0.0,0.0,
713.128732,true,true,true,0.0,-0.0078125,-0.0234375,-0.0078125,false,false,false,false,0.0,0.0,0.0,0.0,false,false,false,false,0.0,11.9,0.0,0,0,64,0.25,11.9,0.0,0,0,0,0.125,11.9,0.0,0,0,0,0.0,11.9,0.0,0,0,0,0.125,12.0,0.0,0,0,0,0.125,11.95,0.0,0,0,0,kForward,0.0,0.0,0.0,0.0,0.0,0.0,0.0,0.0,0.0,0.0,0.0,
713.185275,true,true,true,0.0,-0.0703125,-0.0234375,-0.0078125,false,false,false,false,0.0,0.0,0.0,0.0,false,false,false,false,0.0,11.9,0.0,0,0,64,0.25,11.9,0.0,0,0,0,0.125,11.9,0.0,0,0,0,0.0,11.9,0.0,0,0,0,0.125,12.0,0.0,0,0,0,0.125,11.95,0.0,0,0,0,kForward,0.0,0.0,0.0,0.0,0.0,0.0,0.0,0.0,0.0,0.0,0.0,
713.2234179999999,true,true,true,0.0,-0.234375,-0.0234375,-0.0078125,false,false,false,false,0.0,0.0,0.0,0.0,false,false,false,false,0.0,11.9,0.0,0,0,64,0.25,11.9,0.0,0,0,0,0.375,11.850000000000001,0.0,0,0,0,0.0,11.9,0.0,0,0,0,0.125,12.0,0.0,0,0,0,0.125,11.9,0.0,0,0,0,kForward,0.0,0.0,0.0,0.0,0.0,0.0,0.0,0.0,0.0,0.0,0.0,
713.271554,true,true,true,-0.0625,-0.3515625,-0.0234375,-0.0078125,false,false,false,false,0.0,0.0,0.0,0.0,false,false,false,false,0.0,11.8,0.0,0,0,64,1.25,11.9,0.0,0,0,0,1.0,11.850000000000001,0.0,0,0,0,0.5,11.9,0.0,0,0,0,0.125,12.0,0.0,0,0,0,0.125,11.9,0.0,0,0,0,kForward,0.0,0.0,0.0,0.0,0.0,0.0,0.0,0.0,0.0,0.0,0.0,
713.358554,true,true,true,-0.1484375,-0.4609375,-0.0234375,-0.0078125,false,false,false,false,0.0,0.0,0.0,0.0,false,false,false,false,2.25,11.8,0.0,1,1,64,3.125,11.9,0.0,0,0,0,3.0,11.850000000000001,0.0,0,0,0,2.125,11.5,0.0,0,0,0,0.125,11.600000000000001,0.0,0,0,0,0.125,11.5,0.0,0,0,0,kForward,0.0,0.0,0.0,0.0,0.0,0.0,0.0,0.0,0.0,0.0,0.0,
713.417182,true,true,true,-0.1484375,-0.578125,-0.0234375,-0.0078125,false,false,false,false,0.0,0.0,0.0,0.0,false,false,false,false,3.125,11.8,0.0,1,0,64,5.125,11.5,0.0,0,0,0,4.625,11.4,0.0,0,0,0,3.375,11.5,0.0,0,0,0,0.125,11.600000000000001,0.0,0,0,0,0.125,11.5,0.0,0,0,0,kForward,0.0,0.0,0.0,0.0,0.0,0.0,0.0,0.0,0.0,0.0,0.0,
713.475527,true,true,true,-0.1484375,-0.609375,-0.0234375,-0.0078125,false,false,false,false,0.0,0.0,0.0,0.0,false,false,false,false,6.875,11.15,0.0,2,1,64,8.625,11.5,0.0,0,0,0,7.625,11.4,0.0,0,0,0,7.125,11.5,0.0,0,0,0,0.125,11.600000000000001,0.0,0,0,0,0.125,11.5,0.0,0,0,0,kForward,0.0,0.0,0.0,0.0,0.0,0.0,0.0,0.0,0.0,0.0,0.0,
713.557497,true,true,true,-0.1484375,-0.7265625,-0.0234375,-0.0078125,false,false,false,false,0.0,0.0,0.0,0.0,false,false,false,false,7.5,11.15,0.0,3,2,64,11.375,10.65,0.0,0,0,0,10.25,10.55,0.0,0,0,0,8.375,10.55,0.0,0,0,0,0.125,10.75,0.0,0,0,0,0.125,10.7,0.0,0,0,0,kForward,0.0,0.0,0.0,0.0,0.0,0.0,0.0,0.0,0.0,0.0,0.0,
713.651189,true,true,true,-0.1640625,-0.8515625,-0.0234375,-0.0078125,false,false,false,false,0.0,0.0,0.0,0.0,false,false,false,false,11.375,10.2,0.0,3,0,64,14.875,10.65,0.0,0,0,0,14.0,10.55,0.0,0,0,0,11.25,10.55,0.0,0,0,0,0.125,10.75,0.0,0,0,0,0.125,10.7,0.0,0,0,0,kForward,0.0,0.0,0.0,0.0,0.0,0.0,0.0,0.0,0.0,0.0,0.0,
713.706405,true,true,true,-0.1640625,-0.9296875,-0.0234375,-0.0078125,false,false,false,false,0.0,0.0,0.0,0.0,false,false,false,false,16.125,10.2,0.0,4,1,64,18.75,9.5,0.0,0,0,0,15.125,9.55,0.0,0,0,0,15.125,9.5,0.0,0,0,0,0.125,9.75,0.0,0,0,0,0.125,9.7,0.0,0,0,0,kForward,0.0,0.0,0.0,0.0,0.0,0.0,0.0,0.0,0.0,0.0,0.0,
713.785217,true,true,true,-0.1640625,-1.0,-0.0234375,-0.0078125,false,false,false,false,0.0,0.0,0.0,0.0,false,false,false,false,19.0,9.05,0.0,5,1,64,23.75,9.5,0.0,0,0,0,21.125,9.55,0.0,0,0,0,20.25,9.5,0.0,0,0,0,0.125,9.75,0.0,0,0,0,0.125,9.7,0.0,0,0,0,kForward,0.0,0.0,0.0,0.0,0.0,0.0,0.0,0.0,0.0,0.0,0.0,
713.8666089999999,true,true,true,-0.1640625,-1.0,-0.0234375,-0.0078125,false,false,false,false,0.0,0.0,0.0,0.0,false,false,false,false,20.5,9.05,0.0,6,1,64,25.75,8.8,0.0,0,0,0,21.75,8.7,0.0,0,0,0,23.625,8.75,0.0,0,0,0,0.125,8.95,0.0,0,0,0,0.125,8.9,0.0,0,0,0,kForward,0.0,0.0,0.0,0.0,0.0,0.0,0.0,0.0,0.0,0.0,0.0,
713.92589,true,true,true,-0.1796875,-1.0,-0.0234375,-0.0078125,false,false,false,false,0.0,0.0,0.0,0.0,false,false,false,false,22.625,8.45,0.0,6,0,64,28.875,8.8,0.0,0,0,0,22.0,8.7,0.0,0,0,0,24.75,8.75,0.0,0,0,0,0.125,8.95,0.0,0,0,0,0.125,8.9,0.0,0,0,0,kForward,0.0,0.0,0.0,0.0,0.0,0.0,0.0,0.0,0.0,0.0,0.0,
713.986635,true,true,true,-0.1796875,-1.0,-0.0234375,-0.0078125,false,false,false,false,0.0,0.0,0.0,0.0,false,false,false,false,24.75,8.45,0.0,6,0,64,29.25,8.8,0.0,0,0,0,21.375,8.7,0.0,0,0,0,25.75,8.75,0.0,0,0,0,0.125,8.600000000000001,0.0,0,0,0,0.125,8.55,0.0,0,0,0,kForward,0.0,0.0,0.0,0.0,0.0,0.0,0.0,0.0,0.0,0.0,0.0,
714.050666,true,true,true,-0.1796875,-1.0,-0.0234375,-0.0078125,false,false,false,false,0.0,0.0,0.0,0.0,false,false,false,false,24.125,8.45,0.0,6,0,64,29.375,8.350000000000001,0.0,0,0,0,21.0,8.350000000000001,0.0,0,0,0,26.875,8.2,0.0,0,0,0,0.125,8.600000000000001,0.0,0,0,0,0.125,8.55,0.0,0,0,0,kForward,0.0,0.0,0.0,0.0,0.0,0.0,0.0,0.0,0.0,0.0,0.0,
714.119466,true,true,true,-0.1796875,-1.0,-0.0234375,-0.0078125,false,false,false,false,0.0,0.0,0.0,0.0,false,false,false,false,23.5,8.2,0.0,6,0,64,30.625,8.350000000000001,0.0,0,0,0,21.125,8.350000000000001,0.0,0,0,0,26.125,8.2,0.0,0,0,0,0.125,8.600000000000001,0.0,0,0,0,0.125,8.55,0.0,0,0,0,kForward,0.0,0.0,0.0,0.0,0.0,0.0,0.0,0.0,0.0,0.0,0.0,
714.214302,true,true,true,-0.1796875,-1.0,-0.0234375,-0.0078125,false,false,false,false,0.0,0.0,0.0,0.0,false,false,false,false,23.5,8.2,0.0,6,0,64,30.25,8.350000000000001,0.0,0,0,0,21.375,8.350000000000001,0.0,0,0,0,25.75,8.4,0.0,0,0,0,0.125,8.600000000000001,0.0,0,0,0,0.125,8.55,0.0,0,0,0,kForward,0.0,0.0,0.0,0.0,0.0,0.0,0.0,0.0,0.0,0.0,0.0,
714.257137,true,true,true,-0.1796875,-1.0,-0.0234375,-0.0078125,false,false,false,false,0.0,0.0,0.0,0.0,false,false,false,false,23.5,8.25,0.0,6,0,64,30.25,8.350000000000001,0.0,0,0,0,21.625,8.350000000000001,0.0,0,0,0,25.75,8.4,0.0,0,0,0,0.125,8.600000000000001,0.0,0,0,0,0.125,8.55,0.0,0,0,0,kForward,0.0,0.0,0.0,0.0,0.0,0.0,0.0,0.0,0.0,0.0,0.0,
714.3401729999999,true,true,true,-0.171875,-1.0,-0.0234375,-0.0078125,false,false,false,false,0.0,0.0,0.0,0.0,false,false,false,false,24.125,8.25,0.0,6,0,64,29.25,8.350000000000001,0.0,0,0,0,21.5,8.45,0.0,0,0,0,25.375,8.4,0.0,0,0,0,0.125,8.600000000000001,0.0,0,0,0,0.125,8.55,0.0,0,0,0,kForward,0.0,0.0,0.0,0.0,0.0,0.0,0.0,0.0,0.0,0.0,0.0,
714.41318,true,true,true,-0.171875,-1.0,-0.0234375,-0.0078125,false,false,false,false,0.0,0.0,0.0,0.0,false,false,false,false,23.875,8.25,0.0,6,0,64,29.25,8.350000000000001,0.0,0,0,0,21.25,8.45,0.0,0,0,0,25.625,8.4,0.0,0,0,0,0.125,8.600000000000001,0.0,0,0,0,0.125,8.55,0.0,0,0,0,kForward,0.0,0.0,0.0,0.0,0.0,0.0,0.0,0.0,0.0,0.0,0.0,
714.504932,true,true,true,-0.171875,-1.0,-0.0234375,-0.0078125,false,false,false,false,0.0,0.0,0.0,0.0,false,false,false,false,23.625,8.25,0.0,6,0,64,29.0,8.350000000000001,0.0,0,0,0,21.375,8.25,0.0,0,0,0,25.375,8.4,0.0,0,0,0,0.125,8.600000000000001,0.0,0,0,0,0.125,8.600000000000001,0.0,0,0,0,kForward,0.0,0.0,0.0,0.0,0.0,0.0,0.0,0.0,0.0,0.0,0.0,
714.5842739999999,true,true,true,-0.171875,-1.0,-0.0234375,-0.0078125,false,false,false,false,0.0,0.0,0.0,0.0,false,false,false,false,23.5,8.25,0.0,7,1,64,29.625,8.350000000000001,0.0,0,0,0,21.5,8.25,0.0,0,0,0,25.125,8.4,0.0,0,0,0,0.125,8.600000000000001,0.0,0,0,0,0.125,8.600000000000001,0.0,0,0,0,kForward,0.0,0.0,0.0,0.0,0.0,0.0,0.0,0.0,0.0,0.0,0.0,
714.675072,true,true,true,-0.171875,-1.0,-0.0234375,-0.0078125,false,false,false,false,0.0,0.0,0.0,0.0,false,false,false,false,23.25,8.25,0.0,7,0,64,29.625,8.350000000000001,0.0,0,0,0,21.75,8.4,0.0,0,0,0,24.5,8.350000000000001,0.0,0,0,0,0.125,8.600000000000001,0.0,0,0,0,0.125,8.600000000000001,0.0,0,0,0,kForward,0.0,0.0,0.0,0.0,0.0,0.0,0.0,0.0,0.0,0.0,0.0,
714.752306,true,true,true,-0.171875,-1.0,-0.0234375,-0.0078125,false,false,false,false,0.0,0.0,0.0,0.0,false,false,false,false,23.375,8.45,0.0,7,0,64,29.375,8.350000000000001,0.0,0,0,0,21.625,8.4,0.0,0,0,0,24.75,8.350000000000001,0.0,0,0,0,0.125,8.600000000000001,0.0,0,0,0,0.125,8.600000000000001,0.0,0,0,0,kForward,0.0,0.0,0.0,0.0,0.0,0.0,0.0,0.0,0.0,0.0,0.0,
714.79654,true,true,true,-0.171875,-1.0,-0.0234375,-0.0078125,false,false,false,false,0.0,0.0,0.0,0.0,false,false,false,false,24.0,8.45,0.0,7,0,64,28.625,8.350000000000001,0.0,0,0,0,21.75,8.4,0.0,0,0,0,25.125,8.45,0.0,0,0,0,0.125,8.600000000000001,0.0,0,0,0,0.125,8.55,0.0,0,0,0,kForward,0.0,0.0,0.0,0.0,0.0,0.0,0.0,0.0,0.0,0.0,0.0,
714.851035,true,true,true,-0.171875,-1.0,-0.0234375,-0.0078125,false,false,false,false,0.0,0.0,0.0,0.0,false,false,false,false,24.0,8.45,0.0,7,0,64,28.625,8.4,0.0,0,0,0,22.125,8.350000000000001,0.0,0,0,0,24.75,8.45,0.0,0,0,0,0.125,8.600000000000001,0.0,0,0,0,0.125,8.55,0.0,0,0,0,kForward,0.0,0.0,0.0,0.0,0.0,0.0,0.0,0.0,0.0,0.0,0.0,
714.926421,true,true,true,-0.171875,-1.0,-0.0234375,-0.0078125,false,false,false,false,0.0,0.0,0.0,0.0,false,false,false,false,23.75,8.15,0.0,7,0,64,29.625,8.4,0.0,0,0,0,22.375,8.350000000000001,0.0,0,0,0,24.5,8.45,0.0,0,0,0,0.125,8.600000000000001,0.0,0,0,0,0.125,8.55,0.0,0,0,0,kForward,0.0,0.0,0.0,0.0,0.0,0.0,0.0,0.0,0.0,0.0,0.0,
715.00848,true,true,true,-0.171875,-1.0,-0.0234375,-0.0078125,false,false,false,false,0.0,0.0,0.0,0.0,false,false,false,false,23.125,8.15,0.0,7,0,64,29.75,8.4,0.0,0,0,0,22.25,8.45,0.0,0,0,0,24.5,8.350000000000001,0.0,0,0,0,0.125,8.55,0.0,0,0,0,0.125,8.55,0.0,0,0,0,kForward,0.0,0.0,0.0,0.0,0.0,0.0,0.0,0.0,0.0,0.0,0.0,
715.076073,true,true,true,-0.171875,-1.0,-0.0234375,-0.0078125,false,false,false,false,0.0,0.0,0.0,0.0,false,false,false,false,22.625,8.15,0.0,7,0,64,29.75,8.4,0.0,0,0,0,22.75,8.45,0.0,0,0,0,24.125,8.350000000000001,0.0,0,0,0,0.125,8.55,0.0,0,0,0,0.125,8.55,0.0,0,0,0,kForward,0.0,0.0,0.0,0.0,0.0,0.0,0.0,0.0,0.0,0.0,0.0,
715.1566720000001,true,true,true,-0.171875,-1.0,-0.0234375,-0.0078125,false,false,false,false,0.0,0.0,0.0,0.0,false,false,false,false,22.5,8.15,0.0,7,0,64,29.125,8.350000000000001,0.0,0,0,0,22.875,8.4,0.0,0,0,0,22.75,8.4,0.0,0,0,0,0.125,8.65,0.0,0,0,0,0.125,8.600000000000001,0.0,0,0,0,kForward,0.0,0.0,0.0,0.0,0.0,0.0,0.0,0.0,0.0,0.0,0.0,
715.240688,true,true,true,-0.171875,-1.0,-0.0234375,-0.0078125,false,false,false,false,0.0,0.0,0.0,0.0,false,false,false,false,22.125,8.3,0.0,7,0,64,27.125,8.350000000000001,0.0,0,0,0,23.0,8.4,0.0,0,0,0,23.125,8.4,0.0,0,0,0,0.125,8.65,0.0,0,0,0,0.125,8.600000000000001,0.0,0,0,0,kForward,0.0,0.0,0.0,0.0,0.0,0.0,0.0,0.0,0.0,0.0,0.0,
715.305824,true,true,true,-0.171875,-1.0,-0.0234375,-0.0078125,false,false,false,false,0.0,0.0,0.0,0.0,false,false,false,false,21.5,8.3,0.0,7,0,64,27.75,8.45,0.0,0,0,0,23.25,8.45,0.0,0,0,0,22.5,8.5,0.0,0,0,0,0.125,8.7,0.0,0,0,0,0.125,8.65,0.0,0,0,0,kForward,0.0,0.0,0.0,0.0,0.0,0.0,0.0,0.0,0.0,0.0,0.0,
715.3723419999999,true,true,true,-0.171875,-1.0,-0.0234375,-0.0078125,false,false,false,false,0.0,0.0,0.0,0.0,false,false,false,false,21.5,8.25,0.0,7,0,64,27.375,8.45,0.0,0,0,0,23.125,8.45,0.0,0,0,0,22.5,8.5,0.0,0,0,0,0.125,8.7,0.0,0,0,0,0.125,8.65,0.0,0,0,0,kForward,0.0,0.0,0.0,0.0,0.0,0.0,0.0,0.0,0.0,0.0,0.0,
715.4258000000001,true,true,true,0.0,-1.0,-0.0234375,-0.0078125,false,false,false,false,0.0,0.0,0.0,0.0,false,false,false,false,21.25,8.25,0.0,7,0,64,27.25,8.45,0.0,0,0,0,23.125,8.45,0.0,0,0,0,22.75,8.5,0.0,0,0,0,0.125,8.7,0.0,0,0,0,0.125,8.65,0.0,0,0,0,kForward,0.0,0.0,0.0,0.0,0.0,0.0,0.0,0.0,0.0,0.0,0.0,
715.485139,true,true,true,0.0,-1.0,-0.0234375,-0.0078125,false,false,false,false,0.0,0.0,0.0,0.0,false,false,false,false,21.75,8.25,0.0,7,0,64,27.375,8.5,0.0,0,0,0,23.25,8.45,0.0,0,0,0,22.0,8.55,0.0,0,0,0,0.125,8.75,0.0,0,0,0,0.125,8.65,0.0,0,0,0,kForward,0.0,0.0,0.0,0.0,0.0,0.0,0.0,0.0,0.0,0.0,0.0,
715.5536430000001,true,true,true,0.0,-1.0,-0.0234375,-0.0078125,false,false,false,false,0.0,0.0,0.0,0.0,false,false,false,false,22.25,8.350000000000001,0.0,7,0,64,27.125,8.5,0.0,0,0,0,23.375,8.45,0.0,0,0,0,21.75,8.55,0.0,0,0,0,0.125,8.75,0.0,0,0,0,0.125,8.65,0.0,0,0,0,kForward,0.0,0.0,0.0,0.0,0.0,0.0,0.0,0.0,0.0,0.0,0.0,
715.628323,true,true,true,0.0,-1.0,-0.0234375,-0.0078125,false,false,false,false,0.0,0.0,0.0,0.0,false,false,false,false,21.875,8.350000000000001,0.0,7,0,64,27.125,8.5,0.0,0,0,0,23.25,8.45,0.0,0,0,0,21.5,8.5,0.0,0,0,0,0.125,8.75,0.0,0,0,0,0.125,8.65,0.0,0,0,0,kForward,0.0,0.0,0.0,0.0,0.0,0.0,0.0,0.0,0.0,0.0,0.0,
715.729954,true,true,true,0.0,-1.0,-0.0234375,-0.0078125,false,false,false,false,0.0,0.0,0.0,0.0,false,false,false,false,21.875,8.4,0.0,7,0,64,27.375,8.5,0.0,0,0,0,24.25,8.45,0.0,0,0,0,21.125,8.5,0.0,0,0,0,0.125,8.75,0.0,0,0,0,0.125,8.65,0.0,0,0,0,kForward,0.0,0.0,0.0,0.0,0.0,0.0,0.0,0.0,0.0,0.0,0.0,
715.792014,true,true,true,0.0,-1.0,-0.0234375,-0.0078125,false,false,false,false,0.0,0.0,0.0,0.0,false,false,false,false,21.5,8.4,0.0,7,0,64,27.75,8.55,0.0,0,0,0,23.875,8.45,0.0,0,0,0,21.25,8.5,0.0,0,0,0,0.125,8.7,0.0,0,0,0,0.125,8.65,0.0,0,0,0,kForward,0.0,0.0,0.0,0.0,0.0,0.0,0.0,0.0,0.0,0.0,0.0,
715.843348,true,true,true,0.0,-1.0,-0.0234375,-0.0078125,false,false,false,false,0.0,0.0,0.0,0.0,false,false,false,false,21.625,8.4,0.0,7,0,64,27.875,8.55,0.0,0,0,0,22.875,8.45,0.0,0,0,0,21.75,8.5,0.0,0,0,0,0.125,8.7,0.0,0,0,0,0.125,8.65,0.0,0,0,0,kForward,0.0,0.0,0.0,0.0,0.0,0.0,0.0,0.0,0.0,0.0,0.0,
715.947453,true,true,true,0.0,-1.0,-0.0234375,-0.0078125,false,false,false,false,0.0,0.0,0.0,0.0,false,false,false,false,21.5,8.4,0.0,7,0,64,27.875,8.45,0.0,0,0,0,22.875,8.65,0.0,0,0,0,21.625,8.4,0.0,0,0,0,0.125,8.7,0.0,0,0,0,0.125,8.65,0.0,0,0,0,kForward,0.0,0.0,0.0,0.0,0.0,0.0,0.0,0.0,0.0,0.0,0.0,
715.99453,true,true,true,0.0,-1.0,-0.0234375,-0.0078125,false,false,false,false,0.0,0.0,0.0,0.0,false,false,false,false,22.125,8.4,0.0,7,0,64,27.375,8.45,0.0,0,0,0,22.875,8.65,0.0,0,0,0,21.5,8.4,0.0,0,0,0,0.125,8.7,0.0,0,0,0,0.125,8.65,0.0,0,0,0,kForward,0.0,0.0,0.0,0.0,0.0,0.0,0.0,0.0,0.0,0.0,0.0,
716.072297,true,true,true,0.0,-1.0,-0.0234375,-0.0078125,false,false,false,false,0.0,0.0,0.0,0.0,false,false,false,false,21.875,8.4,0.0,7,0,64,27.375,8.45,0.0,0,0,0,23.125,8.65,0.0,0,0,0,21.5,8.4,0.0,0,0,0,0.125,8.7,0.0,0,0,0,0.125,8.65,0.0,0,0,0,kForward,0.0,0.0,0.0,0.0,0.0,0.0,0.0,0.0,0.0,0.0,0.0,
716.123878,true,true,true,0.0,-1.0,-0.0234375,-0.0078125,false,false,false,false,0.0,0.0,0.0,0.0,false,false,false,false,22.0,8.4,0.0,7,0,64,27.25,8.45,0.0,0,0,0,23.125,8.45,0.0,0,0,0,21.625,8.55,0.0,0,0,0,0.125,8.7,0.0,0,0,0,0.125,8.65,0.0,0,0,0,kForward,0.0,0.0,0.0,0.0,0.0,0.0,0.0,0.0,0.0,0.0,0.0,
716.193356,true,true,true,0.0,-1.0,-0.0234375,-0.0078125,false,false,false,false,0.0,0.0,0.0,0.0,false,false,false,false,21.875,8.4,0.0,7,0,64,27.125,8.45,0.0,0,0,0,24.25,8.45,0.0,0,0,0,21.625,8.55,0.0,0,0,0,0.125,8.7,0.0,0,0,0,0.125,8.65,0.0,0,0,0,kForward,0.0,0.0,0.0,0.0,0.0,0.0,0.0,0.0,0.0,0.0,0.0,
716.271836,true,true,true,0.0,-1.0,-0.0234375,-0.0078125,false,false,false,false,0.0,0.0,0.0,0.0,false,false,false,false,21.625,8.4,0.0,7,0,64,27.125,8.4,0.0,0,0,0,25.75,8.45,0.0,0,0,0,21.375,8.4,0.0,0,0,0,0.125,8.65,0.0,0,0,0,0.125,8.600000000000001,0.0,0,0,0,kForward,0.0,0.0,0.0,0.0,0.0,0.0,0.0,0.0,0.0,0.0,0.0,
716.33371,true,true,true,0.0,-1.0,-0.0234375,-0.0078125,false,false,false,false,0.0,0.0,0.0,0.0,false,false,false,false,21.625,8.25,0.0,7,0,64,26.875,8.4,0.0,0,0,0,25.125,8.45,0.0,0,0,0,21.75,8.4,0.0,0,0,0,0.125,8.65,0.0,0,0,0,0.125,8.600000000000001,0.0,0,0,0,kForward,0.0,0.0,0.0,0.0,0.0,0.0,0.0,0.0,0.0,0.0,0.0,
716.4088589999999,true,true,true,0.0,-1.0,-0.0234375,-0.0078125,false,false,false,false,0.0,0.0,0.0,0.0,false,false,false,false,21.75,8.25,0.0,7,0,64,26.75,8.45,0.0,0,0,0,25.375,8.4,0.0,0,0,0,21.75,8.5,0.0,0,0,0,0.125,8.65,0.0,0,0,0,0.125,8.600000000000001,0.0,0,0,0,kForward,0.0,0.0,0.0,0.0,0.0,0.0,0.0,0.0,0.0,0.0,0.0,
716.496904,true,true,true,0.0,-1.0,-0.0234375,-0.0078125,false,false,false,false,0.0,0.0,0.0,0.0,false,false,false,false,21.625,8.2,0.0,7,0,64,26.75,8.45,0.0,0,0,0,25.625,8.4,0.0,0,0,0,21.875,8.5,0.0,0,0,0,0.125,8.65,0.0,0,0,0,0.125,8.600000000000001,0.0,0,0,0,kForward,0.0,0.0,0.0,0.0,0.0,0.0,0.0,0.0,0.0,0.0,0.0,
716.5740330000001,true,true,true,0.0,-1.0,-0.0234375,-0.0078125,false,false,false,false,0.0,0.0,0.0,0.0,false,false,false,false,21.5,8.2,0.0,7,0,64,27.125,8.55,0.0,0,0,0,25.125,8.350000000000001,0.0,0,0,0,21.75,8.45,0.0,0,0,0,0.125,8.65,0.0,0,0,0,0.125,8.600000000000001,0.0,0,0,0,kForward,0.0,0.0,0.0,0.0,0.0,0.0,0.0,0.0,0.0,0.0,0.0,
716.661249,true,true,true,0.0,-1.0,-0.0234375,-0.0078125,false,false,false,false,0.0,0.0,0.0,0.0,false,false,false,false,21.375,8.350000000000001,0.0,7,0,64,27.375,8.55,0.0,0,0,0,25.125,8.350000000000001,0.0,0,0,0,21.75,8.45,0.0,0,0,0,0.125,8.65,0.0,0,0,0,0.125,8.600000000000001,0.0,0,0,0,kForward,0.0,0.0,0.0,0.0,0.0,0.0,0.0,0.0,0.0,0.0,0.0,
716.7234540000001,true,true,true,0.0,-1.0,-0.0234375,-0.0078125,false,false,false,false,0.0,0.0,0.0,0.0,false,false,false,false,21.5,8.350000000000001,0.0,7,0,64,27.375,8.55,0.0,0,0,0,25.0,8.350000000000001,0.0,0,0,0,21.875,8.350000000000001,0.0,0,0,0,0.125,8.65,0.0,0,0,0,0.125,8.600000000000001,0.0,0,0,0,kForward,0.0,0.0,0.0,0.0,0.0,0.0,0.0,0.0,0.0,0.0,0.0,
716.79841,true,true,true,0.0,-1.0,-0.0234375,-0.0078125,false,false,false,false,0.0,0.0,0.0,0.0,false,false,false,false,21.375,8.25,0.0,7,0,64,27.375,8.4,0.0,0,0,0,24.75,8.45,0.0,0,0,0,21.75,8.350000000000001,0.0,0,0,0,0.125,8.65,0.0,0,0,0,0.125,8.600000000000001,0.0,0,0,0,kForward,0.0,0.0,0.0,0.0,0.0,0.0,0.0,0.0,0.0,0.0,0.0,
716.874228,true,true,true,0.0,-1.0,-0.0234375,-0.0078125,false,false,false,false,0.0,0.0,0.0,0.0,false,false,false,false,21.5,8.25,0.0,7,0,64,27.375,8.4,0.0,0,0,0,25.0,8.45,0.0,0,0,0,21.625,8.350000000000001,0.0,0,0,0,0.125,8.65,0.0,0,0,0,0.125,8.600000000000001,0.0,0,0,0,kForward,0.0,0.0,0.0,0.0,0.0,0.0,0.0,0.0,0.0,0.0,0.0,
716.944706,true,true,true,0.0,-1.0,-0.0234375,-0.0078125,false,false,false,false,0.0,0.0,0.0,0.0,false,false,false,false,22.125,8.25,0.0,7,0,64,26.875,8.350000000000001,0.0,0,0,0,25.0,8.4,0.0,0,0,0,21.5,8.3,0.0,0,0,0,0.125,8.65,0.0,0,0,0,0.125,8.600000000000001,0.0,0,0,0,kForward,0.0,0.0,0.0,0.0,0.0,0.0,0.0,0.0,0.0,0.0,0.0,
717.02773,true,true,true,0.0,-1.0,-0.0234375,-0.0078125,false,false,false,false,0.0,0.0,0.0,0.0,false,false,false,false,22.25,8.25,0.0,7,0,64,26.75,8.350000000000001,0.0,0,0,0,24.375,8.4,0.0,0,0,0,22.125,8.3,0.0,0,0,0,0.125,8.65,0.0,0,0,0,0.125,8.600000000000001,0.0,0,0,0,kForward,0.0,0.0,0.0,0.0,0.0,0.0,0.0,0.0,0.0,0.0,0.0,
717.0893229999999,true,true,true,0.0,-1.0,-0.0234375,-0.0078125,false,false,false,false,0.0,0.0,0.0,0.0,false,false,false,false,22.5,8.25,0.0,7,0,64,26.75,8.4,0.0,0,0,0,24.125,8.4,0.0,0,0,0,22.5,8.4,0.0,0,0,0,0.125,8.600000000000001,0.0,0,0,0,0.125,8.55,0.0,0,0,0,kForward,0.0,0.0,0.0,0.0,0.0,0.0,0.0,0.0,0.0,0.0,0.0,
717.161689,true,true,true,0.0,-1.0,-0.0234375,-0.0078125,false,false,false,false,0.0,0.0,0.0,0.0,false,false,false,false,22.25,8.25,0.0,7,0,64,26.875,8.4,0.0,0,0,0,24.75,8.4,0.0,0,0,0,22.625,8.4,0.0,0,0,0,0.125,8.600000000000001,0.0,0,0,0,0.125,8.55,0.0,0,0,0,kForward,0.0,0.0,0.0,0.0,0.0,0.0,0.0,0.0,0.0,0.0,0.0,
717.234199,true,true,true,0.0,-1.0,-0.0234375,-0.0078125,false,false,false,false,0.0,0.0,0.0,0.0,false,false,false,false,22.125,8.25,0.0,7,0,64,27.25,8.25,0.0,0,0,0,25.25,8.45,0.0,0,0,0,22.375,8.350000000000001,0.0,0,0,0,0.125,8.600000000000001,0.0,0,0,0,0.125,8.55,0.0,0,0,0,kForward,0.0,0.0,0.0,0.0,0.0,0.0,0.0,0.0,0.0,0.0,0.0,
717.307319,true,true,true,0.0,-1.0,-0.0234375,-0.0078125,false,false,false,false,0.0,0.0,0.0,0.0,false,false,false,false,22.125,8.2,0.0,7,0,64,27.0,8.25,0.0,0,0,0,25.25,8.45,0.0,0,0,0,22.625,8.350000000000001,0.0,0,0,0,0.125,8.600000000000001,0.0,0,0,0,0.125,8.55,0.0,0,0,0,kForward,0.0,0.0,0.0,0.0,0.0,0.0,0.0,0.0,0.0,0.0,0.0,
717.376608,true,true,true,0.0,-1.0,-0.0234375,-0.0078125,false,false,false,false,0.0,0.0,0.0,0.0,false,false,false,false,22.5,8.2,0.0,7,0,64,27.5,8.350000000000001,0.0,0,0,0,25.125,8.3,0.0,0,0,0,22.375,8.4,0.0,0,0,0,0.125,8.55,0.0,0,0,0,0.125,8.5,0.0,0,0,0,kForward,0.0,0.0,0.0,0.0,0.0,0.0,0.0,0.0,0.0,0.0,0.0,
717.431088,true,true,true,0.0,-1.0,-0.0234375,-0.0078125,false,false,false,false,0.0,0.0,0.0,0.0,false,false,false,false,21.875,8.15,0.0,7,0,64,27.0,8.350000000000001,0.0,0,0,0,25.125,8.3,0.0,0,0,0,22.25,8.4,0.0,0,0,0,0.125,8.55,0.0,0,0,0,0.125,8.5,0.0,0,0,0,kForward,0.0,0.0,0.0,0.0,0.0,0.0,0.0,0.0,0.0,0.0,0.0,
717.4924229999999,true,true,true,0.0,-1.0,-0.0234375,-0.0078125,false,false,false,false,0.0,0.0,0.0,0.0,false,false,false,false,22.25,8.15,0.0,7,0,64,26.0,8.350000000000001,0.0,0,0,0,25.0,8.3,0.0,0,0,0,22.375,8.4,0.0,0,0,0,0.125,8.55,0.0,0,0,0,0.125,8.5,0.0,0,0,0,kForward,0.0,0.0,0.0,0.0,0.0,0.0,0.0,0.0,0.0,0.0,0.0,
717.561322,true,true,true,0.0,-1.0,-0.0234375,-0.0078125,false,false,false,false,0.0,0.0,0.0,0.0,false,false,false,false,22.0,8.15,0.0,7,0,64,26.25,8.350000000000001,0.0,0,0,0,25.625,8.25,0.0,0,0,0,22.25,8.4,0.0,0,0,0,0.125,8.600000000000001,0.0,0,0,0,0.125,8.600000000000001,0.0,0,0,0,kForward,0.0,0.0,0.0,0.0,0.0,0.0,0.0,0.0,0.0,0.0,0.0,
717.6297900000001,true,true,true,0.0,-1.0,-0.0234375,-0.0078125,false,false,false,false,0.0,0.0,0.0,0.0,false,false,false,false,21.75,8.25,0.0,7,0,64,27.125,8.350000000000001,0.0,0,0,0,25.0,8.25,0.0,0,0,0,22.375,8.4,0.0,0,0,0,0.125,8.600000000000001,0.0,0,0,0,0.125,8.600000000000001,0.0,0,0,0,kForward,0.0,0.0,0.0,0.0,0.0,0.0,0.0,0.0,0.0,0.0,0.0,
717.680797,true,true,true,0.0,-1.0,-0.0234375,-0.0078125,false,false,false,false,0.0,0.0,0.0,0.0,false,false,false,false,21.75,8.25,0.0,7,0,64,26.75,8.350000000000001,0.0,0,0,0,24.875,8.25,0.0,0,0,0,22.375,8.4,0.0,0,0,0,0.125,8.600000000000001,0.0,0,0,0,0.125,8.55,0.0,0,0,0,kForward,0.0,0.0,0.0,0.0,0.0,0.0,0.0,0.0,0.0,0.0,0.0,
717.7433619999999,true,true,true,0.0,-1.0,-0.0234375,-0.0078125,false,false,false,false,0.0,0.0,0.0,0.0,false,false,false,false,21.5,8.3,0.0,7,0,64,26.875,8.4,0.0,0,0,0,24.75,8.4,0.0,0,0,0,22.25,8.4,0.0,0,0,0,0.125,8.600000000000001,0.0,0,0,0,0.125,8.55,0.0,0,0,0,kForward,0.0,0.0,0.0,0.0,0.0,0.0,0.0,0.0,0.0,0.0,0.0,
717.829376,true,true,true,0.0,-1.0,-0.0234375,-0.0078125,false,false,false,false,0.0,0.0,0.0,0.0,false,false,false,false,22.375,8.3,0.0,7,0,64,26.125,8.4,0.0,0,0,0,24.375,8.4,0.0,0,0,0,22.375,8.350000000000001,0.0,0,0,0,0.125,8.600000000000001,0.0,0,0,0,0.125,8.600000000000001,0.0,0,0,0,kForward,0.0,0.0,0.0,0.0,0.0,0.0,0.0,0.0,0.0,0.0,0.0,
717.906992,true,true,true,0.0,-1.0,-0.0234375,-0.0078125,false,false,false,false,0.0,0.0,0.0,0.0,false,false,false,false,21.125,8.3,0.0,7,0,64,26.25,8.4,0.0,0,0,0,24.25,8.4,0.0,0,0,0,22.5,8.350000000000001,0.0,0,0,0,0.125,8.600000000000001,0.0,0,0,0,0.125,8.600000000000001,0.0,0,0,0,kForward,0.0,0.0,0.0,0.0,0.0,0.0,0.0,0.0,0.0,0.0,0.0,
717.96561,true,true,true,0.0,-1.0,-0.0234375,-0.0078125,false,false,false,false,0.0,0.0,0.0,0.0,false,false,false,false,20.625,8.3,0.0,7,0,64,26.375,8.4,0.0,0,0,0,24.125,8.4,0.0,0,0,0,22.625,8.350000000000001,0.0,0,0,0,0.125,8.600000000000001,0.0,0,0,0,0.125,8.600000000000001,0.0,0,0,0,kForward,0.0,0.0,0.0,0.0,0.0,0.0,0.0,0.0,0.0,0.0,0.0,
718.00975,true,true,true,0.0,-1.0,-0.0234375,-0.0078125,false,false,false,false,0.0,0.0,0.0,0.0,false,false,false,false,20.375,8.3,0.0,7,0,64,26.5,8.4,0.0,0,0,0,23.875,8.4,0.0,0,0,0,22.625,8.55,0.0,0,0,0,0.125,8.65,0.0,0,0,0,0.125,8.600000000000001,0.0,0,0,0,kForward,0.0,0.0,0.0,0.0,0.0,0.0,0.0,0.0,0.0,0.0,0.0,
718.1110379999999,true,true,true,0.0,-1.0,-0.0234375,-0.0078125,false,false,false,false,0.0,0.0,0.0,0.0,false,false,false,false,20.25,8.3,0.0,7,0,64,26.75,8.4,0.0,0,0,0,23.75,8.4,0.0,0,0,0,22.75,8.55,0.0,0,0,0,0.125,8.65,0.0,0,0,0,0.125,8.600000000000001,0.0,0,0,0,kForward,0.0,0.0,0.0,0.0,0.0,0.0,0.0,0.0,0.0,0.0,0.0,
718.159906,true,true,true,0.0,-1.0,-0.0234375,-0.0078125,false,false,false,false,0.0,0.0,0.0,0.0,false,false,false,false,20.0,8.3,0.0,7,0,64,26.625,8.4,0.0,0,0,0,23.5,8.4,0.0,0,0,0,22.75,8.55,0.0,0,0,0,0.125,8.65,0.0,0,0,0,0.125,8.65,0.0,0,0,0,kForward,0.0,0.0,0.0,0.0,0.0,0.0,0.0,0.0,0.0,0.0,0.0,
718.2521879999999,true,true,true,0.0,-1.0,-0.0234375,-0.0078125,false,false,false,false,0.0,0.0,0.0,0.0,false,false,false,false,20.0,8.25,0.0,7,0,64,26.75,8.4,0.0,0,0,0,23.125,8.45,0.0,0,0,0,22.875,8.45,0.0,0,0,0,0.125,8.65,0.0,0,0,0,0.125,8.65,0.0,0,0,0,kForward,0.0,0.0,0.0,0.0,0.0,0.0,0.0,0.0,0.0,0.0,0.0,
718.36784,true,true,true,0.0,-1.0,-0.0234375,-0.0078125,false,false,false,false,0.0,0.0,0.0,0.0,false,false,false,false,20.25,8.25,0.0,7,0,64,26.75,8.45,0.0,0,0,0,22.875,8.45,0.0,0,0,0,22.875,8.45,0.0,0,0,0,0.125,8.7,0.0,0,0,0,0.125,8.65,0.0,0,0,0,kForward,0.0,0.0,0.0,0.0,0.0,0.0,0.0,0.0,0.0,0.0,0.0,
718.440311,true,true,true,0.0,-1.0,-0.0234375,-0.0078125,false,false,false,false,0.0,0.0,0.0,0.0,false,false,false,false,20.25,8.45,0.0,7,0,64,26.75,8.45,0.0,0,0,0,22.875,8.45,0.0,0,0,0,22.875,8.45,0.0,0,0,0,0.125,8.7,0.0,0,0,0,0.125,8.65,0.0,0,0,0,kForward,0.0,0.0,0.0,0.0,0.0,0.0,0.0,0.0,0.0,0.0,0.0,
718.512336,true,true,true,0.0,-1.0,-0.0234375,-0.0078125,false,false,false,false,0.0,0.0,0.0,0.0,false,false,false,false,20.625,8.45,0.0,7,0,64,26.625,8.600000000000001,0.0,0,0,0,22.875,8.600000000000001,0.0,0,0,0,22.75,8.55,0.0,0,0,0,0.125,8.7,0.0,0,0,0,0.125,8.65,0.0,0,0,0,kForward,0.0,0.0,0.0,0.0,0.0,0.0,0.0,0.0,0.0,0.0,0.0,
718.594773,true,true,true,0.0,-1.0,-0.0234375,-0.0078125,false,false,false,false,0.0,0.0,0.0,0.0,false,false,false,false,20.25,8.3,0.0,7,0,64,27.625,8.600000000000001,0.0,0,0,0,22.625,8.600000000000001,0.0,0,0,0,22.75,8.55,0.0,0,0,0,0.125,8.7,0.0,0,0,0,0.125,8.65,0.0,0,0,0,kForward,0.0,0.0,0.0,0.0,0.0,0.0,0.0,0.0,0.0,0.0,0.0,
718.667433,true,true,true,0.0,-1.0,-0.0234375,-0.0078125,false,false,false,false,0.0,0.0,0.0,0.0,false,false,false,false,19.375,8.3,0.0,7,0,64,28.375,8.5,0.0,0,0,0,22.5,8.45,0.0,0,0,0,22.75,8.4,0.0,0,0,0,0.125,8.65,0.0,0,0,0,0.125,8.65,0.0,0,0,0,kForward,0.0,0.0,0.0,0.0,0.0,0.0,0.0,0.0,0.0,0.0,0.0,
718.744403,true,true,true,0.0,-1.0,-0.0234375,-0.0078125,false,false,false,false,0.0,0.0,0.0,0.0,false,false,false,false,20.0,8.3,0.0,7,0,64,27.125,8.5,0.0,0,0,0,22.5,8.45,0.0,0,0,0,22.75,8.4,0.0,0,0,0,0.125,8.65,0.0,0,0,0,0.125,8.65,0.0,0,0,0,kForward,0.0,0.0,0.0,0.0,0.0,0.0,0.0,0.0,0.0,0.0,0.0,
718.833104,true,true,true,0.0,-1.0,-0.0234375,-0.0078125,false,false,false,false,0.0,0.0,0.0,0.0,false,false,false,false,19.75,8.3,0.0,7,0,64,28.375,8.4,0.0,0,0,0,22.25,8.4,0.0,0,0,0,22.75,8.350000000000001,0.0,0,0,0,0.125,8.65,0.0,0,0,0,0.125,8.600000000000001,0.0,0,0,0,kForward,0.0,0.0,0.0,0.0,0.0,0.0,0.0,0.0,0.0,0.0,0.0,
718.90489,true,true,true,0.0,-1.0,-0.0234375,-0.0078125,false,false,false,false,0.0,0.0,0.0,0.0,false,false,false,false,20.25,8.4,0.0,7,0,64,27.75,8.4,0.0,0,0,0,22.25,8.4,0.0,0,0,0,22.75,8.350000000000001,0.0,0,0,0,0.125,8.65,0.0,0,0,0,0.125,8.600000000000001,0.0,0,0,0,kForward,0.0,0.0,0.0,0.0,0.0,0.0,0.0,0.0,0.0,0.0,0.0,
718.977409,true,true,true,0.0,-1.0,-0.0234375,-0.0078125,false,false,false,false,0.0,0.0,0.0,0.0,false,false,false,false,20.25,8.4,0.0,7,0,64,28.125,8.7,0.0,0,0,0,22.75,8.65,0.0,0,0,0,24.0,8.65,0.0,0,0,0,0.125,8.95,0.0,0,0,0,0.125,8.9,0.0,0,0,0,kForward,0.0,0.0,0.0,0.0,0.0,0.0,0.0,0.0,0.0,0.0,0.0,
719.05326,true,true,true,0.0,-1.0,-0.0234375,-0.0078125,false,false,false,false,0.0,0.0,0.0,0.0,false,false,false,false,20.125,8.55,0.0,7,0,64,29.0,8.7,0.0,0,0,0,23.375,8.65,0.0,0,0,0,24.375,8.65,0.0,0,0,0,0.125,8.95,0.0,0,0,0,0.125,8.9,0.0,0,0,0,kForward,0.0,0.0,0.0,0.0,0.0,0.0,0.0,0.0,0.0,0.0,0.0,
719.115508,true,true,true,0.0,-1.0,-0.0234375,-0.0078125,false,false,false,false,0.0,0.0,0.0,0.0,false,false,false,false,20.25,8.55,0.0,7,0,64,28.625,8.7,0.0,0,0,0,23.25,8.65,0.0,0,0,0,24.375,8.65,0.0,0,0,0,0.125,8.95,0.0,0,0,0,0.125,8.9,0.0,0,0,0,kForward,0.0,0.0,0.0,0.0,0.0,0.0,0.0,0.0,0.0,0.0,0.0,
719.175118,true,true,true,0.0,-1.0,-0.0234375,-0.0078125,false,false,false,false,0.0,0.0,0.0,0.0,false,false,false,false,20.625,8.65,0.0,7,0,64,28.625,8.65,0.0,0,0,0,23.125,8.600000000000001,0.0,0,0,0,24.75,8.8,0.0,0,0,0,0.125,8.95,0.0,0,0,0,0.125,8.9,0.0,0,0,0,kForward,0.0,0.0,0.0,0.0,0.0,0.0,0.0,0.0,0.0,0.0,0.0,
719.269872,true,true,true,0.0,-1.0,-0.0234375,-0.0078125,false,false,false,false,0.0,0.0,0.0,0.0,false,false,false,false,20.5,8.65,0.0,7,0,64,29.25,8.65,0.0,0,0,0,23.125,8.600000000000001,0.0,0,0,0,24.75,8.8,0.0,0,0,0,0.125,8.9,0.0,0,0,0,0.125,8.9,0.0,0,0,0,kForward,0.0,0.0,0.0,0.0,0.0,0.0,0.0,0.0,0.0,0.0,0.0,
719.350693,true,true,true,0.0,-0.46875,-0.0234375,-0.0078125,false,false,false,false,0.0,0.0,0.0,0.0,false,false,false,false,20.625,8.55,0.0,7,0,64,28.5,8.7,0.0,0,0,0,23.125,8.55,0.0,0,0,0,24.875,8.65,0.0,0,0,0,0.125,8.9,0.0,0,0,0,0.125,8.9,0.0,0,0,0,kForward,0.0,0.0,0.0,0.0,0.0,0.0,0.0,0.0,0.0,0.0,0.0,
719.4085289999999,true,true,true,0.0,0.031496062874794006,-0.0234375,-0.0078125,false,false,false,false,0.0,0.0,0.0,0.0,false,false,false,false,7.75,8.55,0.0,7,0,64,8.5,8.7,0.0,0,0,0,4.5,8.55,0.0,0,0,0,3.75,8.65,0.0,0,0,0,0.125,11.850000000000001,0.0,0,0,0,0.125,11.850000000000001,0.0,0,0,0,kForward,0.0,0.0,0.0,0.0,0.0,0.0,0.0,0.0,0.0,0.0,0.0,
719.4862290000001,true,true,true,0.0,0.031496062874794006,-0.0234375,-0.0078125,false,false,false,false,0.0,0.0,0.0,0.0,false,false,false,false,0.0,8.55,0.0,7,0,64,1.625,11.850000000000001,0.0,0,0,0,0.875,11.850000000000001,0.0,0,0,0,0.0,11.75,0.0,0,0,0,0.125,11.850000000000001,0.0,0,0,0,0.125,11.850000000000001,0.0,0,0,0,kForward,0.0,0.0,0.0,0.0,0.0,0.0,0.0,0.0,0.0,0.0,0.0,
719.536196,true,true,true,0.0,0.031496062874794006,-0.0234375,-0.0078125,false,false,false,false,0.0,0.0,0.0,0.0,false,false,false,false,0.0,11.9,0.0,7,0,64,0.25,11.850000000000001,0.0,0,0,0,0.125,11.850000000000001,0.0,0,0,0,0.0,11.75,0.0,0,0,0,0.125,11.850000000000001,0.0,0,0,0,0.125,11.850000000000001,0.0,0,0,0,kForward,0.0,0.0,0.0,0.0,0.0,0.0,0.0,0.0,0.0,0.0,0.0,
719.604509,true,true,true,0.0,0.031496062874794006,-0.0234375,-0.0078125,false,false,false,false,0.0,0.0,0.0,0.0,false,false,false,false,0.0,11.9,0.0,7,0,64,0.25,11.850000000000001,0.0,0,0,0,0.125,11.850000000000001,0.0,0,0,0,0.0,12.0,0.0,0,0,0,0.125,12.05,0.0,0,0,0,0.125,12.05,0.0,0,0,0,kForward,0.0,0.0,0.0,0.0,0.0,0.0,0.0,0.0,0.0,0.0,0.0,
719.682471,true,true,true,0.0,0.031496062874794006,-0.0234375,-0.0078125,false,false,false,false,0.0,0.0,0.0,0.0,false,false,false,false,0.0,12.0,0.0,6,-1,64,0.25,12.0,0.0,0,0,0,0.125,12.0,0.0,0,0,0,0.0,12.0,0.0,0,0,0,0.125,12.05,0.0,0,0,0,0.125,12.05,0.0,0,0,0,kForward,0.0,0.0,0.0,0.0,0.0,0.0,0.0,0.0,0.0,0.0,0.0,
719.758022,true,true,true,0.0,0.031496062874794006,-0.0234375,-0.0078125,false,false,false,false,0.0,0.0,0.0,0.0,false,false,false,false,0.0,12.0,0.0,6,0,64,0.25,12.0,0.0,0,0,0,0.125,12.05,0.0,0,0,0,0.0,12.05,0.0,0,0,0,0.125,12.1,0.0,0,0,0,0.125,12.1,0.0,0,0,0,kForward,0.0,0.0,0.0,0.0,0.0,0.0,0.0,0.0,0.0,0.0,0.0,
719.853482,true,true,true,0.0,0.031496062874794006,-0.0234375,-0.0078125,false,false,false,false,0.0,0.0,0.0,0.0,false,false,false,false,0.0,12.05,0.0,6,0,64,0.25,12.05,0.0,0,0,0,0.125,12.05,0.0,0,0,0,0.0,12.05,0.0,0,0,0,0.125,12.1,0.0,0,0,0,0.125,12.1,0.0,0,0,0,kForward,0.0,0.0,0.0,0.0,0.0,0.0,0.0,0.0,0.0,0.0,0.0,
719.914323,true,true,true,0.0,0.031496062874794006,-0.0234375,-0.0078125,false,false,false,false,0.0,0.0,0.0,0.0,false,false,false,false,0.0,12.05,0.0,6,0,64,0.25,12.05,0.0,0,0,0,0.125,12.1,0.0,0,0,0,0.0,12.1,0.0,0,0,0,0.125,12.200000000000001,0.0,0,0,0,0.125,12.15,0.0,0,0,0,kForward,0.0,0.0,0.0,0.0,0.0,0.0,0.0,0.0,0.0,0.0,0.0,
719.9979050000001,true,true,true,0.0,0.031496062874794006,-0.0234375,-0.0078125,false,false,false,false,0.0,0.0,0.0,0.0,false,false,false,false,0.0,12.1,0.0,6,0,64,0.25,12.1,0.0,0,0,0,0.125,12.1,0.0,0,0,0,0.0,12.1,0.0,0,0,0,0.125,12.200000000000001,0.0,0,0,0,0.125,12.15,0.0,0,0,0,kForward,0.0,0.0,0.0,0.0,0.0,0.0,0.0,0.0,0.0,0.0,0.0,
720.084921,true,true,true,0.0,0.031496062874794006,-0.0234375,-0.0078125,false,false,false,false,0.0,0.0,0.0,0.0,false,false,false,false,0.0,12.1,0.0,6,0,64,0.375,12.15,0.0,0,0,0,0.125,12.1,0.0,0,0,0,0.0,12.1,0.0,0,0,0,0.125,12.200000000000001,0.0,0,0,0,0.125,12.200000000000001,0.0,0,0,0,kForward,0.0,0.0,0.0,0.0,0.0,0.0,0.0,0.0,0.0,0.0,0.0,
720.155285,true,true,true,0.0,0.031496062874794006,-0.0234375,-0.0078125,false,false,false,false,0.0,0.0,0.0,0.0,false,false,false,false,0.0,12.1,0.0,6,0,64,0.25,12.15,0.0,0,0,0,0.125,12.1,0.0,0,0,0,0.0,12.1,0.0,0,0,0,0.125,12.200000000000001,0.0,0,0,0,0.125,12.200000000000001,0.0,0,0,0,kForward,0.0,0.0,0.0,0.0,0.0,0.0,0.0,0.0,0.0,0.0,0.0,
720.212012,true,true,true,0.0,0.031496062874794006,-0.0234375,-0.0078125,false,false,false,false,0.0,0.0,0.0,0.0,false,false,false,false,0.0,12.1,0.0,6,0,64,0.25,12.15,0.0,0,0,0,0.125,12.1,0.0,0,0,0,0.0,12.1,0.0,0,0,0,0.125,12.200000000000001,0.0,0,0,0,0.125,12.200000000000001,0.0,0,0,0,kForward,0.0,0.0,0.0,0.0,0.0,0.0,0.0,0.0,0.0,0.0,0.0,
720.2966600000001,true,true,true,0.0,0.031496062874794006,-0.0234375,-0.0078125,false,false,false,false,0.0,0.0,0.0,0.0,false,false,false,false,0.0,12.15,0.0,6,0,64,0.25,12.200000000000001,0.0,0,0,0,0.125,12.15,0.0,0,0,0,0.0,12.15,0.0,0,0,0,0.125,12.25,0.0,0,0,0,0.125,12.200000000000001,0.0,0,0,0,kForward,0.0,0.0,0.0,0.0,0.0,0.0,0.0,0.0,0.0,0.0,0.0,
720.343427,true,true,true,0.0,0.031496062874794006,-0.0234375,-0.0078125,false,false,false,false,0.0,0.0,0.0,0.0,false,false,false,false,0.0,12.15,0.0,6,0,64,0.25,12.200000000000001,0.0,0,0,0,0.125,12.15,0.0,0,0,0,0.0,12.15,0.0,0,0,0,0.125,12.25,0.0,0,0,0,0.125,12.200000000000001,0.0,0,0,0,kForward,0.0,0.0,0.0,0.0,0.0,0.0,0.0,0.0,0.0,0.0,0.0,
720.4024109999999,true,true,true,0.0,0.031496062874794006,-0.0234375,-0.0078125,false,false,false,false,0.0,0.0,0.0,0.0,false,false,false,false,0.0,12.15,0.0,6,0,64,0.25,12.200000000000001,0.0,0,0,0,0.125,12.15,0.0,0,0,0,0.0,12.15,0.0,0,0,0,0.125,12.25,0.0,0,0,0,0.125,12.200000000000001,0.0,0,0,0,kForward,0.0,0.0,0.0,0.0,0.0,0.0,0.0,0.0,0.0,0.0,0.0,
720.4592630000001,true,true,true,0.0,0.031496062874794006,-0.0234375,-0.0078125,false,false,false,false,0.0,0.0,0.0,0.0,false,false,false,false,0.0,12.15,0.0,6,0,64,0.375,12.200000000000001,0.0,0,0,0,0.125,12.200000000000001,0.0,0,0,0,0.0,12.15,0.0,0,0,0,0.125,12.25,0.0,0,0,0,0.125,12.200000000000001,0.0,0,0,0,kForward,0.0,0.0,0.0,0.0,0.0,0.0,0.0,0.0,0.0,0.0,0.0,
720.5564880000001,true,true,true,0.0,0.031496062874794006,-0.0234375,-0.0078125,false,false,false,false,0.0,0.0,0.0,0.0,false,false,false,false,0.0,12.15,0.0,6,0,64,0.25,12.200000000000001,0.0,0,0,0,0.125,12.200000000000001,0.0,0,0,0,0.0,12.200000000000001,0.0,0,0,0,0.125,12.25,0.0,0,0,0,0.125,12.200000000000001,0.0,0,0,0,kForward,0.0,0.0,0.0,0.0,0.0,0.0,0.0,0.0,0.0,0.0,0.0,
720.6428950000001,true,true,true,0.0,0.031496062874794006,-0.0234375,-0.0078125,false,false,false,false,0.0,0.0,0.0,0.0,false,false,false,false,0.0,12.200000000000001,0.0,6,0,64,0.375,12.200000000000001,0.0,0,0,0,0.125,12.200000000000001,0.0,0,0,0,0.0,12.200000000000001,0.0,0,0,0,0.125,12.25,0.0,0,0,0,0.125,12.200000000000001,0.0,0,0,0,kForward,0.0,0.0,0.0,0.0,0.0,0.0,0.0,0.0,0.0,0.0,0.0,
720.715,true,true,true,0.0,0.031496062874794006,-0.0234375,-0.0078125,false,false,false,false,0.0,0.0,0.0,0.0,false,false,false,false,0.0,12.200000000000001,0.0,6,0,64,0.25,12.200000000000001,0.0,0,0,0,0.125,12.200000000000001,0.0,0,0,0,0.0,12.200000000000001,0.0,0,0,0,0.125,12.25,0.0,0,0,0,0.125,12.25,0.0,0,0,0,kForward,0.0,0.0,0.0,0.0,0.0,0.0,0.0,0.0,0.0,0.0,0.0,
720.8018059999999,true,true,true,0.0,0.031496062874794006,-0.0234375,-0.0078125,false,false,false,false,0.0,0.0,0.0,0.0,false,false,false,false,0.0,12.200000000000001,0.0,6,0,64,0.25,12.200000000000001,0.0,0,0,0,0.125,12.200000000000001,0.0,0,0,0,0.0,12.200000000000001,0.0,0,0,0,0.125,12.25,0.0,0,0,0,0.125,12.25,0.0,0,0,0,kForward,0.0,0.0,0.0,0.0,0.0,0.0,0.0,0.0,0.0,0.0,0.0,
720.870956,true,true,true,0.0,0.031496062874794006,-0.0234375,-0.0078125,false,false,false,false,0.0,0.0,0.0,0.0,false,false,false,false,0.0,12.200000000000001,0.0,6,0,64,0.375,12.200000000000001,0.0,0,0,0,0.125,12.200000000000001,0.0,0,0,0,0.0,12.200000000000001,0.0,0,0,0,0.125,12.25,0.0,0,0,0,0.125,12.25,0.0,0,0,0,kForward,0.0,0.0,0.0,0.0,0.0,0.0,0.0,0.0,0.0,0.0,0.0,
720.955496,true,true,true,0.0,0.031496062874794006,-0.0234375,-0.0078125,false,false,false,false,0.0,0.0,0.0,0.0,false,false,false,false,0.0,12.200000000000001,0.0,6,0,64,0.375,12.200000000000001,0.0,0,0,0,0.125,12.200000000000001,0.0,0,0,0,0.0,12.200000000000001,0.0,0,0,0,0.125,12.25,0.0,0,0,0,0.125,12.25,0.0,0,0,0,kForward,0.0,0.0,0.0,0.0,0.0,0.0,0.0,0.0,0.0,0.0,0.0,
721.039186,true,true,true,0.0,0.031496062874794006,-0.0234375,-0.0078125,false,false,false,false,0.0,0.0,0.0,0.0,false,false,false,false,0.0,12.200000000000001,0.0,6,0,64,0.25,12.200000000000001,0.0,0,0,0,0.125,12.200000000000001,0.0,0,0,0,0.0,12.200000000000001,0.0,0,0,0,0.125,12.3,0.0,0,0,0,0.125,12.25,0.0,0,0,0,kForward,0.0,0.0,0.0,0.0,0.0,0.0,0.0,0.0,0.0,0.0,0.0,
721.109509,true,true,true,0.0,0.031496062874794006,-0.0234375,-0.0078125,false,false,false,false,0.0,0.0,0.0,0.0,false,false,false,false,0.0,12.200000000000001,0.0,6,0,64,0.25,12.25,0.0,0,0,0,0.125,12.200000000000001,0.0,0,0,0,0.0,12.200000000000001,0.0,0,0,0,0.125,12.3,0.0,0,0,0,0.125,12.25,0.0,0,0,0,kForward,0.0,0.0,0.0,0.0,0.0,0.0,0.0,0.0,0.0,0.0,0.0,
721.182594,true,true,true,0.0,0.031496062874794006,-0.0234375,-0.0078125,false,false,false,false,0.0,0.0,0.0,0.0,false,false,false,false,0.0,12.200000000000001,0.0,6,0,64,0.25,12.25,0.0,0,0,0,0.125,12.200000000000001,0.0,0,0,0,0.0,12.200000000000001,0.0,0,0,0,0.125,12.3,0.0,0,0,0,0.125,12.25,0.0,0,0,0,kForward,0.0,0.0,0.0,0.0,0.0,0.0,0.0,0.0,0.0,0.0,0.0,
721.262485,true,true,true,0.0,0.031496062874794006,-0.0234375,-0.0078125,false,false,false,false,0.0,0.0,0.0,0.0,false,false,false,false,0.0,12.200000000000001,0.0,6,0,64,0.25,12.25,0.0,0,0,0,0.125,12.25,0.0,0,0,0,0.0,12.200000000000001,0.0,0,0,0,0.125,12.3,0.0,0,0,0,0.125,12.25,0.0,0,0,0,kForward,0.0,0.0,0.0,0.0,0.0,0.0,0.0,0.0,0.0,0.0,0.0,
721.3608449999999,true,true,true,0.0,0.031496062874794006,-0.0234375,-0.0078125,false,false,false,false,0.0,0.0,0.0,0.0,false,false,false,false,0.0,12.200000000000001,0.0,6,0,64,0.375,12.25,0.0,0,0,0,0.125,12.25,0.0,0,0,0,0.0,12.25,0.0,0,0,0,0.125,12.3,0.0,0,0,0,0.125,12.25,0.0,0,0,0,kForward,0.0,0.0,0.0,0.0,0.0,0.0,0.0,0.0,0.0,0.0,0.0,
721.443028,true,true,true,0.0,0.031496062874794006,-0.0234375,-0.0078125,false,false,false,false,0.0,0.0,0.0,0.0,false,false,false,false,0.0,12.25,0.0,6,0,64,0.25,12.25,0.0,0,0,0,0.125,12.25,0.0,0,0,0,0.0,12.25,0.0,0,0,0,0.125,12.3,0.0,0,0,0,0.125,12.25,0.0,0,0,0,kForward,0.0,0.0,0.0,0.0,0.0,0.0,0.0,0.0,0.0,0.0,0.0,
721.512878,true,true,true,0.0,0.031496062874794006,-0.0234375,-0.0078125,false,false,false,false,0.0,0.0,0.0,0.0,false,false,false,false,0.0,12.25,0.0,6,0,64,0.25,12.25,0.0,0,0,0,0.125,12.25,0.0,0,0,0,0.0,12.25,0.0,0,0,0,0.125,12.35,0.0,0,0,0,0.125,12.25,0.0,0,0,0,kForward,0.0,0.0,0.0,0.0,0.0,0.0,0.0,0.0,0.0,0.0,0.0,
721.592123,true,true,true,0.0,0.031496062874794006,-0.0234375,-0.0078125,false,false,false,false,0.0,0.0,0.0,0.0,false,false,false,false,0.0,12.25,0.0,6,0,64,0.25,12.25,0.0,0,0,0,0.125,12.25,0.0,0,0,0,0.0,12.25,0.0,0,0,0,0.125,12.35,0.0,0,0,0,0.125,12.25,0.0,0,0,0,kForward,0.0,0.0,0.0,0.0,0.0,0.0,0.0,0.0,0.0,0.0,0.0,
721.642155,true,true,true,0.0,0.031496062874794006,-0.0234375,-0.0078125,false,false,false,false,0.0,0.0,0.0,0.0,false,false,false,false,0.0,12.25,0.0,6,0,64,0.25,12.25,0.0,0,0,0,0.125,12.25,0.0,0,0,0,0.0,12.25,0.0,0,0,0,0.125,12.35,0.0,0,0,0,0.125,12.25,0.0,0,0,0,kForward,0.0,0.0,0.0,0.0,0.0,0.0,0.0,0.0,0.0,0.0,0.0,
721.7079170000001,true,true,true,0.0,0.031496062874794006,-0.0234375,-0.0078125,false,false,false,false,0.0,0.0,0.0,0.0,false,false,false,false,0.0,12.25,0.0,6,0,64,0.25,12.25,0.0,0,0,0,0.125,12.25,0.0,0,0,0,0.0,12.25,0.0,0,0,0,0.125,12.35,0.0,0,0,0,0.125,12.25,0.0,0,0,0,kForward,0.0,0.0,0.0,0.0,0.0,0.0,0.0,0.0,0.0,0.0,0.0,
721.775389,true,true,true,0.0,0.031496062874794006,-0.0234375,-0.0078125,false,false,false,false,0.0,0.0,0.0,0.0,false,false,false,false,0.0,12.25,0.0,6,0,64,0.25,12.25,0.0,0,0,0,0.125,12.25,0.0,0,0,0,0.0,12.25,0.0,0,0,0,0.125,12.35,0.0,0,0,0,0.125,12.25,0.0,0,0,0,kForward,0.0,0.0,0.0,0.0,0.0,0.0,0.0,0.0,0.0,0.0,0.0,
721.854669,true,true,true,0.0,0.031496062874794006,-0.0234375,-0.0078125,false,false,false,false,0.0,0.0,0.0,0.0,false,false,false,false,0.0,12.25,0.0,6,0,64,0.25,12.25,0.0,0,0,0,0.125,12.25,0.0,0,0,0,0.0,12.25,0.0,0,0,0,0.125,12.35,0.0,0,0,0,0.125,12.3,0.0,0,0,0,kForward,0.0,0.0,0.0,0.0,0.0,0.0,0.0,0.0,0.0,0.0,0.0,
721.913223,true,true,true,0.0,0.031496062874794006,-0.0234375,-0.0078125,false,false,false,false,0.0,0.0,0.0,0.0,false,false,false,false,0.0,12.25,0.0,6,0,64,0.25,12.25,0.0,0,0,0,0.125,12.25,0.0,0,0,0,0.0,12.25,0.0,0,0,0,0.125,12.35,0.0,0,0,0,0.125,12.3,0.0,0,0,0,kForward,0.0,0.0,0.0,0.0,0.0,0.0,0.0,0.0,0.0,0.0,0.0,
721.97512,true,true,true,0.0,0.031496062874794006,-0.0234375,-0.0078125,false,false,false,false,0.0,0.0,0.0,0.0,false,false,false,false,0.0,12.25,0.0,6,0,64,0.25,12.25,0.0,0,0,0,0.125,12.25,0.0,0,0,0,0.0,12.25,0.0,0,0,0,0.125,12.35,0.0,0,0,0,0.125,12.3,0.0,0,0,0,kForward,0.0,0.0,0.0,0.0,0.0,0.0,0.0,0.0,0.0,0.0,0.0,
722.035022,true,true,true,0.0,0.031496062874794006,-0.0234375,-0.0078125,false,false,false,false,0.0,0.0,0.0,0.0,false,false,false,false,0.0,12.25,0.0,6,0,64,0.25,12.25,0.0,0,0,0,0.125,12.25,0.0,0,0,0,0.0,12.25,0.0,0,0,0,0.125,12.35,0.0,0,0,0,0.125,12.3,0.0,0,0,0,kForward,0.0,0.0,0.0,0.0,0.0,0.0,0.0,0.0,0.0,0.0,0.0,
722.0835820000001,true,true,true,0.0,0.031496062874794006,-0.0234375,-0.0078125,false,false,false,false,0.0,0.0,0.0,0.0,false,false,false,false,0.0,12.25,0.0,6,0,64,0.25,12.25,0.0,0,0,0,0.125,12.25,0.0,0,0,0,0.0,12.25,0.0,0,0,0,0.125,12.35,0.0,0,0,0,0.125,12.3,0.0,0,0,0,kForward,0.0,0.0,0.0,0.0,0.0,0.0,0.0,0.0,0.0,0.0,0.0,
722.138826,true,true,true,0.0,0.031496062874794006,-0.0234375,-0.0078125,false,false,false,false,0.0,0.0,0.0,0.0,false,false,false,false,0.0,12.25,0.0,6,0,64,0.25,12.25,0.0,0,0,0,0.125,12.25,0.0,0,0,0,0.0,12.25,0.0,0,0,0,0.125,12.35,0.0,0,0,0,0.125,12.3,0.0,0,0,0,kForward,0.0,0.0,0.0,0.0,0.0,0.0,0.0,0.0,0.0,0.0,0.0,
722.227067,true,true,true,0.0,0.031496062874794006,-0.0234375,-0.0078125,false,false,false,false,0.0,0.0,0.0,0.0,false,false,false,false,0.0,12.25,0.0,6,0,64,0.25,12.25,0.0,0,0,0,0.125,12.25,0.0,0,0,0,0.0,12.25,0.0,0,0,0,0.125,12.35,0.0,0,0,0,0.125,12.3,0.0,0,0,0,kForward,0.0,0.0,0.0,0.0,0.0,0.0,0.0,0.0,0.0,0.0,0.0,
722.3200969999999,true,true,true,0.0,0.031496062874794006,-0.0234375,-0.0078125,false,false,false,false,0.0,0.0,0.0,0.0,false,false,false,false,0.0,12.25,0.0,6,0,64,0.25,12.25,0.0,0,0,0,0.125,12.25,0.0,0,0,0,0.0,12.25,0.0,0,0,0,0.125,12.35,0.0,0,0,0,0.125,12.3,0.0,0,0,0,kForward,0.0,0.0,0.0,0.0,0.0,0.0,0.0,0.0,0.0,0.0,0.0,
722.39009,true,true,true,0.0,0.031496062874794006,-0.0234375,-0.0078125,false,false,false,false,0.0,0.0,0.0,0.0,false,false,false,false,0.0,12.25,0.0,6,0,64,0.25,12.25,0.0,0,0,0,0.125,12.25,0.0,0,0,0,0.0,12.25,0.0,0,0,0,0.125,12.35,0.0,0,0,0,0.125,12.3,0.0,0,0,0,kForward,0.0,0.0,0.0,0.0,0.0,0.0,0.0,0.0,0.0,0.0,0.0,
722.453863,true,true,true,0.0,0.031496062874794006,-0.0234375,-0.0078125,false,false,false,false,0.0,0.0,0.0,0.0,false,false,false,false,0.0,12.25,0.0,6,0,64,0.25,12.25,0.0,0,0,0,0.125,12.25,0.0,0,0,0,0.0,12.25,0.0,0,0,0,0.125,12.35,0.0,0,0,0,0.125,12.3,0.0,0,0,0,kForward,0.0,0.0,0.0,0.0,0.0,0.0,0.0,0.0,0.0,0.0,0.0,
722.525765,true,true,true,0.0,0.031496062874794006,-0.0234375,-0.0078125,false,false,false,false,0.0,0.0,0.0,0.0,false,false,false,false,0.0,12.25,0.0,6,0,64,0.25,12.3,0.0,0,0,0,0.125,12.25,0.0,0,0,0,0.0,12.25,0.0,0,0,0,0.125,12.35,0.0,0,0,0,0.125,12.3,0.0,0,0,0,kForward,0.0,0.0,0.0,0.0,0.0,0.0,0.0,0.0,0.0,0.0,0.0,
722.5784570000001,true,true,true,0.0,0.031496062874794006,-0.0234375,-0.0078125,false,false,false,false,0.0,0.0,0.0,0.0,false,false,false,false,0.0,12.25,0.0,6,0,64,0.25,12.3,0.0,0,0,0,0.125,12.25,0.0,0,0,0,0.0,12.25,0.0,0,0,0,0.125,12.35,0.0,0,0,0,0.125,12.3,0.0,0,0,0,kForward,0.0,0.0,0.0,0.0,0.0,0.0,0.0,0.0,0.0,0.0,0.0,
722.630184,true,true,true,0.0,0.031496062874794006,-0.0234375,-0.0078125,false,false,false,false,0.0,0.0,0.0,0.0,false,false,false,false,0.0,12.25,0.0,6,0,64,0.25,12.3,0.0,0,0,0,0.125,12.25,0.0,0,0,0,0.0,12.25,0.0,0,0,0,0.125,12.35,0.0,0,0,0,0.125,12.3,0.0,0,0,0,kForward,0.0,0.0,0.0,0.0,0.0,0.0,0.0,0.0,0.0,0.0,0.0,
722.700757,true,true,true,0.0,0.031496062874794006,-0.0234375,-0.0078125,false,false,false,false,0.0,0.0,0.0,0.0,false,false,false,false,0.0,12.25,0.0,6,0,64,0.25,12.3,0.0,0,0,0,0.125,12.25,0.0,0,0,0,0.0,12.25,0.0,0,0,0,0.125,12.35,0.0,0,0,0,0.125,12.3,0.0,0,0,0,kForward,0.0,0.0,0.0,0.0,0.0,0.0,0.0,0.0,0.0,0.0,0.0,
722.780877,true,true,true,0.0,0.031496062874794006,-0.0234375,-0.0078125,false,false,false,false,0.0,0.0,0.0,0.0,false,false,false,false,0.0,12.25,0.0,6,0,64,0.25,12.3,0.0,0,0,0,0.125,12.25,0.0,0,0,0,0.0,12.25,0.0,0,0,0,0.125,12.35,0.0,0,0,0,0.125,12.3,0.0,0,0,0,kForward,0.0,0.0,0.0,0.0,0.0,0.0,0.0,0.0,0.0,0.0,0.0,
722.854934,true,true,true,0.0,0.031496062874794006,-0.0234375,-0.0078125,false,false,false,false,0.0,0.0,0.0,0.0,false,false,false,false,0.0,12.25,0.0,6,0,64,0.25,12.3,0.0,0,0,0,0.125,12.25,0.0,0,0,0,0.0,12.25,0.0,0,0,0,0.125,12.35,0.0,0,0,0,0.125,12.35,0.0,0,0,0,kForward,0.0,0.0,0.0,0.0,0.0,0.0,0.0,0.0,0.0,0.0,0.0,
722.9030250000001,true,true,true,0.0,0.031496062874794006,-0.0234375,-0.0078125,false,false,false,false,0.0,0.0,0.0,0.0,false,false,false,false,0.0,12.25,0.0,6,0,64,0.25,12.3,0.0,0,0,0,0.125,12.25,0.0,0,0,0,0.0,12.25,0.0,0,0,0,0.125,12.35,0.0,0,0,0,0.125,12.35,0.0,0,0,0,kForward,0.0,0.0,0.0,0.0,0.0,0.0,0.0,0.0,0.0,0.0,0.0,
722.983578,true,true,true,0.0,0.031496062874794006,-0.0234375,-0.0078125,false,false,false,false,0.0,0.0,0.0,0.0,false,false,false,false,0.0,12.25,0.0,6,0,64,0.25,12.3,0.0,0,0,0,0.125,12.3,0.0,0,0,0,0.0,12.25,0.0,0,0,0,0.125,12.35,0.0,0,0,0,0.125,12.35,0.0,0,0,0,kForward,0.0,0.0,0.0,0.0,0.0,0.0,0.0,0.0,0.0,0.0,0.0,
723.047868,true,true,true,0.0,0.031496062874794006,-0.0234375,-0.0078125,false,false,false,false,0.0,0.0,0.0,0.0,false,false,false,false,0.0,12.25,0.0,6,0,64,0.25,12.3,0.0,0,0,0,0.125,12.3,0.0,0,0,0,0.0,12.25,0.0,0,0,0,0.125,12.35,0.0,0,0,0,0.125,12.35,0.0,0,0,0,kForward,0.0,0.0,0.0,0.0,0.0,0.0,0.0,0.0,0.0,0.0,0.0,
723.11209,true,true,true,0.0,0.031496062874794006,-0.0234375,-0.0078125,false,false,false,false,0.0,0.0,0.0,0.0,false,false,false,false,0.0,12.25,0.0,6,0,64,0.25,12.3,0.0,0,0,0,0.125,12.3,0.0,0,0,0,0.0,12.25,0.0,0,0,0,0.125,12.35,0.0,0,0,0,0.125,12.35,0.0,0,0,0,kForward,0.0,0.0,0.0,0.0,0.0,0.0,0.0,0.0,0.0,0.0,0.0,
723.200677,true,true,true,0.0,0.031496062874794006,-0.0234375,-0.0078125,false,false,false,false,0.0,0.0,0.0,0.0,false,false,false,false,0.0,12.25,0.0,6,0,64,0.25,12.3,0.0,0,0,0,0.125,12.3,0.0,0,0,0,0.0,12.25,0.0,0,0,0,0.125,12.35,0.0,0,0,0,0.125,12.35,0.0,0,0,0,kForward,0.0,0.0,0.0,0.0,0.0,0.0,0.0,0.0,0.0,0.0,0.0,
723.274671,true,true,true,0.0,0.031496062874794006,-0.0234375,-0.0078125,false,false,false,false,0.0,0.0,0.0,0.0,false,false,false,false,0.0,12.25,0.0,6,0,64,0.25,12.3,0.0,0,0,0,0.125,12.3,0.0,0,0,0,0.0,12.25,0.0,0,0,0,0.125,12.35,0.0,0,0,0,0.125,12.35,0.0,0,0,0,kForward,0.0,0.0,0.0,0.0,0.0,0.0,0.0,0.0,0.0,0.0,0.0,
723.32405,true,true,true,0.0,0.031496062874794006,-0.0234375,-0.0078125,false,false,false,false,0.0,0.0,0.0,0.0,false,false,false,false,0.0,12.25,0.0,6,0,64,0.25,12.3,0.0,0,0,0,0.125,12.3,0.0,0,0,0,0.0,12.25,0.0,0,0,0,0.125,12.35,0.0,0,0,0,0.125,12.35,0.0,0,0,0,kForward,0.0,0.0,0.0,0.0,0.0,0.0,0.0,0.0,0.0,0.0,0.0,
723.407075,true,true,true,0.0,0.031496062874794006,-0.0234375,-0.0078125,false,false,false,false,0.0,0.0,0.0,0.0,false,false,false,false,0.0,12.25,0.0,6,0,64,0.25,12.3,0.0,0,0,0,0.125,12.3,0.0,0,0,0,0.0,12.25,0.0,0,0,0,0.125,12.35,0.0,0,0,0,0.125,12.35,0.0,0,0,0,kForward,0.0,0.0,0.0,0.0,0.0,0.0,0.0,0.0,0.0,0.0,0.0,
723.49976,true,true,true,0.0,0.031496062874794006,-0.0234375,-0.0078125,false,false,false,false,0.0,0.0,0.0,0.0,false,false,false,false,0.0,12.25,0.0,6,0,64,0.25,12.3,0.0,0,0,0,0.125,12.3,0.0,0,0,0,0.0,12.25,0.0,0,0,0,0.125,12.35,0.0,0,0,0,0.125,12.35,0.0,0,0,0,kForward,0.0,0.0,0.0,0.0,0.0,0.0,0.0,0.0,0.0,0.0,0.0,
723.561959,true,true,true,0.0,0.031496062874794006,-0.0234375,-0.0078125,false,false,false,false,0.0,0.0,0.0,0.0,false,false,false,false,0.0,12.25,0.0,6,0,64,0.25,12.3,0.0,0,0,0,0.125,12.3,0.0,0,0,0,0.0,12.25,0.0,0,0,0,0.125,12.35,0.0,0,0,0,0.125,12.35,0.0,0,0,0,kForward,0.0,0.0,0.0,0.0,0.0,0.0,0.0,0.0,0.0,0.0,0.0,
723.641155,true,true,true,0.0,0.031496062874794006,-0.0234375,-0.0078125,false,false,false,false,0.0,0.0,0.0,0.0,false,false,false,false,0.0,12.25,0.0,6,0,64,0.25,12.3,0.0,0,0,0,0.125,12.3,0.0,0,0,0,0.0,12.3,0.0,0,0,0,0.125,12.35,0.0,0,0,0,0.125,12.35,0.0,0,0,0,kForward,0.0,0.0,0.0,0.0,0.0,0.0,0.0,0.0,0.0,0.0,0.0,
723.689,true,true,true,0.0,0.031496062874794006,-0.0234375,-0.0078125,false,false,false,false,0.0,0.0,0.0,0.0,false,false,false,false,0.0,12.25,0.0,6,0,64,0.25,12.3,0.0,0,0,0,0.125,12.3,0.0,0,0,0,0.0,12.3,0.0,0,0,0,0.125,12.35,0.0,0,0,0,0.125,12.35,0.0,0,0,0,kForward,0.0,0.0,0.0,0.0,0.0,0.0,0.0,0.0,0.0,0.0,0.0,
723.731987,true,true,true,0.0,0.031496062874794006,-0.0234375,-0.0078125,false,false,false,false,0.0,0.0,0.0,0.0,false,false,false,false,0.0,12.25,0.0,6,0,64,0.25,12.3,0.0,0,0,0,0.125,12.3,0.0,0,0,0,0.0,12.3,0.0,0,0,0,0.125,12.35,0.0,0,0,0,0.125,12.35,0.0,0,0,0,kForward,0.0,0.0,0.0,0.0,0.0,0.0,0.0,0.0,0.0,0.0,0.0,
723.800132,true,true,true,0.0,0.031496062874794006,-0.0234375,-0.0078125,false,false,false,false,0.0,0.0,0.0,0.0,false,false,false,false,0.0,12.25,0.0,6,0,64,0.25,12.3,0.0,0,0,0,0.125,12.3,0.0,0,0,0,0.0,12.3,0.0,0,0,0,0.125,12.4,0.0,0,0,0,0.125,12.35,0.0,0,0,0,kForward,0.0,0.0,0.0,0.0,0.0,0.0,0.0,0.0,0.0,0.0,0.0,
723.88338,true,true,true,0.0,0.031496062874794006,-0.0234375,-0.0078125,false,false,false,false,0.0,0.0,0.0,0.0,false,false,false,false,0.0,12.3,0.0,6,0,64,0.25,12.3,0.0,0,0,0,0.125,12.3,0.0,0,0,0,0.0,12.3,0.0,0,0,0,0.125,12.4,0.0,0,0,0,0.125,12.35,0.0,0,0,0,kForward,0.0,0.0,0.0,0.0,0.0,0.0,0.0,0.0,0.0,0.0,0.0,
723.960649,true,true,true,0.0,0.031496062874794006,-0.0234375,-0.0078125,false,false,false,false,0.0,0.0,0.0,0.0,false,false,false,false,0.0,12.3,0.0,6,0,64,0.25,12.35,0.0,0,0,0,0.125,12.3,0.0,0,0,0,0.0,12.3,0.0,0,0,0,0.125,12.4,0.0,0,0,0,0.125,12.35,0.0,0,0,0,kForward,0.0,0.0,0.0,0.0,0.0,0.0,0.0,0.0,0.0,0.0,0.0,
724.045884,true,true,true,0.0,0.031496062874794006,-0.0234375,-0.0078125,false,false,false,false,0.0,0.0,0.0,0.0,false,false,false,false,0.0,12.3,0.0,6,0,64,0.25,12.35,0.0,0,0,0,0.125,12.3,0.0,0,0,0,0.0,12.3,0.0,0,0,0,0.125,12.4,0.0,0,0,0,0.125,12.35,0.0,0,0,0,kForward,0.0,0.0,0.0,0.0,0.0,0.0,0.0,0.0,0.0,0.0,0.0,
724.109341,true,true,true,0.0,0.031496062874794006,-0.0234375,-0.0078125,false,false,false,false,0.0,0.0,0.0,0.0,false,false,false,false,0.0,12.3,0.0,6,0,64,0.25,12.35,0.0,0,0,0,0.125,12.3,0.0,0,0,0,0.0,12.3,0.0,0,0,0,0.125,12.4,0.0,0,0,0,0.125,12.35,0.0,0,0,0,kForward,0.0,0.0,0.0,0.0,0.0,0.0,0.0,0.0,0.0,0.0,0.0,
724.187187,true,true,true,0.0,0.031496062874794006,-0.0234375,-0.0078125,false,false,false,false,0.0,0.0,0.0,0.0,false,false,false,false,0.0,12.3,0.0,6,0,64,0.25,12.35,0.0,0,0,0,0.125,12.3,0.0,0,0,0,0.0,12.3,0.0,0,0,0,0.125,12.4,0.0,0,0,0,0.125,12.35,0.0,0,0,0,kForward,0.0,0.0,0.0,0.0,0.0,0.0,0.0,0.0,0.0,0.0,0.0,
724.2567190000001,true,true,true,0.0,0.031496062874794006,-0.0234375,-0.0078125,false,false,false,false,0.0,0.0,0.0,0.0,false,false,false,false,0.0,12.3,0.0,6,0,64,0.25,12.35,0.0,0,0,0,0.125,12.3,0.0,0,0,0,0.0,12.3,0.0,0,0,0,0.125,12.4,0.0,0,0,0,0.125,12.35,0.0,0,0,0,kForward,0.0,0.0,0.0,0.0,0.0,0.0,0.0,0.0,0.0,0.0,0.0,
724.3732739999999,true,true,true,0.0,-0.4375,-0.0234375,-0.0078125,false,false,false,false,0.0,0.0,0.0,0.0,false,false,false,false,0.0,12.3,0.0,6,0,64,2.375,12.35,0.0,0,0,0,2.25,12.3,0.0,0,0,0,2.0,12.3,0.0,0,0,0,0.125,12.05,0.0,0,0,0,0.125,12.0,0.0,0,0,0,kForward,0.0,0.0,0.0,0.0,0.0,0.0,0.0,0.0,0.0,0.0,0.0,
724.460874,true,true,true,0.0,-0.6640625,-0.0234375,-0.0078125,false,false,false,false,0.0,0.0,0.0,0.0,false,false,false,false,2.875,11.7,0.0,6,0,64,5.375,12.0,0.0,0,0,0,5.75,12.0,0.0,0,0,0,3.5,11.9,0.0,0,0,0,0.125,12.05,0.0,0,0,0,0.125,12.0,0.0,0,0,0,kForward,0.0,0.0,0.0,0.0,0.0,0.0,0.0,0.0,0.0,0.0,0.0,
724.538388,true,true,true,0.0,-0.8515625,-0.0234375,-0.0078125,false,false,false,false,0.0,0.0,0.0,0.0,false,false,false,false,9.875,11.7,0.0,7,1,64,11.625,12.0,0.0,0,0,0,12.75,12.0,0.0,0,0,0,11.125,11.9,0.0,0,0,0,0.125,10.3,0.0,0,0,0,0.125,10.2,0.0,0,0,0,kForward,0.0,0.0,0.0,0.0,0.0,0.0,0.0,0.0,0.0,0.0,0.0,
724.614493,true,true,true,0.0,-1.0,-0.0234375,-0.0078125,false,false,false,false,0.0,0.0,0.0,0.0,false,false,false,false,17.625,9.5,0.0,7,0,64,22.25,10.0,0.0,0,0,0,19.25,10.100000000000001,0.0,0,0,0,19.625,9.95,0.0,0,0,0,0.125,10.3,0.0,0,0,0,0.125,10.2,0.0,0,0,0,kForward,0.0,0.0,0.0,0.0,0.0,0.0,0.0,0.0,0.0,0.0,0.0,
724.702046,true,true,true,0.0,-1.0,-0.0234375,-0.0078125,false,false,false,false,0.0,0.0,0.0,0.0,false,false,false,false,24.125,9.5,0.0,7,0,64,30.25,10.0,0.0,0,0,0,23.5,10.100000000000001,0.0,0,0,0,25.125,9.95,0.0,0,0,0,0.125,8.95,0.0,0,0,0,0.125,10.2,0.0,0,0,0,kForward,0.0,0.0,0.0,0.0,0.0,0.0,0.0,0.0,0.0,0.0,0.0,
724.7704279999999,true,true,true,0.0,-1.0,-0.0234375,-0.0078125,false,false,false,false,0.0,0.0,0.0,0.0,false,false,false,false,24.125,9.5,0.0,7,0,64,29.75,8.75,0.0,0,0,0,23.375,8.65,0.0,0,0,0,24.5,8.65,0.0,0,0,0,0.125,8.95,0.0,0,0,0,0.125,8.9,0.0,0,0,0,kForward,0.0,0.0,0.0,0.0,0.0,0.0,0.0,0.0,0.0,0.0,0.0,
724.861549,true,true,true,0.0,-1.0,-0.0234375,-0.0078125,false,false,false,false,0.0,0.0,0.0,0.0,false,false,false,false,25.125,8.65,0.0,7,0,64,29.5,8.75,0.0,0,0,0,23.75,8.65,0.0,0,0,0,23.75,8.600000000000001,0.0,0,0,0,0.125,8.8,0.0,0,0,0,0.125,8.8,0.0,0,0,0,kForward,0.0,0.0,0.0,0.0,0.0,0.0,0.0,0.0,0.0,0.0,0.0,
724.957381,true,true,true,0.0,-1.0,-0.0234375,-0.0078125,false,false,false,false,0.0,0.0,0.0,0.0,false,false,false,false,25.375,8.45,0.0,7,0,64,29.75,8.55,0.0,0,0,0,24.125,8.5,0.0,0,0,0,23.5,8.600000000000001,0.0,0,0,0,0.125,8.8,0.0,0,0,0,0.125,8.8,0.0,0,0,0,kForward,0.0,0.0,0.0,0.0,0.0,0.0,0.0,0.0,0.0,0.0,0.0,
725.038855,true,true,true,0.0,-1.0,-0.0234375,-0.0078125,false,false,false,false,0.0,0.0,0.0,0.0,false,false,false,false,32.625,8.45,0.0,7,0,64,31.25,8.55,0.0,0,0,0,24.625,7.800000000000001,0.0,0,0,0,20.625,7.75,0.0,0,0,0,0.125,7.75,0.0,0,0,0,0.125,8.15,0.0,0,0,0,kForward,0.0,0.0,0.0,0.0,0.0,0.0,0.0,0.0,0.0,0.0,0.0,
