timer,lineLeft,lineCenter,lineRight,driverLeftX,driverLeftY,driverRightX,driverRightY,driverA,driverB,driverX,driverY,operatorLeftX,operatorLeftY,operatorRightX,operatorRightY,operatorA,operatorB,operatorX,operatorY,LeftFrontCurrent,LeftFrontVoltage,LeftFrontValue,LeftFrontPosition,LeftFrontVelocity,LeftFrontFaults,LeftRearCurrent,LeftRearVoltage,LeftRearValue,LeftRearPosition,LeftRearVelocity,LeftRearFaults,RightFrontCurrent,RightFrontVoltage,RightFrontValue,RightFrontPosition,RightFrontVelocity,RightFrontFaults,RightRearCurrent,RightRearVoltage,RightRearValue,RightRearPosition,RightRearVelocity,RightRearFaults,LiftCurrent,LiftVoltage,LiftValue,LiftPosition,LiftVelocity,LiftFaults,RollerCurrent,RollerVoltage,RollerValue,RollerPosition,RollerVelocity,RollerFaults,PushersState,navx_Pitch,navx_Roll,navx_Yaw,navx_XAcc,navx_YAcc,navx_ZAcc,navx_Temp,navx_Bar,navx_Alt,navx_XDis,navx_YDis,
235.152533,true,true,true,0.0,0.015748031437397003,0.015748031437397003,-0.0078125,false,false,false,false,0.0,0.0,0.0,0.0,false,false,false,false,0.0,12.6,0.0,0,0,0,0.125,12.6,0.0,0,0,0,0.125,12.6,0.0,0,0,0,0.0,12.6,0.0,0,0,0,0.0,12.65,0.0,0,0,0,0.125,12.65,0.0,0,0,0,kForward,0.0,0.0,0.0,0.0,0.0,0.0,0.0,0.0,0.0,0.0,0.0,
235.23561999999998,true,true,true,0.0,0.015748031437397003,0.015748031437397003,-0.0078125,false,false,false,false,0.0,0.0,0.0,0.0,false,false,false,false,0.0,12.6,0.0,0,0,0,0.125,12.6,0.0,0,0,0,0.125,12.6,0.0,0,0,0,0.0,12.6,0.0,0,0,0,0.0,12.65,0.0,0,0,0,0.125,12.65,0.0,0,0,0,kForward,0.0,0.0,0.0,0.0,0.0,0.0,0.0,0.0,0.0,0.0,0.0,
235.322634,true,true,true,0.0,0.015748031437397003,0.015748031437397003,-0.0078125,false,false,false,false,0.0,0.0,0.0,0.0,false,false,false,false,0.0,12.6,0.0,0,0,0,0.125,12.6,0.0,0,0,0,0.125,12.6,0.0,0,0,0,0.0,12.6,0.0,0,0,0,0.0,12.65,0.0,0,0,0,0.125,12.65,0.0,0,0,0,kForward,0.0,0.0,0.0,0.0,0.0,0.0,0.0,0.0,0.0,0.0,0.0,
235.37774599999997,true,true,true,0.0,0.015748031437397003,0.015748031437397003,-0.0078125,false,false,false,false,0.0,0.0,0.0,0.0,false,false,false,false,0.0,12.6,0.0,0,0,0,0.125,12.6,0.0,0,0,0,0.125,12.6,0.0,0,0,0,0.0,12.6,0.0,0,0,0,0.0,12.65,0.0,0,0,0,0.125,12.65,0.0,0,0,0,kForward,0.0,0.0,0.0,0.0,0.0,0.0,0.0,0.0,0.0,0.0,0.0,
235.42356,true,true,true,0.0,0.015748031437397003,0.015748031437397003,-0.0078125,false,false,false,false,0.0,0.0,0.0,0.0,false,false,false,false,0.0,12.6,0.0,0,0,0,0.125,12.6,0.0,0,0,0,0.125,12.6,0.0,0,0,0,0.0,12.6,0.0,0,0,0,0.0,12.65,0.0,0,0,0,0.125,12.65,0.0,0,0,0,kForward,0.0,0.0,0.0,0.0,0.0,0.0,0.0,0.0,0.0,0.0,0.0,
235.487497,true,true,true,0.0,0.015748031437397003,0.015748031437397003,-0.0078125,false,false,false,false,0.0,0.0,0.0,0.0,false,false,false,false,0.0,12.6,0.0,0,0,0,0.125,12.6,0.0,0,0,0,0.125,12.6,0.0,0,0,0,0.0,12.6,0.0,0,0,0,0.0,12.65,0.0,0,0,0,0.125,12.65,0.0,0,0,0,kForward,0.0,0.0,0.0,0.0,0.0,0.0,0.0,0.0,0.0,0.0,0.0,
235.57822,true,true,true,0.0,0.015748031437397003,0.015748031437397003,-0.0078125,false,false,false,false,0.0,0.0,0.0,0.0,false,false,false,false,0.0,12.6,0.0,0,0,0,0.125,12.6,0.0,0,0,0,0.125,12.6,0.0,0,0,0,0.0,12.6,0.0,0,0,0,0.0,12.65,0.0,0,0,0,0.125,12.65,0.0,0,0,0,kForward,0.0,0.0,0.0,0.0,0.0,0.0,0.0,0.0,0.0,0.0,0.0,
235.63800899999998,true,true,true,0.0,0.015748031437397003,0.015748031437397003,-0.0078125,false,false,false,false,0.0,0.0,0.0,0.0,false,false,false,false,0.0,12.6,0.0,0,0,0,0.125,12.6,0.0,0,0,0,0.125,12.6,0.0,0,0,0,0.0,12.6,0.0,0,0,0,0.0,12.65,0.0,0,0,0,0.125,12.65,0.0,0,0,0,kForward,0.0,0.0,0.0,0.0,0.0,0.0,0.0,0.0,0.0,0.0,0.0,
235.72213,true,true,true,0.0,0.015748031437397003,0.015748031437397003,-0.0078125,false,false,false,false,0.0,0.0,0.0,0.0,false,false,false,false,0.0,12.6,0.0,0,0,0,0.125,12.6,0.0,0,0,0,0.125,12.6,0.0,0,0,0,0.0,12.6,0.0,0,0,0,0.0,12.65,0.0,0,0,0,0.125,12.65,0.0,0,0,0,kForward,0.0,0.0,0.0,0.0,0.0,0.0,0.0,0.0,0.0,0.0,0.0,
235.792529,true,true,true,0.0,0.015748031437397003,0.015748031437397003,-0.0078125,false,false,false,false,0.0,0.0,0.0,0.0,false,false,false,false,0.0,12.6,0.0,0,0,0,0.125,12.6,0.0,0,0,0,0.125,12.6,0.0,0,0,0,0.0,12.6,0.0,0,0,0,0.0,12.65,0.0,0,0,0,0.125,12.65,0.0,0,0,0,kForward,0.0,0.0,0.0,0.0,0.0,0.0,0.0,0.0,0.0,0.0,0.0,
235.871891,true,true,true,0.0,0.015748031437397003,0.015748031437397003,-0.0078125,false,false,false,false,0.0,0.0,0.0,0.0,false,false,false,false,0.0,12.6,0.0,0,0,0,0.125,12.6,0.0,0,0,0,0.125,12.6,0.0,0,0,0,0.0,12.6,0.0,0,0,0,0.0,12.65,0.0,0,0,0,0.125,12.65,0.0,0,0,0,kForward,0.0,0.0,0.0,0.0,0.0,0.0,0.0,0.0,0.0,0.0,0.0,
235.952474,true,true,true,0.0,0.015748031437397003,0.015748031437397003,-0.0078125,false,false,false,false,0.0,0.0,0.0,0.0,false,false,false,false,0.0,12.6,0.0,0,0,0,0.125,12.6,0.0,0,0,0,0.125,12.6,0.0,0,0,0,0.0,12.6,0.0,0,0,0,0.0,12.65,0.0,0,0,0,0.125,12.65,0.0,0,0,0,kForward,0.0,0.0,0.0,0.0,0.0,0.0,0.0,0.0,0.0,0.0,0.0,
236.02405299999998,true,true,true,0.0,0.015748031437397003,0.015748031437397003,-0.0078125,false,false,false,false,0.0,0.0,0.0,0.0,false,false,false,false,0.0,12.6,0.0,0,0,0,0.125,12.6,0.0,0,0,0,0.125,12.6,0.0,0,0,0,0.0,12.6,0.0,0,0,0,0.0,12.65,0.0,0,0,0,0.125,12.65,0.0,0,0,0,kForward,0.0,0.0,0.0,0.0,0.0,0.0,0.0,0.0,0.0,0.0,0.0,
236.114652,true,true,true,0.0,0.015748031437397003,0.015748031437397003,-0.0078125,false,false,false,false,0.0,0.0,0.0,0.0,false,false,false,false,0.0,12.6,0.0,0,0,0,0.125,12.6,0.0,0,0,0,0.125,12.6,0.0,0,0,0,0.0,12.6,0.0,0,0,0,0.0,12.65,0.0,0,0,0,0.125,12.65,0.0,0,0,0,kForward,0.0,0.0,0.0,0.0,0.0,0.0,0.0,0.0,0.0,0.0,0.0,
236.191916,true,true,true,0.0,0.015748031437397003,0.015748031437397003,-0.0078125,false,false,false,false,0.0,0.0,0.0,0.0,false,false,false,false,0.0,12.6,0.0,0,0,0,0.125,12.6,0.0,0,0,0,0.125,12.6,0.0,0,0,0,0.0,12.6,0.0,0,0,0,0.0,12.65,0.0,0,0,0,0.125,12.65,0.0,0,0,0,kForward,0.0,0.0,0.0,0.0,0.0,0.0,0.0,0.0,0.0,0.0,0.0,
236.276215,true,true,true,0.0,0.015748031437397003,0.015748031437397003,-0.0078125,false,false,false,false,0.0,0.0,0.0,0.0,false,false,false,false,0.0,12.6,0.0,0,0,0,0.125,12.6,0.0,0,0,0,0.125,12.6,0.0,0,0,0,0.0,12.6,0.0,0,0,0,0.0,12.65,0.0,0,0,0,0.125,12.65,0.0,0,0,0,kForward,0.0,0.0,0.0,0.0,0.0,0.0,0.0,0.0,0.0,0.0,0.0,
236.320204,true,true,true,0.0,0.015748031437397003,0.015748031437397003,-0.0078125,false,false,false,false,0.0,0.0,0.0,0.0,false,false,false,false,0.0,12.6,0.0,0,0,0,0.125,12.6,0.0,0,0,0,0.125,12.6,0.0,0,0,0,0.0,12.6,0.0,0,0,0,0.0,12.65,0.0,0,0,0,0.125,12.65,0.0,0,0,0,kForward,0.0,0.0,0.0,0.0,0.0,0.0,0.0,0.0,0.0,0.0,0.0,
236.403706,true,true,true,0.0,0.015748031437397003,0.015748031437397003,-0.0078125,false,false,false,false,0.0,0.0,0.0,0.0,false,false,false,false,0.0,12.6,0.0,0,0,0,0.125,12.6,0.0,0,0,0,0.125,12.6,0.0,0,0,0,0.0,12.6,0.0,0,0,0,0.0,12.65,0.0,0,0,0,0.125,12.65,0.0,0,0,0,kForward,0.0,0.0,0.0,0.0,0.0,0.0,0.0,0.0,0.0,0.0,0.0,
236.490741,true,true,true,0.0,0.015748031437397003,0.015748031437397003,-0.0078125,false,false,false,false,0.0,0.0,0.0,0.0,false,false,false,false,0.0,12.6,0.0,0,0,0,0.125,12.6,0.0,0,0,0,0.125,12.6,0.0,0,0,0,0.0,12.6,0.0,0,0,0,0.0,12.65,0.0,0,0,0,0.125,12.65,0.0,0,0,0,kForward,0.0,0.0,0.0,0.0,0.0,0.0,0.0,0.0,0.0,0.0,0.0,
236.567407,true,true,true,0.0,0.015748031437397003,0.015748031437397003,-0.0078125,false,false,false,false,0.0,0.0,0.0,0.0,false,false,false,false,0.0,12.6,0.0,0,0,0,0.125,12.6,0.0,0,0,0,0.125,12.6,0.0,0,0,0,0.0,12.6,0.0,0,0,0,0.0,12.65,0.0,0,0,0,0.125,12.65,0.0,0,0,0,kForward,0.0,0.0,0.0,0.0,0.0,0.0,0.0,0.0,0.0,0.0,0.0,
236.661568,true,true,true,0.0,-0.34375,0.015748031437397003,-0.0078125,false,false,false,false,0.0,0.0,0.0,0.0,false,false,false,false,0.0,12.6,0.0,0,0,0,0.125,12.6,0.0,0,0,0,0.125,12.6,0.0,0,0,0,0.0,12.6,0.0,0,0,0,0.0,12.65,0.0,0,0,0,0.125,12.65,0.0,0,0,0,kForward,0.0,0.0,0.0,0.0,0.0,0.0,0.0,0.0,0.0,0.0,0.0,
236.721849,true,true,true,0.0,-1.0,0.015748031437397003,-0.0078125,false,false,false,false,0.0,0.0,0.0,0.0,false,false,false,false,2.125,12.6,0.0,0,0,0,1.875,12.6,0.0,0,0,0,5.875,11.9,0.0,0,0,0,5.0,12.0,0.0,0,0,0,0.0,12.1,0.0,0,0,0,0.125,12.0,0.0,0,0,0,kForward,0.0,0.0,0.0,0.0,0.0,0.0,0.0,0.0,0.0,0.0,0.0,
236.813554,true,true,true,0.0,-1.0,0.015748031437397003,-0.0078125,false,false,false,false,0.0,0.0,0.0,0.0,false,false,false,false,6.5,11.75,0.0,0,0,0,7.0,12.0,0.0,0,0,0,6.125,11.9,0.0,0,0,0,5.125,12.0,0.0,0,0,0,0.0,12.1,0.0,0,0,0,0.125,12.0,0.0,0,0,0,kForward,0.0,0.0,0.0,0.0,0.0,0.0,0.0,0.0,0.0,0.0,0.0,
236.877149,true,true,true,0.0,-1.0,0.015748031437397003,-0.0078125,false,false,false,false,0.0,0.0,0.0,0.0,false,false,false,false,1.75,11.75,0.0,0,0,0,3.0,12.0,0.0,0,0,0,2.625,11.9,0.0,0,0,0,1.0,12.0,0.0,0,0,0,0.0,12.1,0.0,0,0,0,0.125,12.3,0.0,0,0,0,kForward,0.0,0.0,0.0,0.0,0.0,0.0,0.0,0.0,0.0,0.0,0.0,
236.936961,true,true,true,0.0,-1.0,0.015748031437397003,-0.0078125,false,false,false,false,0.0,0.0,0.0,0.0,false,false,false,false,0.0,12.25,0.0,0,0,0,2.0,12.25,0.0,0,0,0,1.625,12.25,0.0,0,0,0,0.0,12.25,0.0,0,0,0,0.0,12.35,0.0,0,0,0,0.125,12.3,0.0,0,0,0,kForward,0.0,0.0,0.0,0.0,0.0,0.0,0.0,0.0,0.0,0.0,0.0,
237.01719699999998,true,true,true,0.0,-1.0,0.015748031437397003,-0.0078125,false,false,false,false,0.0,0.0,0.0,0.0,false,false,false,false,0.0,12.25,0.0,0,0,0,1.625,12.25,0.0,0,0,0,1.375,12.25,0.0,0,0,0,0.0,12.25,0.0,0,0,0,0.0,12.35,0.0,0,0,0,0.125,12.3,0.0,0,0,0,kForward,0.0,0.0,0.0,0.0,0.0,0.0,0.0,0.0,0.0,0.0,0.0,
237.069023,true,true,true,0.0,-1.0,0.015748031437397003,-0.0078125,false,false,false,false,0.0,0.0,0.0,0.0,false,false,false,false,0.0,12.25,0.0,0,0,0,1.625,12.3,0.0,0,0,0,1.5,12.3,0.0,0,0,0,0.0,12.25,0.0,0,0,0,0.0,12.4,0.0,0,0,0,0.125,12.35,0.0,0,0,0,kForward,0.0,0.0,0.0,0.0,0.0,0.0,0.0,0.0,0.0,0.0,0.0,
237.124269,true,true,true,0.0,-1.0,0.015748031437397003,-0.0078125,false,false,false,false,0.0,0.0,0.0,0.0,false,false,false,false,0.0,12.25,0.0,0,0,0,1.625,12.3,0.0,0,0,0,1.5,12.3,0.0,0,0,0,0.0,12.25,0.0,0,0,0,0.0,12.4,0.0,0,0,0,0.125,12.35,0.0,0,0,0,kForward,0.0,0.0,0.0,0.0,0.0,0.0,0.0,0.0,0.0,0.0,0.0,
237.200844,true,true,true,0.0,-1.0,0.015748031437397003,-0.0078125,false,false,false,false,0.0,0.0,0.0,0.0,false,false,false,false,0.0,12.25,0.0,0,0,0,1.625,12.3,0.0,0,0,0,1.375,12.3,0.0,0,0,0,0.0,12.25,0.0,0,0,0,0.0,12.4,0.0,0,0,0,0.125,12.35,0.0,0,0,0,kForward,0.0,0.0,0.0,0.0,0.0,0.0,0.0,0.0,0.0,0.0,0.0,
237.27846100000002,true,true,true,0.0,-1.0,0.015748031437397003,-0.0078125,false,false,false,false,0.0,0.0,0.0,0.0,false,false,false,false,0.0,12.3,0.0,0,0,0,1.625,12.35,0.0,0,0,0,1.125,12.3,0.0,0,0,0,0.0,12.3,0.0,0,0,0,0.0,12.4,0.0,0,0,0,0.125,12.35,0.0,0,0,0,kForward,0.0,0.0,0.0,0.0,0.0,0.0,0.0,0.0,0.0,0.0,0.0,
237.355999,true,true,true,0.0,-1.0,0.015748031437397003,-0.0078125,false,false,false,false,0.0,0.0,0.0,0.0,false,false,false,false,0.0,12.3,0.0,0,0,0,1.625,12.35,0.0,0,0,0,1.375,12.3,0.0,0,0,0,0.0,12.3,0.0,0,0,0,0.0,12.4,0.0,0,0,0,0.125,12.35,0.0,0,0,0,kForward,0.0,0.0,0.0,0.0,0.0,0.0,0.0,0.0,0.0,0.0,0.0,
237.414951,true,true,true,0.0,-1.0,0.015748031437397003,-0.0078125,false,false,false,false,0.0,0.0,0.0,0.0,false,false,false,false,0.0,12.3,0.0,0,0,0,1.625,12.35,0.0,0,0,0,1.125,12.35,0.0,0,0,0,0.0,12.3,0.0,0,0,0,0.0,12.4,0.0,0,0,0,0.125,12.35,0.0,0,0,0,kForward,0.0,0.0,0.0,0.0,0.0,0.0,0.0,0.0,0.0,0.0,0.0,
237.47053599999998,true,true,true,0.0,-1.0,0.015748031437397003,-0.0078125,false,false,false,false,0.0,0.0,0.0,0.0,false,false,false,false,0.0,12.3,0.0,0,0,0,1.625,12.35,0.0,0,0,0,1.375,12.35,0.0,0,0,0,0.0,12.3,0.0,0,0,0,0.0,12.4,0.0,0,0,0,0.125,12.35,0.0,0,0,0,kForward,0.0,0.0,0.0,0.0,0.0,0.0,0.0,0.0,0.0,0.0,0.0,
237.563106,true,true,true,0.0,-1.0,0.015748031437397003,-0.0078125,false,false,false,false,0.0,0.0,0.0,0.0,false,false,false,false,0.0,12.3,0.0,0,0,0,1.625,12.35,0.0,0,0,0,1.375,12.3,0.0,0,0,0,0.0,12.3,0.0,0,0,0,0.0,12.4,0.0,0,0,0,0.125,12.35,0.0,0,0,0,kForward,0.0,0.0,0.0,0.0,0.0,0.0,0.0,0.0,0.0,0.0,0.0,
237.63219800000002,true,true,true,0.0,-1.0,0.015748031437397003,-0.0078125,false,false,false,false,0.0,0.0,0.0,0.0,false,false,false,false,10.25,12.3,0.0,0,0,0,14.625,12.35,0.0,0,0,0,12.25,12.3,0.0,0,0,0,8.25,12.3,0.0,0,0,0,0.0,12.4,0.0,0,0,0,0.125,12.35,0.0,0,0,0,kForward,0.0,0.0,0.0,0.0,0.0,0.0,0.0,0.0,0.0,0.0,0.0,
237.71612,true,true,true,0.0,-1.0,0.015748031437397003,-0.0078125,false,false,false,false,0.0,0.0,0.0,0.0,false,false,false,false,2.875,11.75,0.0,0,0,0,6.0,11.8,0.0,0,0,0,5.625,11.75,0.0,0,0,0,3.0,11.75,0.0,0,0,0,0.0,11.9,0.0,0,0,0,0.125,11.850000000000001,0.0,0,0,0,kForward,0.0,0.0,0.0,0.0,0.0,0.0,0.0,0.0,0.0,0.0,0.0,
237.769291,true,true,true,0.0,-1.0,0.015748031437397003,-0.0078125,false,false,false,false,0.0,0.0,0.0,0.0,false,false,false,false,1.125,11.75,0.0,0,0,0,4.0,11.8,0.0,0,0,0,4.0,11.75,0.0,0,0,0,1.5,11.75,0.0,0,0,0,0.0,11.9,0.0,0,0,0,0.125,11.850000000000001,0.0,0,0,0,kForward,0.0,0.0,0.0,0.0,0.0,0.0,0.0,0.0,0.0,0.0,0.0,
237.81644,true,true,true,0.0,-1.0,0.015748031437397003,-0.0078125,false,false,false,false,0.0,0.0,0.0,0.0,false,false,false,false,0.625,11.75,0.0,0,0,0,3.125,11.8,0.0,0,0,0,3.125,11.75,0.0,0,0,0,1.0,11.75,0.0,0,0,0,0.0,11.9,0.0,0,0,0,0.125,11.850000000000001,0.0,0,0,0,kForward,0.0,0.0,0.0,0.0,0.0,0.0,0.0,0.0,0.0,0.0,0.0,
237.90381299999999,true,true,true,0.0,-1.0,0.015748031437397003,-0.0078125,false,false,false,false,0.0,0.0,0.0,0.0,false,false,false,false,0.625,12.0,0.0,0,0,0,3.0,12.05,0.0,0,0,0,3.0,12.0,0.0,0,0,0,0.5,12.0,0.0,0,0,0,0.0,12.1,0.0,0,0,0,0.125,12.1,0.0,0,0,0,kForward,0.0,0.0,0.0,0.0,0.0,0.0,0.0,0.0,0.0,0.0,0.0,
237.967497,true,true,true,0.0,-1.0,0.015748031437397003,-0.0078125,false,false,false,false,0.0,0.0,0.0,0.0,false,false,false,false,0.0,12.0,0.0,0,0,0,2.75,12.05,0.0,0,0,0,2.875,12.0,0.0,0,0,0,0.5,12.0,0.0,0,0,0,0.0,12.1,0.0,0,0,0,0.125,12.1,0.0,0,0,0,kForward,0.0,0.0,0.0,0.0,0.0,0.0,0.0,0.0,0.0,0.0,0.0,
238.05603699999998,true,true,true,0.0,-1.0,0.015748031437397003,-0.0078125,false,false,false,false,0.0,0.0,0.0,0.0,false,false,false,false,0.0,12.05,0.0,0,0,0,2.625,12.05,0.0,0,0,0,2.625,12.05,0.0,0,0,0,0.5,12.05,0.0,0,0,0,0.0,12.15,0.0,0,0,0,0.125,12.1,0.0,0,0,0,kForward,0.0,0.0,0.0,0.0,0.0,0.0,0.0,0.0,0.0,0.0,0.0,
238.126663,true,true,true,0.0,-1.0,0.015748031437397003,-0.0078125,false,false,false,false,0.0,0.0,0.0,0.0,false,false,false,false,0.0,12.05,0.0,0,0,0,2.625,12.05,0.0,0,0,0,2.875,12.05,0.0,0,0,0,0.5,12.05,0.0,0,0,0,0.0,12.15,0.0,0,0,0,0.125,12.1,0.0,0,0,0,kForward,0.0,0.0,0.0,0.0,0.0,0.0,0.0,0.0,0.0,0.0,0.0,
238.215758,true,true,true,0.0,-1.0,0.015748031437397003,-0.0078125,false,false,false,false,0.0,0.0,0.0,0.0,false,false,false,false,0.0,12.05,0.0,0,0,0,2.625,12.05,0.0,0,0,0,2.625,12.05,0.0,0,0,0,0.5,12.05,0.0,0,0,0,0.0,12.15,0.0,0,0,0,0.125,12.1,0.0,0,0,0,kForward,0.0,0.0,0.0,0.0,0.0,0.0,0.0,0.0,0.0,0.0,0.0,
238.306005,true,true,true,0.0,-1.0,0.015748031437397003,-0.0078125,false,false,false,false,0.0,0.0,0.0,0.0,false,false,false,false,0.0,12.05,0.0,0,0,0,2.75,12.05,0.0,0,0,0,2.625,12.05,0.0,0,0,0,0.5,12.05,0.0,0,0,0,0.0,12.15,0.0,0,0,0,0.125,12.1,0.0,0,0,0,kForward,0.0,0.0,0.0,0.0,0.0,0.0,0.0,0.0,0.0,0.0,0.0,
238.398529,true,true,true,0.0,-1.0,0.015748031437397003,-0.0078125,false,false,false,false,0.0,0.0,0.0,0.0,false,false,false,false,0.0,12.05,0.0,0,0,0,2.625,12.05,0.0,0,0,0,2.875,12.05,0.0,0,0,0,0.5,12.05,0.0,0,0,0,0.0,12.15,0.0,0,0,0,0.125,12.1,0.0,0,0,0,kForward,0.0,0.0,0.0,0.0,0.0,0.0,0.0,0.0,0.0,0.0,0.0,
238.474164,true,true,true,0.0,-1.0,0.015748031437397003,-0.0078125,false,false,false,false,0.0,0.0,0.0,0.0,false,false,false,false,0.0,12.05,0.0,0,0,0,2.625,12.05,0.0,0,0,0,2.625,12.05,0.0,0,0,0,0.5,12.05,0.0,0,0,0,0.0,12.15,0.0,0,0,0,0.125,12.1,0.0,0,0,0,kForward,0.0,0.0,0.0,0.0,0.0,0.0,0.0,0.0,0.0,0.0,0.0,
238.550455,true,true,true,0.0,-1.0,0.015748031437397003,-0.0078125,false,false,false,false,0.0,0.0,0.0,0.0,false,false,false,false,0.0,12.05,0.0,0,0,0,2.625,12.05,0.0,0,0,0,2.625,12.05,0.0,0,0,0,0.5,12.05,0.0,0,0,0,0.0,12.15,0.0,0,0,0,0.125,12.1,0.0,0,0,0,kForward,0.0,0.0,0.0,0.0,0.0,0.0,0.0,0.0,0.0,0.0,0.0,
238.618786,true,true,true,0.0,-1.0,0.015748031437397003,-0.0078125,false,false,false,false,0.0,0.0,0.0,0.0,false,false,false,false,0.0,12.05,0.0,0,0,0,2.625,12.05,0.0,0,0,0,2.625,12.05,0.0,0,0,0,0.5,12.05,0.0,0,0,0,0.125,12.15,0.0,0,0,0,0.125,12.1,0.0,0,0,0,kForward,0.0,0.0,0.0,0.0,0.0,0.0,0.0,0.0,0.0,0.0,0.0,
238.678381,true,true,true,0.0,-1.0,0.015748031437397003,-0.0078125,false,false,false,false,0.0,0.0,0.0,0.0,false,false,false,false,0.0,12.05,0.0,0,0,0,2.625,12.05,0.0,0,0,0,2.625,12.05,0.0,0,0,0,0.5,12.05,0.0,0,0,0,0.0,12.15,0.0,0,0,0,0.125,12.1,0.0,0,0,0,kForward,0.0,0.0,0.0,0.0,0.0,0.0,0.0,0.0,0.0,0.0,0.0,
238.736671,true,true,true,0.0,-1.0,0.015748031437397003,-0.0078125,false,false,false,false,0.0,0.0,0.0,0.0,false,false,false,false,0.0,12.05,0.0,0,0,0,2.75,12.05,0.0,0,0,0,2.875,12.05,0.0,0,0,0,0.5,12.05,0.0,0,0,0,0.0,12.15,0.0,0,0,0,0.125,12.1,0.0,0,0,0,kForward,0.0,0.0,0.0,0.0,0.0,0.0,0.0,0.0,0.0,0.0,0.0,
238.816193,true,true,true,0.0,-1.0,0.015748031437397003,-0.0078125,false,false,false,false,0.0,0.0,0.0,0.0,false,false,false,false,0.0,12.05,0.0,0,0,0,0.0,12.700000000000001,0.0,0,0,0,0.0,12.700000000000001,0.0,0,0,0,0.0,12.700000000000001,0.0,0,0,0,0.0,12.8,0.0,0,0,0,0.125,12.75,0.0,0,0,0,kForward,0.0,0.0,0.0,0.0,0.0,0.0,0.0,0.0,0.0,0.0,0.0,
238.89470799999998,true,true,true,0.0,-1.0,0.015748031437397003,-0.0078125,false,false,false,false,0.0,0.0,0.0,0.0,false,false,false,false,0.0,12.65,0.0,0,0,0,1.0,12.700000000000001,0.0,0,0,0,0.5,12.700000000000001,0.0,0,0,0,0.0,12.700000000000001,0.0,0,0,0,0.0,12.8,0.0,0,0,0,0.125,12.75,0.0,0,0,0,kForward,0.0,0.0,0.0,0.0,0.0,0.0,0.0,0.0,0.0,0.0,0.0,
238.95301,true,true,true,0.0,-1.0,0.015748031437397003,-0.0078125,false,false,false,false,0.0,0.0,0.0,0.0,false,false,false,false,0.0,12.65,0.0,0,0,0,1.375,12.700000000000001,0.0,0,0,0,1.0,12.700000000000001,0.0,0,0,0,0.0,12.700000000000001,0.0,0,0,0,0.0,12.8,0.0,0,0,0,0.125,12.75,0.0,0,0,0,kForward,0.0,0.0,0.0,0.0,0.0,0.0,0.0,0.0,0.0,0.0,0.0,
239.004731,true,true,true,0.0,-1.0,0.015748031437397003,-0.0078125,false,false,false,false,0.0,0.0,0.0,0.0,false,false,false,false,0.0,12.25,0.0,0,0,0,1.625,12.3,0.0,0,0,0,1.125,12.25,0.0,0,0,0,0.0,12.25,0.0,0,0,0,0.0,12.4,0.0,0,0,0,0.125,12.35,0.0,0,0,0,kForward,0.0,0.0,0.0,0.0,0.0,0.0,0.0,0.0,0.0,0.0,0.0,
239.062591,true,true,true,0.0,-1.0,0.015748031437397003,-0.0078125,false,false,false,false,0.0,0.0,0.0,0.0,false,false,false,false,0.0,12.25,0.0,0,0,0,1.625,12.3,0.0,0,0,0,1.375,12.25,0.0,0,0,0,0.0,12.25,0.0,0,0,0,0.125,12.4,0.0,0,0,0,0.125,12.35,0.0,0,0,0,kForward,0.0,0.0,0.0,0.0,0.0,0.0,0.0,0.0,0.0,0.0,0.0,
239.15365,true,true,true,0.0,-1.0,0.015748031437397003,-0.0078125,false,false,false,false,0.0,0.0,0.0,0.0,false,false,false,false,0.0,12.25,0.0,0,0,0,1.75,12.25,0.0,0,0,0,1.375,12.25,0.0,0,0,0,0.0,12.25,0.0,0,0,0,0.0,12.35,0.0,0,0,0,0.125,12.3,0.0,0,0,0,kForward,0.0,0.0,0.0,0.0,0.0,0.0,0.0,0.0,0.0,0.0,0.0,
239.24867600000002,true,true,true,0.0,-1.0,0.015748031437397003,-0.0078125,false,false,false,false,0.0,0.0,0.0,0.0,false,false,false,false,0.0,12.25,0.0,0,0,0,1.75,12.25,0.0,0,0,0,1.125,12.25,0.0,0,0,0,0.0,12.25,0.0,0,0,0,0.0,12.35,0.0,0,0,0,0.125,12.3,0.0,0,0,0,kForward,0.0,0.0,0.0,0.0,0.0,0.0,0.0,0.0,0.0,0.0,0.0,
239.332337,true,true,true,0.0,-1.0,0.015748031437397003,-0.0078125,false,false,false,false,0.0,0.0,0.0,0.0,false,false,false,false,0.0,12.200000000000001,0.0,0,0,0,1.75,12.25,0.0,0,0,0,1.375,12.25,0.0,0,0,0,0.0,12.200000000000001,0.0,0,0,0,0.0,12.35,0.0,0,0,0,0.125,12.3,0.0,0,0,0,kForward,0.0,0.0,0.0,0.0,0.0,0.0,0.0,0.0,0.0,0.0,0.0,
239.398429,true,true,true,0.0,-1.0,0.015748031437397003,-0.0078125,false,false,false,false,0.0,0.0,0.0,0.0,false,false,false,false,0.0,12.200000000000001,0.0,0,0,0,1.75,12.25,0.0,0,0,0,1.375,12.25,0.0,0,0,0,0.0,12.200000000000001,0.0,0,0,0,0.0,12.35,0.0,0,0,0,0.125,12.3,0.0,0,0,0,kForward,0.0,0.0,0.0,0.0,0.0,0.0,0.0,0.0,0.0,0.0,0.0,
239.445866,true,true,true,0.0,-1.0,0.015748031437397003,-0.0078125,false,false,false,false,0.0,0.0,0.0,0.0,false,false,false,false,0.0,12.200000000000001,0.0,0,0,0,1.75,12.25,0.0,0,0,0,1.375,12.25,0.0,0,0,0,0.0,12.200000000000001,0.0,0,0,0,0.0,12.35,0.0,0,0,0,0.125,12.3,0.0,0,0,0,kForward,0.0,0.0,0.0,0.0,0.0,0.0,0.0,0.0,0.0,0.0,0.0,
239.516326,true,true,true,0.0,-1.0,0.015748031437397003,-0.0078125,false,false,false,false,0.0,0.0,0.0,0.0,false,false,false,false,0.0,12.25,0.0,0,0,0,1.625,12.25,0.0,0,0,0,1.375,12.25,0.0,0,0,0,0.0,12.25,0.0,0,0,0,0.0,12.35,0.0,0,0,0,0.125,12.3,0.0,0,0,0,kForward,0.0,0.0,0.0,0.0,0.0,0.0,0.0,0.0,0.0,0.0,0.0,
239.609572,true,true,true,0.0,-1.0,0.015748031437397003,-0.0078125,false,false,false,false,0.0,0.0,0.0,0.0,false,false,false,false,0.0,12.25,0.0,0,0,0,1.625,12.25,0.0,0,0,0,1.375,12.25,0.0,0,0,0,0.0,12.25,0.0,0,0,0,0.0,12.35,0.0,0,0,0,0.125,12.3,0.0,0,0,0,kForward,0.0,0.0,0.0,0.0,0.0,0.0,0.0,0.0,0.0,0.0,0.0,
239.69613099999998,true,true,true,0.0,-1.0,0.015748031437397003,-0.0078125,false,false,false,false,0.0,0.0,0.0,0.0,false,false,false,false,0.0,12.25,0.0,0,0,0,1.625,12.25,0.0,0,0,0,1.375,12.25,0.0,0,0,0,0.0,12.25,0.0,0,0,0,0.0,12.35,0.0,0,0,0,0.125,12.3,0.0,0,0,0,kForward,0.0,0.0,0.0,0.0,0.0,0.0,0.0,0.0,0.0,0.0,0.0,
239.767605,true,true,true,0.0,-1.0,0.015748031437397003,-0.0078125,false,false,false,false,0.0,0.0,0.0,0.0,false,false,false,false,0.0,12.25,0.0,0,0,0,1.625,12.25,0.0,0,0,0,1.375,12.25,0.0,0,0,0,0.0,12.25,0.0,0,0,0,0.0,12.35,0.0,0,0,0,0.125,12.3,0.0,0,0,0,kForward,0.0,0.0,0.0,0.0,0.0,0.0,0.0,0.0,0.0,0.0,0.0,
239.852081,true,true,true,0.0,-1.0,0.015748031437397003,-0.0078125,false,false,false,false,0.0,0.0,0.0,0.0,false,false,false,false,0.0,12.200000000000001,0.0,0,0,0,1.625,12.25,0.0,0,0,0,1.375,12.25,0.0,0,0,0,0.0,12.25,0.0,0,0,0,0.0,12.35,0.0,0,0,0,0.125,12.3,0.0,0,0,0,kForward,0.0,0.0,0.0,0.0,0.0,0.0,0.0,0.0,0.0,0.0,0.0,
239.944916,true,true,true,0.0,-1.0,0.015748031437397003,-0.0078125,false,false,false,false,0.0,0.0,0.0,0.0,false,false,false,false,0.0,12.200000000000001,0.0,0,0,0,1.625,12.25,0.0,0,0,0,1.375,12.200000000000001,0.0,0,0,0,0.0,12.200000000000001,0.0,0,0,0,0.0,12.35,0.0,0,0,0,0.125,12.3,0.0,0,0,0,kForward,0.0,0.0,0.0,0.0,0.0,0.0,0.0,0.0,0.0,0.0,0.0,
240.02032499999999,true,true,true,0.0,-1.0,0.015748031437397003,-0.0078125,false,false,false,false,0.0,0.0,0.0,0.0,false,false,false,false,0.0,12.200000000000001,0.0,0,0,0,1.625,12.25,0.0,0,0,0,1.375,12.200000000000001,0.0,0,0,0,0.0,12.200000000000001,0.0,0,0,0,0.0,12.35,0.0,0,0,0,0.125,12.3,0.0,0,0,0,kForward,0.0,0.0,0.0,0.0,0.0,0.0,0.0,0.0,0.0,0.0,0.0,
240.107168,true,true,true,0.0,-1.0,0.015748031437397003,-0.0078125,false,false,false,false,0.0,0.0,0.0,0.0,false,false,false,false,0.0,12.200000000000001,0.0,0,0,0,1.625,12.25,0.0,0,0,0,1.375,12.25,0.0,0,0,0,0.0,12.25,0.0,0,0,0,0.0,12.35,0.0,0,0,0,0.125,12.3,0.0,0,0,0,kForward,0.0,0.0,0.0,0.0,0.0,0.0,0.0,0.0,0.0,0.0,0.0,
240.182253,true,true,true,0.0,-1.0,0.015748031437397003,-0.0078125,false,false,false,false,0.0,0.0,0.0,0.0,false,false,false,false,0.0,12.200000000000001,0.0,0,0,0,1.625,12.25,0.0,0,0,0,1.375,12.25,0.0,0,0,0,0.0,12.25,0.0,0,0,0,0.0,12.35,0.0,0,0,0,0.125,12.3,0.0,0,0,0,kForward,0.0,0.0,0.0,0.0,0.0,0.0,0.0,0.0,0.0,0.0,0.0,
240.28368899999998,true,true,true,0.0,-1.0,0.015748031437397003,-0.0078125,false,false,false,false,0.0,0.0,0.0,0.0,false,false,false,false,0.0,12.200000000000001,0.0,0,0,0,1.625,12.25,0.0,0,0,0,1.375,12.200000000000001,0.0,0,0,0,0.0,12.25,0.0,0,0,0,0.125,12.35,0.0,0,0,0,0.125,12.3,0.0,0,0,0,kForward,0.0,0.0,0.0,0.0,0.0,0.0,0.0,0.0,0.0,0.0,0.0,
240.379356,true,true,true,0.0,-1.0,0.015748031437397003,-0.0078125,false,false,false,false,0.0,0.0,0.0,0.0,false,false,false,false,0.0,12.200000000000001,0.0,0,0,0,1.625,12.25,0.0,0,0,0,1.375,12.200000000000001,0.0,0,0,0,0.0,12.25,0.0,0,0,0,0.0,12.35,0.0,0,0,0,0.125,12.3,0.0,0,0,0,kForward,0.0,0.0,0.0,0.0,0.0,0.0,0.0,0.0,0.0,0.0,0.0,
240.438694,true,true,true,0.0,-1.0,0.015748031437397003,-0.0078125,false,false,false,false,0.0,0.0,0.0,0.0,false,false,false,false,0.0,12.200000000000001,0.0,0,0,0,1.625,12.25,0.0,0,0,0,1.375,12.25,0.0,0,0,0,0.0,12.200000000000001,0.0,0,0,0,0.0,12.35,0.0,0,0,0,0.125,12.3,0.0,0,0,0,kForward,0.0,0.0,0.0,0.0,0.0,0.0,0.0,0.0,0.0,0.0,0.0,
240.492038,true,true,true,0.0,-1.0,0.015748031437397003,-0.0078125,false,false,false,false,0.0,0.0,0.0,0.0,false,false,false,false,0.0,12.200000000000001,0.0,0,0,0,1.625,12.25,0.0,0,0,0,1.375,12.25,0.0,0,0,0,0.0,12.200000000000001,0.0,0,0,0,0.0,12.35,0.0,0,0,0,0.125,12.3,0.0,0,0,0,kForward,0.0,0.0,0.0,0.0,0.0,0.0,0.0,0.0,0.0,0.0,0.0,
240.569815,true,true,true,0.0,-1.0,0.015748031437397003,-0.0078125,false,false,false,false,0.0,0.0,0.0,0.0,false,false,false,false,0.0,12.200000000000001,0.0,0,0,0,1.625,12.25,0.0,0,0,0,1.375,12.200000000000001,0.0,0,0,0,0.0,12.200000000000001,0.0,0,0,0,0.0,12.35,0.0,0,0,0,0.125,12.3,0.0,0,0,0,kForward,0.0,0.0,0.0,0.0,0.0,0.0,0.0,0.0,0.0,0.0,0.0,
240.63343400000002,true,true,true,0.0,-1.0,0.015748031437397003,-0.0078125,false,false,false,false,0.0,0.0,0.0,0.0,false,false,false,false,0.0,12.200000000000001,0.0,0,0,0,1.625,12.25,0.0,0,0,0,1.375,12.200000000000001,0.0,0,0,0,0.0,12.200000000000001,0.0,0,0,0,0.0,12.35,0.0,0,0,0,0.125,12.3,0.0,0,0,0,kForward,0.0,0.0,0.0,0.0,0.0,0.0,0.0,0.0,0.0,0.0,0.0,
240.67667600000001,true,true,true,0.0,-1.0,0.015748031437397003,-0.0078125,false,false,false,false,0.0,0.0,0.0,0.0,false,false,false,false,0.0,12.200000000000001,0.0,0,0,0,1.625,12.25,0.0,0,0,0,1.375,12.200000000000001,0.0,0,0,0,0.0,12.200000000000001,0.0,0,0,0,0.0,12.35,0.0,0,0,0,0.125,12.3,0.0,0,0,0,kForward,0.0,0.0,0.0,0.0,0.0,0.0,0.0,0.0,0.0,0.0,0.0,
240.725574,true,true,true,0.0,-1.0,0.015748031437397003,-0.0078125,false,false,false,false,0.0,0.0,0.0,0.0,false,false,false,false,0.0,12.200000000000001,0.0,0,0,0,1.625,12.25,0.0,0,0,0,1.375,12.25,0.0,0,0,0,0.0,12.200000000000001,0.0,0,0,0,0.0,12.35,0.0,0,0,0,0.125,12.3,0.0,0,0,0,kForward,0.0,0.0,0.0,0.0,0.0,0.0,0.0,0.0,0.0,0.0,0.0,
240.81285999999997,true,true,true,0.0,-1.0,0.015748031437397003,-0.0078125,false,false,false,false,0.0,0.0,0.0,0.0,false,false,false,false,0.0,12.200000000000001,0.0,0,0,0,1.625,12.25,0.0,0,0,0,1.5,12.25,0.0,0,0,0,0.0,12.200000000000001,0.0,0,0,0,0.0,12.35,0.0,0,0,0,0.125,12.3,0.0,0,0,0,kForward,0.0,0.0,0.0,0.0,0.0,0.0,0.0,0.0,0.0,0.0,0.0,
240.883515,true,true,true,0.0,-1.0,0.015748031437397003,-0.0078125,false,false,false,false,0.0,0.0,0.0,0.0,false,false,false,false,0.0,12.200000000000001,0.0,0,0,0,1.625,12.25,0.0,0,0,0,1.375,12.25,0.0,0,0,0,0.0,12.200000000000001,0.0,0,0,0,0.0,12.35,0.0,0,0,0,0.125,12.3,0.0,0,0,0,kForward,0.0,0.0,0.0,0.0,0.0,0.0,0.0,0.0,0.0,0.0,0.0,
240.96255599999998,true,true,true,0.0,-1.0,0.015748031437397003,-0.0078125,false,false,false,false,0.0,0.0,0.0,0.0,false,false,false,false,0.0,12.200000000000001,0.0,0,0,0,1.625,12.25,0.0,0,0,0,1.375,12.25,0.0,0,0,0,0.0,12.200000000000001,0.0,0,0,0,0.0,12.35,0.0,0,0,0,0.125,12.3,0.0,0,0,0,kForward,0.0,0.0,0.0,0.0,0.0,0.0,0.0,0.0,0.0,0.0,0.0,
241.044053,true,true,true,0.0,-1.0,0.015748031437397003,-0.0078125,false,false,false,false,0.0,0.0,0.0,0.0,false,false,false,false,0.0,12.200000000000001,0.0,0,0,0,1.625,12.25,0.0,0,0,0,1.375,12.200000000000001,0.0,0,0,0,0.0,12.200000000000001,0.0,0,0,0,0.0,12.35,0.0,0,0,0,0.125,12.25,0.0,0,0,0,kForward,0.0,0.0,0.0,0.0,0.0,0.0,0.0,0.0,0.0,0.0,0.0,
241.11694999999997,true,true,true,0.0,-1.0,0.015748031437397003,-0.0078125,false,false,false,false,0.0,0.0,0.0,0.0,false,false,false,false,0.0,12.200000000000001,0.0,0,0,0,1.625,12.25,0.0,0,0,0,1.375,12.200000000000001,0.0,0,0,0,0.0,12.200000000000001,0.0,0,0,0,0.0,12.35,0.0,0,0,0,0.125,12.25,0.0,0,0,0,kForward,0.0,0.0,0.0,0.0,0.0,0.0,0.0,0.0,0.0,0.0,0.0,
241.19243400000002,true,true,true,0.0,-1.0,0.015748031437397003,-0.0078125,false,false,false,false,0.0,0.0,0.0,0.0,false,false,false,false,10.5,12.200000000000001,0.0,0,0,0,12.5,12.25,0.0,0,0,0,12.75,12.200000000000001,0.0,0,0,0,8.125,12.200000000000001,0.0,0,0,0,0.0,11.600000000000001,0.0,0,0,0,0.125,11.600000000000001,0.0,0,0,0,kForward,0.0,0.0,0.0,0.0,0.0,0.0,0.0,0.0,0.0,0.0,0.0,
241.28482,true,true,true,0.0,-1.0,0.015748031437397003,-0.0078125,false,false,false,false,0.0,0.0,0.0,0.0,false,false,false,false,1.75,11.5,0.0,0,0,0,5.375,11.55,0.0,0,0,0,4.5,11.5,0.0,0,0,0,2.0,11.5,0.0,0,0,0,0.0,11.600000000000001,0.0,0,0,0,0.125,11.600000000000001,0.0,0,0,0,kForward,0.0,0.0,0.0,0.0,0.0,0.0,0.0,0.0,0.0,0.0,0.0,
241.364872,true,true,true,0.0,-1.0,0.015748031437397003,-0.0078125,false,false,false,false,0.0,0.0,0.0,0.0,false,false,false,false,0.625,11.5,0.0,0,0,0,3.375,11.55,0.0,0,0,0,3.375,11.5,0.0,0,0,0,1.0,11.95,0.0,0,0,0,0.0,12.05,0.0,0,0,0,0.125,12.05,0.0,0,0,0,kForward,0.0,0.0,0.0,0.0,0.0,0.0,0.0,0.0,0.0,0.0,0.0,
241.450589,true,true,true,0.0,-1.0,0.015748031437397003,-0.0078125,false,false,false,false,0.0,0.0,0.0,0.0,false,false,false,false,0.0,11.95,0.0,0,0,0,3.0,12.0,0.0,0,0,0,2.875,11.95,0.0,0,0,0,0.5,11.95,0.0,0,0,0,0.0,12.05,0.0,0,0,0,0.125,12.05,0.0,0,0,0,kForward,0.0,0.0,0.0,0.0,0.0,0.0,0.0,0.0,0.0,0.0,0.0,
241.50296,true,true,true,0.0,-1.0,0.015748031437397003,-0.0078125,false,false,false,false,0.0,0.0,0.0,0.0,false,false,false,false,0.0,11.95,0.0,0,0,0,2.625,12.0,0.0,0,0,0,2.875,11.95,0.0,0,0,0,1.0,11.95,0.0,0,0,0,0.0,12.05,0.0,0,0,0,0.125,12.05,0.0,0,0,0,kForward,0.0,0.0,0.0,0.0,0.0,0.0,0.0,0.0,0.0,0.0,0.0,
241.56293599999998,true,true,true,0.0,-1.0,0.015748031437397003,-0.0078125,false,false,false,false,0.0,0.0,0.0,0.0,false,false,false,false,0.0,12.0,0.0,0,0,0,3.0,12.0,0.0,0,0,0,2.875,12.0,0.0,0,0,0,0.5,12.0,0.0,0,0,0,0.125,12.1,0.0,0,0,0,0.125,12.05,0.0,0,0,0,kForward,0.0,0.0,0.0,0.0,0.0,0.0,0.0,0.0,0.0,0.0,0.0,
241.633433,true,true,true,0.0,-1.0,0.015748031437397003,-0.0078125,false,false,false,false,0.0,0.0,0.0,0.0,false,false,false,false,0.0,12.0,0.0,0,0,0,2.625,12.0,0.0,0,0,0,2.875,12.0,0.0,0,0,0,0.5,12.0,0.0,0,0,0,0.0,12.1,0.0,0,0,0,0.125,12.05,0.0,0,0,0,kForward,0.0,0.0,0.0,0.0,0.0,0.0,0.0,0.0,0.0,0.0,0.0,
241.71702599999998,true,true,true,0.0,-1.0,0.015748031437397003,-0.0078125,false,false,false,false,0.0,0.0,0.0,0.0,false,false,false,false,0.0,12.0,0.0,0,0,0,2.75,12.0,0.0,0,0,0,2.625,12.0,0.0,0,0,0,0.5,12.0,0.0,0,0,0,0.0,12.1,0.0,0,0,0,0.125,12.05,0.0,0,0,0,kForward,0.0,0.0,0.0,0.0,0.0,0.0,0.0,0.0,0.0,0.0,0.0,
241.80210699999998,true,true,true,0.0,-1.0,0.015748031437397003,-0.0078125,false,false,false,false,0.0,0.0,0.0,0.0,false,false,false,false,0.0,12.0,0.0,0,0,0,2.625,12.0,0.0,0,0,0,2.625,12.0,0.0,0,0,0,0.5,12.0,0.0,0,0,0,0.0,12.1,0.0,0,0,0,0.125,12.05,0.0,0,0,0,kForward,0.0,0.0,0.0,0.0,0.0,0.0,0.0,0.0,0.0,0.0,0.0,
241.850953,true,true,true,0.0,-1.0,0.015748031437397003,-0.0078125,false,false,false,false,0.0,0.0,0.0,0.0,false,false,false,false,0.0,12.0,0.0,0,0,0,1.75,12.0,0.0,0,0,0,0.0,12.9,0.0,0,0,0,0.0,12.9,0.0,0,0,0,0.0,13.0,0.0,0,0,0,0.125,12.950000000000001,0.0,0,0,0,kForward,0.0,0.0,0.0,0.0,0.0,0.0,0.0,0.0,0.0,0.0,0.0,
241.90383,true,true,true,0.0,-1.0,0.015748031437397003,-0.0078125,false,false,false,false,0.0,0.0,0.0,0.0,false,false,false,false,0.0,12.9,0.0,0,0,0,0.0,12.9,0.0,0,0,0,0.0,12.9,0.0,0,0,0,0.0,12.9,0.0,0,0,0,0.0,13.0,0.0,0,0,0,0.125,12.950000000000001,0.0,0,0,0,kForward,0.0,0.0,0.0,0.0,0.0,0.0,0.0,0.0,0.0,0.0,0.0,
241.979368,true,true,true,0.0,-1.0,0.015748031437397003,-0.0078125,false,false,false,false,0.0,0.0,0.0,0.0,false,false,false,false,0.0,12.9,0.0,0,0,0,1.0,12.9,0.0,0,0,0,0.625,12.9,0.0,0,0,0,0.0,12.9,0.0,0,0,0,0.0,13.0,0.0,0,0,0,0.125,12.950000000000001,0.0,0,0,0,kForward,0.0,0.0,0.0,0.0,0.0,0.0,0.0,0.0,0.0,0.0,0.0,
242.060633,true,true,true,0.0,-1.0,0.015748031437397003,-0.0078125,false,false,false,false,0.0,0.0,0.0,0.0,false,false,false,false,0.0,12.25,0.0,0,0,0,1.375,12.25,0.0,0,0,0,1.125,12.25,0.0,0,0,0,0.0,12.25,0.0,0,0,0,0.0,12.35,0.0,0,0,0,0.125,12.35,0.0,0,0,0,kForward,0.0,0.0,0.0,0.0,0.0,0.0,0.0,0.0,0.0,0.0,0.0,
242.143466,true,true,true,0.0,-1.0,0.015748031437397003,-0.0078125,false,false,false,false,0.0,0.0,0.0,0.0,false,false,false,false,0.0,12.25,0.0,0,0,0,1.625,12.25,0.0,0,0,0,1.375,12.25,0.0,0,0,0,0.0,12.25,0.0,0,0,0,0.0,12.35,0.0,0,0,0,0.125,12.35,0.0,0,0,0,kForward,0.0,0.0,0.0,0.0,0.0,0.0,0.0,0.0,0.0,0.0,0.0,
242.222158,true,true,true,0.0,-1.0,0.015748031437397003,-0.0078125,false,false,false,false,0.0,0.0,0.0,0.0,false,false,false,false,0.0,12.200000000000001,0.0,0,0,0,1.625,12.25,0.0,0,0,0,1.125,12.200000000000001,0.0,0,0,0,0.0,12.200000000000001,0.0,0,0,0,0.0,12.35,0.0,0,0,0,0.125,12.3,0.0,0,0,0,kForward,0.0,0.0,0.0,0.0,0.0,0.0,0.0,0.0,0.0,0.0,0.0,
242.347698,true,true,true,0.0,-1.0,0.015748031437397003,-0.0078125,false,false,false,false,0.0,0.0,0.0,0.0,false,false,false,false,0.0,12.200000000000001,0.0,0,0,0,1.625,12.200000000000001,0.0,0,0,0,1.375,12.200000000000001,0.0,0,0,0,0.0,12.200000000000001,0.0,0,0,0,0.0,12.35,0.0,0,0,0,0.125,12.25,0.0,0,0,0,kForward,0.0,0.0,0.0,0.0,0.0,0.0,0.0,0.0,0.0,0.0,0.0,
242.40900399999998,true,true,true,0.0,-1.0,0.015748031437397003,-0.0078125,false,false,false,false,0.0,0.0,0.0,0.0,false,false,false,false,0.0,12.200000000000001,0.0,0,0,0,1.75,12.200000000000001,0.0,0,0,0,1.375,12.200000000000001,0.0,0,0,0,0.0,12.200000000000001,0.0,0,0,0,0.0,12.35,0.0,0,0,0,0.125,12.25,0.0,0,0,0,kForward,0.0,0.0,0.0,0.0,0.0,0.0,0.0,0.0,0.0,0.0,0.0,
242.469881,true,true,true,0.0,-1.0,0.015748031437397003,-0.0078125,false,false,false,false,0.0,0.0,0.0,0.0,false,false,false,false,0.0,12.200000000000001,0.0,0,0,0,1.75,12.200000000000001,0.0,0,0,0,1.375,12.200000000000001,0.0,0,0,0,0.0,12.200000000000001,0.0,0,0,0,0.0,12.35,0.0,0,0,0,0.125,12.25,0.0,0,0,0,kForward,0.0,0.0,0.0,0.0,0.0,0.0,0.0,0.0,0.0,0.0,0.0,
242.516008,true,true,true,0.0,-1.0,0.015748031437397003,-0.0078125,false,false,false,false,0.0,0.0,0.0,0.0,false,false,false,false,0.0,12.200000000000001,0.0,0,0,0,1.625,12.25,0.0,0,0,0,1.375,12.200000000000001,0.0,0,0,0,0.0,12.200000000000001,0.0,0,0,0,0.0,12.3,0.0,0,0,0,0.125,12.25,0.0,0,0,0,kForward,0.0,0.0,0.0,0.0,0.0,0.0,0.0,0.0,0.0,0.0,0.0,
242.588141,true,true,true,0.0,-1.0,0.015748031437397003,-0.0078125,false,false,false,false,0.0,0.0,0.0,0.0,false,false,false,false,0.0,12.200000000000001,0.0,0,0,0,1.625,12.25,0.0,0,0,0,1.375,12.200000000000001,0.0,0,0,0,0.0,12.200000000000001,0.0,0,0,0,0.125,12.3,0.0,0,0,0,0.125,12.25,0.0,0,0,0,kForward,0.0,0.0,0.0,0.0,0.0,0.0,0.0,0.0,0.0,0.0,0.0,
242.649269,true,true,true,0.0,-1.0,0.015748031437397003,-0.0078125,false,false,false,false,0.0,0.0,0.0,0.0,false,false,false,false,0.0,12.200000000000001,0.0,0,0,0,1.625,12.25,0.0,0,0,0,1.125,12.200000000000001,0.0,0,0,0,0.0,12.200000000000001,0.0,0,0,0,0.125,12.35,0.0,0,0,0,0.125,12.25,0.0,0,0,0,kForward,0.0,0.0,0.0,0.0,0.0,0.0,0.0,0.0,0.0,0.0,0.0,
242.70829999999998,true,true,true,0.0,-1.0,0.015748031437397003,-0.0078125,false,false,false,false,0.0,0.0,0.0,0.0,false,false,false,false,0.0,12.200000000000001,0.0,0,0,0,1.625,12.25,0.0,0,0,0,1.375,12.200000000000001,0.0,0,0,0,0.0,12.200000000000001,0.0,0,0,0,0.0,12.35,0.0,0,0,0,0.125,12.25,0.0,0,0,0,kForward,0.0,0.0,0.0,0.0,0.0,0.0,0.0,0.0,0.0,0.0,0.0,
242.75907999999998,true,true,true,0.0,-1.0,0.015748031437397003,-0.0078125,false,false,false,false,0.0,0.0,0.0,0.0,false,false,false,false,0.0,12.200000000000001,0.0,0,0,0,1.625,12.25,0.0,0,0,0,1.375,12.200000000000001,0.0,0,0,0,0.0,12.200000000000001,0.0,0,0,0,0.0,12.35,0.0,0,0,0,0.125,12.25,0.0,0,0,0,kForward,0.0,0.0,0.0,0.0,0.0,0.0,0.0,0.0,0.0,0.0,0.0,
242.816843,true,true,true,0.0,-1.0,0.015748031437397003,-0.0078125,false,false,false,false,0.0,0.0,0.0,0.0,false,false,false,false,0.0,12.200000000000001,0.0,0,0,0,1.75,12.200000000000001,0.0,0,0,0,1.375,12.200000000000001,0.0,0,0,0,0.0,12.200000000000001,0.0,0,0,0,0.0,12.3,0.0,0,0,0,0.125,12.25,0.0,0,0,0,kForward,0.0,0.0,0.0,0.0,0.0,0.0,0.0,0.0,0.0,0.0,0.0,
242.88116699999998,true,true,true,0.0,-1.0,0.015748031437397003,-0.0078125,false,false,false,false,0.0,0.0,0.0,0.0,false,false,false,false,0.0,12.200000000000001,0.0,0,0,0,1.75,12.200000000000001,0.0,0,0,0,1.375,12.200000000000001,0.0,0,0,0,0.0,12.200000000000001,0.0,0,0,0,0.0,12.3,0.0,0,0,0,0.125,12.25,0.0,0,0,0,kForward,0.0,0.0,0.0,0.0,0.0,0.0,0.0,0.0,0.0,0.0,0.0,
242.950413,true,true,true,0.0,-1.0,0.015748031437397003,-0.0078125,false,false,false,false,0.0,0.0,0.0,0.0,false,false,false,false,0.0,12.200000000000001,0.0,0,0,0,1.625,12.200000000000001,0.0,0,0,0,1.375,12.200000000000001,0.0,0,0,0,0.0,12.200000000000001,0.0,0,0,0,0.0,12.3,0.0,0,0,0,0.125,12.25,0.0,0,0,0,kForward,0.0,0.0,0.0,0.0,0.0,0.0,0.0,0.0,0.0,0.0,0.0,
243.01879,true,true,true,0.0,-1.0,0.015748031437397003,-0.0078125,false,false,false,false,0.0,0.0,0.0,0.0,false,false,false,false,0.0,12.200000000000001,0.0,0,0,0,1.625,12.200000000000001,0.0,0,0,0,1.5,12.200000000000001,0.0,0,0,0,0.0,12.200000000000001,0.0,0,0,0,0.125,12.3,0.0,0,0,0,0.125,12.25,0.0,0,0,0,kForward,0.0,0.0,0.0,0.0,0.0,0.0,0.0,0.0,0.0,0.0,0.0,
243.095693,true,true,true,0.0,-1.0,0.015748031437397003,-0.0078125,false,false,false,false,0.0,0.0,0.0,0.0,false,false,false,false,0.0,12.200000000000001,0.0,0,0,0,1.625,12.200000000000001,0.0,0,0,0,1.375,12.200000000000001,0.0,0,0,0,0.0,12.200000000000001,0.0,0,0,0,0.0,12.3,0.0,0,0,0,0.125,12.25,0.0,0,0,0,kForward,0.0,0.0,0.0,0.0,0.0,0.0,0.0,0.0,0.0,0.0,0.0,
243.17239600000002,true,true,true,0.0,-1.0,0.015748031437397003,-0.0078125,false,false,false,false,0.0,0.0,0.0,0.0,false,false,false,false,0.0,12.200000000000001,0.0,0,0,0,1.625,12.200000000000001,0.0,0,0,0,1.375,12.200000000000001,0.0,0,0,0,0.0,12.200000000000001,0.0,0,0,0,0.0,12.35,0.0,0,0,0,0.125,12.25,0.0,0,0,0,kForward,0.0,0.0,0.0,0.0,0.0,0.0,0.0,0.0,0.0,0.0,0.0,
243.26524799999999,true,true,true,0.0,-1.0,0.015748031437397003,-0.0078125,false,false,false,false,0.0,0.0,0.0,0.0,false,false,false,false,0.0,12.200000000000001,0.0,0,0,0,1.625,12.200000000000001,0.0,0,0,0,1.375,12.200000000000001,0.0,0,0,0,0.0,12.200000000000001,0.0,0,0,0,0.0,12.35,0.0,0,0,0,0.125,12.25,0.0,0,0,0,kForward,0.0,0.0,0.0,0.0,0.0,0.0,0.0,0.0,0.0,0.0,0.0,
243.35587099999998,true,true,true,0.0,-1.0,0.015748031437397003,-0.0078125,false,false,false,false,0.0,0.0,0.0,0.0,false,false,false,false,0.0,12.200000000000001,0.0,0,0,0,1.625,12.200000000000001,0.0,0,0,0,1.375,12.200000000000001,0.0,0,0,0,0.0,12.200000000000001,0.0,0,0,0,0.0,12.3,0.0,0,0,0,0.125,12.25,0.0,0,0,0,kForward,0.0,0.0,0.0,0.0,0.0,0.0,0.0,0.0,0.0,0.0,0.0,
243.42252100000002,true,true,true,0.0,-1.0,0.015748031437397003,-0.0078125,false,false,false,false,0.0,0.0,0.0,0.0,false,false,false,false,0.0,12.200000000000001,0.0,0,0,0,1.625,12.200000000000001,0.0,0,0,0,1.375,12.200000000000001,0.0,0,0,0,0.0,12.200000000000001,0.0,0,0,0,0.0,12.3,0.0,0,0,0,0.125,12.25,0.0,0,0,0,kForward,0.0,0.0,0.0,0.0,0.0,0.0,0.0,0.0,0.0,0.0,0.0,
243.48028,true,true,true,0.0,-1.0,0.015748031437397003,-0.0078125,false,false,false,false,0.0,0.0,0.0,0.0,false,false,false,false,0.0,12.200000000000001,0.0,0,0,0,1.625,12.200000000000001,0.0,0,0,0,1.375,12.200000000000001,0.0,0,0,0,0.0,12.200000000000001,0.0,0,0,0,0.0,12.3,0.0,0,0,0,0.125,12.25,0.0,0,0,0,kForward,0.0,0.0,0.0,0.0,0.0,0.0,0.0,0.0,0.0,0.0,0.0,
243.525473,true,true,true,0.0,-1.0,0.015748031437397003,-0.0078125,false,false,false,false,0.0,0.0,0.0,0.0,false,false,false,false,0.0,12.200000000000001,0.0,0,0,0,1.625,12.200000000000001,0.0,0,0,0,1.125,12.200000000000001,0.0,0,0,0,0.0,12.200000000000001,0.0,0,0,0,0.0,12.3,0.0,0,0,0,0.125,12.25,0.0,0,0,0,kForward,0.0,0.0,0.0,0.0,0.0,0.0,0.0,0.0,0.0,0.0,0.0,
243.615687,true,true,true,0.0,-1.0,0.015748031437397003,-0.0078125,false,false,false,false,0.0,0.0,0.0,0.0,false,false,false,false,0.0,12.200000000000001,0.0,0,0,0,1.75,12.25,0.0,0,0,0,1.125,12.200000000000001,0.0,0,0,0,0.0,12.200000000000001,0.0,0,0,0,0.0,12.3,0.0,0,0,0,0.125,12.25,0.0,0,0,0,kForward,0.0,0.0,0.0,0.0,0.0,0.0,0.0,0.0,0.0,0.0,0.0,
243.68860899999999,true,true,true,0.0,-1.0,0.015748031437397003,-0.0078125,false,false,false,false,0.0,0.0,0.0,0.0,false,false,false,false,0.0,12.200000000000001,0.0,0,0,0,1.75,12.25,0.0,0,0,0,1.375,12.200000000000001,0.0,0,0,0,0.0,12.200000000000001,0.0,0,0,0,0.125,12.3,0.0,0,0,0,0.125,12.25,0.0,0,0,0,kForward,0.0,0.0,0.0,0.0,0.0,0.0,0.0,0.0,0.0,0.0,0.0,
243.747407,true,true,true,0.0,0.04724409431219101,0.015748031437397003,-0.0078125,false,false,false,false,0.0,0.0,0.0,0.0,false,false,false,false,0.0,12.200000000000001,0.0,0,0,0,1.25,12.25,0.0,0,0,0,1.0,12.200000000000001,0.0,0,0,0,0.0,12.200000000000001,0.0,0,0,0,0.0,12.65,0.0,0,0,0,0.125,12.65,0.0,0,0,0,kForward,0.0,0.0,0.0,0.0,0.0,0.0,0.0,0.0,0.0,0.0,0.0,
243.83183,true,true,true,0.0,0.04724409431219101,0.015748031437397003,-0.0078125,false,false,false,false,0.0,0.0,0.0,0.0,false,false,false,false,0.0,12.65,0.0,0,0,0,0.25,12.6,0.0,0,0,0,0.125,12.6,0.0,0,0,0,0.0,12.6,0.0,0,0,0,0.0,12.65,0.0,0,0,0,0.125,12.65,0.0,0,0,0,kForward,0.0,0.0,0.0,0.0,0.0,0.0,0.0,0.0,0.0,0.0,0.0,
243.913035,true,true,true,0.0,0.04724409431219101,0.015748031437397003,-0.0078125,false,false,false,false,0.0,0.0,0.0,0.0,false,false,false,false,0.0,12.65,0.0,0,0,0,0.125,12.6,0.0,0,0,0,0.125,12.6,0.0,0,0,0,0.0,12.6,0.0,0,0,0,0.0,12.65,0.0,0,0,0,0.125,12.5,0.0,0,0,0,kForward,0.0,0.0,0.0,0.0,0.0,0.0,0.0,0.0,0.0,0.0,0.0,
243.986741,true,true,true,0.0,0.04724409431219101,0.015748031437397003,-0.0078125,false,false,false,false,0.0,0.0,0.0,0.0,false,false,false,false,0.0,12.450000000000001,0.0,0,0,0,0.125,12.450000000000001,0.0,0,0,0,0.125,12.450000000000001,0.0,0,0,0,0.0,12.450000000000001,0.0,0,0,0,0.0,12.55,0.0,0,0,0,0.125,12.5,0.0,0,0,0,kForward,0.0,0.0,0.0,0.0,0.0,0.0,0.0,0.0,0.0,0.0,0.0,
244.081328,true,true,true,0.0,0.04724409431219101,0.015748031437397003,-0.0078125,false,false,false,false,0.0,0.0,0.0,0.0,false,false,false,false,0.0,12.450000000000001,0.0,0,0,0,0.125,12.450000000000001,0.0,0,0,0,0.125,12.450000000000001,0.0,0,0,0,0.0,12.450000000000001,0.0,0,0,0,0.0,12.55,0.0,0,0,0,0.125,12.5,0.0,0,0,0,kForward,0.0,0.0,0.0,0.0,0.0,0.0,0.0,0.0,0.0,0.0,0.0,
244.145115,true,true,true,0.0,0.04724409431219101,0.015748031437397003,-0.0078125,false,false,false,false,0.0,0.0,0.0,0.0,false,false,false,false,0.0,12.450000000000001,0.0,0,0,0,0.125,12.450000000000001,0.0,0,0,0,0.125,12.450000000000001,0.0,0,0,0,0.0,12.450000000000001,0.0,0,0,0,0.0,12.55,0.0,0,0,0,0.125,12.5,0.0,0,0,0,kForward,0.0,0.0,0.0,0.0,0.0,0.0,0.0,0.0,0.0,0.0,0.0,
244.213562,true,true,true,0.0,0.04724409431219101,0.015748031437397003,-0.0078125,false,false,false,false,0.0,0.0,0.0,0.0,false,false,false,false,0.0,12.450000000000001,0.0,0,0,0,0.125,12.450000000000001,0.0,0,0,0,0.125,12.450000000000001,0.0,0,0,0,0.0,12.450000000000001,0.0,0,0,0,0.125,12.55,0.0,0,0,0,0.125,12.5,0.0,0,0,0,kForward,0.0,0.0,0.0,0.0,0.0,0.0,0.0,0.0,0.0,0.0,0.0,
244.26326799999998,true,true,true,0.0,0.04724409431219101,0.015748031437397003,-0.0078125,false,false,false,false,0.0,0.0,0.0,0.0,false,false,false,false,0.0,12.450000000000001,0.0,0,0,0,0.125,12.5,0.0,0,0,0,0.125,12.450000000000001,0.0,0,0,0,0.0,12.450000000000001,0.0,0,0,0,0.0,12.55,0.0,0,0,0,0.125,12.5,0.0,0,0,0,kForward,0.0,0.0,0.0,0.0,0.0,0.0,0.0,0.0,0.0,0.0,0.0,
244.319212,true,true,true,0.0,0.04724409431219101,0.015748031437397003,-0.0078125,false,false,false,false,0.0,0.0,0.0,0.0,false,false,false,false,0.0,12.450000000000001,0.0,0,0,0,0.125,12.5,0.0,0,0,0,0.125,12.450000000000001,0.0,0,0,0,0.0,12.450000000000001,0.0,0,0,0,0.0,12.55,0.0,0,0,0,0.125,12.5,0.0,0,0,0,kForward,0.0,0.0,0.0,0.0,0.0,0.0,0.0,0.0,0.0,0.0,0.0,
244.405096,true,true,true,0.0,0.04724409431219101,0.015748031437397003,-0.0078125,false,false,false,false,0.0,0.0,0.0,0.0,false,false,false,false,0.0,12.450000000000001,0.0,0,0,0,0.125,12.5,0.0,0,0,0,0.125,12.450000000000001,0.0,0,0,0,0.0,12.450000000000001,0.0,0,0,0,0.0,12.55,0.0,0,0,0,0.125,12.55,0.0,0,0,0,kForward,0.0,0.0,0.0,0.0,0.0,0.0,0.0,0.0,0.0,0.0,0.0,
244.502266,true,true,true,0.0,0.04724409431219101,0.015748031437397003,-0.0078125,false,false,false,false,0.0,0.0,0.0,0.0,false,false,false,false,0.0,12.450000000000001,0.0,0,0,0,0.125,12.5,0.0,0,0,0,0.125,12.450000000000001,0.0,0,0,0,0.0,12.450000000000001,0.0,0,0,0,0.0,12.55,0.0,0,0,0,0.125,12.55,0.0,0,0,0,kForward,0.0,0.0,0.0,0.0,0.0,0.0,0.0,0.0,0.0,0.0,0.0,
244.58897399999998,true,true,true,0.0,0.04724409431219101,0.015748031437397003,-0.0078125,false,false,false,false,0.0,0.0,0.0,0.0,false,false,false,false,0.0,12.5,0.0,0,0,0,0.125,12.5,0.0,0,0,0,0.125,12.450000000000001,0.0,0,0,0,0.0,12.450000000000001,0.0,0,0,0,0.0,12.55,0.0,0,0,0,0.125,12.55,0.0,0,0,0,kForward,0.0,0.0,0.0,0.0,0.0,0.0,0.0,0.0,0.0,0.0,0.0,
244.663397,true,true,true,0.0,0.04724409431219101,0.015748031437397003,-0.0078125,false,false,false,false,0.0,0.0,0.0,0.0,false,false,false,false,0.0,12.5,0.0,0,0,0,0.125,12.5,0.0,0,0,0,0.125,12.450000000000001,0.0,0,0,0,0.0,12.450000000000001,0.0,0,0,0,0.0,12.55,0.0,0,0,0,0.125,12.55,0.0,0,0,0,kForward,0.0,0.0,0.0,0.0,0.0,0.0,0.0,0.0,0.0,0.0,0.0,
244.74853399999998,true,true,true,0.0,0.04724409431219101,0.015748031437397003,-0.0078125,false,false,false,false,0.0,0.0,0.0,0.0,false,false,false,false,0.0,12.5,0.0,0,0,0,0.125,12.5,0.0,0,0,0,0.125,12.450000000000001,0.0,0,0,0,0.0,12.450000000000001,0.0,0,0,0,0.0,12.55,0.0,0,0,0,0.125,12.55,0.0,0,0,0,kForward,0.0,0.0,0.0,0.0,0.0,0.0,0.0,0.0,0.0,0.0,0.0,
244.82144200000002,true,true,true,0.0,0.04724409431219101,0.015748031437397003,-0.0078125,false,false,false,false,0.0,0.0,0.0,0.0,false,false,false,false,0.0,12.5,0.0,0,0,0,0.125,12.5,0.0,0,0,0,0.125,12.450000000000001,0.0,0,0,0,0.0,12.450000000000001,0.0,0,0,0,0.0,12.55,0.0,0,0,0,0.125,12.55,0.0,0,0,0,kForward,0.0,0.0,0.0,0.0,0.0,0.0,0.0,0.0,0.0,0.0,0.0,
244.92793,true,true,true,0.0,0.04724409431219101,0.015748031437397003,-0.0078125,false,false,false,false,0.0,0.0,0.0,0.0,false,false,false,false,0.0,12.5,0.0,0,0,0,0.125,12.5,0.0,0,0,0,0.125,12.5,0.0,0,0,0,0.0,12.450000000000001,0.0,0,0,0,0.0,12.6,0.0,0,0,0,0.125,12.55,0.0,0,0,0,kForward,0.0,0.0,0.0,0.0,0.0,0.0,0.0,0.0,0.0,0.0,0.0,
244.989626,true,true,true,0.0,0.04724409431219101,0.015748031437397003,-0.0078125,false,false,false,false,0.0,0.0,0.0,0.0,false,false,false,false,0.0,12.5,0.0,0,0,0,0.125,12.5,0.0,0,0,0,0.125,12.5,0.0,0,0,0,0.0,12.450000000000001,0.0,0,0,0,0.0,12.6,0.0,0,0,0,0.125,12.55,0.0,0,0,0,kForward,0.0,0.0,0.0,0.0,0.0,0.0,0.0,0.0,0.0,0.0,0.0,
245.068027,true,true,true,0.0,0.04724409431219101,0.015748031437397003,-0.0078125,false,false,false,false,0.0,0.0,0.0,0.0,false,false,false,false,0.0,12.5,0.0,0,0,0,0.125,12.55,0.0,0,0,0,0.125,12.450000000000001,0.0,0,0,0,0.0,12.450000000000001,0.0,0,0,0,0.0,12.6,0.0,0,0,0,0.125,12.55,0.0,0,0,0,kForward,0.0,0.0,0.0,0.0,0.0,0.0,0.0,0.0,0.0,0.0,0.0,
245.145209,true,true,true,0.0,0.04724409431219101,0.015748031437397003,-0.0078125,false,false,false,false,0.0,0.0,0.0,0.0,false,false,false,false,0.0,12.5,0.0,0,0,0,0.125,12.55,0.0,0,0,0,0.125,12.450000000000001,0.0,0,0,0,0.0,12.450000000000001,0.0,0,0,0,0.0,12.6,0.0,0,0,0,0.125,12.55,0.0,0,0,0,kForward,0.0,0.0,0.0,0.0,0.0,0.0,0.0,0.0,0.0,0.0,0.0,
245.233779,true,true,true,0.0,0.04724409431219101,0.015748031437397003,-0.0078125,false,false,false,false,0.0,0.0,0.0,0.0,false,false,false,false,0.0,12.5,0.0,0,0,0,0.125,12.55,0.0,0,0,0,0.125,12.5,0.0,0,0,0,0.0,12.450000000000001,0.0,0,0,0,0.0,12.6,0.0,0,0,0,0.125,12.55,0.0,0,0,0,kForward,0.0,0.0,0.0,0.0,0.0,0.0,0.0,0.0,0.0,0.0,0.0,
245.302717,true,true,true,0.0,0.04724409431219101,0.015748031437397003,-0.0078125,false,false,false,false,0.0,0.0,0.0,0.0,false,false,false,false,0.0,12.5,0.0,0,0,0,0.125,12.55,0.0,0,0,0,0.125,12.5,0.0,0,0,0,0.0,12.450000000000001,0.0,0,0,0,0.0,12.6,0.0,0,0,0,0.125,12.55,0.0,0,0,0,kForward,0.0,0.0,0.0,0.0,0.0,0.0,0.0,0.0,0.0,0.0,0.0,
245.37597,true,true,true,0.0,0.04724409431219101,0.015748031437397003,-0.0078125,false,false,false,false,0.0,0.0,0.0,0.0,false,false,false,false,0.0,12.5,0.0,0,0,0,0.125,12.55,0.0,0,0,0,0.125,12.5,0.0,0,0,0,0.0,12.450000000000001,0.0,0,0,0,0.0,12.6,0.0,0,0,0,0.125,12.55,0.0,0,0,0,kForward,0.0,0.0,0.0,0.0,0.0,0.0,0.0,0.0,0.0,0.0,0.0,
245.470553,true,true,true,0.0,0.04724409431219101,0.015748031437397003,-0.0078125,false,false,false,false,0.0,0.0,0.0,0.0,false,false,false,false,0.0,12.5,0.0,0,0,0,0.125,12.55,0.0,0,0,0,0.125,12.5,0.0,0,0,0,0.0,12.450000000000001,0.0,0,0,0,0.0,12.6,0.0,0,0,0,0.125,12.55,0.0,0,0,0,kForward,0.0,0.0,0.0,0.0,0.0,0.0,0.0,0.0,0.0,0.0,0.0,
245.57089299999998,true,true,true,0.0,0.04724409431219101,0.015748031437397003,-0.0078125,false,false,false,false,0.0,0.0,0.0,0.0,false,false,false,false,0.0,12.5,0.0,0,0,0,0.125,12.55,0.0,0,0,0,0.125,12.5,0.0,0,0,0,0.0,12.5,0.0,0,0,0,0.0,12.6,0.0,0,0,0,0.125,12.55,0.0,0,0,0,kForward,0.0,0.0,0.0,0.0,0.0,0.0,0.0,0.0,0.0,0.0,0.0,
245.64759399999997,true,true,true,0.0,0.04724409431219101,0.015748031437397003,-0.0078125,false,false,false,false,0.0,0.0,0.0,0.0,false,false,false,false,0.0,12.5,0.0,0,0,0,0.125,12.55,0.0,0,0,0,0.125,12.5,0.0,0,0,0,0.0,12.5,0.0,0,0,0,0.0,12.6,0.0,0,0,0,0.125,12.55,0.0,0,0,0,kForward,0.0,0.0,0.0,0.0,0.0,0.0,0.0,0.0,0.0,0.0,0.0,
245.724908,true,true,true,0.0,0.04724409431219101,0.015748031437397003,-0.0078125,false,false,false,false,0.0,0.0,0.0,0.0,false,false,false,false,0.0,12.5,0.0,0,0,0,0.125,12.55,0.0,0,0,0,0.125,12.5,0.0,0,0,0,0.0,12.5,0.0,0,0,0,0.0,12.6,0.0,0,0,0,0.125,12.55,0.0,0,0,0,kForward,0.0,0.0,0.0,0.0,0.0,0.0,0.0,0.0,0.0,0.0,0.0,
245.772406,true,true,true,0.0,0.04724409431219101,0.015748031437397003,-0.0078125,false,false,false,false,0.0,0.0,0.0,0.0,false,false,false,false,0.0,12.5,0.0,0,0,0,0.125,12.55,0.0,0,0,0,0.125,12.5,0.0,0,0,0,0.0,12.5,0.0,0,0,0,0.0,12.6,0.0,0,0,0,0.125,12.55,0.0,0,0,0,kForward,0.0,0.0,0.0,0.0,0.0,0.0,0.0,0.0,0.0,0.0,0.0,
245.81695799999997,true,true,true,0.0,0.04724409431219101,0.015748031437397003,-0.0078125,false,false,false,false,0.0,0.0,0.0,0.0,false,false,false,false,0.0,12.5,0.0,0,0,0,0.125,12.55,0.0,0,0,0,0.125,12.5,0.0,0,0,0,0.0,12.5,0.0,0,0,0,0.0,12.6,0.0,0,0,0,0.125,12.55,0.0,0,0,0,kForward,0.0,0.0,0.0,0.0,0.0,0.0,0.0,0.0,0.0,0.0,0.0,
245.896711,true,true,true,0.0,0.04724409431219101,0.015748031437397003,-0.0078125,false,false,false,false,0.0,0.0,0.0,0.0,false,false,false,false,0.0,12.5,0.0,0,0,0,0.125,12.55,0.0,0,0,0,0.125,12.5,0.0,0,0,0,0.0,12.5,0.0,0,0,0,0.0,12.6,0.0,0,0,0,0.125,12.55,0.0,0,0,0,kForward,0.0,0.0,0.0,0.0,0.0,0.0,0.0,0.0,0.0,0.0,0.0,
245.998516,true,true,true,0.0,0.04724409431219101,0.015748031437397003,-0.0078125,false,false,false,false,0.0,0.0,0.0,0.0,false,false,false,false,0.0,12.5,0.0,0,0,0,0.125,12.55,0.0,0,0,0,0.125,12.5,0.0,0,0,0,0.0,12.5,0.0,0,0,0,0.0,12.6,0.0,0,0,0,0.125,12.55,0.0,0,0,0,kForward,0.0,0.0,0.0,0.0,0.0,0.0,0.0,0.0,0.0,0.0,0.0,
246.066301,true,true,true,0.0,-0.0390625,0.015748031437397003,-0.0078125,false,false,false,false,0.0,0.0,0.0,0.0,false,false,false,false,0.0,12.5,0.0,0,0,0,0.125,12.55,0.0,0,0,0,0.125,12.5,0.0,0,0,0,0.0,12.5,0.0,0,0,0,0.0,12.6,0.0,0,0,0,0.125,12.55,0.0,0,0,0,kForward,0.0,0.0,0.0,0.0,0.0,0.0,0.0,0.0,0.0,0.0,0.0,
246.12511299999997,true,true,true,0.0,-0.984375,0.015748031437397003,-0.0078125,false,false,false,false,0.0,0.0,0.0,0.0,false,false,false,false,0.0,12.5,0.0,0,0,0,0.125,12.55,0.0,0,0,0,0.125,12.5,0.0,0,0,0,0.0,12.5,0.0,0,0,0,0.0,12.6,0.0,0,0,0,0.125,12.55,0.0,0,0,0,kForward,0.0,0.0,0.0,0.0,0.0,0.0,0.0,0.0,0.0,0.0,0.0,
246.169331,true,true,true,0.0,-1.0,0.015748031437397003,-0.0078125,false,false,false,false,0.0,0.0,0.0,0.0,false,false,false,false,12.375,12.5,0.0,0,0,0,10.625,12.55,0.0,0,0,0,11.375,12.5,0.0,0,0,0,8.125,10.850000000000001,0.0,0,0,0,0.0,11.05,0.0,0,0,0,0.125,11.0,0.0,0,0,0,kForward,0.0,0.0,0.0,0.0,0.0,0.0,0.0,0.0,0.0,0.0,0.0,
246.26697399999998,true,true,true,0.0,-1.0,0.015748031437397003,-0.0078125,false,false,false,false,0.0,0.0,0.0,0.0,false,false,false,false,8.625,10.75,0.0,0,0,0,15.5,10.9,0.0,0,0,0,13.0,10.850000000000001,0.0,0,0,0,8.5,10.850000000000001,0.0,0,0,0,0.0,11.05,0.0,0,0,0,0.125,11.0,0.0,0,0,0,kForward,0.0,0.0,0.0,0.0,0.0,0.0,0.0,0.0,0.0,0.0,0.0,
246.31557199999997,true,true,true,0.0,-1.0,0.015748031437397003,-0.0078125,false,false,false,false,0.0,0.0,0.0,0.0,false,false,false,false,6.375,10.75,0.0,0,0,0,9.5,10.9,0.0,0,0,0,7.125,10.850000000000001,0.0,0,0,0,5.5,10.850000000000001,0.0,0,0,0,0.0,11.05,0.0,0,0,0,0.125,11.0,0.0,0,0,0,kForward,0.0,0.0,0.0,0.0,0.0,0.0,0.0,0.0,0.0,0.0,0.0,
246.39554800000002,true,true,true,0.0,-1.0,0.015748031437397003,-0.0078125,false,false,false,false,0.0,0.0,0.0,0.0,false,false,false,false,1.125,11.75,0.0,0,0,0,4.125,11.75,0.0,0,0,0,3.5,11.75,0.0,0,0,0,1.5,11.75,0.0,0,0,0,0.0,11.850000000000001,0.0,0,0,0,0.125,11.850000000000001,0.0,0,0,0,kForward,0.0,0.0,0.0,0.0,0.0,0.0,0.0,0.0,0.0,0.0,0.0,
246.48510399999998,true,true,true,0.0,-1.0,0.015748031437397003,-0.0078125,false,false,false,false,0.0,0.0,0.0,0.0,false,false,false,false,0.0,11.75,0.0,0,0,0,3.125,11.75,0.0,0,0,0,2.875,11.95,0.0,0,0,0,1.0,11.95,0.0,0,0,0,0.0,12.05,0.0,0,0,0,0.125,12.05,0.0,0,0,0,kForward,0.0,0.0,0.0,0.0,0.0,0.0,0.0,0.0,0.0,0.0,0.0,
246.560332,true,true,true,0.0,-1.0,0.015748031437397003,-0.0078125,false,false,false,false,0.0,0.0,0.0,0.0,false,false,false,false,0.0,12.0,0.0,0,0,0,3.0,12.0,0.0,0,0,0,2.625,11.95,0.0,0,0,0,0.5,11.95,0.0,0,0,0,0.0,12.05,0.0,0,0,0,0.125,12.05,0.0,0,0,0,kForward,0.0,0.0,0.0,0.0,0.0,0.0,0.0,0.0,0.0,0.0,0.0,
246.645129,true,true,true,0.0,-1.0,0.015748031437397003,-0.0078125,false,false,false,false,0.0,0.0,0.0,0.0,false,false,false,false,0.0,12.0,0.0,0,0,0,2.75,12.0,0.0,0,0,0,2.5,11.95,0.0,0,0,0,0.5,12.0,0.0,0,0,0,0.0,12.1,0.0,0,0,0,0.125,12.05,0.0,0,0,0,kForward,0.0,0.0,0.0,0.0,0.0,0.0,0.0,0.0,0.0,0.0,0.0,
246.69809899999998,true,true,true,0.0,-1.0,0.015748031437397003,-0.0078125,false,false,false,false,0.0,0.0,0.0,0.0,false,false,false,false,0.0,12.0,0.0,0,0,0,3.0,12.0,0.0,0,0,0,2.5,12.0,0.0,0,0,0,0.5,12.0,0.0,0,0,0,0.0,12.1,0.0,0,0,0,0.125,12.05,0.0,0,0,0,kForward,0.0,0.0,0.0,0.0,0.0,0.0,0.0,0.0,0.0,0.0,0.0,
246.749035,true,true,true,0.0,-1.0,0.015748031437397003,-0.0078125,false,false,false,false,0.0,0.0,0.0,0.0,false,false,false,false,0.0,12.0,0.0,0,0,0,3.0,12.0,0.0,0,0,0,2.625,12.0,0.0,0,0,0,0.5,12.0,0.0,0,0,0,0.0,12.1,0.0,0,0,0,0.125,12.05,0.0,0,0,0,kForward,0.0,0.0,0.0,0.0,0.0,0.0,0.0,0.0,0.0,0.0,0.0,
246.802831,true,true,true,0.0,-1.0,0.015748031437397003,-0.0078125,false,false,false,false,0.0,0.0,0.0,0.0,false,false,false,false,0.0,12.0,0.0,0,0,0,2.75,12.0,0.0,0,0,0,2.875,12.0,0.0,0,0,0,0.5,12.0,0.0,0,0,0,0.0,12.1,0.0,0,0,0,0.125,12.05,0.0,0,0,0,kForward,0.0,0.0,0.0,0.0,0.0,0.0,0.0,0.0,0.0,0.0,0.0,
246.90263099999999,true,true,true,0.0,-1.0,0.015748031437397003,-0.0078125,false,false,false,false,0.0,0.0,0.0,0.0,false,false,false,false,0.0,12.0,0.0,0,0,0,3.0,12.0,0.0,0,0,0,2.625,12.0,0.0,0,0,0,0.5,12.0,0.0,0,0,0,0.125,12.1,0.0,0,0,0,0.125,12.05,0.0,0,0,0,kForward,0.0,0.0,0.0,0.0,0.0,0.0,0.0,0.0,0.0,0.0,0.0,
246.99319200000002,true,true,true,0.0,-1.0,0.015748031437397003,-0.0078125,false,false,false,false,0.0,0.0,0.0,0.0,false,false,false,false,0.0,12.0,0.0,0,0,0,2.75,12.0,0.0,0,0,0,2.5,12.0,0.0,0,0,0,0.5,12.0,0.0,0,0,0,0.0,12.1,0.0,0,0,0,0.125,12.05,0.0,0,0,0,kForward,0.0,0.0,0.0,0.0,0.0,0.0,0.0,0.0,0.0,0.0,0.0,
247.06423199999998,true,true,true,0.0,-1.0,0.015748031437397003,-0.0078125,false,false,false,false,0.0,0.0,0.0,0.0,false,false,false,false,0.0,12.0,0.0,0,0,0,2.625,12.0,0.0,0,0,0,2.5,12.0,0.0,0,0,0,0.5,12.0,0.0,0,0,0,0.0,12.1,0.0,0,0,0,0.125,12.05,0.0,0,0,0,kForward,0.0,0.0,0.0,0.0,0.0,0.0,0.0,0.0,0.0,0.0,0.0,
247.12399,true,true,true,0.0,-1.0,0.015748031437397003,-0.0078125,false,false,false,false,0.0,0.0,0.0,0.0,false,false,false,false,0.0,12.0,0.0,0,0,0,3.0,12.0,0.0,0,0,0,2.375,12.0,0.0,0,0,0,0.5,12.0,0.0,0,0,0,0.0,12.1,0.0,0,0,0,0.125,12.05,0.0,0,0,0,kForward,0.0,0.0,0.0,0.0,0.0,0.0,0.0,0.0,0.0,0.0,0.0,
247.170504,true,true,true,0.0,-1.0,0.015748031437397003,-0.0078125,false,false,false,false,0.0,0.0,0.0,0.0,false,false,false,false,0.0,12.0,0.0,0,0,0,3.0,12.0,0.0,0,0,0,2.375,12.0,0.0,0,0,0,0.5,12.0,0.0,0,0,0,0.0,12.1,0.0,0,0,0,0.125,12.05,0.0,0,0,0,kForward,0.0,0.0,0.0,0.0,0.0,0.0,0.0,0.0,0.0,0.0,0.0,
247.24013699999998,true,true,true,0.0,-1.0,0.015748031437397003,-0.0078125,false,false,false,false,0.0,0.0,0.0,0.0,false,false,false,false,0.0,12.0,0.0,0,0,0,3.0,12.0,0.0,0,0,0,2.5,12.0,0.0,0,0,0,0.5,12.0,0.0,0,0,0,0.0,12.1,0.0,0,0,0,0.125,12.05,0.0,0,0,0,kForward,0.0,0.0,0.0,0.0,0.0,0.0,0.0,0.0,0.0,0.0,0.0,
247.323096,true,true,true,0.0,-1.0,0.015748031437397003,-0.0078125,false,false,false,false,0.0,0.0,0.0,0.0,false,false,false,false,0.0,12.0,0.0,0,0,0,3.0,12.0,0.0,0,0,0,2.625,12.0,0.0,0,0,0,0.5,12.0,0.0,0,0,0,0.0,12.1,0.0,0,0,0,0.125,12.05,0.0,0,0,0,kForward,0.0,0.0,0.0,0.0,0.0,0.0,0.0,0.0,0.0,0.0,0.0,
247.412982,true,true,true,0.0,-1.0,0.015748031437397003,-0.0078125,false,false,false,false,0.0,0.0,0.0,0.0,false,false,false,false,0.0,12.0,0.0,0,0,0,2.75,12.0,0.0,0,0,0,2.625,12.0,0.0,0,0,0,1.0,12.0,0.0,0,0,0,0.0,12.1,0.0,0,0,0,0.125,12.05,0.0,0,0,0,kForward,0.0,0.0,0.0,0.0,0.0,0.0,0.0,0.0,0.0,0.0,0.0,
247.506301,true,true,true,0.0,-1.0,0.015748031437397003,-0.0078125,false,false,false,false,0.0,0.0,0.0,0.0,false,false,false,false,0.0,12.0,0.0,0,0,0,2.625,12.0,0.0,0,0,0,2.875,12.0,0.0,0,0,0,0.5,12.0,0.0,0,0,0,0.0,12.1,0.0,0,0,0,0.125,12.05,0.0,0,0,0,kForward,0.0,0.0,0.0,0.0,0.0,0.0,0.0,0.0,0.0,0.0,0.0,
247.573499,true,true,true,0.0,-1.0,0.015748031437397003,-0.0078125,false,false,false,false,0.0,0.0,0.0,0.0,false,false,false,false,0.0,12.0,0.0,0,0,0,2.75,12.0,0.0,0,0,0,2.5,12.0,0.0,0,0,0,0.5,12.0,0.0,0,0,0,0.0,12.1,0.0,0,0,0,0.125,12.05,0.0,0,0,0,kForward,0.0,0.0,0.0,0.0,0.0,0.0,0.0,0.0,0.0,0.0,0.0,
247.67274,true,true,true,0.0,-1.0,0.015748031437397003,-0.0078125,false,false,false,false,0.0,0.0,0.0,0.0,false,false,false,false,0.0,12.0,0.0,0,0,0,2.75,12.0,0.0,0,0,0,2.625,12.0,0.0,0,0,0,0.5,12.0,0.0,0,0,0,0.0,12.1,0.0,0,0,0,0.125,12.05,0.0,0,0,0,kForward,0.0,0.0,0.0,0.0,0.0,0.0,0.0,0.0,0.0,0.0,0.0,
247.746175,true,true,true,0.0,-1.0,0.015748031437397003,-0.0078125,false,false,false,false,0.0,0.0,0.0,0.0,false,false,false,false,0.0,12.0,0.0,0,0,0,2.75,12.0,0.0,0,0,0,2.625,12.0,0.0,0,0,0,0.5,12.0,0.0,0,0,0,0.0,12.1,0.0,0,0,0,0.125,12.05,0.0,0,0,0,kForward,0.0,0.0,0.0,0.0,0.0,0.0,0.0,0.0,0.0,0.0,0.0,
247.821792,true,true,true,0.0,-1.0,0.015748031437397003,-0.0078125,false,false,false,false,0.0,0.0,0.0,0.0,false,false,false,false,0.0,12.0,0.0,0,0,0,2.75,12.0,0.0,0,0,0,2.625,12.0,0.0,0,0,0,0.5,12.0,0.0,0,0,0,0.0,12.1,0.0,0,0,0,0.125,12.05,0.0,0,0,0,kForward,0.0,0.0,0.0,0.0,0.0,0.0,0.0,0.0,0.0,0.0,0.0,
247.90619099999998,true,true,true,0.0,-1.0,0.015748031437397003,-0.0078125,false,false,false,false,0.0,0.0,0.0,0.0,false,false,false,false,0.0,12.0,0.0,0,0,0,2.75,12.0,0.0,0,0,0,2.625,12.0,0.0,0,0,0,1.0,12.0,0.0,0,0,0,0.0,12.1,0.0,0,0,0,0.125,12.05,0.0,0,0,0,kForward,0.0,0.0,0.0,0.0,0.0,0.0,0.0,0.0,0.0,0.0,0.0,
247.98440899999997,true,true,true,0.0,-1.0,0.015748031437397003,-0.0078125,false,false,false,false,0.0,0.0,0.0,0.0,false,false,false,false,0.0,12.0,0.0,0,0,0,2.75,12.0,0.0,0,0,0,2.5,12.0,0.0,0,0,0,0.5,12.0,0.0,0,0,0,0.125,12.1,0.0,0,0,0,0.125,12.05,0.0,0,0,0,kForward,0.0,0.0,0.0,0.0,0.0,0.0,0.0,0.0,0.0,0.0,0.0,
248.078459,true,true,true,0.0,-1.0,0.015748031437397003,-0.0078125,false,false,false,false,0.0,0.0,0.0,0.0,false,false,false,false,0.0,12.0,0.0,0,0,0,2.75,12.0,0.0,0,0,0,2.625,12.0,0.0,0,0,0,0.5,12.0,0.0,0,0,0,0.0,12.05,0.0,0,0,0,0.125,12.05,0.0,0,0,0,kForward,0.0,0.0,0.0,0.0,0.0,0.0,0.0,0.0,0.0,0.0,0.0,
248.130337,true,true,true,0.0,-1.0,0.015748031437397003,-0.0078125,false,false,false,false,0.0,0.0,0.0,0.0,false,false,false,false,0.0,12.0,0.0,0,0,0,3.0,12.0,0.0,0,0,0,2.625,12.0,0.0,0,0,0,0.5,12.0,0.0,0,0,0,0.0,12.05,0.0,0,0,0,0.125,12.05,0.0,0,0,0,kForward,0.0,0.0,0.0,0.0,0.0,0.0,0.0,0.0,0.0,0.0,0.0,
248.188725,true,true,true,0.0,-1.0,0.015748031437397003,-0.0078125,false,false,false,false,0.0,0.0,0.0,0.0,false,false,false,false,0.0,12.0,0.0,0,0,0,2.75,12.0,0.0,0,0,0,2.5,12.0,0.0,0,0,0,0.5,12.0,0.0,0,0,0,0.0,12.05,0.0,0,0,0,0.125,12.05,0.0,0,0,0,kForward,0.0,0.0,0.0,0.0,0.0,0.0,0.0,0.0,0.0,0.0,0.0,
248.242879,true,true,true,0.0,-1.0,0.015748031437397003,-0.0078125,false,false,false,false,0.0,0.0,0.0,0.0,false,false,false,false,0.0,12.0,0.0,0,0,0,2.75,12.0,0.0,0,0,0,2.375,12.0,0.0,0,0,0,0.5,12.0,0.0,0,0,0,0.0,12.05,0.0,0,0,0,0.125,12.05,0.0,0,0,0,kForward,0.0,0.0,0.0,0.0,0.0,0.0,0.0,0.0,0.0,0.0,0.0,
